~VERSION INFORMATION
 VERS.                 2.0:   CWLS LOG ASCII STANDARD -VERSION 2.0
 WRAP.                  NO:   ONE LINE PER DEPTH STEP
~WELL INFORMATION BLOCK
#MNEM.UNIT           DATA                    DESCRIPTION OF MNEMONIC
#---------    -------------------            -------------------------------
# Generated from Intellog Unique Number	CW_82_90/WELL/3444
WELL.         SHERRIT LIEGE 10-34            : Well_name    - WELL
LOC .         00/10-34-089-20W4/0            : Location     - LOCATION
UWI .         00/10-34-089-20W4/0            : Uwi          - UNIQUE WELL ID
ENTR.         JJ                             : Entered      - ENTERED BY
SRVC.         WESTERN ATLAS                  : Scn          - SERVICE COMPANY
DATE.         13 FEB 89                      : Date         - LOG DATE
STRT.M        100                            : top_depth    - START DEPTH
STOP.M        240                            : bot_depth    - STOP DEPTH
STEP.M        0.25                           : increment    - STEP LENGTH
 NULL. -999.2500:NULL Value
~CURVE INFORMATION BLOCK
#MNEM UNIT       ERCB CURVE CODE    CURVE DESCRIPTION
#-----------   ------------------   ----------------------------------
DEPT.M        00 001 00 00         : DEPTH        - DEPTH
DPHI.V/V      00 890 00 00         : PHID         - DENSITY POROSITY (SANDSTONE)
NPHI.V/V      00 330 00 00         : PHIN         - NEUTRON POROSITY (SANDSTONE)
GR  .API      00 310 00 00         : GR           - GAMMA RAY
CALI.MM       00 280 01 00         : CAL          - CALIPER
ILD .OHMM     00 120 00 00         : RESD         - DEEP RESISTIVITY (DIL)
~PARAMETER INFORMATION
#MNEM.UNIT           DATA             DESCRIPTION OF MNEMONIC
#---------         -----------     ------------------------------
GL  .M        518.3                : gl           - GROUND LEVEL ELEVATION
EREF.M        522.6                : kb           - ELEVATION OF DEPTH REFERENCE
DATM.M        522.6                : datum        - DATUM ELEVATION
TDD .M        243.72               : tdd          - TOTAL DEPTH DRILLER
RUN .         ONE                  : Run          - RUN NUMBER
ENG .         TAMBLYN              : Engineer     - RECORDING ENGINEER
WIT .         WILLIAMS             : Witness      - WITNESSED BY
BASE.         MED. HAT             : Branch       - HOME BASE OF LOGGING UNIT
MUD .         GEL-CAUSTIC          : Mud_type     - MUD TYPE
MATR.         SANDSTONE            : Logunit      - NEUTRON MATRIX
TMAX.C        22                   : BHT          - MAXIMUM RECORDED TEMPERATURE
BHTD.M        243.5                : BHTDEP       - MAXIMUM RECORDED TEMPERATURE
RMT .C        15                   : MDTP         - TEMPERATURE OF MUD
MUDD.KG/M     1170                 : MWT          - MUD DENSITY
NEUT.         1                    : NEUTRON      - NEUTRON TYPE
RESI.         0                    : RESIST       - RESISTIVITY TYPE
RM  .OHMM     5.3                  : RM           - RESISTIVITY OF MUD
RMC .OHMM     5.3                  : RMC          - RESISTIVITY OF MUD CAKE
RMF .OHMM     5                    : RMF          - RESISTIVITY OF MUD FILTRATE
SUFT.C        5                    : SUFT         - SURFACE TEMPERATURE
~A  DEPTH     PHID     PHIN       GR      CAL     RESD
# ...
  209.500    0.224    0.388  102.350  158.760   12.748
  209.750    0.226    0.390  109.082  158.782   13.122
  210.000    0.223    0.388  109.648  158.404   13.459
  210.250    0.206    0.382  106.304  158.225   13.653
  210.500    0.118    0.374   97.711  158.448   13.720
  210.750    0.080    0.357   90.582  158.994   13.841
  211.000    0.194    0.369  100.855  159.216   13.911
  211.250    0.215    0.351  111.250  159.543   14.034
  211.500    0.149    0.324  104.855  159.572   14.098
  211.750    0.090    0.328   96.811  160.006   14.114
  212.000    0.203    0.351   97.374  160.943   13.929
  212.250    0.219    0.357  102.277  162.190   13.560
  212.500    0.223    0.365  107.297  162.417   12.798
  212.750    0.224    0.374  109.997  161.424   11.856
  213.000    0.226    0.363  113.065  159.821   11.044
  213.250    0.172    0.341  116.621  157.813   10.565
  213.500    0.150    0.338  108.455  156.617   10.533
  213.750    0.127    0.335  102.304  156.033   10.625
  214.000    0.187    0.350  101.160  155.345   10.877
  214.250    0.212    0.356  106.182  154.558   11.156
  214.500    0.224    0.347  112.305  154.683   11.170
  214.750    0.223    0.347  115.370  155.217   10.961
  215.000    0.215    0.339  120.574  156.770   11.139
  215.250    0.193    0.319  117.233  157.512   11.528
  215.500    0.209    0.330  110.288  156.213   12.202
  215.750    0.230    0.354  112.195  155.013   12.840
  216.000    0.230    0.362  112.698  154.025   13.824
  216.250    0.201    0.347  112.227  153.950   14.519
  216.500    0.184    0.325  112.973  153.871   15.772
  216.750    0.164    0.295  111.035  153.897   17.354
  217.000    0.077    0.270  104.091  154.026   19.849
  217.250    0.035    0.272   94.580  153.745   22.335
  217.500    0.123    0.293  103.815  153.868   22.441
  217.750    0.210    0.314  112.805  153.591   18.850
  218.000    0.228    0.327  120.576  153.921   15.171
  218.250    0.213    0.344  117.903  154.559   12.792
  218.500    0.210    0.364  116.025  155.497   11.961
  218.750    0.210    0.373  118.423  157.560   11.845
  219.000    0.215    0.373  124.178  160.433   12.056
  219.250    0.170    0.360  127.369  162.494   12.414
  219.500    0.109    0.338  119.505  162.624   12.613
  219.750    0.155    0.353  115.064  162.442   12.169
  220.000    0.185    0.366  123.080  162.165   11.190
  220.250    0.215    0.361  124.130  161.478    9.898
  220.500    0.182    0.353  122.193  161.095    8.803
  220.750    0.164    0.359  116.468  160.613    8.308
  221.000    0.181    0.353  114.714  160.025    8.716
  221.250    0.213    0.348  119.429  159.034    9.138
  221.500    0.216    0.350  117.796  157.841    9.457
  221.750    0.227    0.358  114.270  156.947    9.973
  222.000    0.233    0.356  114.348  155.955   10.458
  222.250    0.212    0.348  112.165  155.471   11.195
  222.500    0.186    0.355  116.941  154.687   11.714
  222.750    0.206    0.353  124.893  154.508   11.367
  223.000    0.111    0.329  126.069  154.536   10.767
  223.250    0.065    0.323  115.095  155.069   10.682
  223.500    0.142    0.341  117.612  157.028   10.617
  223.750    0.175    0.360  124.469  159.086   10.375
  224.000    0.213    0.370  128.392  160.431    9.195
  224.250    0.206    0.366  129.629  161.684    8.239
  224.500    0.208    0.362  128.663  162.317    7.821
  224.750    0.220    0.361  125.322  162.646    7.645
  225.000    0.226    0.363  126.679  162.772    7.584
  225.250    0.217    0.367  129.564  162.089    7.691
  225.500    0.206    0.372  130.190  161.501    7.963
  225.750    0.202    0.378  129.474  160.612    8.240
  226.000    0.200    0.375  126.741  159.618    8.819
  226.250    0.199    0.361  127.732  158.627    9.509
  226.500    0.107    0.334  124.696  157.124   10.289
  226.750    0.028    0.299  107.495  154.605   11.727
  227.000    0.105    0.294  104.333  153.616   13.972
  227.250    0.154    0.325  124.374  153.441   14.841
  227.500    0.200    0.344  126.710  153.769   13.750
  227.750    0.200    0.315  118.239  154.612   12.621
  228.000    0.147    0.327  110.317  155.446   11.933
  228.250    0.196    0.349  122.361  156.488   11.882
  228.500    0.215    0.353  126.772  157.737   11.918
  228.750    0.220    0.338  130.572  158.887   11.738
  229.000    0.216    0.326  124.543  159.519   11.492
  229.250    0.206    0.321  124.557  159.748   11.360
  229.500    0.195    0.317  124.391  159.465   11.608
  229.750    0.187    0.309  121.720  158.471   12.016
  230.000    0.112    0.298  118.009  158.193   12.577
  230.250    0.003    0.329  107.402  157.912   13.091
  230.500   -0.017    0.301   97.037  158.041   12.608
  230.750    0.096    0.322  101.509  156.539   11.342
  231.000    0.151    0.362  121.124  153.312   10.525
  231.250    0.210    0.373  128.037  151.911    9.865
  231.500    0.204    0.359  132.692  152.035   10.749
  231.750    0.261    0.329  121.901  156.641   13.488
  232.000    0.295    0.336  104.577  155.346   20.099
  232.250    0.297    0.351   90.001  153.741   31.721
  232.500    0.289    0.362   69.257  155.088   56.472
  232.750    0.267    0.367   63.596  155.828   63.760
  233.000    0.192    0.339   65.199  155.241   61.861
  233.250    0.122    0.301   63.077  154.455   49.700
  233.500    0.172    0.285   63.337  153.562   38.767
  233.750    0.208    0.318   79.042  153.083   26.567
  234.000    0.204    0.335   83.577  153.207   19.750
  234.250    0.187    0.320   85.669  153.434   15.288
  234.500    0.184    0.338   89.405  154.275   10.497
  234.750    0.200    0.365  100.045  156.540    8.575
  235.000    0.213    0.365  111.842  157.992    7.175
  235.250    0.216    0.366  122.176  158.421    6.359
  235.500    0.210    0.369  127.563  157.735    7.437
  235.750    0.190    0.326  120.315  157.352    9.315
  236.000    0.172    0.317  110.439  157.078   12.654
  236.250    0.204    0.321   99.952  157.097   16.448
  236.500    0.253    0.315   91.725  157.128   18.301
  236.750    0.273    0.323   85.392  157.352   20.023
  237.000    0.257    0.352   87.239  157.377   21.832
  237.250    0.249    0.333   85.972  157.713   22.769
  237.500    0.227    0.340   87.696  157.839   24.100
  237.750    0.189    0.331   88.382  158.171   25.643
  238.000    0.220    0.326   89.561  158.396   28.530
  238.250    0.237    0.330   89.329  158.628   32.697
  238.500    0.204    0.320   82.812  158.854   37.471
  238.750    0.260    0.312   83.803  158.882   43.905
  239.000    0.300    0.335   87.299  159.210   50.882
  239.250    0.291    0.361   87.924  158.931   56.724
  239.500    0.283    0.354   88.245  158.852   57.416
  239.750    0.281    0.362   88.141  158.269   46.989
  240.000    0.252    0.360   87.971  158.090   43.214
