~VERSION INFORMATION
 VERS.                 2.0:   CWLS LOG ASCII STANDARD -VERSION 2.0
 WRAP.                  NO:   ONE LINE PER DEPTH STEP
~WELL INFORMATION BLOCK
#MNEM.UNIT           DATA                    DESCRIPTION OF MNEMONIC
#---------    -------------------            -------------------------------
# Generated from Intellog Unique Number	CW_70_72/WELL/3029
NULL.         -999.25                        : NULL_VALUE
WELL.         CHIEFCO ET AL DANCING 11-12    : Well_name    - WELL              
LOC .         11-12-070-27W4                 : Location     - LOCATION          
UWI .         00/11-12-070-27W4/0            : Uwi          - UNIQUE WELL ID    
ENTR.         JAYE                           : Entered      - ENTERED BY        
SRVC.         SCHLUMBERGER                   : Scn          - SERVICE COMPANY   
DATE.         5 OCT 76                       : Date         - LOG DATE          
STRT.M        469.392                        : top_depth    - START DEPTH       
STOP.M        719.392                        : bot_depth    - STOP DEPTH        
STEP.M        0.25                           : increment    - STEP LENGTH       
~CURVE INFORMATION BLOCK
#MNEM UNIT       ERCB CURVE CODE    CURVE DESCRIPTION
#-----------   ------------------   ----------------------------------
DEPT.M        00 001 00 00         : DEPTH        - DEPTH                       
ILD .OHMM     00 120 00 00         : RESD         - DEEP RESISTIVITY (DIL)      
CALI.MM       00 280 01 00         : CAL          - CALIPER                     
GR  .API      00 310 00 00         : GR           - GAMMA RAY                   
NPHI.V/V      00 330 00 00         : PHIN         - NEUTRON POROSITY (SANDSTONE)
DPHI.V/V      00 890 00 00         : PHID         - DENSITY POROSITY (SANDSTONE)
~PARAMETER INFORMATION       
#MNEM.UNIT           DATA             DESCRIPTION OF MNEMONIC
#---------         -----------     ------------------------------
GL  .M        636.422              : gl           - GROUND LEVEL ELEVATION      
EREF.M        639.166              : kb           - ELEVATION OF DEPTH REFERENCE
DATM.M        636.422              : datum        - DATUM ELEVATION             
TDD .M        733.654              : tdd          - TOTAL DEPTH DRILLER         
RUN .         ONE                  : Run          - RUN NUMBER                  
ENG .         PAQUIN               : Engineer     - RECORDING ENGINEER          
WIT .         ERICKSON             : Witness      - WITNESSED BY                
BASE.         EDM                  : Branch       - HOME BASE OF LOGGING UNIT   
MUD .         GEL                  : Mud_type     - MUD TYPE                    
MATR.         SANDSTONE            : Logunit      - NEUTRON MATRIX              
TMAX.C        -17.7778             : BHT          - MAXIMUM RECORDED TEMPERATURE
BHTD.M        733.958              : BHTDEP       - MAXIMUM RECORDED TEMPERATURE
RMT .C        10.5556              : MDTP         - TEMPERATURE OF MUD          
MUDD.KG/M     1140                 : MWT          - MUD DENSITY                 
NEUT.         1                    : NEUTRON      - NEUTRON TYPE                
RESI.         0                    : RESIST       - RESISTIVITY TYPE            
RM  .OHMM     4.35                 : RM           - RESISTIVITY OF MUD          
RMC .OHMM     0.25                 : RMC          - RESISTIVITY OF MUD CAKE     
RMF .OHMM     3.86                 : RMF          - RESISTIVITY OF MUD FILTRATE 
SUFT.C        -17.7778             : SUFT         - SURFACE TEMPERATURE         
~A  DEPTH     RESD      CAL       GR     PHIN     PHID
# ...
  688.392    7.623  157.021   93.477    0.361    0.052
  688.642    7.061  156.546  100.753    0.397    0.116
  688.892    7.036  156.474   93.459    0.365    0.068
  689.142    7.381  156.410   84.958    0.336    0.057
  689.392    8.060  156.549   79.054    0.315    0.047
  689.642    8.658  156.887   72.787    0.256    0.026
  689.892    8.999  157.435   87.258    0.265    0.013
  690.142    8.725  158.189  102.334    0.343    0.058
  690.392    7.935  158.946  114.929    0.367    0.140
  690.642    6.731  159.795  121.361    0.394    0.159
  690.892    5.731  160.241  114.855    0.413    0.128
  691.142    5.466  159.768  108.346    0.429    0.102
  691.392    5.599  158.677   99.599    0.441    0.080
  691.642    6.092  157.383   90.916    0.412    0.056
  691.892    6.556  155.984   83.681    0.380    0.049
  692.142    6.978  154.591   76.023    0.346    0.126
  692.392    7.253  153.397   73.629    0.331    0.206
  692.642    7.361  152.819   78.909    0.326    0.214
  692.892    7.216  152.652   81.411    0.318    0.190
  693.142    6.933  152.585   80.584    0.308    0.160
  693.392    6.637  152.519   78.497    0.310    0.147
  693.642    6.434  152.454   77.422    0.316    0.164
  693.892    6.193  152.285   75.992    0.321    0.180
  694.142    5.983  152.625   80.248    0.321    0.160
  694.392    5.843  153.482   86.012    0.312    0.154
  694.642    5.718  155.360   91.415    0.298    0.140
  694.892    5.688  157.240   87.565    0.306    0.135
  695.142    5.773  155.331   78.700    0.324    0.120
  695.392    6.156  153.421   70.017    0.314    0.113
  695.642    6.214  152.741   63.990    0.303    0.093
  695.892    6.058  152.885   61.775    0.297    0.109
  696.142    5.693  153.642   68.812    0.313    0.170
  696.392    5.351  153.977   73.244    0.328    0.197
  696.642    5.029  154.426   76.349    0.323    0.192
  696.892    4.753  154.764   79.575    0.315    0.198
  697.142    4.719  155.005   82.014    0.315    0.197
  697.392    4.869  155.253   84.216    0.330    0.180
  697.642    5.193  155.394   87.138    0.339    0.164
  697.892    5.796  155.426   95.017    0.341    0.147
  698.142    6.295  155.459   95.946    0.336    0.135
  698.392    6.676  155.288   84.300    0.319    0.120
  698.642    6.677  155.331   72.409    0.305    0.107
  698.892    6.380  155.264   74.184    0.299    0.156
  699.142    6.107  155.295   80.494    0.306    0.168
  699.392    5.857  155.131   87.466    0.305    0.144
  699.642    5.637  155.167   94.078    0.308    0.120
  699.892    5.386  154.892   96.215    0.319    0.100
  700.142    5.090  154.520   87.776    0.326    0.094
  700.392    4.741  153.946   77.159    0.332    0.120
  700.642    4.399  153.573   71.311    0.318    0.145
  700.892    4.188  153.403   70.247    0.293    0.089
  701.142    4.189  153.441   83.265    0.274    0.075
  701.392    4.385  153.680   94.107    0.259    0.078
  701.642    4.763  154.122  100.779    0.280    0.077
  701.892    5.051  155.492  102.010    0.301    0.054
  702.142    5.318  157.061   98.646    0.323    0.071
  702.392    5.417  158.943   91.291    0.310    0.078
  702.642    4.954  158.771   83.634    0.303    0.082
  702.892    4.351  155.841   74.891    0.324    0.118
  703.142    3.752  153.112   66.809    0.342    0.178
  703.392    3.412  152.023   67.738    0.329    0.194
  703.642    3.225  153.292   71.206    0.325    0.185
  703.892    3.401  154.453   71.469    0.304    0.166
  704.142    3.867  156.130   69.738    0.274    0.134
  704.392    4.421  157.490   72.541    0.258    0.119
  704.642    4.836  158.248   78.122    0.272    0.110
  704.892    5.073  157.362   82.861    0.296    0.114
  705.142    4.964  156.371   87.418    0.309    0.116
  705.392    4.400  155.080   92.095    0.326    0.113
  705.642    4.105  154.497   95.922    0.329    0.061
  705.892    4.136  155.562  100.902    0.315    0.082
  706.142    4.355  156.824  104.611    0.297    0.100
  706.392    4.652  157.988  109.411    0.322    0.119
  706.642    4.783  158.227  114.572    0.342    0.084
  706.892    4.224  158.062  117.133    0.385    0.068
  707.142    3.590  157.486  108.626    0.408    0.067
  707.392    3.337  157.209   95.955    0.343    0.063
  707.642    3.644  156.940   97.243    0.300   -0.001
  707.892    3.958  156.876  106.393    0.284    0.007
  708.142    4.299  156.910  113.671    0.303    0.084
  708.392    4.694  157.255  119.920    0.331    0.109
  708.642    4.978  157.494  125.502    0.392    0.110
  708.892    5.053  158.353  126.671    0.408    0.096
  709.142    4.620  159.414  122.161    0.391    0.053
  709.392    3.941  160.271  116.135    0.376    0.023
  709.642    3.462  160.616  111.805    0.391    0.002
  709.892    3.160  160.852  116.846    0.408    0.038
  710.142    3.120  160.784  121.402    0.418    0.067
  710.392    3.476  161.024  125.352    0.423    0.058
  710.642    4.550  161.165  129.002    0.419    0.042
  710.892    4.773  161.199  129.082    0.386    0.072
  711.142    3.875  161.342  124.204    0.372    0.072
  711.392    3.175  161.371  118.121    0.378    0.040
  711.642    2.930  160.999  120.197    0.400    0.013
  711.892    2.846  160.523  132.131    0.422    0.061
  712.142    2.842  160.156  138.257    0.454    0.094
  712.392    2.964  160.288  133.017    0.433    0.060
  712.642    3.104  160.637  124.816    0.406    0.011
  712.892    3.268  161.076  123.085    0.373    0.010
  713.142    3.341  161.318  130.364    0.395    0.060
  713.392    3.378  161.151  134.191    0.424    0.072
  713.642    3.193  160.777  132.036    0.442    0.051
  713.892    3.164  160.203  125.588    0.435    0.030
  714.142    3.337  159.828  118.054    0.423    0.005
  714.392    3.302  159.050  112.938    0.447    0.080
  714.642    3.231  158.570  107.759    0.424    0.046
  714.892    3.173  158.297  103.186    0.389    0.034
  715.142    3.026  157.922  100.665    0.356    0.005
  715.392    2.539  157.655   97.001    0.347    0.042
  715.642    2.408  157.689   94.058    0.342    0.021
  715.892    2.783  157.827   91.903    0.351    0.001
  716.142    3.118  158.072   95.975    0.359    0.043
  716.392    3.468  158.719  102.889    0.347    0.055
  716.642    3.994  159.372  112.042    0.365    0.053
  716.892    4.182  159.303  109.522    0.434    0.050
  717.142    3.909  155.864   89.955    0.496    0.050
  717.392    3.365  154.257   49.047    0.520    0.058
  717.642    2.977  154.094   26.336    0.394    0.074
  717.892    3.192  154.842   21.218    0.348    0.093
  718.142    3.642  155.395   20.999    0.344    0.069
  718.392    4.218  155.324   21.623    0.358    0.071
  718.642    4.448  155.053   22.916    0.353    0.086
  718.892    4.531  155.192   24.508    0.344    0.084
  719.142    4.228  156.154   25.741    0.361    0.085
  719.392    3.660  156.389   25.460    0.393    0.102
