~VERSION INFORMATION
 VERS.                 2.0:   CWLS LOG ASCII STANDARD -VERSION 2.0
 WRAP.                  NO:   ONE LINE PER DEPTH STEP
~WELL INFORMATION BLOCK
#MNEM.UNIT           DATA                    DESCRIPTION OF MNEMONIC
#---------    -------------------            -------------------------------
# Generated from Intellog Unique Number	CC_80_83/WELL/2387
NULL.         -999.25                        : NULL_VALUE
WELL.         KASISER DIVIDE                 : Well_name    - WELL
LOC .         10-29-082-13W4                 : Location     - LOCATION          
UWI .         00/10-29-082-13W400            : Uwi          - UNIQUE WELL ID    
ENTR.         DW                             : Entered      - ENTERED BY        
SRVC.         SCHLUMBERGER                   : Scn          - SERVICE COMPANY   
DATE.         24 MAR 80                      : Date         - LOG DATE
STRT.M        95                             : top_depth    - START DEPTH       
STOP.M        379.997                        : bot_depth    - STOP DEPTH        
STEP.M        0.3                            : increment    - STEP LENGTH       
~CURVE INFORMATION BLOCK
#MNEM UNIT       ERCB CURVE CODE    CURVE DESCRIPTION
#-----------   ------------------   ----------------------------------
DEPT.M        00 001 00 00         : DEPTH        - DEPTH                       
DPHI.V/V      00 890 00 00         : PHID         - DENSITY POROSITY (LIMESTONE)
NPHI.V/V      00 330 00 00         : PHIN         - NEUTRON POROSITY (LIMESTONE)
GR  .API      00 310 00 00         : GR           - GAMMA RAY                   
ILD .OHMM     00 120 00 00         : RESD         - DEEP RESISTIVITY (DIL)      
~PARAMETER INFORMATION       
#MNEM.UNIT           DATA             DESCRIPTION OF MNEMONIC
#---------         -----------     ------------------------------
GL  .M        592.4                : gl           - GROUND LEVEL ELEVATION      
EREF.M        596.75               : kb           - ELEVATION OF DEPTH REFERENCE
DATM.M        596.75               : datum        - DATUM ELEVATION             
TDD .M        420                  : tdd          - TOTAL DEPTH DRILLER         
RUN .         ONE                  : Run          - RUN NUMBER                  
ENG .         BILL                 : Engineer     - RECORDING ENGINEER          
MUD .         GEL                  : Mud_type     - MUD TYPE                    
MATR.         LIMESTONE            : Logunit      - NEUTRON MATRIX              
TMAX.C        22                   : BHT          - MAXIMUM RECORDED TEMPERATURE
BHTD.M        420                  : BHTDEP       - MAXIMUM RECORDED TEMPERATURE
MATR.         1                    : LOGUNIT      - NEUTRON MATRIX              
RMT .C        25                   : MDTP         - TEMPERATURE OF MUD          
NEUT.         1                    : NEUTRON      - NEUTRON TYPE                
RESI.         0                    : RESIST       - RESISTIVITY TYPE            
RMC .OHMM     0.25                 : RMC          - RESISTIVITY OF MUD CAKE     
RMF .OHMM     0.25                 : RMF          - RESISTIVITY OF MUD FILTRATE 
SUFT.C        15                   : SUFT         - SURFACE TEMPERATURE         
~A  DEPTH     PHID     PHIN       GR     RESD
   95.000    0.332    0.546   92.412    2.168
   95.300    0.334    0.545   92.428    2.619
   95.600    0.337    0.553   93.062    3.679
   95.900    0.340    0.556   93.078    4.121
   96.200    0.338    0.550   92.478    4.200
   96.500    0.325    0.521   93.118    4.201
   96.800    0.306    0.520   93.748    4.123
   97.100    0.338    0.526   95.632    4.202
   97.400    0.342    0.536   98.135    4.203
   97.700    0.333    0.553   99.393    4.284
   98.000    0.331    0.525  100.651    4.284
   98.300    0.333    0.498  100.046    4.204
   98.600    0.336    0.519   98.200    4.126
   98.900    0.329    0.538  100.077    4.050
   99.200    0.325    0.555  101.336    4.050
   99.500    0.312    0.569  100.110    4.128
   99.800    0.299    0.584   98.259    4.207
  100.100    0.310    0.593   96.410    4.370
  100.400    0.317    0.597   95.188    4.454
  100.700    0.322    0.576   94.580    4.539
  101.000    0.327    0.555   92.731    4.626
  101.300    0.330    0.544   90.880    4.540
  101.600    0.332    0.555   89.030    4.373
  101.900    0.333    0.586   89.046    4.211
  102.200    0.348    0.608   90.306    3.906
  102.500    0.359    0.598   89.078    3.833
  102.800    0.360    0.576   89.095    3.692
  103.100    0.367    0.557   91.602    3.623
  103.400    0.379    0.540   92.243    3.556
  103.700    0.363    0.538   92.251    3.556
  104.000    0.351    0.557   92.269    3.625
  104.300    0.340    0.536   92.283    3.625
  104.600    0.324    0.541   94.785    3.625
  104.900    0.323    0.558  100.403    3.492
  105.200    0.351    0.587  101.034    3.363
  105.500    0.350    0.600  101.672    3.363
  105.800    0.345    0.579  101.688    3.364
  106.100    0.332    0.572   99.841    3.364
  106.400    0.318    0.568   95.505    3.429
  106.700    0.319    0.563   91.168    3.429
  107.000    0.318    0.553   86.211    3.562
  107.300    0.325    0.534   85.605    3.770
  107.600    0.318    0.510   91.838    4.222
  107.900    0.321    0.495   96.213    4.819
  108.200    0.321    0.486   97.465    5.198
  108.500    0.309    0.470   99.348    5.399
  108.800    0.294    0.455  102.470    5.607
  109.100    0.283    0.441  108.708    5.715
  109.400    0.303    0.446  113.076    5.716
  109.700    0.322    0.481  115.573    5.402
  110.000    0.322    0.500  118.076    4.734
  110.300    0.326    0.511  112.497    4.227
  110.600    0.331    0.538  108.784    3.847
  110.900    0.331    0.560  106.935    3.636
  111.200    0.315    0.542  107.573    3.637
  111.500    0.307    0.490  109.454    3.777
  111.800    0.317    0.494  111.334    4.151
  112.100    0.340    0.502  111.972    4.394
  112.400    0.355    0.512  111.367    4.478
  112.700    0.327    0.523  110.760    4.564
  113.000    0.322    0.532  107.671    4.479
  113.300    0.323    0.539  103.955    4.154
  113.600    0.312    0.545  103.352    3.710
  113.900    0.317    0.549  103.989    3.573
  114.200    0.303    0.556  104.628    3.506
  114.500    0.318    0.557  106.506    3.441
  114.800    0.308    0.550  112.117    3.378
  115.100    0.301    0.544  116.486    3.378
  115.400    0.296    0.541  114.015    3.443
  115.700    0.291    0.547  109.682    3.443
  116.000    0.303    0.574  108.453    3.316
  116.300    0.293    0.600  107.845    3.317
  116.600    0.291    0.614  109.725    3.255
  116.900    0.303    0.594  111.613    3.256
  117.200    0.308    0.585  112.867    3.381
  117.500    0.312    0.579  114.750    3.446
  117.800    0.300    0.569  106.682    3.447
  118.100    0.287    0.502  104.837    3.383
  118.400    0.288    0.493  106.715    3.383
  118.700    0.297    0.489  110.464    3.320
  119.000    0.309    0.515  112.966    3.321
  119.300    0.318    0.542  114.224    3.384
  119.600    0.321    0.554  113.616    3.385
  119.900    0.295    0.525  113.013    3.385
  120.200    0.312    0.527  113.026    3.450
  120.500    0.321    0.524  110.559    3.652
  120.800    0.326    0.509  107.463    3.652
  121.100    0.328    0.497  101.264    3.585
  121.400    0.317    0.509   91.334    3.585
  121.700    0.304    0.522   85.131    3.654
  122.000    0.312    0.523   59.037    3.941
  122.300    0.315    0.514   49.106    4.584
  122.600    0.302    0.494   41.662    5.433
  122.900    0.185    0.417   30.488   10.131
  123.200    0.193    0.392   26.154   13.966
  123.500    0.225    0.375   31.143   17.519
  123.800    0.278    0.356   39.240   20.766
  124.100    0.349    0.338   46.717   22.399
  124.400    0.292    0.345   50.465   20.773
  124.700    0.281    0.380   51.107   19.265
  125.000    0.310    0.380   52.981   17.204
  125.300    0.268    0.379   57.973   15.076
  125.600    0.136    0.390   59.232   13.464
  125.900    0.158    0.409   59.869    8.889
  126.200    0.271    0.448   69.831    7.361
  126.500    0.275    0.430   82.902    7.225
  126.800    0.287    0.410   84.165    6.958
  127.100    0.292    0.450   82.938    6.453
  127.400    0.266    0.465   82.953    5.872
  127.700    0.259    0.469   85.455    5.050
  128.000    0.266    0.485   94.171    4.773
  128.300    0.272    0.509   96.678    4.597
  128.600    0.274    0.496   93.583    4.597
  128.900    0.276    0.475   91.743    4.512
  129.200    0.272    0.472   91.751    4.345
  129.500    0.265    0.478   94.255    4.030
  129.800    0.254    0.502   94.271    3.881
  130.100    0.251    0.502   94.286    3.955
  130.400    0.268    0.497   93.056    4.187
  130.700    0.272    0.525   88.722    4.187
  131.000    0.282    0.542   90.606    4.109
  131.300    0.265    0.536   94.349    4.033
  131.600    0.255    0.525   97.472    3.884
  131.900    0.257    0.510   99.976    4.034
  132.200    0.274    0.510   98.750    4.112
  132.500    0.263    0.537   90.683    4.191
  132.800    0.262    0.535   93.809    4.271
  133.100    0.279    0.520  101.285    4.192
  133.400    0.285    0.543  100.055    4.192
  133.700    0.289    0.536   96.342    4.114
  134.000    0.275    0.514  101.333    4.038
  134.300    0.263    0.507  106.320    3.889
  134.600    0.266    0.522  103.854    3.745
  134.900    0.274    0.554  103.247    3.607
  135.200    0.277    0.558  106.372    3.540
  135.500    0.269    0.554  103.899    3.409
  135.800    0.263    0.570   98.941    3.346
  136.100    0.263    0.562   96.470    3.284
  136.400    0.262    0.556   97.109    3.223
  136.700    0.262    0.567  101.474    3.285
  137.000    0.263    0.566  102.735    3.285
  137.300    0.270    0.535  100.265    3.286
  137.600    0.281    0.522   94.686    3.286
  137.900    0.268    0.534   94.701    3.287
  138.200    0.260    0.555   98.448    3.287
  138.500    0.263    0.538   97.221    3.288
  138.800    0.266    0.529   95.370    3.288
  139.100    0.268    0.540   94.144    3.289
  139.400    0.269    0.545   93.538    3.289
  139.700    0.253    0.540   96.043    3.228
  140.000    0.243    0.561   94.814    3.168
  140.300    0.249    0.549   97.317    3.109
  140.600    0.261    0.524   92.985    3.169
  140.900    0.270    0.530   89.891    3.169
  141.200    0.267    0.544   90.528    3.230
  141.500    0.262    0.512   93.032    3.231
  141.800    0.271    0.493   93.050    3.293
  142.100    0.286    0.514   93.681    3.293
  142.400    0.277    0.538   96.188    3.294
  142.700    0.283    0.558   97.446    3.294
  143.000    0.289    0.527   96.840    3.233
  143.300    0.274    0.556   92.504    3.173
  143.600    0.263    0.575   87.546    3.173
  143.900    0.262    0.557   83.209    3.296
  144.201    0.265    0.536   83.226    3.423
  144.501    0.266    0.531   86.972    3.834
  144.801    0.256    0.520   90.096    3.908
  145.101    0.261    0.504   89.493    3.763
  145.401    0.272    0.511   87.020    3.624
  145.701    0.286    0.514   88.280    3.557
  146.001    0.294    0.510   90.160    3.299
  146.301    0.280    0.510   91.419    3.238
  146.601    0.274    0.526   93.301    2.732
  146.901    0.278    0.545   94.561    2.631
