~VERSION INFORMATION
 VERS.                 2.0:   CWLS LOG ASCII STANDARD -VERSION 2.0
 WRAP.                  NO:   ONE LINE PER DEPTH STEP
~WELL INFORMATION BLOCK
#MNEM.UNIT           DATA                    DESCRIPTION OF MNEMONIC
#---------    -------------------            -------------------------------
# Generated from Intellog Unique Number	CS_67_68/WELL/2196
WELL.         10-28-067-03W4                 : Well_name    - WELL
LOC .         00/10-28-067-03W4/0            : Location     - LOCATION
UWI .         00/10-28-067-03W4/0            : Uwi          - UNIQUE WELL ID
ENTR.         SP                             : Entered      - ENTERED BY
SRVC.         SCHLUMBERGER                   : Scn          - SERVICE COMPANY
STRT.M        335                            : top_depth    - START DEPTH
STOP.M        560                            : bot_depth    - STOP DEPTH
STEP.M        0.25                           : increment    - STEP LENGTH
 NULL. -999.2500:NULL Value
~CURVE INFORMATION BLOCK
#MNEM UNIT       ERCB CURVE CODE    CURVE DESCRIPTION
#-----------   ------------------   ----------------------------------
DEPT.M        00 001 00 00         : DEPTH        - DEPTH
ILD .OHMM     00 120 00 00         : RESD         - DEEP RESISTIVITY (DIL)
DPHI.V/V      00 890 00 00         : PHID         - DENSITY POROSITY (LIMESTONE)
NPHI.V/V      00 330 00 00         : PHIN         - NEUTRON POROSITY (LIMESTONE)
GR  .API      00 310 00 00         : GR           - GAMMA RAY
CALI.MM       00 280 01 00         : CAL          - CALIPER
~PARAMETER INFORMATION
#MNEM.UNIT           DATA             DESCRIPTION OF MNEMONIC
#---------         -----------     ------------------------------
GL  .M        678.88               : gl           - GROUND LEVEL ELEVATION
EREF.M        682.54               : kb           - ELEVATION OF DEPTH REFERENCE
DATM.M        682.54               : datum        - DATUM ELEVATION
TDD .M        573                  : tdd          - TOTAL DEPTH DRILLER
RUN .         ONE                  : Run          - RUN NUMBER
ENG .         BILL                 : Engineer     - RECORDING ENGINEER
WIT .         JIM                  : Witness      - WITNESSED BY
MUD .         GEL                  : Mud_type     - MUD TYPE
MATR.         LIMESTONE            : Logunit      - NEUTRON MATRIX
TMAX.C        18                   : BHT          - MAXIMUM RECORDED TEMPERATURE
BHTD.M        572.4                : BHTDEP       - MAXIMUM RECORDED TEMPERATURE
MATR.         1                    : LOGUNIT      - NEUTRON MATRIX
RMT .C        25                   : MDTP         - TEMPERATURE OF MUD
NEUT.         1                    : NEUTRON      - NEUTRON TYPE
RESI.         0                    : RESIST       - RESISTIVITY TYPE
RMC .OHMM     0.25                 : RMC          - RESISTIVITY OF MUD CAKE
RMF .OHMM     0.25                 : RMF          - RESISTIVITY OF MUD FILTRATE
SUFT.C        15                   : SUFT         - SURFACE TEMPERATURE
~A  DEPTH     RESD     PHID     PHIN       GR      CAL
# ...
  517.500    5.736    0.330    0.397   58.877  202.922
  517.750    5.704    0.327    0.391   56.689  203.438
  518.000    5.661    0.329    0.389   56.574  203.653
  518.250    5.629    0.331    0.391   58.408  203.764
  518.500    5.555    0.329    0.393   61.278  204.082
  518.750    5.523    0.326    0.395   64.574  204.292
  519.000    5.512    0.323    0.400   68.663  204.302
  519.250    5.554    0.325    0.401   71.593  204.213
  519.500    5.627    0.328    0.396   74.341  203.920
  519.750    5.744    0.324    0.384   76.053  203.725
  520.000    6.009    0.306    0.378   76.120  203.534
  520.250    6.393    0.279    0.369   69.059  203.238
  520.500    6.840    0.246    0.350   66.750  203.554
  520.750    7.500    0.214    0.322   74.982  204.985
  521.000    7.919    0.180    0.298   99.663  208.449
  521.250    8.191    0.204    0.344  100.949  210.185
  521.500    8.362    0.237    0.378   95.533  208.368
  521.750    8.472    0.261    0.413  105.165  206.043
  522.000    8.283    0.234    0.448  123.815  205.851
  522.250    7.344    0.219    0.485  126.502  206.571
  522.500    6.548    0.269    0.499  101.650  205.465
  522.750    5.871    0.295    0.463   67.903  203.039
  523.000    5.601    0.315    0.417   48.474  201.831
  523.250    5.559    0.325    0.392   38.123  201.841
  523.500    5.632    0.330    0.371   42.272  202.359
  523.750    5.859    0.302    0.361   49.529  203.081
  524.000    6.129    0.261    0.356   58.857  203.497
  524.250    6.472    0.243    0.347   68.246  204.323
  524.500    6.950    0.224    0.340   76.172  205.143
  524.750    7.339    0.196    0.356   88.120  206.474
  525.000    7.634    0.173    0.409  104.089  208.008
  525.250    7.764    0.160    0.428  110.614  209.135
  525.500    7.837    0.162    0.416  105.381  208.942
  525.750    7.866    0.173    0.401   94.726  208.647
  526.000    7.910    0.187    0.376   88.273  208.353
  526.250    7.910    0.196    0.366   88.036  208.262
  526.500    7.894    0.182    0.386   91.394  208.375
  526.750    7.864    0.167    0.403   96.762  208.996
  527.000    7.805    0.156    0.426  100.118  209.310
  527.250    7.775    0.150    0.442  100.003  209.727
  527.500    7.760    0.161    0.427   96.416  210.143
  527.750    7.760    0.160    0.407   91.668  210.153
  528.000    7.788    0.140    0.396   85.338  209.657
  528.250    7.759    0.134    0.391   81.324  209.058
  528.500    7.715    0.159    0.388   81.940  208.053
  528.750    7.700    0.178    0.384   82.008  207.351
  529.000    7.816    0.194    0.380   81.891  206.653
  529.250    7.979    0.194    0.381   82.019  206.155
  529.500    8.206    0.206    0.370   81.538  205.860
  529.750    8.346    0.217    0.362   80.143  205.464
  530.000    8.393    0.206    0.369   77.956  205.172
  530.250    8.361    0.193    0.371   74.368  205.181
  530.500    8.345    0.209    0.365   70.962  205.294
  530.750    8.281    0.224    0.362   65.851  205.303
  531.000    8.235    0.239    0.370   61.532  205.213
  531.250    8.081    0.263    0.378   57.700  204.918
  531.500    7.782    0.279    0.385   54.293  204.828
  531.750    7.286    0.286    0.384   47.598  204.535
  532.000    6.809    0.279    0.381   42.547  204.442
  532.250    6.582    0.273    0.372   45.417  204.147
  532.500    6.423    0.280    0.362   47.434  204.158
  532.750    6.398    0.283    0.360   48.354  204.371
  533.000    6.483    0.281    0.365   45.741  204.383
  533.250    6.581    0.280    0.366   43.127  204.392
  533.500    6.630    0.275    0.372   41.244  204.200
  533.750    6.642    0.279    0.369   39.545  204.110
  534.000    6.629    0.285    0.363   37.968  203.816
  534.250    6.579    0.289    0.358   37.182  203.521
  534.500    6.542    0.294    0.348   39.626  203.532
  534.750    6.456    0.297    0.349   41.641  203.238
  535.000    6.407    0.290    0.362   43.902  203.147
  535.250    6.371    0.290    0.371   41.898  203.055
  535.500    6.299    0.303    0.384   36.116  203.069
  535.750    6.228    0.317    0.391   30.456  203.179
  536.000    6.158    0.324    0.391   34.667  203.190
  536.250    6.065    0.325    0.381   35.404  203.300
  536.500    5.963    0.323    0.383   34.923  203.615
  536.750    5.841    0.318    0.382   34.868  204.031
  537.000    5.786    0.315    0.378   35.241  203.942
  537.250    5.721    0.329    0.383   34.759  203.953
  537.500    5.678    0.331    0.388   35.618  204.368
  537.750    5.677    0.313    0.390   41.473  204.584
  538.000    5.752    0.292    0.377   56.163  204.796
  538.250    5.872    0.254    0.369   71.766  204.604
  538.500    6.142    0.212    0.390   80.302  204.410
  538.750    6.365    0.187    0.405   85.975  204.521
  539.000    6.671    0.169    0.402   89.819  205.040
  539.250    6.888    0.160    0.394   92.506  205.864
  539.500    7.071    0.170    0.398   88.431  207.091
  539.750    7.191    0.176    0.397   90.508  208.525
  540.000    7.313    0.176    0.394   94.475  208.839
  540.250    7.368    0.184    0.410   84.124  208.139
  540.500    7.437    0.205    0.426   75.844  207.134
  540.750    7.521    0.230    0.429   64.761  206.331
  541.000    7.507    0.254    0.419   57.030  205.226
  541.250    7.436    0.286    0.409   66.358  204.829
  541.500    7.325    0.266    0.415   77.393  204.840
  541.750    7.107    0.220    0.427   82.333  205.155
  542.000    6.909    0.191    0.412   84.716  205.673
  542.250    6.818    0.180    0.400   84.966  206.394
  542.500    6.869    0.183    0.396   86.861  207.523
  542.750    6.960    0.175    0.399   89.487  208.446
  543.000    7.132    0.170    0.407   87.788  209.168
  543.250    7.308    0.180    0.419   81.884  209.685
  543.500    7.460    0.200    0.401   76.773  210.001
  543.750    7.658    0.207    0.390   79.703  210.013
  544.000    7.833    0.201    0.386   84.279  210.226
  544.250    7.951    0.196    0.388   88.306  210.439
  544.500    8.071    0.182    0.382   92.334  210.653
  544.750    8.254    0.167    0.376   94.655  210.561
  545.000    8.316    0.184    0.393   92.834  210.674
  545.250    8.316    0.194    0.416   90.768  210.685
  545.500    8.222    0.205    0.420   86.449  210.695
  545.750    8.129    0.195    0.406   90.050  210.503
  546.000    7.903    0.179    0.396   93.225  210.106
  546.250    7.726    0.166    0.388   84.579  209.507
  546.500    7.668    0.192    0.409   77.762  209.112
  546.750    7.668    0.204    0.426   78.438  208.716
  547.000    7.567    0.206    0.411   84.598  208.828
  547.250    7.566    0.180    0.394   90.514  209.854
  547.500    7.609    0.171    0.380   95.578  210.981
  547.750    7.680    0.167    0.374   98.020  211.601
  548.000    7.680    0.169    0.381   95.712  211.714
  548.250    7.665    0.202    0.389   73.967  211.115
  548.500    7.621    0.223    0.388   73.608  210.211
  548.750    7.592    0.234    0.390   75.990  209.208
  549.000    7.521    0.231    0.402   61.192  208.505
  549.250    7.353    0.251    0.414   50.597  207.602
  549.500    7.148    0.326    0.423   41.891  206.800
  549.750    6.768    0.341    0.416   40.740  205.999
  550.000    6.373    0.344    0.411   39.893  205.501
  550.250    6.091    0.344    0.407   39.839  205.105
  550.500    5.746    0.345    0.406   39.845  204.912
  550.750    5.441    0.346    0.407   39.546  204.924
  551.000    5.037    0.350    0.416   39.431  204.528
  551.250    4.788    0.354    0.423   39.010  204.132
  551.500    4.663    0.357    0.389   37.128  203.736
  551.750    4.645    0.353    0.383   37.195  203.647
  552.000    4.645    0.351    0.391   38.664  203.757
  552.250    4.636    0.355    0.409   39.523  203.666
  552.500    4.618    0.359    0.414   37.519  203.677
  552.750    4.601    0.356    0.402   35.210  203.687
  553.000    4.574    0.354    0.398   34.059  203.596
  553.250    4.583    0.352    0.415   35.222  203.505
  553.500    4.608    0.353    0.423   36.935  203.718
  553.750    4.661    0.355    0.425   36.575  203.628
