~VERSION INFORMATION
 VERS.                 2.0:   CWLS LOG ASCII STANDARD -VERSION 2.0
 WRAP.                  NO:   ONE LINE PER DEPTH STEP
~WELL INFORMATION BLOCK
#MNEM.UNIT           DATA                    DESCRIPTION OF MNEMONIC
#---------    -------------------            -------------------------------
# Generated from Intellog Unique Number	CW_82_90/WELL/3444
WELL.         SHERRIT LIEGE 10-34            : Well_name    - WELL
LOC .         00/10-34-089-20W4/0            : Location     - LOCATION
UWI .         00/10-34-089-20W4/0            : Uwi          - UNIQUE WELL ID
ENTR.         JJ                             : Entered      - ENTERED BY
SRVC.         WESTERN ATLAS                  : Scn          - SERVICE COMPANY
DATE.         13 FEB 89                      : Date         - LOG DATE
STRT.M        100                            : top_depth    - START DEPTH
STOP.M        240                            : bot_depth    - STOP DEPTH
STEP.M        0.25                           : increment    - STEP LENGTH
 NULL. -999.2500:NULL Value
~CURVE INFORMATION BLOCK
#MNEM UNIT       ERCB CURVE CODE    CURVE DESCRIPTION
#-----------   ------------------   ----------------------------------
DEPT.M        00 001 00 00         : DEPTH        - DEPTH
DPHI.V/V      00 890 00 00         : PHID         - DENSITY POROSITY (SANDSTONE)
NPHI.V/V      00 330 00 00         : PHIN         - NEUTRON POROSITY (SANDSTONE)
GR  .API      00 310 00 00         : GR           - GAMMA RAY
CALI.MM       00 280 01 00         : CAL          - CALIPER
ILD .OHMM     00 120 00 00         : RESD         - DEEP RESISTIVITY (DIL)
~PARAMETER INFORMATION
#MNEM.UNIT           DATA             DESCRIPTION OF MNEMONIC
#---------         -----------     ------------------------------
GL  .M        518.3                : gl           - GROUND LEVEL ELEVATION
EREF.M        522.6                : kb           - ELEVATION OF DEPTH REFERENCE
DATM.M        522.6                : datum        - DATUM ELEVATION
TDD .M        243.72               : tdd          - TOTAL DEPTH DRILLER
RUN .         ONE                  : Run          - RUN NUMBER
ENG .         TAMBLYN              : Engineer     - RECORDING ENGINEER
WIT .         WILLIAMS             : Witness      - WITNESSED BY
BASE.         MED. HAT             : Branch       - HOME BASE OF LOGGING UNIT
MUD .         GEL-CAUSTIC          : Mud_type     - MUD TYPE
MATR.         SANDSTONE            : Logunit      - NEUTRON MATRIX
TMAX.C        22                   : BHT          - MAXIMUM RECORDED TEMPERATURE
BHTD.M        243.5                : BHTDEP       - MAXIMUM RECORDED TEMPERATURE
RMT .C        15                   : MDTP         - TEMPERATURE OF MUD
MUDD.KG/M     1170                 : MWT          - MUD DENSITY
NEUT.         1                    : NEUTRON      - NEUTRON TYPE
RESI.         0                    : RESIST       - RESISTIVITY TYPE
RM  .OHMM     5.3                  : RM           - RESISTIVITY OF MUD
RMC .OHMM     5.3                  : RMC          - RESISTIVITY OF MUD CAKE
RMF .OHMM     5                    : RMF          - RESISTIVITY OF MUD FILTRATE
SUFT.C        5                    : SUFT         - SURFACE TEMPERATURE
~A  DEPTH     PHID     PHIN       GR      CAL     RESD
# ...
  173.000    0.229    0.351  106.291  161.556    7.234
  173.250    0.230    0.372  106.306  162.091    7.407
  173.500    0.244    0.369  103.452  161.101    7.680
  173.750    0.256    0.348  101.514  159.394    8.069
  174.000    0.289    0.347   87.668  157.588    8.524
  174.250    0.260    0.357   81.885  155.177    9.074
  174.500    0.260    0.349   85.442  153.774    9.442
  174.750    0.301    0.370   80.022  152.680   10.049
  175.000    0.291    0.401   69.536  152.096   10.754
  175.250    0.244    0.361   75.842  152.118   11.447
  175.500    0.267    0.362   78.297  152.757   11.762
  175.750    0.291    0.370   82.952  153.899   11.755
  176.000    0.305    0.361   85.719  155.354   11.791
  176.250    0.283    0.354   84.509  156.696   12.387
  176.500    0.248    0.333   83.793  158.046   13.707
  176.750    0.197    0.208   81.609  158.986   17.009
  177.000    0.039    0.177   76.497  160.139   21.822
  177.250    0.022    0.173   68.452  160.768   27.175
  177.500    0.037    0.240   70.300  160.084   34.872
  177.750    0.137    0.249   70.010  157.672   42.014
  178.000    0.254    0.239   64.835  158.403   47.694
  178.250    0.268    0.258   67.780  160.874   32.807
  178.500    0.225    0.302   68.897  162.526   25.634
  178.750    0.171    0.266   69.767  163.876   19.737
  179.000    0.192    0.341   90.662  164.613   15.623
  179.250    0.210    0.348  100.017  164.433   14.583
  179.500    0.173    0.346  102.719  163.439   14.148
  179.750    0.135    0.340   90.157  161.330   14.010
  180.000    0.146    0.349   96.644  159.725   13.979
  180.250    0.221    0.362  101.912  159.749   14.123
  180.500    0.243    0.371  103.879  161.912   13.652
  180.750    0.236    0.361  106.519  163.468   12.508
  181.000    0.234    0.345  104.581  162.267   11.334
  181.250    0.230    0.333  107.221  160.972   10.252
  181.500    0.209    0.368  103.270  160.692    9.964
  181.750    0.120    0.351   95.652  162.351    9.939
  182.000    0.108    0.340   92.186  164.510   10.348
  182.250    0.215    0.367  102.765  167.583   10.749
  182.500    0.232    0.375  111.389  170.158   11.356
  182.750    0.236    0.369  111.833  169.774   11.888
  183.000    0.240    0.351  110.139  166.953   12.260
  183.250    0.244    0.335  108.503  164.635   12.884
  183.500    0.257    0.343  104.489  162.218   13.459
  183.750    0.222    0.331   96.078  160.007   14.270
  184.000    0.144    0.304   93.897  158.301   15.584
  184.250    0.097    0.282   94.217  157.002   17.307
  184.500    0.135    0.299   94.597  155.907   18.493
  184.750    0.244    0.317   97.790  155.530   18.930
  185.000    0.263    0.332   97.683  156.366   18.333
  185.250    0.279    0.338   95.072  157.716   16.427
  185.500    0.278    0.328   95.638  158.965   15.218
  185.750    0.260    0.318  102.917  158.986   14.632
  186.000    0.247    0.316  106.842  158.909   14.251
  186.250    0.237    0.329  104.229  158.530   14.132
  186.500    0.234    0.348  106.565  158.353   13.974
  186.750    0.243    0.331  112.440  158.582   13.959
  187.000    0.249    0.323  112.884  160.235   13.801
  187.250    0.247    0.318  102.095  162.297   13.871
  187.500    0.233    0.310   96.981  163.444   14.094
  187.750    0.176    0.304   88.752  163.769   14.481
  188.000    0.186    0.288   81.441  162.677   15.267
  188.250    0.213    0.312   88.417  160.973   16.098
  188.500    0.238    0.327   94.111  159.570   16.329
  188.750    0.246    0.353   93.881  160.106   15.734
  189.000    0.229    0.362  105.190  161.353   15.293
  189.250    0.196    0.321  109.175  163.719   14.944
  189.500    0.169    0.299   97.163  164.965   14.233
  189.750    0.206    0.331   98.827  162.853   13.386
  190.000    0.245    0.371  102.811  159.931   12.888
  190.250    0.262    0.388  104.901  158.628   11.511
  190.500    0.269    0.411  103.756  157.841   10.817
  190.750    0.213    0.412   99.131  157.359    9.588
  191.000    0.166    0.401  101.529  158.196    8.326
  191.250    0.184    0.390  110.211  158.942    6.876
  191.500    0.229    0.427  117.492  159.165    5.140
  191.750    0.258    0.422  118.791  159.494    4.285
  192.000    0.243    0.399  115.082  159.826    5.378
  192.250    0.241    0.387  109.418  160.054    6.300
  192.500    0.215    0.371  101.437  160.389    7.879
  192.750    0.142    0.350  101.207  160.516    9.128
  193.000    0.090    0.330   94.263  160.846   11.222
  193.250    0.116    0.311   84.752  161.380   13.201
  193.500    0.167    0.332   90.384  162.524   12.880
  193.750    0.230    0.343  101.757  163.363   12.449
  194.000    0.205    0.346  101.468  164.005   11.665
  194.250    0.188    0.367  103.496  164.024   11.094
  194.500    0.188    0.381  102.779  163.845   10.897
  194.750    0.206    0.379  102.305  163.569   10.672
  195.000    0.228    0.369  108.304  162.879   10.624
  195.250    0.243    0.345  113.509  161.276   11.001
  195.500    0.251    0.321  103.268  159.468   11.534
  195.750    0.257    0.328   99.985  157.764   12.596
  196.000    0.246    0.330   98.475  157.083   13.834
  196.250    0.239    0.326   95.317  157.001   15.198
  196.500    0.246    0.325   95.392  156.826   16.173
  196.750    0.253    0.320   94.124  156.443   17.181
  197.000    0.259    0.307   91.213  155.249   18.290
  197.250    0.229    0.297   87.688  153.851   18.892
  197.500    0.211    0.292   85.381  153.772   20.444
  197.750    0.207    0.286   82.708  153.795   22.753
  198.000    0.203    0.271   78.631  154.336   24.343
  198.250    0.182    0.262   73.580  154.356   27.389
  198.500    0.061    0.254   68.162  154.175   30.584
  198.750    0.085    0.242   64.637  154.713   33.839
  199.000    0.187    0.271   66.665  156.369   30.830
  199.250    0.243    0.299   73.090  157.917   17.689
  199.500    0.291    0.325   79.580  159.475   13.621
  199.750    0.285    0.352   84.782  159.392   14.472
  200.000    0.270    0.350   87.423  158.197   15.980
  200.250    0.241    0.330   79.808  155.983   17.779
  200.500    0.158    0.343   72.558  153.771   19.673
  200.750    0.167    0.335   73.731  152.981   21.212
  201.000    0.230    0.338   77.288  152.396   21.871
  201.250    0.258    0.346   86.401  154.150   20.113
  201.500    0.278    0.335   88.861  156.414   18.393
  201.750    0.258    0.304   87.286  157.563   18.659
  202.000    0.224    0.275   84.494  157.281   20.152
  202.250    0.172    0.257   81.455  155.682   24.915
  202.500    0.107    0.238   74.816  154.281   32.022
  202.750    0.075    0.225   69.702  152.779   38.591
  203.000    0.071    0.218   70.695  151.074   41.749
  203.250    0.102    0.249   71.686  150.185   39.918
  203.500    0.149    0.283   71.153  151.939   33.467
  203.750    0.206    0.311   71.716  155.220   28.629
  204.000    0.159    0.331   77.105  157.382   24.904
  204.250    0.116    0.350   82.553  158.220   20.722
  204.500    0.205    0.366   91.240  158.661   17.732
  204.750    0.226    0.353  101.877  158.580   16.070
  205.000    0.194    0.344   98.841  158.610   15.446
  205.250    0.176    0.341   95.743  158.432   14.824
  205.500    0.198    0.362   96.550  158.044   14.406
  205.750    0.239    0.377  100.169  157.975   13.931
  206.000    0.238    0.372  105.007  158.098   13.715
  206.250    0.220    0.367  108.197  157.916   13.632
  206.500    0.156    0.357  108.150  157.844   13.750
  206.750    0.126    0.360  105.052  157.973   13.919
  207.000    0.132    0.364  106.410  158.097   14.013
  207.250    0.124    0.361  104.046  157.915   13.875
  207.500    0.153    0.346  102.777  158.555   13.439
  207.750    0.199    0.341  105.299  159.597   12.612
  208.000    0.217    0.345  108.793  161.150   11.880
  208.250    0.231    0.353  112.655  161.786   11.484
  208.500    0.231    0.347  115.843  161.508   11.206
  208.750    0.225    0.347  104.870  160.712   11.264
  209.000    0.206    0.359   98.902  159.115   11.724
  209.250    0.216    0.374   98.918  158.729   12.387
