~VERSION INFORMATION
 VERS.                 2.0:   CWLS LOG ASCII STANDARD -VERSION 2.0
 WRAP.                  NO:   ONE LINE PER DEPTH STEP
~WELL INFORMATION BLOCK
#MNEM.UNIT           DATA                    DESCRIPTION OF MNEMONIC
#---------    -------------------            -------------------------------
# Generated from Intellog Unique Number	CS_69_70/WELL/874
WELL.         ET AL HEART LAKE               : Well_name    - WELL
LOC .         00/10-30-069-11W4/0            : Location     - LOCATION
UWI .         00/10-30-069-11W4/0            : Uwi          - UNIQUE WELL ID
ENTR.         SP                             : Entered      - ENTERED BY
SRVC.         SCHLUMBERGER                   : Scn          - SERVICE COMPANY
STRT.F        1070                           : top_depth    - START DEPTH
STOP.F        1709.76                        : bot_depth    - STOP DEPTH
STEP.F        0.82                           : increment    - STEP LENGTH
 NULL. -999.2500:NULL Value
~CURVE INFORMATION BLOCK
#MNEM UNIT       ERCB CURVE CODE    CURVE DESCRIPTION
#-----------   ------------------   ----------------------------------
DEPT.F        00 001 00 00         : DEPTH        - DEPTH
GR  .API      00 310 00 00         : GR           - GAMMA RAY
NPHI.V/V      00 330 00 00         : PHIN         - NEUTRON POROSITY (SANDSTONE)
DPHI.V/V      00 890 00 00         : PHID         - DENSITY POROSITY (SANDSTONE)
ILD .OHMM     00 120 00 00         : RESD         - DEEP RESISTIVITY (DIL)
~PARAMETER INFORMATION
#MNEM.UNIT           DATA             DESCRIPTION OF MNEMONIC
#---------         -----------     ------------------------------
GL  .M        650.138              : gl           - GROUND LEVEL ELEVATION
EREF.M        652.668              : kb           - ELEVATION OF DEPTH REFERENCE
DATM.M        650.138              : datum        - DATUM ELEVATION
TDD .M        527.304              : tdd          - TOTAL DEPTH DRILLER
RUN .         ONE                  : Run          - RUN NUMBER
ENG .         BILL                 : Engineer     - RECORDING ENGINEER
WIT .         JIM                  : Witness      - WITNESSED BY
MUD .         GEL                  : Mud_type     - MUD TYPE
MATR.         SANDSTONE            : Logunit      - NEUTRON MATRIX
TMAX.C        20                   : BHT          - MAXIMUM RECORDED TEMPERATURE
BHTD.M        527.304              : BHTDEP       - MAXIMUM RECORDED TEMPERATURE
MATR.         1                    : LOGUNIT      - NEUTRON MATRIX
RMT .C        25                   : MDTP         - TEMPERATURE OF MUD
NEUT.         1                    : NEUTRON      - NEUTRON TYPE
RESI.         0                    : RESIST       - RESISTIVITY TYPE
RMC .OHMM     0.25                 : RMC          - RESISTIVITY OF MUD CAKE
RMF .OHMM     0.25                 : RMF          - RESISTIVITY OF MUD FILTRATE
SUFT.C        15                   : SUFT         - SURFACE TEMPERATURE
~A  DEPTH       GR     PHIN     PHID     RESD
# ...
 1212.720   79.135    0.434    0.327    5.106
 1213.540   79.231    0.423    0.331    5.029
 1214.360   81.666    0.413    0.333    5.036
 1215.180   84.714    0.419    0.302    5.244
 1216.000   87.781    0.429    0.280    5.562
 1216.820   89.046    0.441    0.255    5.681
 1217.640   89.123    0.446    0.245    5.799
 1218.460   89.200    0.450    0.252    5.927
 1219.280   89.277    0.445    0.260    5.943
 1220.100   89.968    0.439    0.271    5.963
 1220.920   90.639    0.433    0.271    5.971
 1221.740   91.924    0.423    0.266    5.877
 1222.560   92.556    0.421    0.261    5.904
 1223.380   93.822    0.428    0.258    5.912
 1224.200   93.938    0.446    0.257    5.928
 1225.020   91.638    0.445    0.260    5.943
 1225.840   89.894    0.439    0.265    5.963
 1226.660   87.000    0.439    0.276    5.975
 1227.480   82.918    0.437    0.288    5.991
 1228.300   78.836    0.432    0.295    6.011
 1229.120   75.943    0.427    0.301    5.916
 1229.940   74.870    0.420    0.301    5.932
 1230.760   74.928    0.410    0.299    5.947
 1231.580   74.411    0.397    0.298    5.967
 1232.400   75.676    0.391    0.292    5.765
 1233.220   77.536    0.396    0.284    5.570
 1234.040   78.207    0.405    0.288    5.479
 1234.860   78.917    0.404    0.293    5.396
 1235.680   78.955    0.412    0.290    5.615
 1236.500   79.626    0.416    0.286    5.846
 1237.320   80.911    0.419    0.289    5.967
 1238.140   81.582    0.426    0.293    6.091
 1238.960   82.254    0.429    0.303    6.222
 1239.780   79.341    0.439    0.299    6.483
 1240.600   75.258    0.450    0.287    6.496
 1241.420   71.177    0.447    0.289    6.517
 1242.240   67.689    0.415    0.293    6.530
 1243.060   67.172    0.407    0.294    6.431
 1243.880   67.268    0.419    0.291    6.449
 1244.700   66.157    0.425    0.290    6.347
 1245.520   63.263    0.415    0.287    6.251
 1246.350   60.350    0.329    0.272    6.259
 1247.170   60.446    0.275    0.211    6.393
 1247.990   66.446    0.257    0.163    6.777
 1248.810   69.532    0.277    0.121    7.605
 1249.630   70.778    0.330    0.130    7.485
 1250.450   72.638    0.389    0.162    7.099
 1251.270   75.091    0.415    0.246    6.733
 1252.090   79.922    0.426    0.283    6.500
 1252.910   88.336    0.421    0.306    6.052
 1253.730   93.761    0.406    0.282    5.851
 1254.550   94.451    0.403    0.265    5.754
 1255.370   95.161    0.406    0.250    6.218
 1256.190   95.200    0.409    0.240    6.592
 1257.010   96.465    0.412    0.232    6.859
 1257.830   84.046    0.415    0.224    6.872
 1258.650   78.775    0.411    0.248    6.895
 1259.470   71.722    0.404    0.261    6.666
 1260.290   66.452    0.403    0.277    6.441
 1261.110   64.153    0.400    0.295    6.335
 1261.930   64.249    0.396    0.307    6.120
 1262.750   64.920    0.393    0.301    5.917
 1263.570   63.809    0.394    0.286    5.824
 1264.390   62.084    0.398    0.298    5.949
 1265.210   59.229    0.405    0.307    6.194
 1266.030   56.891    0.406    0.312    6.318
 1266.850   54.017    0.405    0.301    6.458
 1267.670   52.292    0.401    0.304    6.479
 1268.490   58.905    0.397    0.306    6.497
 1269.310   66.112    0.392    0.312    6.394
 1270.130   72.763    0.388    0.315    6.411
 1270.950   75.236    0.387    0.310    6.194
 1271.770   75.869    0.391    0.297    6.211
 1272.590   77.134    0.394    0.284    6.588
 1273.410   78.400    0.382    0.277    6.720
 1274.230   81.486    0.357    0.270    7.123
 1275.050   83.346    0.364    0.265    7.412
 1275.870   84.017    0.380    0.266    7.432
 1276.690   84.075    0.388    0.278    7.185
 1277.510   81.794    0.397    0.291    6.951
 1278.330   80.664    0.402    0.294    6.832
 1279.150   78.403    0.399    0.295    6.851
 1279.970   77.253    0.388    0.289    6.747
 1280.790   75.586    0.383    0.279    6.645
 1281.610   74.456    0.382    0.282    6.654
 1282.430   72.731    0.384    0.284    6.676
 1283.250   71.045    0.386    0.292    6.694
 1284.070   69.359    0.389    0.297    6.588
 1284.900   68.209    0.398    0.303    6.480
 1285.720   67.711    0.404    0.305    6.382
 1286.540   67.788    0.406    0.295    6.395
 1287.360   67.885    0.398    0.294    6.536
 1288.180   67.942    0.387    0.306    6.549
 1289.000   68.000    0.393    0.311    6.580
 1289.820   68.097    0.398    0.314    6.467
 1290.640   68.231    0.405    0.313    6.365
 1291.460   68.289    0.428    0.319    6.391
 1292.280   68.328    0.438    0.323    6.519
 1293.100   68.443    0.448    0.329    6.541
 1293.920   69.095    0.453    0.333    6.558
 1294.740   69.153    0.449    0.331    6.332
 1295.560   70.438    0.451    0.325    6.122
 1296.380   71.090    0.455    0.314    5.703
 1297.200   72.988    0.449    0.303    5.605
 1298.020   74.867    0.454    0.294    5.126
 1298.840   76.094    0.466    0.286    4.858
 1299.660   77.359    0.499    0.282    4.364
 1300.480   74.484    0.514    0.307    4.136
 1301.300   70.403    0.486    0.331    4.068
 1302.120   66.320    0.419    0.339    4.007
 1302.940   64.596    0.414    0.335    4.332
 1303.760   66.455    0.421    0.331    4.589
 1304.580   68.928    0.440    0.330    4.865
 1305.400   69.580    0.444    0.329    5.153
 1306.220   67.913    0.448    0.326    5.569
 1307.040   66.783    0.429    0.321    5.791
 1307.860   65.672    0.424    0.316    6.029
 1308.680   64.561    0.426    0.317    6.159
 1309.500   64.043    0.427    0.326    6.295
 1310.320   64.101    0.418    0.333    6.430
 1311.140   64.217    0.410    0.336    6.567
 1311.960   64.850    0.417    0.337    6.589
 1312.780   64.984    0.420    0.339    6.602
 1313.600   64.429    0.426    0.339    6.620
 1314.420   64.506    0.435    0.340    6.511
 1315.240   64.008    0.444    0.340    6.413
 1316.060   63.491    0.449    0.338    6.316
 1316.880   63.568    0.433    0.333    6.333
 1317.700   63.645    0.420    0.331    6.345
 1318.520   64.930    0.429    0.331    6.366
 1319.340   65.563    0.437    0.334    6.383
 1320.160   66.867    0.445    0.336    6.396
 1320.980   66.905    0.451    0.336    6.413
 1321.800   67.615    0.449    0.336    6.555
 1322.620   68.267    0.453    0.335    6.577
 1323.440   68.938    0.460    0.335    6.709
 1324.270   69.034    0.415    0.333    6.735
 1325.090   69.111    0.402    0.328    6.744
 1325.910   69.208    0.406    0.321    6.898
 1326.730   69.246    0.411    0.315    6.916
 1327.550   69.323    0.410    0.307    6.930
 1328.370   77.738    0.405    0.302    7.083
 1329.190   79.023    0.403    0.297    7.230
 1330.010   76.704    0.405    0.295    7.390
 1330.830   73.235    0.406    0.297    7.405
 1331.650   70.916    0.415    0.300    7.563
 1332.470   66.854    0.441    0.301    7.584
 1333.290   64.535    0.451    0.301    7.609
 1334.110   62.216    0.457    0.306    7.634
 1334.930   61.124    0.425    0.311    7.649
 1335.750   61.220    0.410    0.318    7.534
 1336.570   61.278    0.410    0.324    7.420
 1337.390   60.780    0.409    0.324    7.293
 1338.210   60.244    0.410    0.327    6.921
 1339.030   60.321    0.414    0.333    6.808
 1339.850   59.823    0.418    0.338    6.465
 1340.670   61.664    0.415    0.344    6.355
 1341.490   65.306    0.409    0.352    6.144
 1342.310   68.373    0.408    0.357    5.834
 1343.130   71.421    0.409    0.359    5.842
 1343.950   73.894    0.411    0.324    5.644
 1344.770   76.367    0.418    0.306    5.555
 1345.590   76.999    0.423    0.280    5.468
 1346.410   76.482    0.428    0.281    5.381
 1347.230   73.627    0.432    0.302    5.300
 1348.050   71.902    0.427    0.314    5.307
 1348.870   70.178    0.423    0.320    5.325
 1349.690   66.690    0.423    0.324    5.339
 1350.510   64.984    0.423    0.325    5.453
 1351.330   65.081    0.423    0.326    5.784
 1352.150   65.139    0.419    0.327    6.246
 1352.970   64.066    0.417    0.326    6.741
 1353.790   63.530    0.407    0.310    7.279
 1354.610   61.805    0.398    0.245    8.472
