~VERSION INFORMATION
 VERS.                 2.0:   CWLS LOG ASCII STANDARD -VERSION 2.0
 WRAP.                  NO:   ONE LINE PER DEPTH STEP
~WELL INFORMATION BLOCK
#MNEM.UNIT           DATA                    DESCRIPTION OF MNEMONIC
#---------    -------------------            -------------------------------
# Generated from Intellog Unique Number	CS_71_72/WELL/842
WELL.         AEE IPIATIK                    : Well_name    - WELL
LOC .         00/10-14-071-05W4/0            : Location     - LOCATION
UWI .         00/10-14-071-05W4/0            : Uwi          - UNIQUE WELL ID
ENTR.         SP                             : Entered      - ENTERED BY
SRVC.         SCHLUMBERGER                   : Scn          - SERVICE COMPANY
STRT.M        290                            : top_depth    - START DEPTH
STOP.M        510                            : bot_depth    - STOP DEPTH
STEP.M        0.25                           : increment    - STEP LENGTH
 NULL. -999.2500:NULL Value
~CURVE INFORMATION BLOCK
#MNEM UNIT       ERCB CURVE CODE    CURVE DESCRIPTION
#-----------   ------------------   ----------------------------------
DEPT.M        00 001 00 00         : DEPTH        - DEPTH
GR  .API      00 310 00 00         : GR           - GAMMA RAY
NPHI.V/V      00 330 00 00         : PHIN         - NEUTRON POROSITY (LIMESTONE)
DPHI.V/V      00 890 00 00         : PHID         - DENSITY POROSITY (LIMESTONE)
ILD .OHMM     00 120 00 00         : RESD         - DEEP RESISTIVITY (DIL)
~PARAMETER INFORMATION
#MNEM.UNIT           DATA             DESCRIPTION OF MNEMONIC
#---------         -----------     ------------------------------
GL  .M        661.74               : gl           - GROUND LEVEL ELEVATION
EREF.M        665.55               : kb           - ELEVATION OF DEPTH REFERENCE
DATM.M        661.74               : datum        - DATUM ELEVATION
TDD .M        520                  : tdd          - TOTAL DEPTH DRILLER
RUN .         ONE                  : Run          - RUN NUMBER
ENG .         BILL                 : Engineer     - RECORDING ENGINEER
WIT .         JIM                  : Witness      - WITNESSED BY
MUD .         GEL                  : Mud_type     - MUD TYPE
MATR.         LIMESTONE            : Logunit      - NEUTRON MATRIX
TMAX.C        16                   : BHT          - MAXIMUM RECORDED TEMPERATURE
BHTD.M        520                  : BHTDEP       - MAXIMUM RECORDED TEMPERATURE
MATR.         1                    : LOGUNIT      - NEUTRON MATRIX
RMT .C        25                   : MDTP         - TEMPERATURE OF MUD
NEUT.         1                    : NEUTRON      - NEUTRON TYPE
RESI.         0                    : RESIST       - RESISTIVITY TYPE
RMC .OHMM     0.25                 : RMC          - RESISTIVITY OF MUD CAKE
RMF .OHMM     0.25                 : RMF          - RESISTIVITY OF MUD FILTRATE
SUFT.C        15                   : SUFT         - SURFACE TEMPERATURE
~A  DEPTH       GR     PHIN     PHID     RESD
# ...
  420.500   63.376    0.327    0.112   10.369
  420.750   71.837    0.345    0.177    9.880
  421.000   80.723    0.385    0.213    8.339
  421.250   86.694    0.426    0.247    7.640
  421.500   89.446    0.449    0.253    6.794
  421.750   90.434    0.454    0.249    6.365
  422.000   89.541    0.450    0.257    6.156
  422.250   88.707    0.455    0.264    6.090
  422.500   87.875    0.457    0.243    6.090
  422.750   87.231    0.456    0.223    5.978
  423.000   86.576    0.459    0.214    5.739
  423.250   82.645    0.467    0.217    5.509
  423.500   77.194    0.477    0.217    5.459
  423.750   72.110    0.482    0.193    5.501
  424.000   71.522    0.464    0.186    5.679
  424.250   70.443    0.448    0.193    5.863
  424.500   70.707    0.437    0.160    6.098
  424.750   75.035    0.448    0.178    6.225
  425.000   81.006    0.474    0.232    5.976
  425.250   84.425    0.493    0.251    5.424
  425.500   87.117    0.503    0.255    4.896
  425.750   89.928    0.504    0.251    4.322
  426.000   92.435    0.520    0.248    3.772
  426.250   94.642    0.534    0.247    3.268
  426.500   95.871    0.550    0.251    2.933
  426.750   96.618    0.565    0.257    2.708
  427.000   91.898    0.556    0.259    2.599
  427.250   88.149    0.576    0.259    2.614
  427.500   85.372    0.580    0.259    2.838
  427.750   86.727    0.542    0.258    3.247
  428.000   89.360    0.518    0.250    3.694
  428.250   90.528    0.490    0.237    4.116
  428.500   91.275    0.474    0.219    4.411
  428.750   89.348    0.465    0.207    4.614
  429.000   88.515    0.459    0.193    4.773
  429.250   88.108    0.457    0.168    4.983
  429.500   89.037    0.462    0.194    5.039
  429.750   91.426    0.470    0.217    4.929
  430.000   93.633    0.481    0.213    4.679
  430.250   94.495    0.489    0.215    4.099
  430.500   90.564    0.494    0.223    3.819
  430.750   84.389    0.477    0.230    3.921
  431.000   80.881    0.455    0.247    4.361
  431.250   75.554    0.447    0.251    5.017
  431.500   73.809    0.456    0.162    5.891
  431.750   78.565    0.447    0.141    6.504
  432.000   87.209    0.426    0.146    6.765
  432.250   94.272    0.438    0.209    6.268
  432.500   98.360    0.469    0.226    4.865
  432.750  100.138    0.492    0.222    3.985
  433.000   98.637    0.506    0.215    3.550
  433.250   97.743    0.503    0.213    3.333
  433.500   98.611    0.486    0.210    3.235
  433.750   99.480    0.473    0.207    3.194
  434.000   95.063    0.488    0.221    3.200
  434.250   88.643    0.504    0.218    3.304
  434.500   81.916    0.516    0.214    3.534
  434.750   75.982    0.488    0.235    3.880
  435.000   72.660    0.462    0.256    4.480
  435.250   71.097    0.436    0.269    5.202
  435.500   71.845    0.417    0.264    5.940
  435.750   71.923    0.414    0.261    6.669
  436.000   71.758    0.420    0.226    6.834
  436.250   71.716    0.423    0.188    6.772
  436.500   72.704    0.415    0.142    6.901
  436.750   75.152    0.361    0.107    8.058
  437.000   77.845    0.360    0.165    9.047
  437.250   79.317    0.377    0.200    9.516
  437.500   79.395    0.399    0.230    9.625
  437.750   78.987    0.417    0.246    9.120
  438.000   81.741    0.413    0.245    8.079
  438.250   83.883    0.425    0.243    7.118
  438.500   85.175    0.436    0.232    6.330
  438.750   81.001    0.439    0.227    5.887
  439.000   75.313    0.431    0.234    5.888
  439.250   71.925    0.425    0.257    6.393
  439.500   69.028    0.418    0.268    7.032
  439.750   69.531    0.413    0.259    7.592
  440.000   71.979    0.424    0.255    8.258
  440.250   73.273    0.421    0.253    8.686
  440.500   71.588    0.417    0.250    8.835
  440.750   71.426    0.418    0.243    8.836
  441.000   72.659    0.431    0.234    8.954
  441.250   72.434    0.430    0.225    9.313
  441.500   70.627    0.414    0.216    9.851
  441.750   69.250    0.404    0.208   10.537
  442.000   71.268    0.393    0.176   11.042
  442.250   75.356    0.379    0.198   11.336
  442.500   78.109    0.401    0.235   11.025
  442.750   78.855    0.419    0.239   10.368
  443.000   78.872    0.427    0.244    9.787
  443.250   79.374    0.428    0.243    9.170
  443.500   80.062    0.436    0.242    8.770
  443.750   78.986    0.445    0.240    8.341
  444.000   76.816    0.444    0.240    7.962
  444.250   74.954    0.449    0.259    7.845
  444.500   74.243    0.460    0.271    8.345
  444.750   73.954    0.470    0.277    9.835
  445.000   74.699    0.461    0.291   11.966
  445.250   77.513    0.454    0.298   14.050
  445.500   80.751    0.449    0.293   15.312
  445.750   81.921    0.465    0.288   15.632
  446.000   82.728    0.461    0.280   14.619
  446.250   83.294    0.444    0.268   12.928
  446.500   84.648    0.435    0.251   11.076
  446.750   85.575    0.432    0.240   10.832
  447.000   84.620    0.413    0.227   10.378
  447.250   82.755    0.397    0.210   10.056
  447.500   81.620    0.392    0.194    9.854
  447.750   77.994    0.403    0.179    9.855
  448.000   77.280    0.393    0.165   10.137
  448.250   79.972    0.374    0.154   10.176
  448.500   81.567    0.373    0.192    9.897
  448.750   82.072    0.381    0.204    9.698
  449.000   81.724    0.385    0.186    9.520
  449.250   77.736    0.388    0.205    9.504
  449.500   72.588    0.396    0.198    9.793
  449.750   66.530    0.399    0.219   10.301
  450.000   62.174    0.398    0.238   10.998
  450.250   63.044    0.393    0.255   11.808
  450.500   70.227    0.389    0.246   12.213
  450.750   74.436    0.395    0.213   12.422
  451.000   69.656    0.406    0.204   12.587
  451.250   64.271    0.424    0.222   13.190
  451.500   61.309    0.431    0.234   14.030
  451.750   58.531    0.417    0.230   15.319
  452.000   60.313    0.402    0.225   16.294
  452.250   65.249    0.390    0.187   16.604
  452.500   68.911    0.398    0.141   16.058
  452.750   71.115    0.380    0.133   14.630
  453.000   76.175    0.360    0.159   13.280
  453.250   83.299    0.356    0.191   11.898
  453.500   90.059    0.374    0.201   10.901
  453.750   93.781    0.387    0.183   10.214
  454.000   95.865    0.398    0.173    9.623
  454.250   95.335    0.403    0.188    8.917
  454.500   92.743    0.407    0.185    8.835
  454.750   91.179    0.425    0.177    8.787
  455.000   90.164    0.436    0.174    9.021
  455.250   88.243    0.425    0.175    9.296
  455.500   86.497    0.410    0.178    9.508
  455.750   85.418    0.414    0.179    9.599
  456.000   88.473    0.418    0.188    9.618
  456.250   94.568    0.418    0.198    9.354
  456.500   99.443    0.434    0.195    8.539
  456.750  105.232    0.445    0.181    7.678
  457.000  108.103    0.454    0.176    7.101
  457.250  107.877    0.462    0.174    6.920
  457.500  105.345    0.442    0.177    6.946
  457.750  105.062    0.425    0.181    7.171
  458.000  104.834    0.414    0.182    7.473
  458.250  102.542    0.406    0.189    7.730
  458.500   99.461    0.408    0.182    7.906
  458.750   97.599    0.415    0.175    8.011
  459.000   96.763    0.422    0.170    8.042
  459.250   95.567    0.407    0.167    8.089
  459.500   93.337    0.396    0.184    8.151
  459.750   93.051    0.391    0.185    8.275
  460.000   93.979    0.395    0.184    8.479
  460.250   96.183    0.403    0.182    8.656
  460.500   96.686    0.414    0.180    8.821
  460.750   93.121    0.422    0.179    8.988
  461.000   84.998    0.416    0.190    9.455
  461.250   76.391    0.415    0.204   10.038
  461.500   67.175    0.428    0.218   10.878
  461.750   60.999    0.418    0.235   13.111
  462.000   58.769    0.402    0.250   15.082
  462.250   57.631    0.390    0.255   16.529
  462.500   60.564    0.392    0.261   18.805
  462.750   66.961    0.393    0.262   17.421
  463.000   74.633    0.402    0.241   15.842
  463.250   82.971    0.404    0.226   14.816
  463.500   86.814    0.404    0.214   13.960
  463.750   85.802    0.407    0.220   13.276
