~VERSION INFORMATION
 VERS.                 2.0:   CWLS LOG ASCII STANDARD -VERSION 2.0
 WRAP.                  NO:   ONE LINE PER DEPTH STEP
~WELL INFORMATION BLOCK
#MNEM.UNIT           DATA                    DESCRIPTION OF MNEMONIC
#---------    -------------------            -------------------------------
# Generated from Intellog Unique Number	CW_73_75/WELL/1049
WELL.         SUNCOR MITSUE 11-34            : Well_name    - WELL
LOC .         00/11-34-074-05W5/0            : Location     - LOCATION
UWI .         00/11-34-074-05W5/0            : Uwi          - UNIQUE WELL ID
ENTR.         JAYE                           : Entered      - ENTERED BY
SRVC.         SCHLUMBERGER                   : Scn          - SERVICE COMPANY
DATE.         18 MAR 80                      : Date         - LOG DATE
STRT.M        725                            : top_depth    - START DEPTH
STOP.M        945                            : bot_depth    - STOP DEPTH
STEP.M        0.25                           : increment    - STEP LENGTH
 NULL. -999.2500:NULL Value
~CURVE INFORMATION BLOCK
#MNEM UNIT       ERCB CURVE CODE    CURVE DESCRIPTION
#-----------   ------------------   ----------------------------------
DEPT.M        00 001 00 00         : DEPTH        - DEPTH
ILD .OHMM     00 120 00 00         : RESD         - DEEP RESISTIVITY (DLL)
NPHI.V/V      00 330 00 00         : PHIN         - NEUTRON POROSITY (SANDSTONE)
DPHI.V/V      00 890 00 00         : PHID         - DENSITY POROSITY (SANDSTONE)
GR  .API      00 310 00 00         : GR           - GAMMA RAY
CALI.MM       00 280 01 00         : CAL          - CALIPER
~PARAMETER INFORMATION
#MNEM.UNIT           DATA             DESCRIPTION OF MNEMONIC
#---------         -----------     ------------------------------
GL  .M        977.2                : gl           - GROUND LEVEL ELEVATION
EREF.M        980.3                : kb           - ELEVATION OF DEPTH REFERENCE
DATM.M        977.2                : datum        - DATUM ELEVATION
TDD .M        958                  : tdd          - TOTAL DEPTH DRILLER
RUN .         ONE                  : Run          - RUN NUMBER
ENG .         HOOK                 : Engineer     - RECORDING ENGINEER
WIT .         KEIR                 : Witness      - WITNESSED BY
BASE.         5270                 : Branch       - HOME BASE OF LOGGING UNIT
MUD .         GEL CHEM             : Mud_type     - MUD TYPE
MATR.         SANDSTONE            : Logunit      - NEUTRON MATRIX
TMAX.C        36                   : BHT          - MAXIMUM RECORDED TEMPERATURE
BHTD.M        957                  : BHTDEP       - MAXIMUM RECORDED TEMPERATURE
RMT .C        25.6                 : MDTP         - TEMPERATURE OF MUD
MUDD.KG/M     1066                 : MWT          - MUD DENSITY
NEUT.         0                    : NEUTRON      - NEUTRON TYPE
RESI.         1                    : RESIST       - RESISTIVITY TYPE
RM  .OHMM     3.83                 : RM           - RESISTIVITY OF MUD
RMC .OHMM     0                    : RMC          - RESISTIVITY OF MUD CAKE
RMF .OHMM     0                    : RMF          - RESISTIVITY OF MUD FILTRATE
SUFT.C        0                    : SUFT         - SURFACE TEMPERATURE
~A  DEPTH     RESD     PHIN     PHID       GR      CAL
# ...
  761.500    4.804    0.427    0.343   52.329  147.911
  761.750    4.530    0.432    0.337   52.650  149.270
  762.000    4.248    0.434    0.337   52.539  148.983
  762.250    3.960    0.431    0.342   51.441  148.697
  762.500    3.759    0.424    0.345   50.033  148.307
  762.750    3.612    0.421    0.341   47.761  147.607
  763.000    3.522    0.421    0.342   46.354  147.525
  763.250    3.419    0.421    0.348   47.788  147.236
  763.500    3.336    0.421    0.353   50.700  146.747
  763.750    3.283    0.420    0.356   52.195  146.557
  764.000    3.246    0.419    0.360   52.208  146.576
  764.250    3.215    0.419    0.365   52.035  146.703
  764.500    3.190    0.418    0.369   52.233  147.447
  764.750    3.150    0.410    0.370   52.925  147.774
  765.000    3.146    0.405    0.371   54.112  148.309
  765.250    3.117    0.406    0.371   54.865  148.846
  765.500    3.109    0.420    0.370   55.310  149.172
  765.750    3.099    0.430    0.368   55.012  149.302
  766.000    3.081    0.439    0.367   54.901  149.626
  766.250    3.072    0.441    0.365   55.160  149.648
  766.500    3.081    0.441    0.358   56.099  149.154
  766.750    3.077    0.444    0.351   56.111  149.175
  767.000    3.080    0.447    0.355   54.765  149.095
  767.250    3.091    0.450    0.358   54.346  149.317
  767.500    3.104    0.444    0.360   55.039  149.546
  767.750    3.107    0.447    0.367   56.161  149.262
  768.000    3.114    0.451    0.376   58.275  149.177
  768.250    3.127    0.445    0.378   59.211  148.890
  768.500    3.130    0.431    0.374   59.842  148.814
  768.750    3.137    0.425    0.365   59.792  148.934
  769.000    3.134    0.428    0.358   59.188  148.853
  769.250    3.141    0.432    0.354   58.644  149.181
  769.500    3.148    0.443    0.358   58.905  149.302
  769.750    3.135    0.452    0.356   59.780  149.218
  770.000    3.132    0.458    0.364   60.041  148.519
  770.250    3.134    0.461    0.371   59.436  146.896
  770.500    3.142    0.456    0.370   60.251  146.298
  770.750    3.159    0.451    0.369   61.560  146.320
  771.000    3.183    0.440    0.370   60.892  146.957
  771.250    3.208    0.431    0.362   59.240  147.491
  771.500    3.233    0.419    0.354   57.523  148.338
  771.750    3.240    0.411    0.351   56.115  148.770
  772.000    3.264    0.406    0.351   54.586  149.309
  772.250    3.273    0.413    0.350   53.856  149.428
  772.500    3.280    0.423    0.352   53.560  149.864
  772.750    3.278    0.432    0.353   54.316  149.881
  773.000    3.298    0.437    0.350   56.056  150.729
  773.250    3.304    0.438    0.344   57.551  151.262
  773.500    3.313    0.436    0.341   57.561  151.489
  773.750    3.309    0.432    0.341   55.044  151.817
  774.000    3.311    0.429    0.338   54.376  151.943
  774.250    3.330    0.423    0.336   55.562  152.273
  774.500    3.339    0.421    0.333   57.427  152.292
  774.750    3.358    0.422    0.330   58.613  152.313
  775.000    3.366    0.423    0.328   57.822  151.925
  775.250    3.380    0.426    0.342   54.995  151.942
  775.500    3.393    0.435    0.353   55.131  151.762
  775.750    3.408    0.443    0.362   57.181  152.087
  776.000    3.422    0.448    0.362   58.674  152.213
  776.250    3.443    0.450    0.344   57.700  152.339
  776.500    3.462    0.448    0.331   56.354  152.255
  776.750    3.471    0.434    0.322   56.614  152.174
  777.000    3.496    0.405    0.309   58.171  152.192
  777.250    3.535    0.393    0.269   58.675  152.219
  777.500    3.543    0.394    0.244   58.318  152.546
  777.750    3.517    0.409    0.282   58.083  152.562
  778.000    3.495    0.420    0.312   58.590  152.897
  778.250    3.449    0.427    0.352   58.973  152.914
  778.500    3.417    0.429    0.344   59.355  153.043
  778.750    3.385    0.429    0.329   60.294  153.062
  779.000    3.353    0.425    0.319   62.221  152.978
  779.250    3.328    0.425    0.312   67.727  153.202
  779.500    3.318    0.427    0.304   72.863  153.224
  779.750    3.303    0.433    0.297   71.950  153.657
  780.000    3.317    0.446    0.290   69.802  153.780
  780.250    3.354    0.453    0.283   68.332  153.697
  780.500    3.419    0.451    0.275   66.989  153.722
  780.750    3.522    0.446    0.282   66.073  153.847
  781.000    3.603    0.442    0.304   65.345  153.761
  781.250    3.693    0.441    0.318   65.235  153.680
  781.500    3.753    0.442    0.315   65.555  153.288
  781.750    3.710    0.446    0.308   69.705  153.206
  782.000    3.475    0.449    0.295   73.297  153.025
  782.250    3.254    0.453    0.281   74.606  152.938
  782.500    3.063    0.457    0.277   73.322  153.170
  782.750    2.983    0.474    0.301   70.187  153.189
  783.000    3.011    0.474    0.322   66.865  153.211
  783.250    3.128    0.465    0.345   65.335  153.022
  783.500    3.272    0.456    0.360   64.607  152.838
  783.750    3.382    0.449    0.360   64.249  152.346
  784.000    3.414    0.447    0.347   63.767  151.959
  784.250    3.438    0.441    0.339   63.410  151.665
  784.500    3.423    0.441    0.324   63.176  151.070
  784.750    3.404    0.440    0.321   62.879  150.268
  785.000    3.394    0.432    0.322   64.311  149.569
  785.250    3.538    0.422    0.316   65.806  149.179
  785.500    3.744    0.413    0.310   67.055  149.301
  785.750    4.107    0.397    0.293   67.745  149.839
  786.000    4.383    0.362    0.253   68.127  150.270
  786.250    4.523    0.344    0.202   69.190  151.115
  786.500    4.367    0.357    0.193   70.807  151.753
  786.750    4.134    0.387    0.260   73.412  152.184
  787.000    3.970    0.417    0.286   76.079  152.514
  787.250    3.795    0.435    0.287   77.636  152.740
  787.500    3.664    0.443    0.269   78.081  152.763
  787.750    3.498    0.447    0.269   78.031  152.784
  788.000    3.417    0.453    0.279   78.106  153.009
  788.250    3.345    0.459    0.280   78.364  153.032
  788.500    3.319    0.470    0.276   77.945  153.051
  788.750    3.317    0.476    0.272   77.402  152.766
  789.000    3.336    0.482    0.264   76.304  152.374
  789.250    3.366    0.490    0.278   74.156  152.394
  789.500    3.385    0.490    0.294   70.525  152.106
  789.750    3.394    0.474    0.304   62.760  151.715
  790.000    3.396    0.465    0.314   58.019  151.638
  790.250    3.376    0.459    0.326   53.341  151.554
  790.500    3.386    0.456    0.331   50.883  151.882
  790.750    3.375    0.453    0.340   49.168  152.211
  791.000    3.360    0.450    0.349   48.747  152.953
  791.250    3.340    0.446    0.337   48.390  153.386
  791.500    3.298    0.442    0.337   48.279  153.512
  791.750    3.288    0.435    0.343   48.415  153.734
  792.000    3.263    0.428    0.349   49.233  153.755
  792.250    3.249    0.428    0.355   49.861  153.777
  792.500    3.230    0.430    0.351   50.736  153.801
  792.750    3.219    0.437    0.340   51.798  153.824
  793.000    3.217    0.445    0.334   52.985  153.842
  793.250    3.203    0.438    0.336   54.169  153.657
  793.500    3.211    0.430    0.341   57.084  153.267
  793.750    3.213    0.430    0.338   59.256  153.079
  794.000    3.205    0.432    0.332   61.244  152.486
  794.250    3.189    0.434    0.318   63.542  152.503
  794.500    3.107    0.433    0.300   65.776  152.527
  794.750    3.046    0.428    0.245   67.024  152.134
  795.000    2.956    0.421    0.241   66.974  152.157
  795.250    2.850    0.412    0.251   62.727  151.765
  795.500    2.761    0.400    0.264   57.554  151.785
  795.750    2.787    0.389    0.268   55.592  151.702
  796.000    2.975    0.399    0.275   57.704  151.621
  796.250    3.209    0.409    0.286   59.382  151.646
  796.500    3.346    0.407    0.308   60.260  151.769
  796.750    3.451    0.409    0.326   60.828  151.684
  797.000    3.597    0.416    0.329   60.654  151.603
  797.250    3.717    0.429    0.326   59.310  151.417
  797.500    3.863    0.434    0.319   58.087  151.337
  797.750    3.945    0.433    0.305   57.359  150.943
