~VERSION INFORMATION
 VERS.                 2.0:   CWLS LOG ASCII STANDARD -VERSION 2.0
 WRAP.                  NO:   ONE LINE PER DEPTH STEP
~WELL INFORMATION BLOCK
#MNEM.UNIT           DATA                    DESCRIPTION OF MNEMONIC
#---------    -------------------            -------------------------------
# Generated from Intellog Unique Number	CW_70_72/WELL/1065
NULL.         -999.25                        : NULL_VALUE
WELL.         GAO ET AL CALL 11-36           : Well_name    - WELL              
LOC .         11-36-072-19W4                 : Location     - LOCATION          
UWI .         00/11-36-072-19W4/0            : Uwi          - UNIQUE WELL ID    
ENTR.         JAYE                           : Entered      - ENTERED BY        
SRVC.         SCHLUMBERGER                   : Scn          - SERVICE COMPANY   
DATE.         16 FEB 76                      : Date         - LOG DATE          
STRT.M        344.424                        : top_depth    - START DEPTH       
STOP.M        554.674                        : bot_depth    - STOP DEPTH        
STEP.M        0.25                           : increment    - STEP LENGTH       
~CURVE INFORMATION BLOCK
#MNEM UNIT       ERCB CURVE CODE    CURVE DESCRIPTION
#-----------   ------------------   ----------------------------------
DEPT.M        00 001 00 00         : DEPTH        - DEPTH                       
DPHI.V/V      00 890 00 00         : PHID         - DENSITY POROSITY (SANDSTONE)
NPHI.V/V      00 330 00 00         : PHIN         - NEUTRON POROSITY (SANDSTONE)
GR  .API      00 310 00 00         : GR           - GAMMA RAY                   
CALI.MM       00 280 01 00         : CAL          - CALIPER                     
ILD .OHMM     00 120 00 00         : RESD         - DEEP RESISTIVITY (DLL)      
~PARAMETER INFORMATION       
#MNEM.UNIT           DATA             DESCRIPTION OF MNEMONIC
#---------         -----------     ------------------------------
GL  .M        644.256              : gl           - GROUND LEVEL ELEVATION      
EREF.M        647.395              : kb           - ELEVATION OF DEPTH REFERENCE
DATM.M        644.256              : datum        - DATUM ELEVATION             
TDD .M        571.195              : tdd          - TOTAL DEPTH DRILLER         
RUN .         ONE                  : Run          - RUN NUMBER                  
BASE.         EDM                  : Branch       - HOME BASE OF LOGGING UNIT   
MATR.         SANDSTONE            : Logunit      - NEUTRON MATRIX              
TMAX.C        28.3333              : BHT          - MAXIMUM RECORDED TEMPERATURE
BHTD.M        569.366              : BHTDEP       - MAXIMUM RECORDED TEMPERATURE
RMT .C        16.1111              : MDTP         - TEMPERATURE OF MUD          
MUDD.KG/M     0                    : MWT          - MUD DENSITY                 
NEUT.         1                    : NEUTRON      - NEUTRON TYPE                
RESI.         1                    : RESIST       - RESISTIVITY TYPE            
RM  .OHMM     3.57                 : RM           - RESISTIVITY OF MUD          
RMC .OHMM     0                    : RMC          - RESISTIVITY OF MUD CAKE     
RMF .OHMM     2.89                 : RMF          - RESISTIVITY OF MUD FILTRATE 
SUFT.C        -17.7778             : SUFT         - SURFACE TEMPERATURE         
~A  DEPTH     PHID     PHIN       GR      CAL     RESD
# ...
  490.424    0.229    0.468  110.001  174.686    3.495
  490.674    0.233    0.492  110.487  176.647    3.467
  490.924    0.241    0.484  107.981  177.057    3.464
  491.174    0.234    0.473  109.078  180.258    3.553
  491.424    0.227    0.492  109.503  179.117    3.589
  491.674    0.215    0.514  105.408  175.700    3.632
  491.924    0.213    0.504  104.795  176.833    3.703
  492.174    0.220    0.487  104.854  178.484    3.769
  492.424    0.235    0.487  104.790  184.168    3.843
  492.674    0.222    0.502  104.055  193.265    3.947
  492.924    0.202    0.516  102.159  192.537    4.175
  493.174    0.197    0.519   99.225  183.432    4.415
  493.424    0.203    0.514   97.391  180.325    4.662
  493.674    0.188    0.435  100.137  166.670    4.913
  493.924    0.220    0.434  108.685  173.284    4.954
  494.174    0.223    0.446  110.759  177.728    4.878
  494.424    0.221    0.461  105.626  183.515    4.794
  494.674    0.243    0.464  100.799  182.787    4.791
  494.924    0.237    0.463  101.591  178.232    4.867
  495.174    0.216    0.475  104.764  182.055    4.908
  495.424    0.215    0.479  102.563  191.255    4.986
  495.674    0.255    0.465  100.789  192.699    4.972
  495.924    0.255    0.424   99.260  167.357    4.843
  496.174    0.180    0.450  102.800  171.387    4.875
  496.424    0.193    0.470  104.508  177.278    5.006
  496.674    0.205    0.424   99.497  183.789    5.276
  496.924    0.205    0.365   86.608  170.340    5.632
  497.174    0.113    0.338   73.536  163.614    6.191
  497.424    0.080    0.311   68.159  161.852    7.099
  497.674    0.063    0.275   66.507  162.882    9.004
  497.924    0.069    0.240   65.956  164.015   12.451
  498.174    0.085    0.312   66.625  161.012   13.194
  498.424    0.195    0.342   68.943  157.595   12.897
  498.674    0.210    0.367   72.972  156.143   11.250
  498.924    0.212    0.381   77.306  155.726    9.512
  499.174    0.210    0.374   80.052  156.032    8.298
  499.424    0.178    0.352   78.950  157.372    7.819
  499.674    0.150    0.326   80.841  158.609    7.784
  499.924    0.150    0.340   84.992  159.122    7.878
  500.174    0.154    0.412   89.509  159.635    7.886
  500.424    0.203    0.419   95.491  160.252    7.417
  500.674    0.199    0.425   99.398  161.075    6.912
  500.924    0.173    0.440  102.205  162.208    6.231
  501.174    0.175    0.437   96.828  167.065    5.516
  501.424    0.187    0.425   97.253  168.406    5.314
  501.674    0.181    0.429   99.938  167.574    5.319
  501.924    0.161    0.451  101.524  166.950    5.363
  502.174    0.170    0.448  101.643  167.153    5.480
  502.424    0.161    0.440  101.274  167.562    5.535
  502.674    0.178    0.432   99.684  164.662    5.614
  502.924    0.177    0.423   98.094  163.314    5.660
  503.174    0.174    0.409  103.160  165.378    5.718
  503.424    0.156    0.410  108.716  167.442    5.798
  503.674    0.165    0.428  112.439  167.852    5.934
  503.924    0.198    0.432  110.788  167.020    6.018
  504.174    0.180    0.427  106.815  165.672    6.112
  504.424    0.151    0.429  103.637  164.634    6.186
  504.674    0.139    0.418  101.925  163.906    6.228
  504.924    0.171    0.396  107.175  164.109    6.246
  505.174    0.196    0.400  108.150  166.173    6.241
  505.424    0.186    0.405  108.208  170.822    6.189
  505.674    0.226    0.401  107.656  175.680    6.050
  505.924    0.192    0.393  107.654  169.057    5.902
  506.174    0.197    0.385  107.835  165.329    5.748
  506.424    0.223    0.412  106.672  165.532    5.537
  506.674    0.199    0.451  104.288  169.044    5.382
  506.924    0.242    0.436  102.636  172.143    5.290
  507.174    0.192    0.412  103.305  165.624    5.209
  507.424    0.217    0.415  103.730  170.480    5.177
  507.674    0.251    0.423  102.812  178.440    5.191
  507.924    0.211    0.415   97.557  171.610    5.187
  508.174    0.246    0.406   95.600  177.500    5.173
  508.424    0.283    0.416   96.209  185.874    5.103
  508.674    0.265    0.422   97.306  190.730    4.997
  508.924    0.264    0.458   98.464  181.108    4.416
  509.174    0.301    0.489   99.744  181.725    3.909
  509.424    0.321    0.519  102.062  205.197    3.215
  509.674    0.312    0.538  105.480  218.224    2.606
  509.924    0.293    0.551  109.203  204.155    2.244
  510.174    0.287    0.565  107.430  200.220    2.076
  510.424    0.288    0.541  104.923  203.422    2.026
  510.674    0.279    0.530  105.104  198.351    2.039
  510.924    0.253    0.518  106.445  191.418    2.233
  511.174    0.187    0.490  102.229  184.278    2.589
  511.424    0.165    0.435   94.531  174.862    3.177
  511.674    0.135    0.389   89.093  165.964    3.957
  511.924    0.104    0.385   95.442  169.580    5.029
  512.174    0.201    0.407  102.647  171.851    5.549
  512.424    0.197    0.426  107.164  172.054    5.689
  512.674    0.191    0.442  106.917  170.498    5.499
  512.924    0.166    0.457  104.533  168.840    4.832
  513.174    0.128    0.473   98.973  166.354    4.732
  513.424    0.096    0.403   88.832  164.178    5.042
  513.674    0.044    0.295   78.081  163.346    6.372
  513.924    0.108    0.271   91.331  163.342    7.201
  514.174    0.157    0.340   95.787  166.234    7.369
  514.424    0.195    0.412   97.800  172.125    7.058
  514.674    0.187    0.440  100.180  178.843    5.742
  514.924    0.176    0.430  101.032  173.358    5.235
  515.174    0.178    0.447   97.610  179.972    5.014
  515.424    0.228    0.435   95.775  186.691    4.965
  515.674    0.169    0.424   96.017  174.070    4.943
  515.924    0.205    0.441   98.335  173.238    4.920
  516.174    0.227    0.446  101.326  184.403    4.944
  516.424    0.204    0.440  104.011  170.851    5.059
  516.674    0.162    0.415  105.657  166.607    5.381
  516.924    0.122    0.332   97.776  165.465    5.970
  517.174    0.107    0.329   89.163  164.841    6.647
  517.424    0.208    0.383   95.084  165.457    6.852
  517.674    0.217    0.453  101.128  172.899    5.999
  517.924    0.156    0.454  104.241  171.758    5.017
  518.174    0.215    0.462  105.338  175.684    4.258
  518.424    0.274    0.474  103.869  171.957    3.931
  518.674    0.263    0.493  103.745  173.711    3.829
  518.924    0.252    0.502  104.536  184.979    3.833
  519.174    0.223    0.511  106.061  183.734    3.844
  519.424    0.203    0.460  108.685  184.351    3.820
  519.674    0.181    0.449  102.880  176.176    3.825
  519.924    0.174    0.435  103.733  169.036    3.842
  520.174    0.166    0.411  108.983  165.826    3.889
  520.424    0.170    0.420  113.134  170.890    3.937
  520.674    0.202    0.458  110.505  176.367    3.983
  520.924    0.191    0.462  107.693  177.087    4.025
  521.174    0.201    0.454  110.622  178.531    4.029
  521.424    0.212    0.447  114.651  177.803    4.033
  521.674    0.204    0.444  114.099  167.870    4.060
  521.924    0.192    0.458  113.058  165.901    4.063
  522.174    0.169    0.445  112.811  169.103    4.045
  522.424    0.169    0.444  112.076  171.685    4.028
  522.674    0.177    0.442  109.753  171.474    3.995
  522.924    0.165    0.443  110.178  169.918    3.927
  523.174    0.162    0.457  116.711  168.363    3.880
  523.424    0.177    0.448  120.495  168.359    3.985
  523.674    0.136    0.438  117.134  169.286    4.341
  523.924    0.142    0.436  111.390  173.936    4.816
  524.174    0.146    0.441  110.838  171.656    5.266
  524.424    0.143    0.431  112.484  175.479    5.620
  524.674    0.135    0.409  113.337  169.270    6.111
  524.924    0.073    0.403  114.251  176.505    6.475
  525.174    0.146    0.402  112.050  175.673    6.824
  525.424    0.148    0.391  102.703  170.292    7.022
  525.674    0.125    0.375   94.028  174.011    7.146
  525.924    0.135    0.352   79.918  180.419    7.259
  526.174    0.141    0.361   75.579  170.900    7.335
  526.424    0.144    0.361   72.828  172.551    7.328
  526.674    0.164    0.365   68.917  170.168    7.176
