~VERSION INFORMATION
 VERS.                 2.0:   CWLS LOG ASCII STANDARD -VERSION 2.0
 WRAP.                  NO:   ONE LINE PER DEPTH STEP
~WELL INFORMATION BLOCK
#MNEM.UNIT           DATA                    DESCRIPTION OF MNEMONIC
#---------    -------------------            -------------------------------
# Generated from Intellog Unique Number	CW_76_78/WELL/928
WELL.         CHIEFLO SUNNYDAKE DROWND 10-34 : Well_name    - WELL
LOC .         00/10-34-076-22W4/0            : Location     - LOCATION
UWI .         00/10-34-076-22W4/0            : Uwi          - UNIQUE WELL ID
ENTR.         JAYE                           : Entered      - ENTERED BY
SRVC.         SCHLUMBERGER                   : Scn          - SERVICE COMPANY
DATE.         25 MAR 75                      : Date         - LOG DATE
STRT.M        527.304                        : top_depth    - START DEPTH
STOP.M        743.804                        : bot_depth    - STOP DEPTH
STEP.M        0.25                           : increment    - STEP LENGTH
 NULL. -999.2500:NULL Value
~CURVE INFORMATION BLOCK
#MNEM UNIT       ERCB CURVE CODE    CURVE DESCRIPTION
#-----------   ------------------   ----------------------------------
DEPT.M        00 001 00 00         : DEPTH        - DEPTH
ILD .OHMM     00 120 00 00         : RESD         - DEEP RESISTIVITY (DIL)
NPHI.V/V      00 330 00 00         : PHIN         - NEUTRON POROSITY (SANDSTONE)
DPHI.V/V      00 890 00 00         : PHID         - DENSITY POROSITY (SANDSTONE)
GR  .API      00 310 00 00         : GR           - GAMMA RAY
CALI.MM       00 280 01 00         : CAL          - CALIPER
~PARAMETER INFORMATION
#MNEM.UNIT           DATA             DESCRIPTION OF MNEMONIC
#---------         -----------     ------------------------------
GL  .M        811.073              : gl           - GROUND LEVEL ELEVATION
EREF.M        814.578              : kb           - ELEVATION OF DEPTH REFERENCE
DATM.M        811.073              : datum        - DATUM ELEVATION
TDD .M        748.436              : tdd          - TOTAL DEPTH DRILLER
RUN .         ONE                  : Run          - RUN NUMBER
ENG .         BERNIISKY            : Engineer     - RECORDING ENGINEER
WIT .         BROWN                : Witness      - WITNESSED BY
BASE.         EDM                  : Branch       - HOME BASE OF LOGGING UNIT
MUD .         GEL                  : Mud_type     - MUD TYPE
MATR.         SANDSTONE            : Logunit      - NEUTRON MATRIX
TMAX.C        27.7778              : BHT          - MAXIMUM RECORDED TEMPERATURE
BHTD.M        748.894              : BHTDEP       - MAXIMUM RECORDED TEMPERATURE
RMT .C        -17.7778             : MDTP         - TEMPERATURE OF MUD
MUDD.KG/M     1188                 : MWT          - MUD DENSITY
NEUT.         1                    : NEUTRON      - NEUTRON TYPE
RESI.         0                    : RESIST       - RESISTIVITY TYPE
RM  .OHMM     3.82                 : RM           - RESISTIVITY OF MUD
RMC .OHMM     0                    : RMC          - RESISTIVITY OF MUD CAKE
RMF .OHMM     4.9                  : RMF          - RESISTIVITY OF MUD FILTRATE
SUFT.C        -17.7778             : SUFT         - SURFACE TEMPERATURE
~A  DEPTH     RESD     PHIN     PHID       GR      CAL
  527.304    2.454    0.513    0.193  103.329  176.229
  527.554    2.517    0.512    0.200  104.802  176.009
  527.804    2.635    0.511    0.206  105.724  176.127
  528.054    2.702    0.495    0.208  105.546  177.063
  528.304    2.746    0.487    0.188  104.514  177.595
  528.554    2.801    0.485    0.186  102.619  177.503
  528.804    2.878    0.480    0.182   98.160  177.828
  529.054    2.942    0.470    0.199   93.881  174.712
  529.304    2.973    0.465    0.203   88.629  169.139
  529.554    2.918    0.462    0.198   84.165  166.339
  529.804    2.848    0.467    0.192   86.558  163.346
  530.054    2.700    0.481    0.184   92.681  161.187
  530.304    2.578    0.501    0.219   94.762  161.395
  530.554    2.421    0.534    0.211   92.753  163.673
  530.804    2.224    0.543    0.193   89.936  168.038
  531.054    2.043    0.544    0.215   86.454  171.561
  531.304    1.969    0.543    0.231   81.502  177.283
  531.554    2.173    0.551    0.243   74.479  180.381
  531.804    2.693    0.564    0.258   69.284  176.154
  532.054    4.284    0.534    0.280   65.731  168.701
  532.304    5.938    0.456    0.300   64.700  163.629
  532.554    7.399    0.443    0.296   66.903  160.135
  532.804    9.035    0.458    0.298   66.852  159.605
  533.054    9.684    0.472    0.307   65.326  160.447
  533.304    9.111    0.471    0.314   63.739  160.475
  533.554    8.249    0.460    0.313   63.934  159.743
  533.804    7.905    0.456    0.294   66.746  157.273
  534.054    8.167    0.463    0.275   66.565  154.479
  534.304    8.626    0.472    0.252   61.614  152.292
  534.554    9.045    0.471    0.268   57.953  148.890
  534.804    9.519    0.465    0.286   56.550  145.494
  535.054    9.981    0.451    0.262   57.112  144.866
  535.304   10.218    0.442    0.254   61.081  147.678
  535.554   10.462    0.451    0.270   61.338  151.721
  535.804   10.750    0.457    0.288   60.238  156.803
  536.054   10.905    0.457    0.298   61.347  161.059
  536.304   10.861    0.453    0.310   63.794  160.030
  536.554   10.504    0.439    0.307   64.293  157.037
  536.804    9.579    0.432    0.290   63.190  155.280
  537.054    8.593    0.433    0.285   63.316  153.840
  537.304    7.651    0.436    0.276   67.123  152.626
  537.554    6.788    0.434    0.256   70.912  152.518
  537.804    6.100    0.431    0.258   70.919  155.624
  538.054    5.432    0.434    0.269   69.277  160.804
  538.304    4.645    0.442    0.249   70.193  163.398
  538.554    3.936    0.460    0.273   78.335  157.937
  538.804    3.498    0.476    0.271   86.228  153.987
  539.054    3.226    0.516    0.254   81.037  154.105
  539.304    3.990    0.540    0.259   70.944  159.710
  539.554    5.215    0.523    0.295   59.265  160.642
  539.804    6.310    0.446    0.309   51.321  156.410
  540.054    8.278    0.416    0.314   49.920  153.427
  540.304    9.961    0.405    0.313   49.622  154.245
  540.554   10.935    0.417    0.314   51.331  157.801
  540.804   10.732    0.419    0.323   54.944  161.009
  541.054   10.172    0.408    0.325   58.504  163.804
  541.304    8.293    0.409    0.322   62.236  165.053
  541.554    7.131    0.412    0.319   68.426  164.759
  541.804    6.327    0.412    0.306   70.930  163.842
  542.054    5.780    0.417    0.282   72.525  163.230
  542.304    5.962    0.435    0.261   67.761  163.536
  542.554    6.449    0.437    0.247   63.304  164.991
  542.804    7.661    0.426    0.266   60.803  167.166
  543.054    9.118    0.418    0.276   59.333  169.055
  543.304   10.460    0.427    0.285   58.844  168.015
  543.554   10.807    0.421    0.297   61.608  161.287
  543.804   10.434    0.416    0.291   63.935  154.662
  544.054    9.533    0.427    0.261   65.406  156.121
  544.304    8.773    0.441    0.223   67.007  165.866
  544.554    8.408    0.447    0.235   66.150  168.678
  544.804    8.191    0.442    0.239   62.980  163.402
  545.054    8.386    0.438    0.245   61.145  156.571
  545.304    8.681    0.430    0.264   61.639  154.299
  545.554    8.520    0.420    0.274   66.049  160.324
  545.804    7.928    0.408    0.279   71.005  156.497
  546.054    7.310    0.399    0.280   77.680  153.185
  546.304    6.703    0.400    0.262   77.932  153.412
  546.554    6.249    0.408    0.223   74.936  154.856
  546.804    6.089    0.419    0.213   72.247  156.846
  547.054    6.372    0.429    0.242   70.478  158.825
  547.304    6.867    0.437    0.253   69.996  160.787
  547.554    7.148    0.433    0.269   69.267  162.346
  547.804    7.386    0.423    0.274   67.680  163.180
  548.054    7.631    0.419    0.272   66.094  163.508
  548.304    7.914    0.415    0.277   71.174  164.141
  548.554    8.147    0.412    0.285   77.971  165.910
  548.804    7.751    0.409    0.281   83.237  166.540
  549.054    7.146    0.412    0.266   88.075  165.402
  549.304    6.748    0.420    0.252   92.611  163.447
  549.554    6.709    0.420    0.224   93.956  162.107
  549.804    7.086    0.405    0.229   94.448  162.222
  550.054    7.403    0.395    0.229   95.003  163.250
  550.304    7.691    0.389    0.205   91.154  165.234
  550.554    8.005    0.397    0.190   87.182  167.101
  550.804    8.394    0.401    0.220   84.863  168.578
  551.054    8.721    0.394    0.237   79.306  168.999
  551.304    8.961    0.394    0.251   74.107  168.991
  551.554    9.430    0.395    0.261   67.626  168.376
  551.804   10.429    0.398    0.267   59.804  166.522
  552.054   11.597    0.405    0.261   48.120  164.057
  552.304   13.062    0.393    0.256   37.482  162.601
  552.554   15.546    0.368    0.282   29.163  161.787
  552.804   17.967    0.363    0.303   28.984  160.859
  553.054   19.329    0.363    0.314   31.870  160.252
  553.304   19.608    0.364    0.308   36.581  159.637
  553.554   17.783    0.364    0.295   42.029  159.344
  553.804   16.010    0.364    0.287   46.143  159.121
  554.054   14.494    0.366    0.274   48.526  158.125
  554.304   13.145    0.378    0.285   51.719  157.594
  554.554   11.856    0.391    0.289   55.691  156.666
  554.804   10.714    0.387    0.290   64.995  156.062
  555.054    9.522    0.386    0.289   73.807  156.175
  555.304    8.448    0.387    0.275   84.276  157.320
  555.554    7.746    0.392    0.251   90.211  158.991
  555.804    7.235    0.405    0.212   87.469  160.536
  556.054    6.708    0.413    0.234   88.146  162.000
  556.304    6.393    0.416    0.237   93.655  163.973
  556.554    6.391    0.419    0.230   96.655  165.434
  556.804    6.388    0.422    0.222   95.624  165.440
  557.054    6.375    0.408    0.219   91.710  164.822
  557.304    6.109    0.404    0.235   88.532  163.706
  557.554    5.974    0.413    0.238   86.095  163.176
  557.804    5.538    0.425    0.250   84.506  162.782
  558.054    4.728    0.433    0.269  100.477  162.913
  558.304    3.991    0.447    0.257  109.779  163.306
  558.554    3.345    0.464    0.164  115.166  164.266
  558.804    2.887    0.495    0.141  115.786  165.316
  559.054    2.533    0.525    0.147  116.769  165.935
  559.304    2.353    0.558    0.181  118.119  166.061
  559.554    2.284    0.566    0.182  119.598  165.945
  559.804    2.254    0.560    0.182  120.517  165.542
  560.054    2.253    0.539    0.182  120.954  165.140
  560.304    2.248    0.524    0.168  121.513  165.236
  560.554    2.235    0.529    0.148  122.374  165.343
  560.804    2.251    0.539    0.135  123.105  165.469
  561.054    2.343    0.549    0.142  122.191  165.377
  561.304    2.497    0.522    0.192  117.920  164.446
  561.554    2.777    0.481    0.208  114.803  163.728
  561.804    3.299    0.454    0.197  112.110  163.219
  562.054    3.812    0.437    0.206  109.300  163.637
  562.304    4.072    0.441    0.209  107.166  165.310
  562.554    4.222    0.450    0.198  105.332  166.758
  562.804    4.244    0.454    0.213  102.887  168.633
  563.054    4.314    0.460    0.226   97.088  168.429
  563.304    4.632    0.471    0.216   90.850  166.776
  563.554    5.160    0.482    0.239   85.413  167.101
