~VERSION INFORMATION
 VERS.                 2.0:   CWLS LOG ASCII STANDARD -VERSION 2.0
 WRAP.                  NO:   ONE LINE PER DEPTH STEP
~WELL INFORMATION BLOCK
#MNEM.UNIT           DATA                    DESCRIPTION OF MNEMONIC
#---------    -------------------            -------------------------------
# Generated from Intellog Unique Number	CX_WELLS/WELL/3030
WELL.         LACANA                         : Well_name    - WELL
LOC .         00/10-03-082-13W4/0            : Location     - LOCATION
UWI .         00/10-03-082-13W400            : Uwi          - UNIQUE WELL ID
ENTR.         T                              : Entered      - ENTERED BY
SRVC.         SCHLUMBERGER                   : Scn          - SERVICE COMPANY
STRT.M        225                            : top_depth    - START DEPTH
STOP.M        457                            : bot_depth    - STOP DEPTH
STEP.M        0.25                           : increment    - STEP LENGTH
 NULL. -999.2500:NULL Value
~CURVE INFORMATION BLOCK
#MNEM UNIT       ERCB CURVE CODE    CURVE DESCRIPTION
#-----------   ------------------   ----------------------------------
DEPT.M        00 001 00 00         : DEPTH        - DEPTH
GR  .API      00 310 00 00         : GR           - GAMMA RAY
NPHI.V/V      00 330 00 00         : PHIN         - NEUTRON POROSITY (SANDSTONE)
DPHI.V/V      00 890 00 00         : PHID         - DENSITY POROSITY (SANDSTONE)
ILD .OHMM     00 120 00 00         : RESD         - DEEP RESISTIVITY (OTHER)
~PARAMETER INFORMATION
#MNEM.UNIT           DATA             DESCRIPTION OF MNEMONIC
#---------         -----------     ------------------------------
GL  .M        666.6                : gl           - GROUND LEVEL ELEVATION
EREF.M        669.8                : kb           - ELEVATION OF DEPTH REFERENCE
DATM.M        669.8                : datum        - DATUM ELEVATION
TDD .M        468                  : tdd          - TOTAL DEPTH DRILLER
RUN .         ONE                  : Run          - RUN NUMBER
ENG .         BILL                 : Engineer     - RECORDING ENGINEER
WIT .         JIM                  : Witness      - WITNESSED BY
MUD .         GEL                  : Mud_type     - MUD TYPE
MATR.         SANDSTONE            : Logunit      - NEUTRON MATRIX
TMAX.C        20                   : BHT          - MAXIMUM RECORDED TEMPERATURE
BHTD.M        468                  : BHTDEP       - MAXIMUM RECORDED TEMPERATURE
MATR.         1                    : LOGUNIT      - NEUTRON MATRIX
RMT .C        20                   : MDTP         - TEMPERATURE OF MUD
NEUT.         1                    : NEUTRON      - NEUTRON TYPE
RESI.         2.5                  : RESIST       - RESISTIVITY TYPE
RMC .OHMM     3.1                  : RMC          - RESISTIVITY OF MUD CAKE
RMF .OHMM     2.5                  : RMF          - RESISTIVITY OF MUD FILTRATE
SUFT.C        2                    : SUFT         - SURFACE TEMPERATURE
~A  DEPTH       GR     PHIN     PHID     RESD
# ...
  312.000   61.951    0.401    0.322   14.176
  312.250   62.561    0.401    0.321   14.164
  312.500   64.399    0.405    0.320   14.156
  312.750   65.009    0.407    0.320   13.877
  313.000   66.231    0.407    0.323   13.872
  313.250   66.221    0.408    0.324   13.863
  313.500   65.597    0.410    0.324   13.592
  313.750   65.585    0.410    0.324   13.322
  314.000   65.578    0.411    0.323   13.317
  314.250   65.566    0.412    0.321   13.310
  314.500   65.556    0.412    0.319   13.554
  314.750   66.163    0.412    0.317   13.544
  315.000   66.768    0.412    0.313   13.535
  315.250   66.759    0.413    0.307   13.525
  315.500   67.364    0.414    0.301   13.263
  315.750   67.356    0.414    0.298   12.058
  316.000   67.966    0.414    0.296   11.174
  316.250   67.956    0.411    0.293   10.755
  316.500   67.947    0.411    0.286   10.350
  316.750   68.549    0.411    0.279    9.959
  317.000   72.243    0.412    0.264    9.768
  317.250   77.168    0.414    0.252    9.578
  317.500   77.773    0.414    0.252    8.875
  317.750   76.532    0.414    0.275    8.541
  318.000   73.438    0.411    0.281    7.914
  318.250   70.342    0.411    0.305    7.617
  318.500   68.484    0.411    0.307    7.469
  318.750   66.007    0.413    0.318    7.606
  319.000   64.145    0.414    0.313    8.351
  319.250   67.836    0.416    0.311    9.342
  319.500   67.824    0.421    0.313    9.882
  319.750   66.584    0.422    0.317   10.648
  320.000   64.719    0.424    0.321   10.245
  320.250   64.097    0.427    0.315    9.318
  320.500   65.938    0.434    0.312    8.796
  320.750   69.629    0.441    0.307    8.960
  321.000   72.087    0.443    0.301    9.298
  321.250   72.075    0.446    0.298    9.468
  321.500   70.210    0.453    0.295    8.609
  321.750   69.586    0.466    0.291    7.683
  322.000   70.193    0.475    0.289    6.856
  322.250   72.651    0.474    0.287    7.387
  322.500   75.106    0.464    0.283    7.960
  322.750   75.716    0.435    0.288    8.416
  323.000   74.475    0.428    0.315    8.736
  323.250   72.613    0.422    0.328    9.065
  323.500   70.753    0.425    0.341   10.140
  323.750   67.659    0.417    0.346   10.524
  324.000   64.563    0.412    0.344   11.128
  324.250   65.172    0.416    0.343   11.332
  324.500   66.394    0.420    0.342   11.541
  324.750   67.001    0.422    0.342   11.531
  325.000   66.992    0.421    0.342   11.523
  325.250   66.365    0.418    0.343   11.515
  325.500   66.353    0.416    0.343   11.503
  325.750   66.349    0.416    0.342   11.499
  326.000   65.720    0.416    0.341   11.491
  326.250   65.708    0.416    0.340   11.264
  326.500   66.317    0.418    0.336   11.259
  326.750   66.308    0.418    0.335   11.253
  327.000   66.296    0.418    0.332   11.031
  327.250   66.905    0.418    0.331   10.816
  327.500   67.508    0.417    0.331   10.810
  327.750   68.117    0.417    0.332   10.601
  328.000   68.110    0.416    0.334   10.395
  328.250   68.710    0.415    0.336   10.196
  328.500   69.322    0.414    0.339    9.998
  328.750   70.541    0.415    0.341    9.093
  329.000   71.151    0.418    0.341    6.594
  329.250   72.378    0.425    0.317    4.272
  329.500   79.153    0.437    0.279    2.820
  329.750   95.798    0.455    0.264    2.517
  330.000   98.870    0.466    0.262    2.421
  330.250  100.097    0.469    0.260    2.374
  330.500  101.318    0.473    0.255    2.328
  330.750  103.159    0.475    0.229    2.327
  331.000  105.617    0.478    0.226    2.414
  331.250  106.222    0.481    0.221    2.505
  331.500  106.212    0.485    0.215    2.650
  331.750  104.352    0.491    0.210    2.802
  332.000  101.875    0.512    0.218    3.135
  332.250   98.779    0.517    0.231    3.574
  332.500   96.924    0.514    0.242    4.153
  332.750   93.830    0.478    0.252    4.647
  333.000   90.119    0.454    0.262    5.400
  333.250   85.790    0.441    0.272    6.393
  333.500   81.462    0.430    0.275    7.290
  333.750   77.135    0.427    0.273    7.562
  334.000   74.039    0.430    0.271    7.555
  334.250   83.898    0.431    0.266    7.553
  334.500   83.889    0.425    0.248    7.545
  334.750   84.496    0.418    0.230    7.542
  335.000   86.334    0.406    0.222    7.258
  335.250   87.561    0.429    0.226    6.726
  335.500   88.166    0.434    0.250    5.780
  335.750   88.159    0.439    0.254    4.967
  336.000   88.147    0.439    0.258    3.741
  336.250   87.520    0.438    0.260    2.872
  336.500   86.279    0.440    0.256    2.377
  336.750   81.952    0.445    0.249    1.894
  337.000   77.624    0.452    0.227    1.690
  337.250   87.484    0.472    0.217    1.480
  337.500   94.876    0.477    0.218    1.452
  337.750   97.334    0.479    0.246    1.594
  338.000   96.086    0.479    0.248    1.750
  338.250   94.843    0.472    0.251    2.034
  338.500   93.597    0.463    0.255    2.597
  338.750   91.123    0.460    0.259    3.442
  339.000   88.646    0.455    0.261    4.829
  339.250   85.554    0.451    0.261    5.938
  339.500   83.078    0.443    0.259    7.872
  339.750   78.745    0.437    0.258    9.679
  340.000   77.504    0.428    0.258   10.430
  340.250   75.020    0.413    0.259    9.849
  340.500   74.396    0.415    0.259    8.954
  340.750   74.392    0.418    0.259    8.456
  341.000   73.765    0.421    0.260    8.137
  341.250   73.139    0.422    0.259    7.828
  341.500   73.129    0.422    0.259    7.824
  341.750   73.117    0.425    0.258    7.675
  342.000   73.105    0.425    0.258    7.527
  342.250   73.098    0.425    0.258    7.521
  342.500   73.086    0.425    0.233    7.376
  342.750   73.079    0.426    0.230    7.233
  343.000   73.681    0.427    0.230    7.090
  343.250   73.674    0.428    0.235    6.953
  343.500   73.667    0.433    0.242    6.819
  343.750   74.269    0.441    0.246    6.685
  344.000   74.262    0.443    0.251    6.683
  344.250   74.255    0.435    0.254    6.678
  344.500   74.857    0.427    0.257    6.548
  344.750   74.848    0.427    0.260    6.545
  345.000   75.453    0.429    0.254    6.536
  345.250   76.062    0.430    0.247    6.533
  345.500   76.055    0.429    0.243    6.530
  345.750   76.662    0.426    0.248    6.524
  346.000   78.503    0.423    0.251    6.520
  346.250   78.491    0.424    0.253    6.515
  346.500   79.098    0.427    0.253    6.510
  346.750   80.937    0.415    0.253    6.384
  347.000   82.778    0.419    0.253    6.381
  347.250   81.534    0.426    0.253    6.375
  347.500   78.438    0.430    0.252    6.370
  347.750   77.200    0.426    0.251    6.735
  348.000   76.573    0.424    0.250    6.989
  348.250   77.176    0.419    0.249    6.853
  348.500   78.402    0.413    0.246    6.850
  348.750   79.010    0.412    0.245    6.591
  349.000   79.619    0.435    0.244    6.342
  349.250   80.841    0.438    0.244    6.220
  349.500   83.296    0.439    0.244    6.217
  349.750   84.518    0.441    0.240    6.093
  350.000   84.511    0.445    0.228    6.090
  350.250   83.887    0.443    0.229    6.087
  350.500   83.255    0.423    0.230    6.315
  350.750   83.248    0.418    0.233    6.432
  351.000   84.472    0.414    0.230    6.550
  351.250   85.699    0.416    0.228    6.796
  351.500   87.540    0.418    0.226    6.920
  351.750   89.995    0.412    0.218    6.913
  352.000   91.833    0.406    0.212    6.778
  352.250   91.207    0.406    0.212    6.650
  352.500   88.730    0.408    0.212    6.397
  352.750   91.188    0.413    0.213    6.157
  353.000   94.265    0.417    0.215    5.926
  353.250   96.106    0.424    0.216    5.490
  353.500   96.713    0.434    0.218    5.284
  353.750   95.470    0.439    0.220    5.086
  354.000   93.609    0.436    0.223    4.894
  354.250   93.597    0.431    0.227    4.890
  354.500   93.585    0.438    0.231    5.369
  354.750   93.578    0.449    0.236    5.572
  355.000   91.716    0.456    0.238    6.117
  355.250   91.092    0.433    0.246    6.230
