~VERSION INFORMATION
 VERS.                 2.0:   CWLS LOG ASCII STANDARD -VERSION 2.0
 WRAP.                  NO:   ONE LINE PER DEPTH STEP
~WELL INFORMATION BLOCK
#MNEM.UNIT           DATA                    DESCRIPTION OF MNEMONIC
#---------    -------------------            -------------------------------
# Generated from Intellog Unique Number	CC_80_83/WELL/2390
NULL.         -999.25                        : NULL_VALUE
WELL.         GULF RESDELN                   : Well_name    - WELL              
LOC .         10-35-083-06W4                 : Location     - LOCATION          
UWI .         00/10-35-083-06W4/0            : Uwi          - UNIQUE WELL ID    
ENTR.         DW                             : Entered      - ENTERED BY        
SRVC.         SCHLUMBERGER                   : Scn          - SERVICE COMPANY   
DATE.         09 FEB 79                      : Date         - LOG DATE
STRT.M        135                            : top_depth    - START DEPTH       
STOP.M        374.996                        : bot_depth    - STOP DEPTH        
STEP.M        0.3                            : increment    - STEP LENGTH       
~CURVE INFORMATION BLOCK
#MNEM UNIT       ERCB CURVE CODE    CURVE DESCRIPTION
#-----------   ------------------   ----------------------------------
DEPT.M        00 001 00 00         : DEPTH        - DEPTH                       
DPHI.V/V      00 890 00 00         : PHID         - DENSITY POROSITY (LIMESTONE)
NPHI.V/V      00 330 00 00         : PHIN         - NEUTRON POROSITY (LIMESTONE)
GR  .API      00 310 00 00         : GR           - GAMMA RAY                   
ILD .OHMM     00 120 00 00         : RESD         - DEEP RESISTIVITY (DIL)      
~PARAMETER INFORMATION       
#MNEM.UNIT           DATA             DESCRIPTION OF MNEMONIC
#---------         -----------     ------------------------------
GL  .M        542.64               : gl           - GROUND LEVEL ELEVATION      
EREF.M        546.14               : kb           - ELEVATION OF DEPTH REFERENCE
DATM.M        546.14               : datum        - DATUM ELEVATION             
TDD .M        380                  : tdd          - TOTAL DEPTH DRILLER         
RUN .         ONE                  : Run          - RUN NUMBER                  
ENG .         BILL                 : Engineer     - RECORDING ENGINEER          
WIT .         JIM                  : Witness      - WITNESSED BY                
MUD .         GEL                  : Mud_type     - MUD TYPE                    
MATR.         LIMESTONE            : Logunit      - NEUTRON MATRIX              
TMAX.C        25                   : BHT          - MAXIMUM RECORDED TEMPERATURE
BHTD.M        380                  : BHTDEP       - MAXIMUM RECORDED TEMPERATURE
MATR.         1                    : LOGUNIT      - NEUTRON MATRIX              
RMT .C        25                   : MDTP         - TEMPERATURE OF MUD          
NEUT.         1                    : NEUTRON      - NEUTRON TYPE                
RESI.         0                    : RESIST       - RESISTIVITY TYPE            
RMC .OHMM     0.25                 : RMC          - RESISTIVITY OF MUD CAKE     
RMF .OHMM     0.25                 : RMF          - RESISTIVITY OF MUD FILTRATE 
SUFT.C        4                    : SUFT         - SURFACE TEMPERATURE         
~A  DEPTH     PHID     PHIN       GR     RESD
  135.000    0.326    0.513   73.049   14.610
  135.300    0.253    0.449   76.689   14.307
  135.600    0.251    0.418   80.326   14.008
  135.900    0.250    0.433   78.450   14.244
  136.200    0.256    0.436   80.248   14.482
  136.500    0.253    0.419   81.429   14.174
  136.800    0.249    0.392   80.159   13.878
  137.100    0.256    0.385   78.893   13.849
  137.400    0.260    0.400   80.699   13.821
  137.700    0.264    0.413   83.112   13.790
  138.000    0.269    0.409   83.072   14.830
  138.300    0.279    0.422   79.343   15.667
  138.600    0.290    0.432   76.237   17.181
  138.900    0.301    0.432   73.121   18.136
  139.200    0.308    0.423   71.246   18.792
  139.500    0.304    0.417   63.220   18.757
  139.800    0.300    0.432   62.559   18.701
  140.100    0.296    0.449   71.733   18.663
  140.400    0.306    0.448   74.140   18.980
  140.700    0.310    0.457   74.716   19.305
  141.000    0.289    0.468   78.968   19.991
  141.300    0.283    0.469   78.321   18.843
  141.600    0.276    0.429   81.964   17.772
  141.900    0.268    0.423   91.130   16.141
  142.200    0.262    0.444   98.456   15.208
  142.500    0.265    0.457   97.183   15.770
  142.800    0.289    0.467   92.847   19.003
  143.100    0.296    0.468   81.757   23.340
  143.400    0.294    0.425   71.281   27.071
  143.700    0.278    0.402   63.869   28.594
  144.000    0.271    0.410   59.534   29.072
  144.300    0.284    0.405   57.644   28.475
  144.600    0.294    0.390   57.603   25.359
  144.900    0.285    0.389   60.634   21.758
  145.200    0.267    0.404   65.508   17.972
  145.500    0.236    0.422   75.903   16.004
  145.800    0.246    0.449   89.977   15.377
  146.100    0.262    0.460   89.326   15.349
  146.400    0.263    0.444   80.072   15.604
  146.700    0.259    0.425   78.806   15.572
  147.000    0.250    0.426   86.741   14.957
  147.300    0.238    0.419   92.224   14.103
  147.600    0.231    0.430   97.094   13.049
  147.900    0.237    0.434  103.192   11.403
  148.200    0.247    0.432  107.450    9.966
  148.500    0.247    0.451  114.161    8.881
  148.800    0.241    0.465  112.273    8.066
  149.100    0.220    0.476  114.696    7.184
  149.400    0.213    0.479  115.877    6.901
  149.700    0.218    0.475  114.610    7.288
  150.000    0.237    0.474  111.495    8.144
  150.300    0.252    0.469  109.006    9.447
  150.600    0.256    0.450  104.667   10.972
  150.900    0.250    0.455  107.694   12.725
  151.200    0.252    0.442  110.109   12.945
  151.500    0.240    0.456  102.702   12.915
  151.800    0.232    0.439   98.978   11.944
  152.100    0.238    0.450  114.890   11.265
  152.400    0.253    0.459  119.150   10.620
  152.700    0.264    0.465  118.498   10.397
  153.000    0.282    0.470  114.156   11.400
  153.300    0.293    0.477  107.977   12.504
  153.600    0.312    0.481   99.950   13.965
  153.900    0.317    0.475   95.001   14.474
  154.200    0.289    0.456   93.736   14.998
  154.500    0.287    0.443   94.303   15.256
  154.800    0.275    0.439   93.646   14.660
  155.100    0.262    0.434   94.213   14.071
  155.400    0.266    0.427   95.403   13.773
  155.700    0.264    0.437   97.819   13.759
  156.000    0.269    0.447   99.618   15.363
  156.300    0.267    0.449  100.199   16.221
  156.600    0.268    0.415   97.088   16.494
  156.900    0.279    0.396   89.066   16.766
  157.200    0.294    0.398   84.111   17.053
  157.500    0.311    0.422   71.792   18.004
  157.800    0.319    0.432   61.318   18.653
  158.100    0.321    0.439   56.363   18.984
  158.400    0.324    0.420   57.547   18.936
  158.700    0.326    0.421   57.503   18.195
  159.000    0.321    0.457   56.843   16.831
  159.300    0.319    0.477   56.188   16.163
  159.600    0.317    0.482   55.538   16.135
  159.900    0.310    0.477   56.113   16.726
  160.200    0.308    0.452   56.068   18.337
  160.500    0.304    0.436   54.804   18.640
  160.800    0.294    0.424   54.145   18.598
  161.100    0.278    0.417   54.111   18.218
  161.400    0.268    0.423   54.068   16.854
  161.700    0.264    0.418   56.483   13.652
  162.000    0.266    0.388   68.720   12.636
  162.300    0.275    0.432   77.271   12.606
  162.600    0.287    0.457   74.775   14.086
  162.900    0.307    0.464   69.202   16.977
  163.200    0.321    0.414   72.852   20.858
  163.500    0.333    0.413   66.669   24.654
  163.800    0.352    0.420   58.649   26.048
  164.100    0.348    0.432   55.540   26.483
  164.400    0.347    0.409   54.252   26.389
  164.700    0.351    0.398   56.071   26.359
  165.000    0.350    0.435   61.550   25.801
  165.300    0.344    0.441   62.734   25.262
  165.600    0.337    0.422   62.086   25.689
  165.900    0.338    0.399   58.360   27.115
  166.200    0.345    0.404   52.175   28.096
  166.500    0.342    0.404   57.662   27.520
  166.800    0.338    0.401   62.531   27.444
  167.100    0.339    0.406   58.811   26.895
  167.400    0.341    0.443   56.920   26.819
  167.700    0.328    0.448   55.654   26.759
  168.000    0.321    0.445   53.154   27.215
  168.300    0.323    0.436   51.884   27.675
  168.600    0.331    0.429   51.849   28.137
  168.900    0.338    0.424   55.486   29.154
  169.200    0.327    0.432   58.515   29.083
  169.500    0.324    0.424   60.322   29.027
  169.800    0.329    0.429   59.662   28.952
  170.100    0.331    0.431   56.544   27.802
  170.400    0.329    0.401   55.280   27.761
  170.700    0.324    0.405   55.854   27.677
  171.000    0.330    0.414   57.044   28.169
  171.300    0.338    0.411   56.993   28.104
  171.600    0.347    0.419   58.181   28.570
  171.900    0.366    0.416   58.753   28.499
  172.200    0.361    0.431   58.720   27.904
  172.500    0.336    0.436   58.669   27.318
  172.800    0.340    0.427   58.636   27.256
  173.100    0.342    0.409   57.360   27.712
  173.400    0.339    0.429   54.255   28.167
  173.700    0.346    0.444   54.825   28.671
  174.000    0.342    0.459   55.405   29.139
  174.300    0.336    0.437   54.747   29.072
  174.600    0.341    0.425   54.087   29.002
  174.900    0.335    0.419   52.824   29.485
  175.200    0.331    0.412   53.394   29.435
  175.500    0.336    0.410   56.426   28.277
  175.800    0.343    0.422   60.066   26.163
  176.100    0.346    0.429   62.476   26.612
  176.400    0.348    0.434   62.439   27.044
  176.700    0.349    0.451   58.706   26.995
  177.000    0.351    0.459   57.443   26.418
  177.300    0.353    0.447   56.174   25.865
  177.600    0.351    0.450   54.292   25.326
  177.900    0.336    0.440   56.708   25.268
  178.200    0.336    0.434   55.440   25.689
  178.500    0.344    0.417   54.170   27.134
  178.800    0.331    0.406   55.357   28.106
  179.100    0.324    0.416   54.699   28.579
  179.400    0.324    0.440   54.040   26.946
  179.700    0.327    0.443   55.230   25.896
  180.000    0.345    0.443   55.804   25.342
  180.300    0.341    0.431   56.993   25.307
  180.600    0.316    0.422   56.945   25.722
  180.900    0.276    0.432   56.291   29.856
  181.200    0.035    0.395   53.184   38.812
  181.500    0.029    0.180   47.616   72.231
  181.800    0.027    0.185   38.983  136.972
  182.100    0.028    0.173   37.709  141.925
  182.400    0.062    0.178   38.281  128.785
  182.700    0.135    0.223   40.691  112.629
  183.000    0.182    0.259   43.730   83.071
  183.300    0.222    0.287   49.210   56.783
  183.600    0.271    0.323   54.082   41.097
  183.900    0.319    0.354   58.332   32.689
  184.201    0.339    0.414   57.682   28.576
  184.501    0.341    0.427   56.413   26.954
  184.801    0.334    0.440   55.758   26.373
  185.101    0.333    0.430   59.386   26.308
  185.401    0.333    0.439   59.967   26.755
  185.701    0.328    0.447   58.085   27.212
  186.001    0.343    0.455   55.583   27.153
  186.301    0.330    0.436   52.467   28.131
  186.601    0.312    0.438   50.596   30.271
  186.901    0.276    0.430   49.942   33.198
