~VERSION INFORMATION
 VERS.                 2.0:   CWLS LOG ASCII STANDARD -VERSION 2.0
 WRAP.                  NO:   ONE LINE PER DEPTH STEP
~WELL INFORMATION BLOCK
#MNEM.UNIT           DATA                    DESCRIPTION OF MNEMONIC
#---------    -------------------            -------------------------------
# Generated from Intellog Unique Number	CS_67_68/WELL/2210
WELL.         INTER-CITY GAS ET AL TWEED     : Well_name    - WELL
LOC .         00/11-36-067-13W4/0            : Location     - LOCATION
UWI .         00/11-36-067-13W4/0            : Uwi          - UNIQUE WELL ID
ENTR.         SP                             : Entered      - ENTERED BY
SRVC.         SCHLUMBERGER                   : Scn          - SERVICE COMPANY
STRT.M        304.8                          : top_depth    - START DEPTH
STOP.M        480.050                        : bot_depth    - STOP DEPTH
STEP.M        0.25                           : increment    - STEP LENGTH
 NULL. -999.2500:NULL Value
~CURVE INFORMATION BLOCK
#MNEM UNIT       ERCB CURVE CODE    CURVE DESCRIPTION
#-----------   ------------------   ----------------------------------
DEPT.M        00 001 00 00         : DEPTH        - DEPTH
CALI.MM       00 280 01 00         : CAL          - CALIPER
GR  .API      00 310 00 00         : GR           - GAMMA RAY
DPHI.V/V      00 890 00 00         : PHID         - DENSITY POROSITY (SANDSTONE)
NPHI.V/V      00 330 00 00         : PHIN         - NEUTRON POROSITY (SANDSTONE)
ILD .OHMM     00 120 00 00         : RESD         - DEEP RESISTIVITY (DIL)
~PARAMETER INFORMATION
#MNEM.UNIT           DATA             DESCRIPTION OF MNEMONIC
#---------         -----------     ------------------------------
GL  .M        587.654              : gl           - GROUND LEVEL ELEVATION
EREF.M        590.398              : kb           - ELEVATION OF DEPTH REFERENCE
DATM.M        590.398              : datum        - DATUM ELEVATION
TDD .M        478.536              : tdd          - TOTAL DEPTH DRILLER
RUN .         ONE                  : Run          - RUN NUMBER
ENG .         BILL                 : Engineer     - RECORDING ENGINEER
WIT .         JIM                  : Witness      - WITNESSED BY
MUD .         GEL                  : Mud_type     - MUD TYPE
MATR.         SANDSTONE            : Logunit      - NEUTRON MATRIX
TMAX.C        60                   : BHT          - MAXIMUM RECORDED TEMPERATURE
BHTD.M        478.536              : BHTDEP       - MAXIMUM RECORDED TEMPERATURE
MATR.         1                    : LOGUNIT      - NEUTRON MATRIX
RMT .C        25                   : MDTP         - TEMPERATURE OF MUD
NEUT.         1                    : NEUTRON      - NEUTRON TYPE
RESI.         0                    : RESIST       - RESISTIVITY TYPE
RMC .OHMM     0.25                 : RMC          - RESISTIVITY OF MUD CAKE
RMF .OHMM     0.25                 : RMF          - RESISTIVITY OF MUD FILTRATE
SUFT.C        15                   : SUFT         - SURFACE TEMPERATURE
~A  DEPTH      CAL       GR     PHID     PHIN     RESD
# ...
  450.800  158.248  106.282    0.102    0.420    4.717
  451.050  157.756  106.722    0.090    0.427    4.798
  451.300  158.323  107.280    0.107    0.441    4.679
  451.550  159.241  107.992    0.119    0.456    4.301
  451.800  159.888  108.932    0.072    0.453    3.842
  452.050  160.826  110.451    0.042    0.445    3.514
  452.300  162.587  115.794    0.086    0.466    3.308
  452.550  165.572  120.040    0.163    0.478    3.146
  452.800  168.403  124.581    0.178    0.482    3.007
  453.050  169.935  128.680    0.184    0.494    2.986
  453.300  171.378  131.270    0.185    0.490    3.036
  453.550  171.636  129.128    0.170    0.485    3.134
  453.800  171.640  126.645    0.156    0.500    3.265
  454.050  171.687  126.400    0.157    0.516    3.366
  454.300  171.673  130.089    0.181    0.531    3.479
  454.550  171.557  128.995    0.176    0.516    3.538
  454.800  170.403  124.018    0.164    0.482    3.446
  455.050  167.891  118.504    0.152    0.457    3.234
  455.300  166.876  120.047    0.111    0.478    2.976
  455.550  165.887  123.654    0.076    0.505    2.797
  455.800  165.676  120.820    0.053    0.504    2.722
  456.050  165.272  121.979    0.129    0.518    2.695
  456.300  165.166  126.363    0.165    0.534    2.708
  456.550  165.241  129.980    0.156    0.521    2.793
  456.800  165.332  132.518    0.144    0.511    2.863
  457.050  165.125  134.713    0.160    0.532    2.913
  457.300  165.448  134.375    0.164    0.513    2.950
  457.550  165.419  131.271    0.148    0.499    3.022
  457.800  165.567  130.543    0.136    0.503    3.168
  458.050  165.818  131.613    0.141    0.514    3.375
  458.300  166.057  133.097    0.173    0.512    3.719
  458.550  165.935  126.889    0.180    0.489    4.116
  458.800  165.667  109.669    0.171    0.458    4.481
  459.050  165.498  101.617    0.157    0.426    4.825
  459.300  165.383  100.285    0.161    0.399    5.245
  459.550  165.179   99.960    0.152    0.409    5.701
  459.800  164.939  100.875    0.144    0.424    6.243
  460.050  163.513   85.375    0.134    0.379    6.863
  460.300  162.401   74.001    0.116    0.300    7.617
  460.550  161.564   67.564    0.091    0.289    8.277
  460.800  161.834   65.604    0.080    0.309    8.435
  461.050  162.065   66.714    0.120    0.323    7.899
  461.300  161.850   69.295    0.149    0.336    7.005
  461.550  161.387   72.709    0.160    0.342    6.449
  461.800  160.934   77.061    0.165    0.346    6.173
  462.050  160.744   79.965    0.159    0.348    6.143
  462.300  160.527   82.107    0.158    0.352    6.152
  462.550  160.523   84.739    0.167    0.363    6.195
  462.800  160.594   88.606    0.168    0.372    6.258
  463.050  160.744   93.170    0.160    0.374    6.335
  463.300  161.068   95.820    0.155    0.369    6.442
  463.550  161.309   96.448    0.149    0.364    6.589
  463.800  161.571   97.109    0.155    0.362    6.684
  464.050  162.108  100.215    0.160    0.361    6.878
  464.300  162.672  104.705    0.162    0.361    7.049
  464.550  162.957  107.679    0.154    0.361    7.248
  464.800  163.389  108.893    0.152    0.360    7.414
  465.050  163.614  108.578    0.169    0.364    7.482
  465.300  163.459  109.185    0.185    0.366    7.145
  465.550  163.461  110.734    0.203    0.367    6.876
  465.800  163.414  112.547    0.202    0.375    6.830
  466.050  163.221  114.201    0.192    0.372    7.443
  466.300  163.352  112.025    0.193    0.371    8.302
  466.550  163.390  106.208    0.204    0.378    9.000
  466.800  163.379  100.147    0.215    0.380    9.484
  467.050  163.323   95.556    0.235    0.375    9.533
  467.300  163.029   98.199    0.252    0.379    9.279
  467.550  162.948  101.894    0.204    0.387    8.617
  467.800  162.712  105.686    0.167    0.374    7.925
  468.050  162.474  107.305    0.169    0.350    7.200
  468.300  162.389  105.175    0.178    0.324    6.889
  468.550  162.350   98.238    0.189    0.320    6.812
  468.800  162.449   93.605    0.179    0.319    7.043
  469.050  162.611   96.326    0.171    0.318    7.625
  469.300  162.669   97.467    0.169    0.318    7.983
  469.550  162.897   95.702    0.167    0.314    8.346
  469.800  162.874   91.763    0.183    0.297    8.586
  470.050  163.011   86.693    0.195    0.281    8.576
  470.300  162.949   83.415    0.214    0.271    8.413
  470.550  163.146   83.846    0.225    0.282    7.958
  470.800  163.219   88.343    0.182    0.295    7.548
  471.050  163.470   95.205    0.160    0.310    7.190
  471.300  163.724  100.124    0.140    0.328    6.813
  471.550  164.085  104.747    0.138    0.332    6.547
  471.800  163.898   86.740    0.143    0.297    6.402
  472.050  163.587   80.256    0.187    0.285    6.498
  472.300  163.415   70.108    0.225    0.289    6.849
  472.550  162.903   65.874    0.240    0.283    7.600
  472.800  162.824   65.167    0.249    0.244    8.671
  473.050  162.766   55.211    0.277    0.182   10.082
  473.300  162.939   45.590    0.309    0.126   11.409
  473.550  163.026   11.899    0.377    0.108   12.414
  473.800  163.428   13.371    0.368    0.124   12.284
  474.050  163.787   12.585    0.290    0.158   10.236
  474.300  164.141   11.723    0.245    0.225    7.842
  474.550  164.097   12.948    0.198    0.293    6.397
  474.800  164.316   16.273    0.151    0.356    5.977
  475.050  164.162   25.281    0.131    0.386    5.696
  475.300  164.005   40.909    0.131    0.386    5.634
  475.550  163.583   82.828    0.169    0.393    5.617
  475.800  162.997   85.024    0.209    0.425    5.594
  476.050  162.254   84.652    0.215    0.432    5.547
  476.300  161.891   84.289    0.171    0.435    5.521
  476.550  161.639   84.360    0.151    0.435    5.444
  476.800  161.449   84.636    0.148    0.435    5.315
  477.050  161.400   85.122    0.162    0.434    5.181
  477.300  161.456   85.365    0.199    0.434    5.077
  477.550  161.965   85.381    0.210    0.433    5.006
  477.800  162.750   85.563    0.198    0.432    4.995
  478.050  163.698   85.888    0.151    0.432    4.987
  478.300  165.192   85.836    0.131    0.431    4.989
  478.550  166.304   85.614    0.106    0.431    5.039
  478.800  167.028   84.971    0.085    0.431    5.060
  479.050  167.711   84.362    0.081    0.430    5.157
  479.300  167.440   83.958    0.093    0.431    5.193
  479.550  166.245   83.534    0.094    0.431    5.181
  479.800  163.174   82.304    0.055    0.430    5.146
  480.050  160.024   77.469    0.029    0.421    5.099
