~VERSION INFORMATION
 VERS.                 2.0:   CWLS LOG ASCII STANDARD -VERSION 2.0
 WRAP.                  NO:   ONE LINE PER DEPTH STEP
~WELL INFORMATION BLOCK
#MNEM.UNIT           DATA                    DESCRIPTION OF MNEMONIC
#---------    -------------------            -------------------------------
# Generated from Intellog Unique Number	CS_73_76/WELL/834
WELL.         DOME ET AL KIRBY               : Well_name    - WELL
LOC .         00/10-29-073-05W4/0            : Location     - LOCATION
UWI .         00/10-29-073-05W4/0            : Uwi          - UNIQUE WELL ID
ENTR.         SP                             : Entered      - ENTERED BY
SRVC.         SCHLUMBERGER                   : Scn          - SERVICE COMPANY
STRT.M        270                            : top_depth    - START DEPTH
STOP.M        507                            : bot_depth    - STOP DEPTH
STEP.M        0.25                           : increment    - STEP LENGTH
 NULL. -999.2500:NULL Value
~CURVE INFORMATION BLOCK
#MNEM UNIT       ERCB CURVE CODE    CURVE DESCRIPTION
#-----------   ------------------   ----------------------------------
DEPT.M        00 001 00 00         : DEPTH        - DEPTH
ILD .OHMM     00 120 00 00         : RESD         - DEEP RESISTIVITY (DIL)
DPHI.V/V      00 890 00 00         : PHID         - DENSITY POROSITY (LIMESTONE)
NPHI.V/V      00 330 00 00         : PHIN         - NEUTRON POROSITY (LIMESTONE)
GR  .API      00 310 00 00         : GR           - GAMMA RAY
~PARAMETER INFORMATION
#MNEM.UNIT           DATA             DESCRIPTION OF MNEMONIC
#---------         -----------     ------------------------------
GL  .M        669.03               : gl           - GROUND LEVEL ELEVATION
EREF.M        672.93               : kb           - ELEVATION OF DEPTH REFERENCE
DATM.M        669.03               : datum        - DATUM ELEVATION
TDD .M        514.6                : tdd          - TOTAL DEPTH DRILLER
RUN .         ONE                  : Run          - RUN NUMBER
ENG .         BILL                 : Engineer     - RECORDING ENGINEER
WIT .         JIM                  : Witness      - WITNESSED BY
MUD .         GEL                  : Mud_type     - MUD TYPE
MATR.         LIMESTONE            : Logunit      - NEUTRON MATRIX
TMAX.C        20                   : BHT          - MAXIMUM RECORDED TEMPERATURE
BHTD.M        514.6                : BHTDEP       - MAXIMUM RECORDED TEMPERATURE
MATR.         1                    : LOGUNIT      - NEUTRON MATRIX
RMT .C        25                   : MDTP         - TEMPERATURE OF MUD
NEUT.         1                    : NEUTRON      - NEUTRON TYPE
RESI.         0                    : RESIST       - RESISTIVITY TYPE
RMC .OHMM     0.25                 : RMC          - RESISTIVITY OF MUD CAKE
RMF .OHMM     0.25                 : RMF          - RESISTIVITY OF MUD FILTRATE
SUFT.C        15                   : SUFT         - SURFACE TEMPERATURE
~A  DEPTH     RESD     PHID     PHIN       GR
# ...
  357.000    1.756    0.275    0.491   87.994
  357.250    1.857    0.262    0.495   94.043
  357.500    2.038    0.246    0.504  100.092
  357.750    2.116    0.228    0.517  104.932
  358.000    2.280    0.234    0.518  107.957
  358.250    2.367    0.239    0.512  107.353
  358.500    2.412    0.240    0.517  106.144
  358.750    2.368    0.244    0.523  105.540
  359.000    2.369    0.252    0.541  103.122
  359.250    2.370    0.252    0.561  101.308
  359.500    2.415    0.266    0.534   98.285
  359.750    2.461    0.276    0.523   97.076
  360.000    2.507    0.251    0.512   95.262
  360.250    2.652    0.290    0.510   94.658
  360.500    2.804    0.275    0.500   94.659
  360.750    2.858    0.250    0.513   94.659
  361.000    2.912    0.253    0.508   93.451
  361.250    2.967    0.276    0.478   89.823
  361.500    3.024    0.286    0.475   88.009
  361.750    3.025    0.240    0.506   84.985
  362.000    3.140    0.251    0.535   86.196
  362.250    3.260    0.251    0.534   91.641
  362.500    3.322    0.243    0.532   95.270
  362.750    3.385    0.245    0.530   98.295
  363.000    3.386    0.257    0.533  100.715
  363.250    3.387    0.249    0.533  101.926
  363.500    3.452    0.256    0.530  102.532
  363.750    3.453    0.253    0.527  102.532
  364.000    3.454    0.269    0.524  102.533
  364.250    3.455    0.275    0.533  101.929
  364.500    3.456    0.263    0.542  101.325
  364.750    3.393    0.257    0.555  100.117
  365.000    3.394    0.252    0.563  100.117
  365.250    3.333    0.241    0.570   98.908
  365.500    3.333    0.240    0.542   94.676
  365.750    3.397    0.255    0.501   93.466
  366.000    3.660    0.245    0.472   91.653
  366.250    3.943    0.229    0.470   91.654
  366.500    4.409    0.237    0.476   94.074
  366.750    4.750    0.240    0.481   95.889
  367.000    4.931    0.235    0.483   95.890
  367.250    5.025    0.221    0.490   94.681
  367.500    4.934    0.245    0.496   94.078
  367.750    4.756    0.263    0.493   93.473
  368.000    4.757    0.261    0.486   94.079
  368.250    4.847    0.250    0.472   94.685
  368.500    4.849    0.231    0.455   95.895
  368.750    4.761    0.249    0.453   96.501
  369.000    4.674    0.245    0.476   95.897
  369.250    4.590    0.238    0.479   97.107
  369.500    4.424    0.221    0.482   98.923
  369.750    4.426    0.210    0.493  101.948
  370.000    4.426    0.223    0.519  104.368
  370.250    4.347    0.245    0.535  105.579
  370.500    4.268    0.255    0.540  106.184
  370.750    4.190    0.254    0.534  106.790
  371.000    4.038    0.254    0.521  106.186
  371.250    3.821    0.258    0.528  104.372
  371.500    3.615    0.249    0.545  104.978
  371.750    3.484    0.243    0.553  106.189
  372.000    3.485    0.255    0.553  106.189
  372.250    3.422    0.251    0.541  106.795
  372.500    3.423    0.246    0.536  108.006
  372.750    3.361    0.256    0.528  108.611
  373.000    3.362    0.273    0.538  109.217
  373.250    3.301    0.283    0.551  109.218
  373.500    3.364    0.301    0.563  107.404
  373.750    3.365    0.286    0.570  104.381
  374.000    3.429    0.250    0.541  100.147
  374.250    3.559    0.231    0.506   97.124
  374.500    3.764    0.237    0.496   97.730
  374.750    3.981    0.266    0.511   98.335
  375.000    4.210    0.278    0.490   96.522
  375.250    4.291    0.270    0.481   95.313
  375.500    4.292    0.272    0.472   93.499
  375.750    4.136    0.272    0.472   94.105
  376.000    4.138    0.269    0.488   95.920
  376.250    4.216    0.261    0.496   95.316
  376.500    4.377    0.269    0.490   92.293
  376.750    4.629    0.255    0.488   89.874
  377.000    4.806    0.246    0.481   86.246
  377.250    4.989    0.244    0.472   85.037
  377.500    4.990    0.261    0.454   85.643
  377.750    4.992    0.273    0.444   86.854
  378.000    4.901    0.279    0.437   85.645
  378.250    4.812    0.277    0.442   80.202
  378.500    4.814    0.251    0.443   78.388
  378.750    5.091    0.210    0.424   75.365
  379.000    5.485    0.173    0.383   71.737
  379.250    6.133    0.140    0.350   68.109
  379.500    6.732    0.154    0.309   62.061
  379.750    7.388    0.216    0.351   59.643
  380.000    7.814    0.266    0.402   61.458
  380.250    6.738    0.245    0.409   72.346
  380.500    6.142    0.250    0.415   77.790
  380.750    5.599    0.266    0.437   84.445
  381.000    5.105    0.277    0.442   86.864
  381.250    4.919    0.286    0.441   84.446
  381.500    4.742    0.296    0.442   82.632
  381.750    4.743    0.296    0.446   77.795
  382.000    4.744    0.280    0.448   74.771
  382.250    4.835    0.271    0.450   72.958
  382.500    4.836    0.277    0.450   73.563
  382.750    4.928    0.285    0.448   75.379
  383.000    5.021    0.287    0.443   78.403
  383.250    5.024    0.274    0.442   80.824
  383.500    5.025    0.266    0.442   82.639
  383.750    5.120    0.257    0.447   85.664
  384.000    5.218    0.248    0.446   89.899
  384.250    5.417    0.257    0.447   92.319
  384.500    5.418    0.258    0.446   94.135
  384.750    5.521    0.249    0.450   95.950
  385.000    5.626    0.243    0.466   93.531
  385.250    5.627    0.238    0.475   91.717
  385.500    5.735    0.223    0.481   92.323
  385.750    5.844    0.209    0.467   96.558
  386.000    5.955    0.249    0.452   98.373
  386.250    5.957    0.237    0.438   97.769
  386.500    5.958    0.231    0.457   95.351
  386.750    5.743    0.243    0.470   94.142
  387.000    5.333    0.246    0.488   94.143
  387.250    4.684    0.237    0.500   95.353
  387.500    4.192    0.258    0.521   97.773
  387.750    3.751    0.284    0.540  101.403
  388.000    3.549    0.298    0.546  102.614
  388.250    3.420    0.292    0.537  101.405
  388.500    3.618    0.312    0.523   92.938
  388.750    3.686    0.280    0.507   89.310
  389.000    3.619    0.274    0.533   88.706
  389.250    3.299    0.284    0.556   92.336
  389.500    3.064    0.280    0.547   95.966
  389.750    2.846    0.275    0.526   98.991
  390.000    2.692    0.273    0.510  101.411
  390.250    2.643    0.284    0.497  102.017
  390.500    2.644    0.294    0.484  100.203
  390.750    2.957    0.298    0.461   97.180
  391.000    3.245    0.308    0.402   90.527
  391.250    3.629    0.326    0.347   83.270
  391.500    4.133    0.340    0.335   76.013
  391.750    4.887    0.333    0.332   71.175
  392.000    5.567    0.329    0.351   69.966
  392.250    6.110    0.326    0.361   71.177
  392.500    6.112    0.318    0.375   72.387
  392.750    5.676    0.314    0.384   69.969
  393.000    5.271    0.312    0.402   68.760
  393.250    4.987    0.308    0.414   68.761
  393.500    4.806    0.301    0.426   68.761
  393.750    4.547    0.295    0.437   68.763
  394.000    4.465    0.301    0.440   69.368
  394.250    4.384    0.303    0.443   69.369
  394.500    4.386    0.301    0.451   69.975
  394.750    4.306    0.297    0.470   69.371
  395.000    4.307    0.294    0.475   68.766
  395.250    4.308    0.296    0.453   67.558
  395.500    4.230    0.301    0.436   67.558
  395.750    4.153    0.301    0.431   68.164
  396.000    3.930    0.304    0.444   68.770
  396.250    3.931    0.284    0.458   69.980
  396.500    4.158    0.272    0.460   71.191
  396.750    4.316    0.250    0.443   71.192
  397.000    4.398    0.232    0.423   63.935
  397.250    4.481    0.209    0.358   60.911
  397.500    5.105    0.147    0.294   57.283
  397.750    5.924    0.050    0.234   54.260
  398.000    6.874    0.041    0.214   52.446
  398.250    8.279    0.075    0.211   51.842
  398.500   11.569    0.152    0.295   56.682
  398.750   10.161    0.227    0.339   61.521
  399.000    7.277    0.274    0.369   67.570
  399.250    5.613    0.285    0.401   69.990
  399.500    5.116    0.280    0.432   71.806
  399.750    4.494    0.284    0.424   71.202
  400.000    4.252    0.277    0.417   69.993
  400.250    4.098    0.277    0.428   70.599
