~VERSION INFORMATION
 VERS.                 2.0:   CWLS LOG ASCII STANDARD -VERSION 2.0
 WRAP.                  NO:   ONE LINE PER DEPTH STEP
~WELL INFORMATION BLOCK
#MNEM.UNIT           DATA                    DESCRIPTION OF MNEMONIC
#---------    -------------------            -------------------------------
# Generated from Intellog Unique Number	CS_73_76/WELL/3252
WELL.         10-32-076-12W4                 : Well_name    - WELL
LOC .         00/10-32-076-12W4/0            : Location     - LOCATION
UWI .         00/10-32-076-12W4/0            : Uwi          - UNIQUE WELL ID
ENTR.         SP                             : Entered      - ENTERED BY
SRVC.         SCHLUMBERGER                   : Scn          - SERVICE COMPANY
STRT.M        295.656                        : top_depth    - START DEPTH
STOP.M        533.156                        : bot_depth    - STOP DEPTH
STEP.M        0.25                           : increment    - STEP LENGTH
 NULL. -999.2500:NULL Value
~CURVE INFORMATION BLOCK
#MNEM UNIT       ERCB CURVE CODE    CURVE DESCRIPTION
#-----------   ------------------   ----------------------------------
DEPT.M        00 001 00 00         : DEPTH        - DEPTH
GR  .API      00 310 00 00         : GR           - GAMMA RAY
DPHI.V/V      00 890 00 00         : PHID         - DENSITY POROSITY (SANDSTONE)
NPHI.V/V      00 330 00 00         : PHIN         - NEUTRON POROSITY (SANDSTONE)
ILD .OHMM     00 120 00 00         : RESD         - DEEP RESISTIVITY (DIL)
~PARAMETER INFORMATION
#MNEM.UNIT           DATA             DESCRIPTION OF MNEMONIC
#---------         -----------     ------------------------------
GL  .M        686.653              : gl           - GROUND LEVEL ELEVATION
EREF.M        689.762              : kb           - ELEVATION OF DEPTH REFERENCE
DATM.M        686.653              : datum        - DATUM ELEVATION
TDD .M        544.068              : tdd          - TOTAL DEPTH DRILLER
RUN .         ONE                  : Run          - RUN NUMBER
ENG .         BILL                 : Engineer     - RECORDING ENGINEER
WIT .         JIM                  : Witness      - WITNESSED BY
MUD .         GEL                  : Mud_type     - MUD TYPE
MATR.         SANDSTONE            : Logunit      - NEUTRON MATRIX
TMAX.C        25.5556              : BHT          - MAXIMUM RECORDED TEMPERATURE
BHTD.M        544.068              : BHTDEP       - MAXIMUM RECORDED TEMPERATURE
MATR.         1                    : LOGUNIT      - NEUTRON MATRIX
RMT .C        25                   : MDTP         - TEMPERATURE OF MUD
NEUT.         1                    : NEUTRON      - NEUTRON TYPE
RESI.         0                    : RESIST       - RESISTIVITY TYPE
RMC .OHMM     0.25                 : RMC          - RESISTIVITY OF MUD CAKE
RMF .OHMM     0.25                 : RMF          - RESISTIVITY OF MUD FILTRATE
SUFT.C        15                   : SUFT         - SURFACE TEMPERATURE
~A  DEPTH       GR     PHID     PHIN     RESD
  295.656   96.950    0.250    0.508    3.821
  295.906   96.542    0.238    0.481    3.730
  296.156   96.512    0.243    0.480    3.600
  296.406   96.934    0.245    0.486    3.426
  296.656   97.898    0.246    0.493    3.362
  296.906   98.811    0.254    0.501    3.212
  297.156   98.803    0.251    0.507    3.119
  297.406   97.848    0.244    0.508    3.111
  297.656   96.853    0.251    0.503    3.184
  297.906   96.274    0.253    0.499    3.339
  298.156   97.427    0.242    0.494    3.421
  298.406   98.784    0.252    0.484    3.415
  298.656  100.227    0.245    0.480    3.423
  298.906  101.373    0.249    0.490    3.361
  299.156  102.406    0.241    0.493    3.117
  299.406  102.080    0.239    0.484    3.025
  299.656  101.065    0.239    0.499    2.938
  299.906   99.562    0.249    0.501    2.941
  300.156   95.384    0.259    0.510    2.927
  300.406   90.512    0.258    0.518    3.138
  300.656   86.032    0.227    0.511    3.498
  300.906   82.070    0.203    0.509    3.714
  301.156   79.085    0.095    0.494    3.743
  301.406   76.000    0.098    0.477    3.573
  301.656   76.607    0.116    0.443    3.433
  301.906   83.527    0.208    0.460    3.287
  302.156   87.475    0.254    0.487    3.182
  302.406   87.181    0.290    0.511    3.293
  302.656   83.687    0.312    0.530    3.991
  302.906   78.603    0.331    0.538    5.005
  303.156   81.520    0.293    0.438    6.003
  303.406   84.903    0.267    0.428    7.485
  303.656   88.177    0.274    0.440    8.313
  303.906   88.968    0.289    0.447    9.175
  304.156   87.868    0.296    0.460    9.012
  304.406   86.653    0.309    0.461    9.052
  304.656   84.586    0.315    0.448    9.148
  304.906   79.900    0.310    0.436    9.660
  305.156   75.854    0.309    0.434   10.503
  305.406   69.591    0.319    0.447   12.063
  305.656   63.005    0.326    0.424   13.357
  305.906   57.404    0.336    0.292   15.147
  306.156   53.242    0.349    0.274   16.534
  306.406   47.669    0.356    0.299   16.489
  306.656   46.861    0.348    0.334   14.932
  306.906   48.402    0.345    0.394   13.401
  307.156   51.297    0.349    0.403   12.397
  307.406   54.311    0.349    0.395   12.062
  307.656   55.814    0.339    0.403   11.701
  307.906   58.641    0.330    0.417   11.346
  308.156   61.585    0.327    0.425   11.005
  308.406   69.112    0.332    0.409   10.788
  308.656   72.815    0.331    0.400   10.747
  308.906   78.956    0.326    0.406   10.607
  309.156   85.074    0.324    0.403   10.273
  309.406   89.291    0.314    0.402   10.196
  309.656   96.467    0.306    0.407    9.721
  309.906  100.296    0.295    0.398    8.853
  310.156  102.490    0.277    0.404    8.451
  310.406  102.949    0.267    0.421    7.811
  310.656  102.345    0.240    0.439    7.318
  310.906   99.175    0.240    0.456    7.024
  311.156   94.479    0.253    0.460    6.665
  311.406   87.119    0.269    0.466    6.862
  311.656   82.286    0.288    0.427    7.296
  311.906   78.763    0.315    0.419    7.985
  312.156   80.223    0.341    0.418    8.969
  312.406   83.861    0.341    0.409   10.148
  312.656   85.950    0.338    0.405   10.727
  312.906   82.350    0.338    0.413   10.790
  313.156   80.222    0.338    0.407   10.792
  313.406   84.338    0.335    0.402   10.787
  313.656   85.505    0.324    0.404   10.776
  313.906   89.733    0.317    0.399   10.580
  314.156   92.334    0.304    0.401   10.585
  314.406   93.215    0.289    0.411   10.587
  314.656   92.776    0.285    0.418   10.373
  314.906   87.539    0.270    0.412   10.327
  315.156   82.407    0.258    0.400   10.381
  315.406   74.263    0.249    0.386   10.835
  315.656   65.242    0.244    0.371   11.313
  315.906   60.531    0.241    0.329   12.234
  316.156   59.382    0.241    0.323   13.008
  316.406   63.046    0.237    0.333   13.471
  316.656   67.017    0.242    0.351   13.031
  316.906   62.234    0.264    0.359   12.550
  317.156   59.501    0.305    0.371   12.042
  317.406   61.468    0.290    0.366   11.671
  317.656   67.952    0.277    0.374   11.269
  317.906   75.465    0.253    0.385   10.583
  318.156   82.865    0.225    0.391    9.956
  318.406   87.427    0.207    0.401    9.364
  318.656   93.478    0.206    0.416    8.812
  318.906   99.339    0.191    0.427    8.389
  319.156  101.462    0.182    0.441    7.767
  319.406  103.025    0.165    0.446    6.964
  319.656  102.454    0.134    0.456    6.463
  319.906  105.154    0.150    0.462    6.143
  320.156  109.304    0.165    0.467    5.858
  320.406  113.880    0.187    0.477    5.560
  320.656  115.069    0.209    0.482    5.404
  320.906  111.162    0.191    0.458    5.314
  321.156  114.732    0.185    0.457    5.200
  321.406  116.864    0.196    0.466    5.210
  321.656  121.021    0.195    0.470    5.157
  321.906  122.639    0.205    0.479    4.987
  322.156  123.817    0.218    0.488    4.600
  322.406  121.248    0.221    0.491    4.326
  322.656  122.548    0.222    0.501    4.077
  322.906  124.669    0.232    0.519    3.838
  323.156  124.210    0.228    0.520    3.593
  323.406  120.381    0.211    0.503    3.448
  323.656  114.283    0.211    0.483    3.331
  323.906  110.676    0.237    0.471    3.273
  324.156  106.551    0.264    0.444    3.522
  324.406  103.048    0.275    0.423    4.097
  324.656  101.552    0.284    0.426    5.080
  324.906   99.987    0.272    0.421    6.321
  325.156   96.278    0.263    0.420    8.144
  325.406   94.248    0.257    0.421   10.002
  325.656   91.746    0.254    0.427   10.916
  325.906   88.020    0.278    0.436   11.287
  326.156   85.274    0.294    0.427   11.393
  326.406   90.315    0.303    0.421   11.598
  326.656   99.381    0.305    0.423   11.566
  326.906  106.652    0.289    0.418   11.805
  327.156  109.101    0.271    0.426   11.454
  327.406  114.073    0.249    0.438   10.405
  327.656  119.262    0.233    0.462    8.783
  327.906  120.641    0.230    0.452    7.603
  328.156  118.547    0.224    0.437    6.657
  328.406  114.698    0.233    0.421    6.146
  328.656  111.061    0.236    0.411    6.676
  328.906  106.908    0.249    0.416    7.619
  329.156  105.896    0.259    0.413    8.287
  329.406  104.625    0.266    0.426    9.470
  329.656  100.862    0.272    0.438   10.037
  329.906   96.874    0.278    0.460   11.087
  330.156   94.257    0.283    0.443   11.511
  330.406   93.114    0.285    0.436   12.016
  330.656   97.398    0.275    0.419   11.500
  330.906  102.330    0.254    0.432   11.095
  331.156  108.201    0.261    0.430   10.764
  331.406  113.226    0.260    0.417   10.227
  331.656  111.629    0.249    0.407    9.955
  331.906  109.706    0.252    0.393    9.986
  332.156  108.497    0.248    0.405    9.781
  332.406  104.050    0.240    0.419    9.575
  332.656   95.286    0.250    0.427    9.424
  332.906   84.691    0.266    0.412    9.467
  333.156   71.474    0.289    0.405    9.981
  333.406   68.977    0.304    0.392   10.416
  333.656   73.680    0.285    0.394   11.145
  333.906   77.129    0.277    0.384   11.991
  334.156   84.808    0.263    0.372   13.034
  334.406   91.601    0.254    0.366   13.504
  334.656   98.123    0.245    0.391   13.464
  334.906  103.813    0.234    0.421   12.535
  335.156  109.391    0.242    0.436   11.660
  335.406  109.125    0.234    0.432   10.275
  335.656  108.977    0.222    0.441    9.419
  335.906  108.965    0.210    0.446    8.866
  336.156  112.417    0.205    0.451    8.071
  336.406  114.074    0.211    0.470    7.577
  336.656  111.931    0.230    0.485    6.984
  336.906  106.401    0.240    0.482    6.385
  337.156  102.064    0.249    0.461    5.700
  337.406   99.196    0.228    0.452    5.780
  337.656   99.561    0.219    0.438    6.426
  337.906   99.902    0.218    0.452    6.698
  338.156  102.622    0.225    0.472    7.389
  338.406  103.689    0.238    0.485    6.979
  338.656  104.672    0.251    0.495    7.408
  338.906  104.665    0.262    0.482    7.130
