~VERSION INFORMATION
 VERS.                 2.0:   CWLS LOG ASCII STANDARD -VERSION 2.0
 WRAP.                  NO:   ONE LINE PER DEPTH STEP
~WELL INFORMATION BLOCK
#MNEM.UNIT           DATA                    DESCRIPTION OF MNEMONIC
#---------    -------------------            -------------------------------
# Generated from Intellog Unique Number	CW_70_72/WELL/3024
NULL.         -999.25                        : NULL_VALUE
WELL.         CHIEFCO ET AL RANCH 10-32      : Well_name    - WELL              
LOC .         10-32-070-26W4                 : Location     - LOCATION          
UWI .         00/10-32-070-26W4/0            : Uwi          - UNIQUE WELL ID    
ENTR.         J                              : Entered      - ENTERED BY        
SRVC.         SCHLUMBERGER                   : Scn          - SERVICE COMPANY   
DATE.         31 DEC 75                      : Date         - LOG DATE          
STRT.M        435.864                        : top_depth    - START DEPTH       
STOP.M        701.114                        : bot_depth    - STOP DEPTH        
STEP.M        0.25                           : increment    - STEP LENGTH       
~CURVE INFORMATION BLOCK
#MNEM UNIT       ERCB CURVE CODE    CURVE DESCRIPTION
#-----------   ------------------   ----------------------------------
DEPT.M        00 001 00 00         : DEPTH        - DEPTH                       
ILD .OHMM     00 120 00 00         : RESD         - DEEP RESISTIVITY (DIL)      
CALI.MM       00 280 01 00         : CAL          - CALIPER                     
GR  .API      00 310 00 00         : GR           - GAMMA RAY                   
NPHI.V/V      00 330 00 00         : PHIN         - NEUTRON POROSITY (SANDSTONE)
DPHI.V/V      00 890 00 00         : PHID         - DENSITY POROSITY (SANDSTONE)
~PARAMETER INFORMATION       
#MNEM.UNIT           DATA             DESCRIPTION OF MNEMONIC
#---------         -----------     ------------------------------
GL  .M        612.953              : gl           - GROUND LEVEL ELEVATION      
EREF.M        615.696              : kb           - ELEVATION OF DEPTH REFERENCE
DATM.M        612.953              : datum        - DATUM ELEVATION             
TDD .M        715.975              : tdd          - TOTAL DEPTH DRILLER         
RUN .         ONE                  : Run          - RUN NUMBER                  
ENG .         WILTSHIRE            : Engineer     - RECORDING ENGINEER          
BASE.         EDM                  : Branch       - HOME BASE OF LOGGING UNIT   
MUD .         GEL CHEM             : Mud_type     - MUD TYPE                    
MATR.         SANDSTONE            : Logunit      - NEUTRON MATRIX              
TMAX.C        -17.7778             : BHT          - MAXIMUM RECORDED TEMPERATURE
BHTD.M        717.194              : BHTDEP       - MAXIMUM RECORDED TEMPERATURE
RMT .C        21.1111              : MDTP         - TEMPERATURE OF MUD          
MUDD.KG/M     1128                 : MWT          - MUD DENSITY                 
NEUT.         1                    : NEUTRON      - NEUTRON TYPE                
RESI.         0                    : RESIST       - RESISTIVITY TYPE            
RM  .OHMM     3.87                 : RM           - RESISTIVITY OF MUD          
RMC .OHMM     0.25                 : RMC          - RESISTIVITY OF MUD CAKE     
RMF .OHMM     4.74                 : RMF          - RESISTIVITY OF MUD FILTRATE 
SUFT.C        -17.7778             : SUFT         - SURFACE TEMPERATURE         
~A  DEPTH     RESD      CAL       GR     PHIN     PHID
# ...
  545.364    3.905  189.191   62.782    0.240    0.159
  545.614    3.879  183.914   64.217    0.312    0.250
  545.864    3.712  174.724   65.104    0.366    0.309
  546.114    3.336  175.509   64.963    0.380    0.316
  546.364    2.966  180.920   64.580    0.329    0.255
  546.614    2.735  184.592   63.949    0.292    0.211
  546.864    2.608  183.419   64.051    0.264    0.150
  547.114    2.440  179.273   66.764    0.268    0.137
  547.364    2.324  174.915   68.867    0.344    0.204
  547.614    2.214  173.440   69.934    0.380    0.239
  547.864    2.095  173.717   69.980    0.386    0.236
  548.114    2.041  174.195   69.532    0.387    0.222
  548.364    1.937  174.467   68.964    0.391    0.220
  548.614    1.863  174.431   68.636    0.400    0.242
  548.864    1.835  174.293   67.951    0.402    0.250
  549.114    1.787  174.250   65.500    0.414    0.245
  549.364    1.756  174.114   64.869    0.417    0.250
  549.614    1.742  174.178   66.246    0.407    0.265
  549.864    1.712  174.245   69.081    0.398    0.257
  550.114    1.688  175.028   70.637    0.396    0.256
  550.364    1.670  175.922   71.405    0.405    0.251
  550.614    1.643  176.604   71.929    0.414    0.271
  550.864    1.623  177.600   71.179    0.420    0.280
  551.114    1.606  178.390   69.581    0.408    0.266
  551.364    1.598  179.176   67.616    0.385    0.277
  551.614    1.598  179.443   66.138    0.387    0.287
  551.864    1.762  179.507   67.999    0.390    0.273
  552.114    1.879  179.886   71.013    0.388    0.278
  552.364    2.335  179.439   73.909    0.385    0.274
  552.614    2.457  179.300   81.175    0.380    0.246
  552.864    2.600  179.366   89.292    0.388    0.233
  553.114    2.809  179.220   90.000    0.424    0.232
  553.364    2.884  179.090   92.651    0.399    0.238
  553.614    3.104  178.847   94.146    0.398    0.232
  553.864    3.290  179.014   91.148    0.404    0.216
  554.114    3.425  179.184   92.344    0.402    0.188
  554.364    3.425  179.456   90.623    0.397    0.167
  554.614    3.357  179.523   90.964    0.372    0.161
  554.864    3.329  179.690   95.498    0.336    0.153
  555.114    3.241  179.766  102.157    0.337    0.172
  555.364    3.210  179.628  101.772    0.379    0.191
  555.614    3.274  178.863   98.229    0.396    0.178
  555.864    3.414  178.320  100.757    0.390    0.188
  556.114    3.579  178.799  102.375    0.379    0.199
  556.364    3.887  179.791   99.077    0.372    0.167
  556.614    4.179  180.683   94.984    0.377    0.152
  556.864    4.819  181.873   89.680    0.392    0.165
  557.114    5.164  182.664   84.495    0.353    0.138
  557.364    5.230  183.350   81.136    0.326    0.100
  557.614    4.856  183.718   80.447    0.289    0.074
  557.864    4.079  183.792   84.008    0.284    0.055
  558.114    3.952  183.648   88.359    0.291    0.067
  558.364    3.652  183.209   88.943    0.321    0.130
  558.614    3.583  182.451   89.412    0.348    0.174
  558.864    3.583  181.694   94.854    0.372    0.177
  559.114    3.583  180.935   97.384    0.382    0.169
  559.364    3.450  180.985   98.455    0.393    0.164
  559.614    3.453  181.178  101.108    0.414    0.169
  559.864    3.524  182.272  104.913    0.406    0.194
  560.114    3.564  184.380  108.414    0.413    0.183
  560.364    3.668  185.185  104.200    0.428    0.192
  560.614    3.685  186.889  102.904    0.412    0.203
  560.864    3.727  187.372  104.399    0.396    0.189
  561.114    3.796  187.950  103.895    0.389    0.182
  561.364    3.845  187.810  100.349    0.401    0.170
  561.614    3.845  187.567   98.630    0.425    0.171
  561.864    3.909  187.123  101.095    0.412    0.174
  562.114    3.928  186.777  103.808    0.405    0.182
  562.364    3.965  186.644  106.644    0.401    0.166
  562.614    3.965  185.986  106.257    0.389    0.163
  562.864    4.222  185.540  103.139    0.390    0.158
  563.114    4.441  185.904  101.114    0.412    0.165
  563.364    4.760  186.188  101.515    0.413    0.174
  563.614    4.760  186.465  101.189    0.402    0.164
  563.864    5.087  187.753   97.344    0.389    0.150
  564.114    4.966  188.336   93.681    0.371    0.142
  564.364    4.721  188.610   96.207    0.346    0.146
  564.614    4.377  188.574  108.579    0.329    0.139
  564.864    4.253  188.542  114.448    0.375    0.156
  565.114    4.162  188.611  119.162    0.412    0.163
  565.364    4.082  188.781  118.774    0.433    0.136
  565.614    4.034  188.849  119.483    0.446    0.133
  565.864    4.003  189.217  120.254    0.432    0.141
  566.114    3.899  189.806  119.257    0.419    0.148
  566.364    3.862  191.416  115.593    0.409    0.137
  566.614    3.829  192.818  112.782    0.400    0.139
  566.864    3.768  193.085  108.808    0.406    0.172
  567.114    3.741  192.948  106.360    0.400    0.180
  567.364    3.721  192.197  104.519    0.385    0.162
  567.614    3.698  191.134  103.281    0.377    0.155
  567.864    3.659  189.554  104.896    0.377    0.166
  568.114    3.620  188.069  105.121    0.390    0.167
  568.364    3.575  187.006  101.337    0.391    0.172
  568.614    3.518  186.464   96.274    0.411    0.183
  568.864    3.479  185.706   98.740    0.411    0.175
  569.114    3.493  185.263  101.394    0.382    0.192
  569.364    3.565  184.702  105.379    0.384    0.200
  569.614    3.733  184.668  107.424    0.405    0.192
  569.864    3.979  184.743  104.488    0.418    0.177
  570.114    4.148  185.316   99.670    0.382    0.187
  570.364    4.336  187.344   95.579    0.363    0.166
  570.614    4.441  189.665   92.339    0.355    0.148
  570.864    4.490  190.561   92.255    0.364    0.160
  571.114    4.483  190.932   94.784    0.373    0.175
  571.364    4.521  190.797   96.223    0.384    0.174
  571.614    4.602  190.144   95.897    0.375    0.181
  571.864    4.602  189.494   95.634    0.363    0.168
  572.114    4.991  188.224   95.187    0.365    0.152
  572.364    4.989  185.201   91.035    0.372    0.134
  572.614    4.901  183.000   87.857    0.344    0.096
  572.864    4.753  182.972   93.605    0.341    0.092
  573.114    4.602  185.200  102.446    0.350    0.126
  573.364    4.512  186.808  103.520    0.361    0.152
  573.614    4.447  188.309   98.702    0.374    0.161
  573.864    4.378  188.898   98.073    0.384    0.150
  574.114    4.367  189.269   99.208    0.394    0.156
  574.364    4.398  189.636  102.342    0.404    0.171
  574.614    4.421  189.715  103.477    0.409    0.187
  574.864    4.456  189.054  104.123    0.407    0.185
  575.114    4.450  188.505  103.921    0.404    0.172
  575.364    4.433  187.654  102.624    0.399    0.154
  575.614    4.285  185.869  101.205    0.392    0.146
  575.864    4.141  183.871  102.521    0.387    0.138
  576.114    4.075  183.327  101.404    0.386    0.151
  576.364    4.030  184.620  103.510    0.394    0.139
  576.614    4.039  186.033  106.342    0.400    0.153
  576.864    4.132  188.974  106.263    0.404    0.157
  577.114    4.125  190.993  104.357    0.404    0.151
  577.364    3.985  191.886  102.272    0.394    0.157
  577.614    3.777  192.151  101.826    0.395    0.158
  577.864    3.635  192.430  103.380    0.383    0.153
  578.114    3.355  192.709  105.726    0.402    0.148
  578.364    3.292  192.152  107.530    0.415    0.166
  578.614    3.113  191.398  109.026    0.392    0.164
  578.864    2.969  189.198  108.033    0.397    0.155
  579.114    2.737  187.010  101.759    0.401    0.153
  579.364    2.509  180.795   87.341    0.403    0.175
  579.614    2.357  176.442   80.215    0.417    0.233
  579.864    2.522  173.946   71.752    0.409    0.267
  580.114    2.676  172.362   66.264    0.399    0.259
  580.364    2.959  172.739   62.294    0.391    0.247
  580.614    3.171  173.010   60.270    0.383    0.247
  580.864    3.355  173.073   60.555    0.377    0.228
  581.114    3.326  172.833   63.264    0.369    0.210
  581.364    3.185  172.597   63.307    0.362    0.198
  581.614    3.056  171.944   67.778    0.366    0.211
