~VERSION INFORMATION
 VERS.                 2.0:   CWLS LOG ASCII STANDARD -VERSION 2.0
 WRAP.                  NO:   ONE LINE PER DEPTH STEP
~WELL INFORMATION BLOCK
#MNEM.UNIT           DATA                    DESCRIPTION OF MNEMONIC
#---------    -------------------            -------------------------------
# Generated from Intellog Unique Number	CS_77_79/WELL/1004
WELL.         MAYNARD ET AL THORNBURY        : Well_name    - WELL
LOC .         00/11-31-079-11W4/0            : Location     - LOCATION
UWI .         00/11-31-079-11W4/0            : Uwi          - UNIQUE WELL ID
ENTR.         JHS                            : Entered      - ENTERED BY
SRVC.         SCHLUMBERGER                   : Scn          - SERVICE COMPANY
STRT.M        225                            : top_depth    - START DEPTH
STOP.M        495                            : bot_depth    - STOP DEPTH
STEP.M        0.25                           : increment    - STEP LENGTH
 NULL. -999.2500:NULL Value
~CURVE INFORMATION BLOCK
#MNEM UNIT       ERCB CURVE CODE    CURVE DESCRIPTION
#-----------   ------------------   ----------------------------------
DEPT.M        00 001 00 00         : DEPTH        - DEPTH
DPHI.V/V      00 890 00 00         : PHID         - DENSITY POROSITY (LIMESTONE)
NPHI.V/V      00 330 00 00         : PHIN         - NEUTRON POROSITY (LIMESTONE)
GR  .API      00 310 00 00         : GR           - GAMMA RAY
ILD .OHMM     00 120 00 00         : RESD         - DEEP RESISTIVITY (DIL)
~PARAMETER INFORMATION
#MNEM.UNIT           DATA             DESCRIPTION OF MNEMONIC
#---------         -----------     ------------------------------
GL  .M        688.32               : gl           - GROUND LEVEL ELEVATION
EREF.M        691.52               : kb           - ELEVATION OF DEPTH REFERENCE
DATM.M        691.52               : datum        - DATUM ELEVATION
TDD .M        500                  : tdd          - TOTAL DEPTH DRILLER
RUN .         ONE                  : Run          - RUN NUMBER
ENG .         BILL                 : Engineer     - RECORDING ENGINEER
WIT .         JIM                  : Witness      - WITNESSED BY
MUD .         GEL                  : Mud_type     - MUD TYPE
MATR.         LIMESTONE            : Logunit      - NEUTRON MATRIX
TMAX.C        20                   : BHT          - MAXIMUM RECORDED TEMPERATURE
BHTD.M        500                  : BHTDEP       - MAXIMUM RECORDED TEMPERATURE
MATR.         1                    : LOGUNIT      - NEUTRON MATRIX
RMT .C        25                   : MDTP         - TEMPERATURE OF MUD
NEUT.         1                    : NEUTRON      - NEUTRON TYPE
RESI.         0                    : RESIST       - RESISTIVITY TYPE
RMC .OHMM     0.25                 : RMC          - RESISTIVITY OF MUD CAKE
RMF .OHMM     0.25                 : RMF          - RESISTIVITY OF MUD FILTRATE
SUFT.C        15                   : SUFT         - SURFACE TEMPERATURE
~A  DEPTH     PHID     PHIN       GR     RESD
# ...
  312.000    0.340    0.430   63.783   23.273
  312.250    0.338    0.426   62.593   23.286
  312.500    0.338    0.419   62.024   22.473
  312.750    0.335    0.415   62.065   22.485
  313.000    0.331    0.415   62.729   22.496
  313.250    0.324    0.421   64.620   21.686
  313.500    0.319    0.420   64.049   21.695
  313.750    0.325    0.413   60.382   21.708
  314.000    0.326    0.413   59.815   22.543
  314.250    0.333    0.419   58.006   22.553
  314.500    0.345    0.425   55.581   22.564
  314.750    0.349    0.424   54.386   22.576
  315.000    0.354    0.422   55.659   22.586
  315.250    0.365    0.418   57.563   22.598
  315.500    0.368    0.421   57.596   22.608
  315.750    0.361    0.423   55.172   22.619
  316.000    0.347    0.422   57.066   23.456
  316.250    0.331    0.421   60.204   23.469
  316.500    0.329    0.415   60.864   23.480
  316.750    0.332    0.409   60.898   24.313
  317.000    0.330    0.410   59.103   24.323
  317.250    0.322    0.412   56.054   23.512
  317.500    0.322    0.415   55.477   23.523
  317.750    0.310    0.419   56.753   22.712
  318.000    0.318    0.423   55.560   22.723
  318.250    0.319    0.420   57.453   22.733
  318.500    0.327    0.414   58.120   23.569
  318.750    0.344    0.409   56.308   23.581
  319.000    0.352    0.402   56.348   23.592
  319.250    0.344    0.399   57.015   24.424
  319.500    0.320    0.404   55.208   24.436
  319.750    0.302    0.409   55.872   25.272
  320.000    0.298    0.400   57.760   25.283
  320.250    0.316    0.394   58.417   25.294
  320.500    0.349    0.383   57.233   24.483
  320.750    0.331    0.378   56.046   24.493
  321.000    0.315    0.374   56.706   24.505
  321.250    0.304    0.375   57.979   24.517
  321.500    0.304    0.379   59.250   23.707
  321.750    0.315    0.375   59.920   23.718
  322.000    0.319    0.371   59.969   23.729
  322.250    0.314    0.372   58.772   23.740
  322.500    0.307    0.384   57.584   24.573
  322.750    0.306    0.400   58.852   24.583
  323.000    0.310    0.410   62.608   24.599
  323.250    0.323    0.416   64.492   24.607
  323.500    0.337    0.414   63.924   24.620
  323.750    0.347    0.406   64.577   24.631
  324.000    0.352    0.404   62.157   23.817
  324.250    0.349    0.406   57.260   23.830
  324.500    0.337    0.411   54.835   23.842
  324.750    0.325    0.409   53.647   23.853
  325.000    0.320    0.409   52.459   23.866
  325.250    0.322    0.407   51.277   23.051
  325.500    0.329    0.404   50.083   23.062
  325.750    0.339    0.399   48.873   23.075
  326.000    0.347    0.396   46.465   23.085
  326.250    0.349    0.397   46.489   23.098
  326.500    0.349    0.400   47.180   23.108
  326.750    0.352    0.403   48.448   23.120
  327.000    0.357    0.405   49.709   23.130
  327.250    0.361    0.402   50.369   22.321
  327.500    0.354    0.396   51.048   22.332
  327.750    0.331    0.389   51.081   22.341
  328.000    0.310    0.384   49.881   22.355
  328.250    0.296    0.381   46.860   22.365
  328.500    0.297    0.384   46.262   22.376
  328.750    0.318    0.391   44.454   22.388
  329.000    0.319    0.396   43.892   22.398
  329.250    0.316    0.397   44.546   22.411
  329.500    0.309    0.397   45.204   22.423
  329.750    0.317    0.399   46.481   22.434
  330.000    0.336    0.398   47.153   23.268
  330.250    0.350    0.394   47.801   23.280
  330.500    0.339    0.389   46.622   23.291
  330.750    0.326    0.386   47.272   23.303
  331.000    0.316    0.384   47.928   23.312
  331.250    0.314    0.386   46.736   24.148
  331.500    0.326    0.389   45.549   23.335
  331.750    0.344    0.392   44.367   23.347
  332.000    0.339    0.391   44.398   22.535
  332.250    0.338    0.385   44.450   22.546
  332.500    0.327    0.382   45.717   22.558
  332.750    0.322    0.385   47.614   21.746
  333.000    0.322    0.379   47.656   21.756
  333.250    0.322    0.383   47.090   21.769
  333.500    0.328    0.388   46.517   21.781
  333.750    0.323    0.385   43.471   21.791
  334.000    0.323    0.390   42.904   21.802
  334.250    0.330    0.399   46.649   21.813
  334.500    0.327    0.393   49.176   21.828
  334.750    0.325    0.386   49.196   21.838
  335.000    0.315    0.389   48.011   21.848
  335.250    0.320    0.394   46.809   21.860
  335.500    0.333    0.398   44.391   21.870
  335.750    0.337    0.397   45.056   21.884
  336.000    0.345    0.393   45.107   21.893
  336.250    0.330    0.389   44.523   21.904
  336.500    0.323    0.397   43.332   21.916
  336.750    0.315    0.404   42.765   21.927
  337.000    0.325    0.406   42.793   21.939
  337.250    0.330    0.405   44.084   21.950
  337.500    0.316    0.400   44.735   21.961
  337.750    0.306    0.398   47.245   21.971
  338.000    0.304    0.401   47.905   21.985
  338.250    0.305    0.402   49.188   21.996
  338.500    0.300    0.403   49.226   22.007
  338.750    0.294    0.408   47.420   21.194
  339.000    0.283    0.403   48.079   21.207
  339.250    0.282    0.404   48.734   21.219
  339.500    0.296    0.410   45.082   21.228
  339.750    0.292    0.414   43.291   21.240
  340.000    0.285    0.410   43.944   21.251
  340.250    0.277    0.405   43.971   20.441
  340.500    0.278    0.404   45.249   20.451
  340.750    0.305    0.400   49.007   20.462
  341.000    0.334    0.395   51.511   20.474
  341.250    0.350    0.404   53.428   20.486
  341.500    0.344    0.417   53.453   20.496
  341.750    0.332    0.428   52.896   20.508
  342.000    0.326    0.432   52.918   20.519
  342.250    0.318    0.429   52.968   20.530
  342.500    0.303    0.428   53.011   20.543
  342.750    0.317    0.433   53.687   19.731
  343.000    0.317    0.433   53.706   19.741
  343.250    0.312    0.430   55.609   21.419
  343.500    0.315    0.425   56.260   21.503
  343.750    0.317    0.420   55.692   21.505
  344.000    0.325    0.416   55.727   19.119
  344.250    0.330    0.420   57.621   18.710
  344.500    0.321    0.423   60.143   18.547
  344.750    0.315    0.426   61.418   18.384
  345.000    0.315    0.423   61.460   18.468
  345.250    0.323    0.413   60.270   18.470
  345.500    0.334    0.410   60.315   18.472
  345.750    0.339    0.412   60.358   18.474
  346.000    0.347    0.411   61.022   18.475
  346.250    0.350    0.422   61.675   18.395
  346.500    0.338    0.425   62.956   18.232
  346.750    0.325    0.426   62.376   18.151
  347.000    0.317    0.420   61.190   18.071
  347.250    0.310    0.414   58.153   18.073
  347.500    0.319    0.410   58.799   18.239
  347.750    0.316    0.408   61.323   18.323
  348.000    0.319    0.411   62.596   18.407
  348.250    0.313    0.422   63.250   18.409
  348.500    0.309    0.426   63.301   18.411
  348.750    0.310    0.427   60.256   18.330
  349.000    0.328    0.431   60.910   18.250
  349.250    0.327    0.430   61.582   18.169
  349.500    0.328    0.425   60.998   18.089
  349.750    0.310    0.418   59.193   17.925
  350.000    0.298    0.409   58.002   17.681
  350.250    0.295    0.404   60.526   17.682
  350.500    0.290    0.400   61.787   17.602
  350.750    0.280    0.400   64.299   17.851
  351.000    0.273    0.403   66.192   17.852
  351.250    0.278    0.414   65.622   17.772
  351.500    0.274    0.426   63.197   17.527
  351.750    0.289    0.436   62.022   17.282
  352.000    0.324    0.441   62.675   16.954
  352.250    0.343    0.444   63.951   16.380
  352.500    0.347    0.449   67.707   15.723
  352.750    0.349    0.450   71.453   14.572
  353.000    0.338    0.456   75.203   12.516
  353.250    0.308    0.467   78.322   10.707
  353.500    0.290    0.475   80.821    9.310
  353.750    0.271    0.473   85.205    8.242
  354.000    0.270    0.477   86.463    7.585
  354.250    0.262    0.482   87.743    6.846
  354.500    0.259    0.488   90.252    6.354
  354.750    0.252    0.483   97.084    6.027
  355.000    0.252    0.475  100.842    5.864
  355.250    0.252    0.468  100.263    5.783
