~VERSION INFORMATION
 VERS.                 2.0:   CWLS LOG ASCII STANDARD -VERSION 2.0
 WRAP.                  NO:   ONE LINE PER DEPTH STEP
~WELL INFORMATION BLOCK
#MNEM.UNIT           DATA                    DESCRIPTION OF MNEMONIC
#---------    -------------------            -------------------------------
# Generated from Intellog Unique Number	CW_70_72/WELL/1046
NULL.         -999.25                        : NULL_VALUE
WELL.         SUNDANCE ET AL SMITH 10-33-071 : Well_name    - WELL              
LOC .         10-33-071-23W4                 : Location     - LOCATION          
UWI .         00/10-33-071-23W4/0            : Uwi          - UNIQUE WELL ID    
ENTR.         JAYE                           : Entered      - ENTERED BY        
SRVC.         SCHLUMBERGER                   : Scn          - SERVICE COMPANY   
DATE.         3 MAR 76                       : Date         - LOG DATE          
STRT.M        432.816                        : top_depth    - START DEPTH       
STOP.M        646.066                        : bot_depth    - STOP DEPTH        
STEP.M        0.25                           : increment    - STEP LENGTH       
~CURVE INFORMATION BLOCK
#MNEM UNIT       ERCB CURVE CODE    CURVE DESCRIPTION
#-----------   ------------------   ----------------------------------
DEPT.M        00 001 00 00         : DEPTH        - DEPTH                       
DPHI.V/V      00 890 00 00         : PHID         - DENSITY POROSITY (SANDSTONE)
NPHI.V/V      00 330 00 00         : PHIN         - NEUTRON POROSITY (SANDSTONE)
GR  .API      00 310 00 00         : GR           - GAMMA RAY                   
CALI.MM       00 280 01 00         : CAL          - CALIPER                     
ILD .OHMM     00 120 00 00         : RESD         - DEEP RESISTIVITY (DIL)      
~PARAMETER INFORMATION       
#MNEM.UNIT           DATA             DESCRIPTION OF MNEMONIC
#---------         -----------     ------------------------------
GL  .M        679.399              : gl           - GROUND LEVEL ELEVATION      
EREF.M        683.057              : kb           - ELEVATION OF DEPTH REFERENCE
DATM.M        679.399              : datum        - DATUM ELEVATION             
TDD .M        662.94               : tdd          - TOTAL DEPTH DRILLER         
RUN .         ONE                  : Run          - RUN NUMBER                  
ENG .         WILSHIRE             : Engineer     - RECORDING ENGINEER          
WIT .         ROBINSON             : Witness      - WITNESSED BY                
BASE.         EDM                  : Branch       - HOME BASE OF LOGGING UNIT   
MATR.         SANDSTONE            : Logunit      - NEUTRON MATRIX              
TMAX.C        -17.7778             : BHT          - MAXIMUM RECORDED TEMPERATURE
BHTD.M        662.635              : BHTDEP       - MAXIMUM RECORDED TEMPERATURE
RMT .C        4.44444              : MDTP         - TEMPERATURE OF MUD          
MUDD.KG/M     0                    : MWT          - MUD DENSITY                 
NEUT.         1                    : NEUTRON      - NEUTRON TYPE                
RESI.         0                    : RESIST       - RESISTIVITY TYPE            
RM  .OHMM     1.93                 : RM           - RESISTIVITY OF MUD          
RMC .OHMM     0                    : RMC          - RESISTIVITY OF MUD CAKE     
RMF .OHMM     0                    : RMF          - RESISTIVITY OF MUD FILTRATE 
SUFT.C        -17.7778             : SUFT         - SURFACE TEMPERATURE         
~A  DEPTH     PHID     PHIN       GR      CAL     RESD
# ...
  615.316    0.222    0.500  113.897  231.223    3.617
  615.566    0.220    0.465  107.091  223.990    4.555
  615.816    0.200    0.396  104.056  204.199    5.234
  616.066    0.104    0.369  100.712  183.675    5.935
  616.316    0.091    0.352  104.721  183.347    6.520
  616.566    0.116    0.344  108.175  183.652    6.886
  616.816    0.112    0.358  108.971  184.163    6.143
  617.066    0.076    0.347  110.881  183.838    5.627
  617.316    0.073    0.357  115.015  185.291    5.555
  617.566    0.100    0.387  120.694  186.744    5.900
  617.816    0.119    0.398  118.709  184.848    6.541
  618.066    0.127    0.404  114.438  187.452    7.530
  618.316    0.074    0.380   99.907  184.301    8.287
  618.566    0.051    0.331   89.950  187.638    8.622
  618.816   -0.004    0.271   89.757  184.383    8.386
  619.066   -0.019    0.270   95.375  180.917    8.170
  619.316    0.111    0.315  100.126  180.381    7.682
  619.566    0.124    0.359   92.951  180.682    7.223
  619.816    0.082    0.364   93.561  180.987    6.716
  620.066    0.096    0.346  103.691  181.394    6.458
  620.316    0.133    0.361  108.442  181.693    6.364
  620.566    0.127    0.380  106.458  181.893    6.282
  620.816    0.122    0.367  104.782  182.299    6.213
  621.066    0.102    0.357  108.420  182.600    6.088
  621.316    0.097    0.370  111.381  183.216    5.888
  621.566    0.119    0.380  115.391  184.044    5.747
  621.816    0.096    0.372  119.525  184.556    5.548
  622.066    0.105    0.384  119.024  183.916    5.236
  622.316    0.064    0.376  112.280  181.183    4.941
  622.566    0.088    0.379  114.312  177.613    5.008
  622.816    0.101    0.394  116.284  180.426    5.009
  623.066    0.085    0.411  113.310  183.241    4.964
  623.316    0.066    0.408  114.910  185.113    4.900
  623.566    0.019    0.401  121.269  180.601    4.651
  623.816    0.095    0.400  124.104  183.832    4.464
  624.066    0.122    0.402  121.935  186.437    4.277
  624.316    0.123    0.413  119.147  185.589    4.059
  624.566    0.128    0.425  116.791  182.854    3.746
  624.816    0.124    0.387  114.621  184.832    3.066
  625.066    0.111    0.375  113.193  185.448    2.436
  625.316    0.118    0.366  111.084  182.298    1.857
  625.566    0.132    0.354  106.380  183.541    1.051
  625.816    0.098    0.346  106.312  182.692    0.779
  626.066    0.083    0.331  109.827  181.530    0.992
  626.316    0.094    0.335  112.540  180.053    1.518
  626.566    0.103    0.343  115.747  179.622    2.509
  626.816    0.089    0.351  119.201  179.505    4.502
  627.066    0.064    0.354  120.924  179.598    5.350
  627.316    0.080    0.361  121.597  179.482    5.433
  627.566    0.050    0.374  126.658  179.575    5.323
  627.816    0.085    0.393  123.561  182.075    5.071
  628.066    0.113    0.394  125.099  188.238    4.849
  628.316    0.111    0.387  128.739  188.331    4.778
  628.566    0.130    0.383  129.535  188.110    4.770
  628.816    0.110    0.386  125.325  189.667    4.817
  629.066    0.077    0.382  121.177  188.609    4.909
  629.316    0.102    0.374  119.193  185.144    5.059
  629.566    0.102    0.364  119.990  181.679    5.108
  629.816    0.058    0.374  122.701  181.457    5.129
  630.066    0.053    0.388  125.291  181.759    5.044
  630.316    0.084    0.388  127.570  181.748    4.924
  630.566    0.080    0.375  127.811  182.364    4.816
  630.816    0.082    0.366  127.927  183.817    4.772
  631.066    0.090    0.377  127.673  183.492    4.764
  631.316    0.102    0.394  128.469  182.747    4.801
  631.566    0.085    0.407  129.019  181.270    4.939
  631.816    0.075    0.405  128.270  179.479    5.129
  632.066    0.110    0.397  125.729  179.363    5.346
  632.316    0.102    0.386  122.756  179.874    5.688
  632.566    0.104    0.359  118.732  180.700    6.109
  632.816    0.148    0.344  110.443  181.212    6.550
  633.066    0.172    0.350   98.199  180.780    6.956
  633.316    0.217    0.381   84.349  179.933    7.457
  633.566    0.232    0.409   53.193  178.664    8.393
  633.816    0.333    0.451   40.083  176.978    9.662
  634.066    0.411    0.547   36.739  176.130   11.122
  634.316    0.507    0.600   40.379  175.699   12.684
  634.566    0.544    0.618   47.231  174.849   14.411
  634.816    0.575    0.637   55.259  174.211   14.798
  635.066    0.594    0.660   63.101  173.047   12.693
  635.316    0.588    0.678   73.909  171.047   11.053
  635.566    0.351    0.698   90.343  169.047    9.935
  635.816    0.124    0.322   98.617  171.861    9.049
  636.066    0.139    0.251  104.667  175.824    8.414
  636.316    0.136    0.253  115.846  178.743    8.076
  636.566    0.106    0.251  125.295  179.884    8.062
  636.816    0.103    0.246  135.919  179.558    8.263
  637.066    0.107    0.248  144.873  179.441    8.759
  637.316    0.093    0.251  152.653  179.534    9.303
  637.566    0.087    0.252  159.754  179.522    9.660
  637.816    0.068    0.255  169.265  179.930    9.883
  638.066    0.074    0.259  181.989  180.230    9.903
  638.316    0.078    0.267  190.758  180.219    9.832
  638.566    0.078    0.277  220.170  180.208    9.834
  638.816    0.069    0.301  251.497  179.569    9.892
  639.066    0.082    0.306  271.885  178.928    9.987
  639.316    0.080    0.313  291.717  178.708   10.179
  639.566    0.044    0.332  308.459  178.905   10.393
  639.816    0.012    0.345  312.840  179.103   10.592
  640.066    0.015    0.352  315.429  179.091   10.615
  640.316    0.033    0.364  316.657  178.661   10.440
  640.566    0.040    0.375  317.022  178.753   10.058
  640.816    0.031    0.375  315.717  178.637    9.247
  641.066    0.046    0.376  313.114  177.891    8.501
  641.316    0.050    0.391  285.172  177.358    8.024
  641.566    0.026    0.395  245.055  177.137    7.847
  641.816   -0.016    0.387  221.006  178.590    7.660
  642.066    0.026    0.379  189.418  180.567    7.422
  642.316    0.054    0.373  176.371  183.381    7.018
  642.566    0.037    0.382  164.806  178.449    6.598
  642.816    0.013    0.395  150.647  177.183    6.101
  643.066    0.016    0.405  137.661  176.857    5.474
  643.316    0.016    0.410  123.810  177.368    4.893
  643.566    0.001    0.404   86.536  178.507    4.415
  643.816   -0.021    0.396   75.157  180.694    4.302
  644.066   -0.027    0.380   58.463  180.891    4.279
  644.316   -0.007    0.361   39.853  179.520    4.656
  644.566    0.005    0.327   24.210  180.659    7.179
  644.816    0.053    0.302   24.018  166.519    8.710
  645.066    0.067    0.290   24.814  166.507    9.693
  645.316    0.078    0.280   24.189  171.414   10.180
  645.566    0.046    0.273   22.451  173.599    9.716
  645.816    0.047    0.268   19.107  171.913    8.983
  646.066    0.050    0.266   16.875  170.541    8.274
