~VERSION INFORMATION
 VERS.                 2.0:   CWLS LOG ASCII STANDARD -VERSION 2.0
 WRAP.                  NO:   ONE LINE PER DEPTH STEP
~WELL INFORMATION BLOCK
#MNEM.UNIT           DATA                    DESCRIPTION OF MNEMONIC
#---------    -------------------            -------------------------------
# Generated from Intellog Unique Number	CS_73_76/WELL/3248
WELL.         BOW VALLEY INDUSTRIES LTD.     : Well_name    - WELL
LOC .         00/10-30-075-12W4/0            : Location     - LOCATION
UWI .         00/10-30-075-12W4/0            : Uwi          - UNIQUE WELL ID
ENTR.         SP                             : Entered      - ENTERED BY
SRVC.         SCHLUMBERGER                   : Scn          - SERVICE COMPANY
STRT.M        320                            : top_depth    - START DEPTH
STOP.M        531                            : bot_depth    - STOP DEPTH
STEP.M        0.25                           : increment    - STEP LENGTH
 NULL. -999.2500:NULL Value
~CURVE INFORMATION BLOCK
#MNEM UNIT       ERCB CURVE CODE    CURVE DESCRIPTION
#-----------   ------------------   ----------------------------------
DEPT.M        00 001 00 00         : DEPTH        - DEPTH
ILD .OHMM     00 120 00 00         : RESD         - DEEP RESISTIVITY (DIL)
DPHI.V/V      00 890 00 00         : PHID         - DENSITY POROSITY (LIMESTONE)
NPHI.V/V      00 330 00 00         : PHIN         - NEUTRON POROSITY (LIMESTONE)
GR  .API      00 310 00 00         : GR           - GAMMA RAY
~PARAMETER INFORMATION
#MNEM.UNIT           DATA             DESCRIPTION OF MNEMONIC
#---------         -----------     ------------------------------
GL  .M        694.33               : gl           - GROUND LEVEL ELEVATION
EREF.M        697.68               : kb           - ELEVATION OF DEPTH REFERENCE
DATM.M        694.33               : datum        - DATUM ELEVATION
TDD .M        537                  : tdd          - TOTAL DEPTH DRILLER
RUN .         ONE                  : Run          - RUN NUMBER
ENG .         BILL                 : Engineer     - RECORDING ENGINEER
WIT .         JIM                  : Witness      - WITNESSED BY
MUD .         GEL                  : Mud_type     - MUD TYPE
MATR.         LIMESTONE            : Logunit      - NEUTRON MATRIX
TMAX.C        23.9                 : BHT          - MAXIMUM RECORDED TEMPERATURE
BHTD.M        537                  : BHTDEP       - MAXIMUM RECORDED TEMPERATURE
MATR.         1                    : LOGUNIT      - NEUTRON MATRIX
RMT .C        25                   : MDTP         - TEMPERATURE OF MUD
NEUT.         1                    : NEUTRON      - NEUTRON TYPE
RESI.         0                    : RESIST       - RESISTIVITY TYPE
RMC .OHMM     0.25                 : RMC          - RESISTIVITY OF MUD CAKE
RMF .OHMM     0.25                 : RMF          - RESISTIVITY OF MUD FILTRATE
SUFT.C        15                   : SUFT         - SURFACE TEMPERATURE
~A  DEPTH     RESD     PHID     PHIN       GR
# ...
  407.000    3.523    0.355    0.550   87.694
  407.250    3.395    0.208    0.515   87.077
  407.500    3.211    0.222    0.524   92.528
  407.750    3.094    0.230    0.545   96.766
  408.000    3.038    0.228    0.551   96.754
  408.250    2.982    0.223    0.550   95.530
  408.500    2.982    0.213    0.532   94.305
  408.750    2.927    0.211    0.524   93.079
  409.000    2.927    0.221    0.535   94.281
  409.250    2.982    0.242    0.540   97.908
  409.500    3.095    0.256    0.535   99.116
  409.750    3.460    0.268    0.551  101.535
  410.000    4.015    0.275    0.568   99.701
  410.250    4.745    0.290    0.579   91.796
  410.500    5.111    0.304    0.551   80.854
  410.750    6.041    0.301    0.511   75.379
  411.000    6.753    0.279    0.474   73.545
  411.250    7.550    0.270    0.454   74.745
  411.500    7.836    0.269    0.441   76.557
  411.750    7.983    0.285    0.442   77.151
  412.000    7.983    0.298    0.452   80.176
  412.250    7.011    0.308    0.468   83.805
  412.500    5.716    0.312    0.474   85.013
  412.750    4.407    0.298    0.463   87.432
  413.000    3.799    0.275    0.458   91.671
  413.250    3.275    0.262    0.480   98.941
  413.500    3.040    0.248    0.513  101.970
  413.750    2.876    0.240    0.552  104.994
  414.000    2.771    0.268    0.575   99.516
  414.250    3.399    0.281    0.593   92.825
  414.500    4.749    0.285    0.547   85.528
  414.750    5.934    0.298    0.512   83.696
  415.000    6.758    0.314    0.502   79.432
  415.250    7.416    0.302    0.486   78.814
  415.500    7.556    0.271    0.467   80.621
  415.750    7.697    0.255    0.469   81.826
  416.000    7.698    0.294    0.494   83.032
  416.250    7.698    0.300    0.505   80.588
  416.500    7.698    0.306    0.503   78.148
  416.750    7.557    0.313    0.488   76.317
  417.000    7.557    0.310    0.459   76.912
  417.250    7.419    0.295    0.470   79.323
  417.500    7.419    0.279    0.477   81.132
  417.750    7.419    0.291    0.472   82.338
  418.000    7.283    0.293    0.464   82.332
  418.250    7.149    0.279    0.459   81.713
  418.500    7.150    0.290    0.473   81.095
  418.750    7.284    0.278    0.477   80.476
  419.000    7.421    0.288    0.467   79.249
  419.250    7.560    0.286    0.454   76.199
  419.500    7.702    0.236    0.437   74.977
  419.750    7.703    0.071    0.340   73.144
  420.000    7.703    0.087    0.294   78.596
  420.250    7.423    0.168    0.352   85.260
  420.500    7.152    0.222    0.406   87.681
  420.750    7.021    0.241    0.431   90.099
  421.000    7.021    0.255    0.450   89.477
  421.250    7.153    0.258    0.463   89.468
  421.500    7.154    0.260    0.471   87.027
  421.750    7.022    0.264    0.475   83.371
  422.000    7.023    0.248    0.488   84.576
  422.250    7.023    0.245    0.499   87.603
  422.500    7.023    0.262    0.492   86.372
  422.750    7.024    0.251    0.506   85.755
  423.000    7.024    0.253    0.503   86.352
  423.250    7.024    0.270    0.472   86.342
  423.500    6.895    0.257    0.466   85.116
  423.750    6.769    0.253    0.471   89.347
  424.000    6.644    0.262    0.480   89.949
  424.250    6.645    0.267    0.487   88.116
  424.500    6.645    0.274    0.488   85.672
  424.750    6.523    0.235    0.477   85.057
  425.000    6.523    0.216    0.464   86.867
  425.250    6.646    0.239    0.457   88.679
  425.500    6.646    0.263    0.453   84.413
  425.750    6.771    0.275    0.451   83.192
  426.000    6.524    0.287    0.452   84.389
  426.250    6.647    0.276    0.468   85.595
  426.500    6.772    0.261    0.479   87.405
  426.750    7.029    0.256    0.496   88.607
  427.000    7.029    0.244    0.496   90.417
  427.250    7.161    0.227    0.506   91.621
  427.500    7.161    0.229    0.496   90.395
  427.750    7.030    0.232    0.463   86.739
  428.000    6.901    0.244    0.469   84.302
  428.250    6.774    0.260    0.488   85.500
  428.500    6.527    0.249    0.473   86.100
  428.750    6.290    0.243    0.456   87.302
  429.000    6.174    0.249    0.466   83.644
  429.250    6.061    0.254    0.468   83.029
  429.500    6.061    0.245    0.454   86.055
  429.750    6.291    0.236    0.445   82.394
  430.000    6.409    0.254    0.445   81.170
  430.250    6.529    0.271    0.446   81.163
  430.500    6.652    0.261    0.450   82.364
  430.750    6.652    0.265    0.456   82.959
  431.000    6.652    0.274    0.461   83.555
  431.250    6.530    0.260    0.447   87.184
  431.500    6.410    0.272    0.448   90.207
  431.750    6.293    0.252    0.466   92.019
  432.000    6.293    0.236    0.468   92.620
  432.250    6.178    0.247    0.466   88.353
  432.500    6.064    0.253    0.472   87.132
  432.750    5.630    0.246    0.467   87.119
  433.000    5.425    0.248    0.464   90.141
  433.250    4.854    0.270    0.461   91.954
  433.500    4.107    0.254    0.465   96.193
  433.750    3.606    0.242    0.466  100.431
  434.000    3.226    0.234    0.484  102.851
  434.250    2.940    0.255    0.503  100.406
  434.500    2.630    0.258    0.526  101.611
  434.750    2.442    0.264    0.549  101.600
  435.000    2.353    0.263    0.552  101.590
  435.250    2.442    0.249    0.534   98.541
  435.500    2.535    0.239    0.541   94.883
  435.750    2.782    0.242    0.548   93.054
  436.000    3.052    0.248    0.554   90.004
  436.250    3.676    0.262    0.532   88.174
  436.500    3.959    0.276    0.499   84.519
  436.750    4.593    0.266    0.481   86.937
  437.000    5.041    0.258    0.464   90.564
  437.250    5.231    0.250    0.474   91.154
  437.500    5.232    0.247    0.462   91.146
  437.750    5.232    0.241    0.453   90.534
  438.000    5.232    0.264    0.452   82.627
  438.250    5.232    0.292    0.451   71.079
  438.500    5.331    0.308    0.450   63.173
  438.750    5.331    0.314    0.447   59.519
  439.000    5.331    0.321    0.445   60.112
  439.250    5.331    0.328    0.438   59.495
  439.500    5.332    0.337    0.427   58.871
  439.750    5.432    0.349    0.418   58.861
  440.000    5.432    0.351    0.413   58.241
  440.250    5.432    0.338    0.410   58.231
  440.500    5.432    0.351    0.415   58.223
  440.750    5.535    0.345    0.420   58.214
  441.000    5.535    0.331    0.423   57.588
  441.250    5.535    0.327    0.445   57.580
  441.500    5.535    0.338    0.451   57.568
  441.750    5.639    0.338    0.468   57.558
  442.000    5.639    0.331    0.468   57.547
  442.250    5.640    0.323    0.462   57.533
  442.500    5.746    0.315    0.452   57.523
  442.750    5.746    0.315    0.442   56.907
  443.000    5.854    0.325    0.439   56.286
  443.250    5.854    0.329    0.436   55.060
  443.500    5.964    0.318    0.445   53.837
  443.750    5.964    0.311    0.446   61.109
  444.000    6.076    0.303    0.440   64.744
  444.250    6.077    0.316    0.443   60.478
  444.500    6.077    0.323    0.451   59.864
  444.750    6.077    0.332    0.447   59.240
  445.000    6.078    0.342    0.442   59.837
  445.250    6.078    0.336    0.433   60.432
  445.500    6.078    0.323    0.431   62.243
  445.750    6.078    0.314    0.426   64.049
  446.000    6.193    0.319    0.439   64.649
  446.250    6.193    0.324    0.438   65.845
  446.500    6.193    0.316    0.431   65.838
  446.750    6.193    0.318    0.425   64.009
  447.000    6.194    0.324    0.426   60.356
  447.250    6.194    0.335    0.443   61.555
  447.500    6.194    0.344    0.440   63.970
  447.750    6.194    0.340    0.449   65.178
  448.000    6.081    0.330    0.451   68.203
  448.250    6.081    0.334    0.458   73.043
  448.500    5.970    0.341    0.455   75.465
  448.750    5.970    0.344    0.460   77.278
  449.000    5.860    0.329    0.468   80.299
  449.250    5.753    0.322    0.483   82.112
  449.500    5.543    0.310    0.491   78.455
  449.750    5.441    0.306    0.497   76.014
  450.000    5.341    0.301    0.469   76.004
  450.250    5.243    0.317    0.452   75.379
