~VERSION INFORMATION
 VERS.                 2.0:   CWLS LOG ASCII STANDARD -VERSION 2.0
 WRAP.                  NO:   ONE LINE PER DEPTH STEP
~WELL INFORMATION BLOCK
#MNEM.UNIT           DATA                    DESCRIPTION OF MNEMONIC
#---------    -------------------            -------------------------------
# Generated from Intellog Unique Number	CS_77_79/WELL/976
WELL.         HOME OIL COMPANY               : Well_name    - WELL
LOC .         00/10-29-077-07W4/0            : Location     - LOCATION
UWI .         00/10-29-077-07W4/0            : Uwi          - UNIQUE WELL ID
ENTR.         SP                             : Entered      - ENTERED BY
SRVC.         SCHLUMBERGER                   : Scn          - SERVICE COMPANY
STRT.M        124.968                        : top_depth    - START DEPTH
STOP.M        350.218                        : bot_depth    - STOP DEPTH
STEP.M        0.25                           : increment    - STEP LENGTH
 NULL. -999.2500:NULL Value
~CURVE INFORMATION BLOCK
#MNEM UNIT       ERCB CURVE CODE    CURVE DESCRIPTION
#-----------   ------------------   ----------------------------------
DEPT.M        00 001 00 00         : DEPTH        - DEPTH
GR  .API      00 310 00 00         : GR           - GAMMA RAY
DPHI.V/V      00 890 00 00         : PHID         - DENSITY POROSITY (SANDSTONE)
NPHI.V/V      00 330 00 00         : PHIN         - NEUTRON POROSITY (SANDSTONE)
ILD .OHMM     00 120 00 00         : RESD         - DEEP RESISTIVITY (DIL)
~PARAMETER INFORMATION
#MNEM.UNIT           DATA             DESCRIPTION OF MNEMONIC
#---------         -----------     ------------------------------
GL  .M        552.054              : gl           - GROUND LEVEL ELEVATION
EREF.M        555.315              : kb           - ELEVATION OF DEPTH REFERENCE
DATM.M        552.054              : datum        - DATUM ELEVATION
TDD .M        377.038              : tdd          - TOTAL DEPTH DRILLER
RUN .         ONE                  : Run          - RUN NUMBER
ENG .         BILL                 : Engineer     - RECORDING ENGINEER
WIT .         JIM                  : Witness      - WITNESSED BY
MUD .         GEL                  : Mud_type     - MUD TYPE
MATR.         SANDSTONE            : Logunit      - NEUTRON MATRIX
TMAX.C        12.2222              : BHT          - MAXIMUM RECORDED TEMPERATURE
BHTD.M        377.038              : BHTDEP       - MAXIMUM RECORDED TEMPERATURE
MATR.         1                    : LOGUNIT      - NEUTRON MATRIX
RMT .C        25                   : MDTP         - TEMPERATURE OF MUD
NEUT.         1                    : NEUTRON      - NEUTRON TYPE
RESI.         0                    : RESIST       - RESISTIVITY TYPE
RMC .OHMM     0.25                 : RMC          - RESISTIVITY OF MUD CAKE
RMF .OHMM     0.25                 : RMF          - RESISTIVITY OF MUD FILTRATE
SUFT.C        15                   : SUFT         - SURFACE TEMPERATURE
~A  DEPTH       GR     PHID     PHIN     RESD
# ...
  298.968   77.585    0.266    0.379    7.562
  299.218   67.276    0.286    0.382    7.139
  299.468   56.804    0.308    0.373    6.935
  299.718   53.719    0.304    0.365    6.728
  299.968   54.012    0.308    0.360    6.526
  300.218   49.445    0.296    0.375    6.332
  300.468   46.775    0.306    0.373    6.192
  300.718   42.146    0.308    0.371    6.189
  300.968   45.476    0.295    0.372    6.089
  301.218   45.490    0.283    0.379    6.094
  301.468   45.195    0.295    0.365    6.097
  301.718   46.069    0.303    0.352    6.102
  301.968   47.730    0.311    0.361    6.138
  302.218   49.299    0.305    0.364    6.340
  302.468   50.270    0.290    0.361    6.649
  302.718   44.447    0.283    0.364    7.217
  302.968   40.892    0.295    0.354    7.922
  303.218   37.088    0.298    0.347    8.708
  303.468   36.699    0.289    0.357   10.029
  303.718   39.244    0.303    0.370   12.063
  303.968   41.821    0.311    0.364   14.336
  304.218   41.238    0.296    0.388   14.688
  304.468   44.905    0.293    0.397   13.801
  304.718   53.754    0.296    0.382   13.003
  304.968   58.456    0.287    0.372   11.980
  305.218   68.392    0.251    0.368   11.264
  305.468   68.291    0.264    0.389   10.870
  305.718   66.610    0.283    0.387   10.948
  305.968   69.716    0.291    0.398   11.755
  306.218   66.833    0.259    0.411   12.963
  306.468   60.844    0.266    0.411   16.314
  306.718   53.829    0.279    0.399   20.560
  306.968   49.714    0.287    0.391   26.106
  307.218   44.285    0.300    0.388   29.790
  307.468   40.226    0.315    0.378   33.884
  307.718   41.123    0.307    0.388   34.996
  307.968   40.192    0.290    0.404   33.867
  308.218   38.121    0.294    0.421   33.335
  308.468   36.787    0.297    0.421   32.561
  308.718   37.249    0.294    0.426   31.940
  308.968   36.452    0.291    0.432   32.126
  309.218   36.757    0.295    0.402   33.177
  309.468   35.148    0.305    0.389   35.345
  309.718   34.589    0.318    0.400   36.700
  309.968   37.056    0.326    0.395   36.647
  310.218   40.756    0.322    0.390   36.090
  310.468   43.037    0.321    0.388   32.231
  310.718   45.938    0.314    0.393   27.247
  310.968   48.560    0.307    0.374   24.547
  311.218   48.017    0.298    0.373   22.796
  311.468   46.718    0.294    0.389   20.620
  311.718   48.347    0.295    0.398   20.077
  311.968   45.664    0.318    0.409   20.109
  312.218   41.507    0.337    0.432   19.777
  312.468   41.111    0.349    0.424   21.263
  312.718   42.493    0.335    0.419   22.902
  312.968   41.627    0.323    0.424   23.919
  313.218   37.927    0.320    0.434   24.245
  313.468   36.821    0.340    0.437   22.752
  313.718   42.747    0.326    0.440   21.304
  313.968   48.895    0.303    0.447   18.201
  314.218   54.863    0.291    0.436   17.239
  314.468   52.601    0.293    0.422   15.728
  314.718   51.425    0.309    0.426   14.966
  314.968   46.510    0.294    0.426   15.210
  315.218   43.758    0.290    0.444   15.935
  315.468   41.866    0.303    0.453   17.032
  315.718   39.566    0.310    0.445   18.863
  315.968   37.886    0.316    0.434   21.331
  316.218   37.544    0.323    0.437   25.002
  316.468   36.858    0.327    0.447   29.456
  316.718   36.985    0.331    0.451   34.523
  316.968   39.532    0.335    0.428   35.602
  317.218   42.692    0.328    0.431   33.329
  317.468   46.672    0.307    0.441   31.016
  317.718   45.062    0.301    0.438   29.413
  317.968   40.069    0.308    0.429   29.901
  318.218   36.774    0.313    0.433   33.633
  318.468   32.672    0.319    0.431   38.012
  318.718   30.379    0.321    0.420   42.824
  318.968   31.766    0.322    0.419   47.035
  319.218   35.814    0.326    0.420   47.423
  319.468   38.743    0.330    0.417   43.213
  319.718   40.204    0.323    0.430   34.069
  319.968   41.877    0.322    0.440   29.200
  320.218   44.551    0.326    0.418   24.639
  320.468   53.269    0.304    0.402   19.535
  320.718   59.339    0.296    0.410   16.777
  320.968   62.788    0.304    0.409   14.756
  321.218   68.487    0.286    0.393   13.401
  321.468   70.570    0.266    0.382   12.067
  321.718   69.267    0.253    0.385   11.625
  321.968   66.530    0.260    0.388   11.511
  322.218   66.342    0.265    0.392   11.909
  322.468   56.820    0.268    0.413   12.243
  322.718   47.309    0.290    0.417   13.677
  322.968   53.847    0.318    0.410   15.331
  323.218   53.340    0.316    0.400   17.283
  323.468   52.075    0.313    0.422   17.566
  323.718   51.147    0.318    0.423   15.410
  323.968   56.614    0.319    0.418   14.245
  324.218   65.623    0.315    0.393   13.357
  324.468   72.092    0.271    0.386   12.561
  324.718   70.692    0.255    0.400   11.952
  324.968   69.209    0.263    0.412   12.100
  325.218   62.926    0.283    0.423   13.515
  325.468   50.358    0.304    0.444   18.735
  325.718   45.029    0.323    0.446   25.337
  325.968   43.075    0.345    0.427   29.517
  326.218   43.288    0.349    0.427   32.079
  326.468   43.614    0.333    0.453   34.797
  326.718   45.668    0.323    0.461   35.838
  326.968   47.618    0.312    0.446   35.759
  327.218   48.867    0.284    0.441   34.669
  327.468   46.137    0.288    0.437   35.940
  327.718   45.203    0.324    0.426   35.252
  327.968   48.817    0.344    0.412   34.743
  328.218   54.085    0.339    0.408   30.389
  328.468   55.062    0.320    0.413   23.358
  328.718   55.319    0.329    0.400   18.309
  328.968   55.676    0.314    0.410   15.508
  329.218   60.828    0.306    0.412   13.200
  329.468   66.683    0.275    0.410   12.465
  329.718   73.433    0.234    0.389   11.823
  329.968   73.982    0.247    0.394   11.763
  330.218   73.131    0.255    0.403   12.134
  330.468   71.076    0.259    0.412   13.000
  330.718   70.426    0.264    0.425   15.352
  330.968   61.240    0.267    0.436   19.866
  331.218   47.954    0.275    0.450   24.943
  331.468   42.785    0.299    0.465   28.796
  331.718   35.687    0.337    0.458   31.945
  331.968   34.619    0.349    0.417   28.410
  332.218   44.210    0.340    0.401   26.464
  332.468   49.802    0.343    0.415   25.856
  332.718   56.306    0.294    0.424   25.912
  332.968   41.614    0.303    0.433   27.429
  333.218   32.110    0.333    0.436   32.671
  333.468   35.467    0.363    0.416   36.403
  333.718   41.055    0.352    0.427   34.800
  333.968   48.427    0.342    0.413   29.780
  334.218   53.877    0.321    0.407   30.682
  334.468   58.198    0.302    0.429   28.770
  334.718   56.447    0.275    0.441   27.775
  334.968   55.045    0.280    0.450   27.950
  335.218   50.102    0.310    0.467   30.436
  335.468   41.237    0.331    0.439   36.850
  335.718   33.385    0.344    0.453   39.686
  335.968   31.257    0.356    0.414   43.212
  336.218   30.978    0.354    0.426   48.288
  336.468   32.042    0.350    0.429   49.997
  336.718   32.163    0.346    0.429   48.517
  336.968   31.498    0.350    0.428   41.949
  337.218   31.738    0.356    0.450   39.964
  337.468   34.046    0.356    0.463   39.919
  337.718   34.507    0.353    0.472   41.174
  337.968   35.511    0.350    0.453   39.144
  338.218   39.015    0.346    0.458   34.080
  338.468   47.410    0.344    0.477   27.180
  338.718   50.720    0.343    0.485   23.956
  338.968   55.424    0.325    0.463   20.662
  339.218   56.887    0.304    0.446   18.798
  339.468   55.980    0.287    0.442   18.923
  339.718   54.955    0.272    0.436   20.586
  339.968   50.938    0.284    0.447   24.005
  340.218   44.710    0.336    0.449   25.516
  340.468   39.874    0.348    0.433   28.165
  340.718   45.153    0.338    0.432   25.496
  340.968   55.242    0.317    0.446   22.789
  341.218   56.869    0.308    0.458   20.142
  341.468   54.954    0.314    0.449   19.245
  341.718   53.176    0.324    0.456   19.759
  341.968   51.250    0.345    0.468   20.305
  342.218   46.770    0.357    0.467   22.037
