~VERSION INFORMATION
 VERS.                 2.0:   CWLS LOG ASCII STANDARD -VERSION 2.0
 WRAP.                  NO:   ONE LINE PER DEPTH STEP
~WELL INFORMATION BLOCK
#MNEM.UNIT           DATA                    DESCRIPTION OF MNEMONIC
#---------    -------------------            -------------------------------
# Generated from Intellog Unique Number	CS_67_68/WELL/853
WELL.         CHIEFTAIN DEVELOPMENT          : Well_name    - WELL
LOC .         00/13-09-068-11W4/0            : Location     - LOCATION
UWI .         00/13-09-068-11W4/0            : Uwi          - UNIQUE WELL ID
ENTR.         SP                             : Entered      - ENTERED BY
SRVC.         SCHLUMBERGER                   : Scn          - SERVICE COMPANY
STRT.M        255                            : top_depth    - START DEPTH
STOP.M        485                            : bot_depth    - STOP DEPTH
STEP.M        0.25                           : increment    - STEP LENGTH
 NULL. -999.2500:NULL Value
~CURVE INFORMATION BLOCK
#MNEM UNIT       ERCB CURVE CODE    CURVE DESCRIPTION
#-----------   ------------------   ----------------------------------
DEPT.M        00 001 00 00         : DEPTH        - DEPTH
ILD .OHMM     00 120 00 00         : RESD         - DEEP RESISTIVITY (DIL)
DPHI.V/V      00 890 00 00         : PHID         - DENSITY POROSITY (LIMESTONE)
NPHI.V/V      00 330 00 00         : PHIN         - NEUTRON POROSITY (LIMESTONE)
GR  .API      00 310 00 00         : GR           - GAMMA RAY
~PARAMETER INFORMATION
#MNEM.UNIT           DATA             DESCRIPTION OF MNEMONIC
#---------         -----------     ------------------------------
GL  .M        599                  : gl           - GROUND LEVEL ELEVATION
EREF.M        602                  : kb           - ELEVATION OF DEPTH REFERENCE
DATM.M        599                  : datum        - DATUM ELEVATION
TDD .M        494                  : tdd          - TOTAL DEPTH DRILLER
RUN .         ONE                  : Run          - RUN NUMBER
ENG .         BILL                 : Engineer     - RECORDING ENGINEER
WIT .         JIM                  : Witness      - WITNESSED BY
MUD .         GEL                  : Mud_type     - MUD TYPE
MATR.         LIMESTONE            : Logunit      - NEUTRON MATRIX
TMAX.C        22                   : BHT          - MAXIMUM RECORDED TEMPERATURE
BHTD.M        494                  : BHTDEP       - MAXIMUM RECORDED TEMPERATURE
MATR.         1                    : LOGUNIT      - NEUTRON MATRIX
RMT .C        25                   : MDTP         - TEMPERATURE OF MUD
NEUT.         1                    : NEUTRON      - NEUTRON TYPE
RESI.         0                    : RESIST       - RESISTIVITY TYPE
RMC .OHMM     0.25                 : RMC          - RESISTIVITY OF MUD CAKE
RMF .OHMM     0.25                 : RMF          - RESISTIVITY OF MUD FILTRATE
SUFT.C        15                   : SUFT         - SURFACE TEMPERATURE
~A  DEPTH     RESD     PHID     PHIN       GR
# ...
  298.500    2.395    0.181    0.463  109.719
  298.750    2.377    0.172    0.454  108.910
  299.000    2.351    0.180    0.451  106.707
  299.250    2.334    0.193    0.452  104.319
  299.500    2.322    0.192    0.461  109.271
  299.750    2.292    0.193    0.467  112.168
  300.000    2.271    0.208    0.463  113.118
  300.250    2.246    0.222    0.467  107.751
  300.500    2.234    0.237    0.473  103.179
  300.750    2.259    0.249    0.474  100.489
  301.000    2.564    0.239    0.380   97.067
  301.250    2.742    0.225    0.361   92.613
  301.500    2.878    0.213    0.361   91.442
  301.750    3.049    0.208    0.370   97.303
  302.000    3.218    0.211    0.377   99.655
  302.250    3.416    0.205    0.375  102.973
  302.500    3.605    0.194    0.388  106.290
  302.750    3.680    0.185    0.384  108.758
  303.000    3.743    0.180    0.372  111.101
  303.250    3.743    0.179    0.365  111.266
  303.500    3.682    0.174    0.360  111.001
  303.750    3.655    0.171    0.385  112.983
  304.000    3.602    0.172    0.403  114.540
  304.250    3.562    0.188    0.417  114.820
  304.500    3.543    0.205    0.384  114.193
  304.750    3.498    0.216    0.352  112.778
  305.000    3.440    0.228    0.334  109.477
  305.250    3.371    0.240    0.328  102.233
  305.500    3.261    0.250    0.334   91.104
  305.750    3.125    0.259    0.341   84.649
  306.000    2.961    0.271    0.343   78.436
  306.250    2.734    0.282    0.328   74.713
  306.500    2.615    0.289    0.325   72.688
  306.750    2.539    0.294    0.324   66.112
  307.000    2.488    0.274    0.316   57.226
  307.250    2.479    0.254    0.329   53.140
  307.500    2.517    0.254    0.330   57.246
  307.750    2.578    0.261    0.322   61.839
  308.000    2.691    0.240    0.319   66.975
  308.250    2.799    0.215    0.324   71.083
  308.500    2.927    0.202    0.327   74.280
  308.750    3.061    0.187    0.344   80.570
  309.000    3.213    0.178    0.356   86.560
  309.250    3.279    0.175    0.362   94.368
  309.500    3.196    0.173    0.387  100.177
  309.750    2.854    0.168    0.428  106.164
  310.000    2.625    0.163    0.463  113.125
  310.250    2.393    0.157    0.468  122.025
  310.500    2.272    0.165    0.459  119.151
  310.750    2.153    0.191    0.454  114.578
  311.000    2.014    0.218    0.461  111.219
  311.250    1.930    0.242    0.460  106.643
  311.500    1.919    0.234    0.439  102.314
  311.750    2.037    0.224    0.420   95.613
  312.000    2.265    0.279    0.391   91.467
  312.250    2.458    0.302    0.376   85.739
  312.500    2.644    0.314    0.367   81.348
  312.750    2.770    0.312    0.370   78.111
  313.000    2.854    0.313    0.373   74.992
  313.250    2.828    0.316    0.375   73.516
  313.500    2.760    0.305    0.366   74.830
  313.750    2.675    0.298    0.365   78.329
  314.000    2.636    0.294    0.374   79.765
  314.250    2.627    0.291    0.389   80.410
  314.500    2.627    0.302    0.397   78.995
  314.750    2.637    0.309    0.406   76.909
  315.000    2.647    0.312    0.404   74.640
  315.250    2.638    0.317    0.373   73.832
  315.500    2.623    0.312    0.364   72.409
  315.750    2.604    0.304    0.366   71.543
  316.000    2.595    0.294    0.367   70.969
  316.250    2.586    0.290    0.368   71.013
  316.500    2.586    0.300    0.374   71.174
  316.750    2.582    0.306    0.375   71.095
  317.000    2.592    0.311    0.373   71.255
  317.250    2.616    0.317    0.369   72.267
  317.500    2.636    0.314    0.372   72.915
  317.750    2.651    0.308    0.381   72.407
  318.000    2.672    0.303    0.382   72.386
  318.250    2.707    0.301    0.378   73.336
  318.500    2.841    0.310    0.372   75.135
  318.750    2.836    0.321    0.392   76.996
  319.000    2.826    0.325    0.404   79.160
  319.250    2.806    0.324    0.406   79.868
  319.500    2.785    0.315    0.394   79.969
  319.750    2.770    0.307    0.382   78.612
  320.000    2.760    0.319    0.370   76.707
  320.250    2.771    0.339    0.363   74.380
  320.500    2.802    0.350    0.360   73.141
  320.750    2.887    0.359    0.359   72.701
  321.000    2.958    0.366    0.333   72.434
  321.250    3.031    0.372    0.315   72.841
  321.500    3.094    0.365    0.302   72.637
  321.750    3.206    0.269    0.272   71.524
  322.000    3.525    0.020    0.198   68.771
  322.250    4.325    0.002    0.168   66.929
  322.500    5.866   -0.007    0.152   64.478
  322.750    8.197   -0.009    0.143   61.362
  323.000   10.733   -0.010    0.134   58.671
  323.250   13.923   -0.010    0.128   58.892
  323.500   17.729   -0.010    0.127   59.842
  323.750   20.346   -0.009    0.125   60.912
  324.000   22.082   -0.005    0.124   61.738
  324.250   22.921    0.002    0.133   62.144
  324.500   22.377    0.011    0.140   62.430
  324.750   20.019    0.021    0.148   63.499
  325.000   16.596    0.034    0.158   65.301
  325.250   13.232    0.049    0.192   68.192
  325.500   10.949    0.069    0.229   70.419
  325.750    8.537    0.109    0.287   72.886
  326.000    6.681    0.182    0.330   75.232
  326.250    5.488    0.312    0.349   78.062
  326.500    4.457    0.329    0.366   78.892
  326.750    3.744    0.337    0.369   78.688
  327.000    3.263    0.340    0.363   80.367
  327.250    2.947    0.340    0.359   82.653
  327.500    2.767    0.338    0.356   85.726
  327.750    2.564    0.328    0.369   87.711
  328.000    2.448    0.321    0.382   89.931
  328.250    2.444    0.314    0.402   91.127
  328.500    2.546    0.308    0.421   92.807
  328.750    2.677    0.305    0.408   94.546
  329.000    2.816    0.303    0.393   94.951
  329.250    2.944    0.299    0.379   95.355
  329.500    3.056    0.289    0.380   97.275
  329.750    3.184    0.279    0.394   99.439
  330.000    3.293    0.267    0.402   99.600
  330.250    3.368    0.261    0.401   99.580
  330.500    3.387    0.260    0.398  101.016
  330.750    3.387    0.282    0.390  101.602
  331.000    3.338    0.299    0.386  100.790
  331.250    3.241    0.307    0.386   99.555
  331.500    3.117    0.308    0.383   97.712
  331.750    2.987    0.314    0.380   98.118
  332.000    2.922    0.308    0.409  101.554
  332.250    2.863    0.306    0.427  103.961
  332.500    2.842    0.313    0.419  106.248
  332.750    2.827    0.315    0.413  108.413
  333.000    2.827    0.264    0.411  109.364
  333.250    2.822    0.244    0.411  108.554
  333.500    2.823    0.258    0.416  106.223
  333.750    2.828    0.270    0.423  105.172
  334.000    2.834    0.261    0.412  104.421
  334.250    2.850    0.240    0.432  104.278
  334.500    2.861    0.234    0.441  104.862
  334.750    2.878    0.232    0.429  106.178
  335.000    2.889    0.229    0.416  107.737
  335.250    2.900    0.240    0.418  108.988
  335.500    2.906    0.255    0.425  109.877
  335.750    2.906    0.263    0.404  111.252
  336.000    2.917    0.265    0.411  112.449
  336.250    2.928    0.267    0.417  113.643
  336.500    2.923    0.271    0.400  114.833
  336.750    2.891    0.276    0.410  115.300
  337.000    2.854    0.291    0.419  114.490
  337.250    2.792    0.279    0.392  112.709
  337.500    2.721    0.260    0.382  108.314
  337.750    2.666    0.248    0.374  104.593
  338.000    2.652    0.253    0.384   99.954
  338.250    2.662    0.252    0.391   96.414
  338.500    2.753    0.232    0.393   94.210
  338.750    2.857    0.212    0.385   92.183
  339.000    3.055    0.198    0.390   91.860
  339.250    3.213    0.222    0.399   91.415
  339.500    3.398    0.261    0.393   92.548
  339.750    3.443    0.289    0.405   95.073
  340.000    3.437    0.301    0.404   96.634
  340.250    3.355    0.278    0.389   99.220
  340.500    3.251    0.256    0.391  100.292
  340.750    3.168    0.238    0.403   98.511
  341.000    3.128    0.228    0.409   98.673
  341.250    3.122    0.234    0.407   99.317
  341.500    3.223    0.237    0.401  100.146
  341.750    3.333    0.240    0.394  100.553
