~VERSION INFORMATION
 VERS.                 2.0:   CWLS LOG ASCII STANDARD -VERSION 2.0
 WRAP.                  NO:   ONE LINE PER DEPTH STEP
~WELL INFORMATION BLOCK
#MNEM.UNIT           DATA                    DESCRIPTION OF MNEMONIC
#---------    -------------------            -------------------------------
# Generated from Intellog Unique Number	CX_WELLS/WELL/2862
WELL.         ARCOR ET AL HOUSE              : Well_name    - WELL
LOC .         00/10-35-081-15W4/0            : Location     - LOCATION
UWI .         00/10-35-081-15W400            : Uwi          - UNIQUE WELL ID
ENTR.         T                              : Entered      - ENTERED BY
SRVC.         SCHLUMBERGER                   : Scn          - SERVICE COMPANY
STRT.M        140                            : top_depth    - START DEPTH
STOP.M        360                            : bot_depth    - STOP DEPTH
STEP.M        0.25                           : increment    - STEP LENGTH
 NULL. -999.2500:NULL Value
~CURVE INFORMATION BLOCK
#MNEM UNIT       ERCB CURVE CODE    CURVE DESCRIPTION
#-----------   ------------------   ----------------------------------
DEPT.M        00 001 00 00         : DEPTH        - DEPTH
GR  .API      00 310 00 00         : GR           - GAMMA RAY
NPHI.V/V      00 330 00 00         : PHIN         - NEUTRON POROSITY (SANDSTONE)
DPHI.V/V      00 890 00 00         : PHID         - DENSITY POROSITY (SANDSTONE)
ILD .OHMM     00 120 00 00         : RESD         - DEEP RESISTIVITY (OTHER)
~PARAMETER INFORMATION
#MNEM.UNIT           DATA             DESCRIPTION OF MNEMONIC
#---------         -----------     ------------------------------
GL  .M        572                  : gl           - GROUND LEVEL ELEVATION
EREF.M        576.6                : kb           - ELEVATION OF DEPTH REFERENCE
DATM.M        576.6                : datum        - DATUM ELEVATION
TDD .M        365                  : tdd          - TOTAL DEPTH DRILLER
RUN .         ONE                  : Run          - RUN NUMBER
ENG .         BILL                 : Engineer     - RECORDING ENGINEER
WIT .         JIM                  : Witness      - WITNESSED BY
MUD .         GEL                  : Mud_type     - MUD TYPE
MATR.         SANDSTONE            : Logunit      - NEUTRON MATRIX
TMAX.C        24                   : BHT          - MAXIMUM RECORDED TEMPERATURE
BHTD.M        365                  : BHTDEP       - MAXIMUM RECORDED TEMPERATURE
MATR.         1                    : LOGUNIT      - NEUTRON MATRIX
RMT .C        133333               : MDTP         - TEMPERATURE OF MUD
NEUT.         1                    : NEUTRON      - NEUTRON TYPE
RESI.         2.2                  : RESIST       - RESISTIVITY TYPE
RMC .OHMM     2.5                  : RMC          - RESISTIVITY OF MUD CAKE
RMF .OHMM     2.9                  : RMF          - RESISTIVITY OF MUD FILTRATE
SUFT.C        4                    : SUFT         - SURFACE TEMPERATURE
~A  DEPTH       GR     PHIN     PHID     RESD
# ...
  314.000   84.969    0.401    0.276   12.309
  314.250   78.400    0.404    0.266   17.270
  314.500   77.797    0.405    0.261   22.055
  314.750   74.806    0.405    0.260   24.685
  315.000   71.222    0.400    0.265   25.621
  315.250   63.459    0.392    0.282   32.720
  315.500   52.117    0.381    0.291   40.240
  315.750   44.353    0.369    0.302   52.368
  316.000   38.381    0.363    0.300   54.348
  316.250   33.005    0.361    0.294   48.508
  316.500   30.014    0.357    0.288   45.830
  316.750   32.992    0.357    0.280   40.146
  317.000   41.935    0.362    0.268   33.226
  317.250   51.475    0.373    0.265   29.663
  317.500   54.452    0.377    0.263   26.475
  317.750   56.235    0.378    0.260   25.484
  318.000   56.824    0.377    0.258   25.475
  318.250   57.414    0.375    0.254   25.463
  318.500   58.598    0.371    0.252   24.970
  318.750   59.788    0.372    0.248   24.038
  319.000   61.572    0.376    0.242   21.452
  319.250   63.355    0.379    0.236   19.890
  319.500   66.332    0.379    0.223   18.092
  319.750   72.290    0.379    0.214   16.457
  320.000   77.655    0.377    0.209   14.970
  320.250   84.806    0.375    0.215   15.242
  320.500   85.993    0.369    0.266   16.432
  320.750   80.618    0.360    0.282   18.739
  321.000   74.049    0.354    0.292   21.781
  321.250   71.059    0.364    0.293   27.816
  321.500   76.422    0.387    0.282   38.301
  321.750   85.365    0.399    0.268   43.678
  322.000   99.081    0.401    0.255   43.667
  322.250   91.915    0.391    0.244   40.468
  322.500   84.750    0.380    0.242   37.511
  322.750   75.793    0.371    0.241   34.121
  323.000   73.996    0.365    0.234   32.847
  323.250   80.553    0.359    0.225   29.875
  323.500   87.108    0.350    0.210   28.223
  323.750   90.085    0.343    0.200   26.155
  324.000   90.078    0.341    0.197   26.149
  324.250   90.073    0.338    0.194   25.167
  324.500   88.872    0.333    0.188   24.685
  324.750   88.269    0.323    0.179   24.674
  325.000   87.070    0.326    0.167   25.131
  325.250   85.272    0.335    0.160   25.598
  325.500   82.283    0.346    0.150   27.586
  325.750   78.697    0.364    0.155   29.729
  326.000   76.305    0.358    0.170   29.722
  326.250   78.089    0.355    0.183   29.150
  326.500   82.854    0.353    0.197   28.058
  326.750   86.429    0.363    0.204   27.008
  327.000   93.581    0.370    0.212   25.505
  327.250   94.171    0.368    0.214   25.023
  327.500   90.585    0.367    0.212   24.538
  327.750   83.419    0.361    0.206   24.530
  328.000   82.220    0.358    0.196   24.063
  328.250   88.776    0.359    0.165   22.724
  328.500   96.526    0.359    0.154   22.290
  328.750   98.309    0.359    0.129   21.457
  329.000   89.354    0.366    0.105   20.651
  329.250   79.798    0.374    0.139   20.256
  329.500   81.580    0.380    0.195   20.247
  329.750   82.174    0.379    0.221   20.235
  330.000   83.361    0.375    0.230   20.230
  330.250   83.353    0.369    0.219   20.219
  330.500   80.960    0.360    0.207   21.385
  330.750   78.569    0.353    0.217   23.931
  331.000   74.983    0.354    0.246   24.839
  331.250   70.799    0.355    0.250   26.775
  331.500   64.230    0.358    0.257   31.118
  331.750   57.064    0.359    0.268   36.854
  332.000   51.091    0.358    0.281   45.324
  332.250   43.329    0.355    0.293   58.984
  332.500   37.356    0.354    0.304   87.587
  332.750   34.365    0.345    0.313  127.632
  333.000   31.973    0.336    0.306  130.000
  333.250   34.353    0.336    0.271  101.688
  333.500   39.118    0.337    0.231   68.416
  333.750   43.289    0.338    0.218   52.523
  334.000   51.039    0.338    0.199   39.569
  334.250   65.352    0.342    0.192   27.125
  334.500   83.841    0.349    0.193   20.054
  334.750  102.329    0.354    0.194   17.239
  335.000  113.657    0.362    0.199   17.230
  335.250  111.266    0.366    0.205   17.882
  335.500  108.275    0.369    0.213   20.014
  335.750  106.479    0.374    0.218   23.703
  336.000  104.683    0.381    0.222   28.075
  336.250  102.886    0.386    0.228   35.185
  336.500   98.106    0.392    0.245   46.655
  336.750   94.520    0.394    0.264   54.223
  337.000   89.145    0.396    0.265   53.173
  337.250   82.576    0.398    0.263   49.294
  337.500   81.973    0.398    0.258   47.453
  337.750   83.755    0.399    0.254   42.359
  338.000   85.539    0.397    0.246   37.812
  338.250   89.112    0.394    0.239   26.914
  338.500   94.475    0.391    0.228   25.422
  338.750  100.435    0.385    0.218   23.567
  339.000  105.798    0.375    0.201   21.438
  339.250  109.372    0.362    0.186   19.500
  339.500  112.349    0.356    0.179   18.076
  339.750  114.729    0.359    0.180   17.070
  340.000  113.529    0.360    0.190   17.387
  340.250  106.362    0.360    0.206   17.711
  340.500   95.617    0.362    0.200   18.038
  340.750   92.627    0.363    0.190   18.372
  341.000   99.780    0.367    0.174   18.364
  341.250  107.530    0.381    0.150   18.015
  341.500  105.137    0.381    0.096   18.006
  341.750   89.022    0.369    0.102   18.685
  342.000   79.470    0.358    0.149   18.678
  342.250   81.849    0.360    0.169   17.975
  342.500   89.002    0.360    0.183   17.303
  342.750  100.928    0.359    0.185   16.657
  343.000  108.677    0.359    0.187   15.731
  343.250  108.671    0.363    0.187   15.430
  343.500  108.665    0.367    0.187   15.426
  343.750  108.658    0.372    0.187   15.129
  344.000  109.246    0.377    0.185   15.119
  344.250  109.241    0.379    0.185   15.113
  344.500  109.234    0.362    0.183   15.108
  344.750  109.225    0.353    0.178   15.099
  345.000  109.222    0.357    0.173   15.092
  345.250  111.602    0.364    0.167   15.370
  345.500  113.981    0.367    0.166   15.365
  345.750  112.781    0.367    0.162   15.354
  346.000  112.178    0.364    0.157   15.062
  346.250  111.575    0.359    0.153   14.774
  346.500  109.779    0.356    0.155   14.219
  346.750  110.369    0.348    0.156   14.216
  347.000  111.556    0.340    0.157   14.209
  347.250  109.760    0.346    0.157   15.029
  347.500  107.962    0.351    0.154   17.466
  347.750  107.359    0.355    0.146   23.604
  348.000  108.546    0.337    0.046   33.119
  348.250  106.752    0.268    0.016   42.295
  348.500   67.367    0.159   -0.004   56.090
  348.750   48.269    0.114   -0.011   77.240
  349.000   36.927    0.093   -0.014  100.519
  349.250   26.182    0.091   -0.012  135.838
  349.500   24.979    0.102   -0.006   81.610
  349.750   25.571    0.110    0.010   55.946
  350.000   27.951    0.124    0.027   49.951
  350.250   35.702    0.138    0.043   33.603
  350.500   56.576    0.156    0.065   20.966
  350.750   79.838    0.190    0.078   16.402
  351.000   91.764    0.247    0.087   12.591
  351.250  107.866    0.276    0.092   11.028
  351.500  118.002    0.341    0.093   10.818
  351.750  120.977    0.359    0.087   10.812
  352.000  122.761    0.375    0.081   10.807
  352.250  123.948    0.399    0.070   10.803
  352.500  126.328    0.402    0.038   11.426
  352.750  119.164    0.383    0.015   13.530
  353.000   86.342    0.256    0.000   16.026
  353.250   70.824    0.215   -0.010   25.183
  353.500   61.272    0.192   -0.017   28.721
  353.750   56.492    0.166   -0.022   36.679
  354.000   54.099    0.157   -0.027   48.642
  354.250   51.108    0.146   -0.033   62.119
  354.500   47.524    0.135   -0.032   82.369
  354.750   43.340    0.121   -0.030   95.719
  355.000   38.561    0.114   -0.030  103.167
  355.250   34.376    0.110   -0.030  105.093
  355.500   33.178    0.110   -0.030  107.043
  355.750   31.381    0.112   -0.030  106.992
  356.000   30.776    0.117   -0.029  101.039
  356.250   30.773    0.124   -0.027   95.462
  356.500   31.362    0.134   -0.021   83.613
  356.750   31.952    0.144   -0.017   73.243
  357.000   32.542    0.155   -0.013   62.954
  357.250   34.324    0.163   -0.008   57.272
