~VERSION INFORMATION
 VERS.                 2.0:   CWLS LOG ASCII STANDARD -VERSION 2.0
 WRAP.                  NO:   ONE LINE PER DEPTH STEP
~WELL INFORMATION BLOCK
#MNEM.UNIT           DATA                    DESCRIPTION OF MNEMONIC
#---------    -------------------            -------------------------------
# Generated from Intellog Unique Number	CW_73_75/WELL/2740
WELL.         SUNDALE ET AL FRANCIS 10-16    : Well_name    - WELL
LOC .         00/10-16-073-21W4/0            : Location     - LOCATION
UWI .         00/10-16-073-21W4/0            : Uwi          - UNIQUE WELL ID
ENTR.         JAYE                           : Entered      - ENTERED BY
SRVC.         SCHLUMBERGER                   : Scn          - SERVICE COMPANY
DATE.         11 FEB 1976                    : Date         - LOG DATE
STRT.M        377.952                        : top_depth    - START DEPTH
STOP.M        579.202                        : bot_depth    - STOP DEPTH
STEP.M        0.25                           : increment    - STEP LENGTH
 NULL. -999.2500:NULL Value
~CURVE INFORMATION BLOCK
#MNEM UNIT       ERCB CURVE CODE    CURVE DESCRIPTION
#-----------   ------------------   ----------------------------------
DEPT.M        00 001 00 00         : DEPTH        - DEPTH
ILD .OHMM     00 120 00 00         : RESD         - DEEP RESISTIVITY (DIL)
NPHI.V/V      00 330 00 00         : PHIN         - NEUTRON POROSITY (SANDSTONE)
DPHI.V/V      00 890 00 00         : PHID         - DENSITY POROSITY (SANDSTONE)
GR  .API      00 310 00 00         : GR           - GAMMA RAY
CALI.MM       00 280 01 00         : CAL          - CALIPER
~PARAMETER INFORMATION
#MNEM.UNIT           DATA             DESCRIPTION OF MNEMONIC
#---------         -----------     ------------------------------
GL  .M        668.731              : gl           - GROUND LEVEL ELEVATION
EREF.M        672.998              : kb           - ELEVATION OF DEPTH REFERENCE
DATM.M        668.731              : datum        - DATUM ELEVATION
TDD .M        609.6                : tdd          - TOTAL DEPTH DRILLER
RUN .         ONE                  : Run          - RUN NUMBER
MUD .         GEL CHEM             : Mud_type     - MUD TYPE
MATR.         SANDSTONE            : Logunit      - NEUTRON MATRIX
TMAX.C        21.6667              : BHT          - MAXIMUM RECORDED TEMPERATURE
BHTD.M        578.206              : BHTDEP       - MAXIMUM RECORDED TEMPERATURE
RMT .C        16.6667              : MDTP         - TEMPERATURE OF MUD
MUDD.KG/M     1080                 : MWT          - MUD DENSITY
NEUT.         1                    : NEUTRON      - NEUTRON TYPE
RESI.         0                    : RESIST       - RESISTIVITY TYPE
RM  .OHMM     3.62                 : RM           - RESISTIVITY OF MUD
RMC .OHMM     0                    : RMC          - RESISTIVITY OF MUD CAKE
RMF .OHMM     2.9                  : RMF          - RESISTIVITY OF MUD FILTRATE
SUFT.C        0                    : SUFT         - SURFACE TEMPERATURE
~A  DEPTH     RESD     PHIN     PHID       GR      CAL
# ...
  450.952   21.051    0.108   -0.017   35.876  151.926
  451.202   19.195    0.111   -0.012   37.354  152.348
  451.452   15.646    0.124   -0.003   38.956  152.560
  451.702   11.569    0.141    0.086   40.435  152.669
  451.952    9.658    0.185    0.168   43.512  152.569
  452.202    8.427    0.302    0.198   46.467  152.678
  452.452    7.655    0.362    0.269   50.282  152.682
  452.702    7.006    0.399    0.278   57.726  152.686
  452.952    6.567    0.412    0.276   56.991  152.900
  453.202    6.374    0.418    0.271   60.130  152.904
  453.452    6.348    0.427    0.281   59.026  153.012
  453.702    6.346    0.437    0.273   57.614  153.121
  453.952    6.366    0.436    0.279   55.771  153.124
  454.202    6.352    0.438    0.276   53.498  153.129
  454.452    6.326    0.450    0.264   51.349  153.029
  454.702    6.289    0.451    0.278   51.290  153.033
  454.952    6.241    0.444    0.296   53.076  153.142
  455.202    6.203    0.440    0.310   55.354  153.251
  455.452    6.201    0.436    0.320   56.648  153.464
  455.702    6.199    0.446    0.308   58.988  153.468
  455.952    6.174    0.438    0.315   60.159  153.576
  456.202    6.115    0.431    0.315   61.514  153.789
  456.452    6.079    0.425    0.321   63.116  153.793
  456.702    6.504    0.430    0.312   64.287  153.798
  456.952    7.700    0.449    0.294   65.520  153.803
  457.202    8.658    0.455    0.275   68.166  153.911
  457.452    9.879    0.460    0.251   74.073  153.915
  457.702   11.588    0.430    0.214   75.429  153.816
  457.952   15.177    0.365    0.003   70.696  153.924
  458.202   20.321    0.222   -0.014   58.214  154.138
  458.452   30.213    0.178   -0.020   51.452  154.245
  458.702   41.892    0.158   -0.014   49.486  154.458
  458.952   46.759    0.169   -0.001   51.211  154.568
  459.202   41.936    0.216    0.024   55.150  154.571
  459.452   27.166    0.262    0.060   59.703  154.783
  459.702   20.878    0.300    0.097   64.441  154.996
  459.952   15.353    0.386    0.278   69.671  155.209
  460.202   11.800    0.423    0.308   71.519  155.422
  460.452    9.689    0.460    0.320   70.599  155.426
  460.702    8.044    0.460    0.319   70.110  155.430
  460.952    7.294    0.453    0.313   70.297  155.435
  461.202    6.825    0.447    0.300   70.115  155.439
  461.452    6.362    0.445    0.295   68.887  155.340
  461.702    6.085    0.441    0.298   67.475  154.927
  461.952    5.895    0.439    0.307   62.004  154.515
  462.202    5.712    0.446    0.297   62.561  154.311
  462.452    5.564    0.459    0.283   66.376  154.836
  462.702    5.451    0.472    0.299   68.531  153.903
  462.952    5.271    0.471    0.321   69.087  152.971
  463.202    5.164    0.473    0.332   69.705  152.871
  463.452    5.096    0.482    0.337   69.954  151.209
  463.702    5.038    0.469    0.326   70.264  151.526
  463.952    4.981    0.459    0.317   70.635  152.468
  464.202    4.951    0.493    0.301   70.945  153.201
  464.452    4.940    0.485    0.301   71.379  153.935
  464.702    4.947    0.476    0.312   73.041  154.355
  464.952    4.937    0.479    0.305   72.983  154.568
  465.202    4.944    0.479    0.306   70.341  154.364
  465.452    4.932    0.474    0.315   68.068  154.056
  465.702    4.912    0.478    0.307   70.900  154.061
  465.952    4.911    0.472    0.304   74.592  153.961
  466.202    4.891    0.464    0.302   74.410  153.965
  466.452    4.844    0.471    0.299   73.060  154.074
  466.702    4.842    0.457    0.306   72.939  154.391
  466.952    4.903    0.448    0.294   72.635  155.228
  467.202    4.973    0.468    0.274   73.006  156.066
  467.452    5.027    0.490    0.280   70.426  156.590
  467.702    5.080    0.482    0.301   68.091  156.908
  467.952    5.106    0.466    0.296   67.663  157.120
  468.202    5.077    0.465    0.302   67.973  157.333
  468.452    4.909    0.470    0.311   69.760  158.170
  468.702    4.722    0.470    0.316   73.391  159.529
  468.952    4.329    0.457    0.302   79.236  160.366
  469.202    3.749    0.436    0.283   86.434  161.100
  469.452    3.271    0.441    0.218   94.862  161.625
  469.702    2.956    0.489    0.171  101.568  162.150
  469.952    2.725    0.513    0.194  104.953  162.467
  470.202    2.729    0.518    0.224  107.415  162.473
  470.452    2.877    0.534    0.235  109.817  162.475
  470.702    3.073    0.544    0.245  105.576  162.480
  470.952    3.306    0.524    0.208   99.059  162.589
  471.202    3.670    0.501    0.190   96.663  162.593
  471.452    3.841    0.477    0.196   96.851  162.286
  471.702    3.946    0.471    0.192   98.083  162.289
  471.952    4.025    0.474    0.182   99.623  162.293
  472.202    4.091    0.479    0.165   99.933  161.986
  472.452    4.188    0.488    0.167  100.613  161.782
  472.702    4.288    0.518    0.175  100.922  161.473
  472.952    4.546    0.515    0.207   92.008  161.270
  473.202    4.697    0.476    0.227   86.414  161.170
  473.452    4.584    0.470    0.260   80.943  161.591
  473.702    4.557    0.473    0.295   77.194  162.117
  473.952    4.657    0.456    0.319   80.641  162.329
  474.202    4.759    0.429    0.291   90.852  162.750
  474.452    4.944    0.454    0.267   92.761  162.859
  474.702    5.109    0.481    0.260   93.625  162.864
  474.952    5.416    0.502    0.255   94.243  162.763
  475.202    5.545    0.485    0.206   94.676  162.664
  475.452    5.422    0.476    0.211   95.601  162.355
  475.702    5.369    0.472    0.191   96.710  161.735
  475.952    5.358    0.470    0.166   97.820  161.635
  476.202    5.346    0.486    0.194   99.052  161.535
  476.452    5.325    0.493    0.211   95.058  161.332
  476.702    5.264    0.471    0.228   91.186  161.232
  476.952    5.214    0.454    0.263   87.006  161.237
  477.202    5.136    0.448    0.276   83.688  161.033
  477.452    5.049    0.470    0.297   80.062  160.620
  477.702    4.983    0.482    0.298   77.297  159.999
  477.952    4.917    0.478    0.285   74.779  159.587
  478.202    4.897    0.469    0.287   73.551  159.280
  478.452    4.859    0.466    0.290   72.939  159.076
  478.702    4.813    0.495    0.276   72.818  159.080
  478.952    4.750    0.523    0.267   72.944  159.085
  479.202    4.704    0.513    0.290   72.823  159.089
  479.452    4.642    0.489    0.298   72.396  159.302
  479.702    4.607    0.471    0.292   72.952  159.098
  479.952    4.596    0.458    0.280   75.353  158.895
  480.202    4.758    0.449    0.298   70.435  158.690
  480.452    4.952    0.447    0.306   65.457  158.695
  480.702    5.042    0.466    0.242   61.831  158.699
  480.952    5.115    0.475    0.150   58.697  159.121
  481.202    5.169    0.306    0.123   58.269  159.124
  481.452    5.253    0.280    0.096   62.884  159.233
  481.702    5.271    0.299    0.120   65.592  159.237
  481.952    5.279    0.396    0.163   66.456  159.137
  482.202    5.257    0.445    0.308   65.721  158.933
  482.452    5.188    0.435    0.312   64.186  158.730
  482.702    5.110    0.428    0.315   64.434  158.317
  482.952    4.906    0.434    0.321   66.405  157.176
  483.202    4.490    0.425    0.328   71.389  155.410
  483.452    4.193    0.430    0.319   75.204  154.269
  483.702    3.760    0.441    0.305   73.301  154.274
  483.952    3.745    0.449    0.312   70.475  154.799
  484.202    3.709    0.450    0.316   71.830  155.636
  484.452    3.694    0.451    0.308   73.800  156.265
  484.702    3.706    0.469    0.301   74.541  156.894
  484.952    3.739    0.479    0.304   73.929  157.525
  485.202    3.772    0.471    0.325   72.948  157.841
  485.452    3.798    0.455    0.307   72.396  157.845
  485.702    3.832    0.456    0.302   72.830  157.850
  485.952    3.888    0.469    0.299   75.723  158.062
  486.202    3.980    0.475    0.294   78.554  158.275
  486.452    4.060    0.486    0.292   79.541  158.488
  486.702    4.186    0.488    0.290   77.452  158.492
  486.952    4.279    0.478    0.278   77.147  158.496
  487.202    4.388    0.471    0.263   78.380  158.501
