~VERSION INFORMATION
 VERS.                 2.0:   CWLS LOG ASCII STANDARD -VERSION 2.0
 WRAP.                  NO:   ONE LINE PER DEPTH STEP
~WELL INFORMATION BLOCK
#MNEM.UNIT           DATA                    DESCRIPTION OF MNEMONIC
#---------    -------------------            -------------------------------
# Generated from Intellog Unique Number	CS_67_68/WELL/813
WELL.         BURNT LAKE                     : Well_name    - WELL
LOC .         00/11-02-068-04W4/0            : Location     - LOCATION
UWI .         00/11-02-068-04W4/0            : Uwi          - UNIQUE WELL ID
ENTR.         SP                             : Entered      - ENTERED BY
SRVC.         SCHLUMBERGER                   : Scn          - SERVICE COMPANY
STRT.M        360                            : top_depth    - START DEPTH
STOP.M        580                            : bot_depth    - STOP DEPTH
STEP.M        0.25                           : increment    - STEP LENGTH
 NULL. -999.2500:NULL Value
~CURVE INFORMATION BLOCK
#MNEM UNIT       ERCB CURVE CODE    CURVE DESCRIPTION
#-----------   ------------------   ----------------------------------
DEPT.M        00 001 00 00         : DEPTH        - DEPTH
GR  .API      00 310 00 00         : GR           - GAMMA RAY
NPHI.V/V      00 330 00 00         : PHIN         - NEUTRON POROSITY (LIMESTONE)
DPHI.V/V      00 890 00 00         : PHID         - DENSITY POROSITY (LIMESTONE)
ILD .OHMM     00 120 00 00         : RESD         - DEEP RESISTIVITY (DIL)
~PARAMETER INFORMATION
#MNEM.UNIT           DATA             DESCRIPTION OF MNEMONIC
#---------         -----------     ------------------------------
GL  .M        705.39               : gl           - GROUND LEVEL ELEVATION
EREF.M        709.24               : kb           - ELEVATION OF DEPTH REFERENCE
DATM.M        705.39               : datum        - DATUM ELEVATION
TDD .M        582                  : tdd          - TOTAL DEPTH DRILLER
RUN .         ONE                  : Run          - RUN NUMBER
ENG .         BILL                 : Engineer     - RECORDING ENGINEER
WIT .         JIM                  : Witness      - WITNESSED BY
MUD .         GEL                  : Mud_type     - MUD TYPE
MATR.         LIMESTONE            : Logunit      - NEUTRON MATRIX
TMAX.C        20                   : BHT          - MAXIMUM RECORDED TEMPERATURE
BHTD.M        582                  : BHTDEP       - MAXIMUM RECORDED TEMPERATURE
MATR.         1                    : LOGUNIT      - NEUTRON MATRIX
RMT .C        25                   : MDTP         - TEMPERATURE OF MUD
NEUT.         1                    : NEUTRON      - NEUTRON TYPE
RESI.         0                    : RESIST       - RESISTIVITY TYPE
RMC .OHMM     0.25                 : RMC          - RESISTIVITY OF MUD CAKE
RMF .OHMM     0.25                 : RMF          - RESISTIVITY OF MUD FILTRATE
SUFT.C        15                   : SUFT         - SURFACE TEMPERATURE
~A  DEPTH       GR     PHIN     PHID     RESD
# ...
  403.500   90.713    0.425    0.359    6.980
  403.750   96.625    0.426    0.356    6.983
  404.000   97.221    0.412    0.351    6.986
  404.250   92.135    0.408    0.345    7.002
  404.500   89.005    0.421    0.333    7.019
  404.750   86.362    0.432    0.324    7.048
  405.000   84.088    0.437    0.329    7.132
  405.250   79.978    0.446    0.336    7.244
  405.500   78.377    0.461    0.342    7.343
  405.750   77.752    0.470    0.349    7.471
  406.000   81.525    0.464    0.340    7.587
  406.250   74.360    0.450    0.317    7.707
  406.500   71.904    0.440    0.306    7.797
  406.750   72.012    0.433    0.311    7.874
  407.000   73.158    0.446    0.304    7.937
  407.250   74.059    0.450    0.290    7.881
  407.500   74.165    0.439    0.271    7.827
  407.750   73.603    0.440    0.292    7.742
  408.000   75.544    0.451    0.301    7.616
  408.250   82.554    0.469    0.296    7.534
  408.500   87.185    0.503    0.294    7.439
  408.750   76.658    0.480    0.293    7.360
  409.000   72.308    0.460    0.288    7.348
  409.250   70.826    0.446    0.303    7.352
  409.500   72.280    0.433    0.325    7.355
  409.750   73.792    0.438    0.327    7.358
  410.000   75.123    0.430    0.307    7.363
  410.250   66.983    0.420    0.324    7.366
  410.500   63.301    0.417    0.353    7.369
  410.750   62.005    0.425    0.357    7.372
  411.000   61.440    0.406    0.356    7.431
  411.250   61.608    0.395    0.366    7.505
  411.500   62.264    0.411    0.387    7.536
  411.750   62.986    0.417    0.397    7.540
  412.000   63.093    0.419    0.381    7.543
  412.250   61.307    0.426    0.363    7.504
  412.500   58.970    0.416    0.358    7.466
  412.750   58.101    0.412    0.362    7.441
  413.000   59.125    0.425    0.363    7.417
  413.250   57.582    0.444    0.360    7.434
  413.500   56.223    0.436    0.357    7.493
  413.750   55.594    0.424    0.355    7.568
  414.000   55.950    0.423    0.355    7.672
  414.250   56.546    0.420    0.355    7.762
  414.500   58.122    0.424    0.356    7.855
  414.750   60.551    0.435    0.361    7.918
  415.000   63.103    0.420    0.351    7.950
  415.250   62.293    0.410    0.348    7.954
  415.500   61.974    0.419    0.352    7.928
  415.750   61.775    0.423    0.346    7.886
  416.000   59.867    0.406    0.345    7.861
  416.250   59.730    0.397    0.355    7.850
  416.500   60.633    0.413    0.357    7.809
  416.750   56.341    0.428    0.358    7.784
  417.000   54.982    0.420    0.362    7.758
  417.250   58.082    0.419    0.367    7.718
  417.500   60.636    0.420    0.362    7.636
  417.750   59.825    0.420    0.357    7.624
  418.000   60.057    0.432    0.361    7.571
  418.250   59.675    0.439    0.364    7.531
  418.500   58.379    0.421    0.366    7.436
  418.750   56.226    0.419    0.366    7.370
  419.000   53.337    0.432    0.368    7.277
  419.250   52.652    0.442    0.367    7.172
  419.500   51.661    0.452    0.367    7.148
  419.750   49.322    0.444    0.373    7.111
  420.000   48.882    0.434    0.375    7.048
  420.250   50.334    0.433    0.376    6.998
  420.500   52.825    0.438    0.375    6.950
  420.750   51.466    0.433    0.374    6.889
  421.000   51.816    0.438    0.374    6.864
  421.250   53.512    0.441    0.374    6.791
  421.500   54.721    0.430    0.372    6.743
  421.750   56.602    0.432    0.363    6.696
  422.000   59.214    0.436    0.355    6.661
  422.250   58.161    0.437    0.358    6.679
  422.500   55.825    0.435    0.368    6.730
  422.750   57.093    0.432    0.371    6.708
  423.000   59.401    0.429    0.360    6.736
  423.250   60.731    0.441    0.357    6.778
  423.500   58.027    0.453    0.364    6.819
  423.750   55.570    0.438    0.362    6.848
  424.000   56.777    0.441    0.357    6.825
  424.250   60.855    0.451    0.361    6.192
  424.500   66.095    0.440    0.353    5.291
  424.750   74.818    0.421    0.324    4.855
  425.000   83.663    0.469    0.290    4.404
  425.250   94.645    0.533    0.255    3.989
  425.500   99.824    0.540    0.266    4.238
  425.750   93.700    0.518    0.280    4.764
  426.000   79.878    0.472    0.302    5.366
  426.250   66.422    0.433    0.337    5.875
  426.500   61.213    0.412    0.357    6.348
  426.750   57.533    0.404    0.363    6.821
  427.000   55.685    0.412    0.363    7.180
  427.250   54.631    0.410    0.362    7.557
  427.500   55.658    0.404    0.350    7.719
  427.750   57.599    0.395    0.340    7.737
  428.000   57.645    0.432    0.344    7.697
  428.250   56.286    0.447    0.350    7.571
  428.500   58.226    0.431    0.360    7.504
  428.750   60.656    0.418    0.364    7.451
  429.000   59.603    0.415    0.367    7.370
  429.250   58.184    0.417    0.371    7.360
  429.500   57.496    0.407    0.376    7.363
  429.750   55.587    0.431    0.383    7.353
  430.000   54.596    0.462    0.382    7.385
  430.250   57.452    0.461    0.369    7.430
  430.500   60.006    0.431    0.366    7.419
  430.750   58.707    0.409    0.366    7.326
  431.000   59.243    0.420    0.357    7.260
  431.250   60.877    0.421    0.354    7.142
  431.500   63.304    0.422    0.355    6.973
  431.750   65.003    0.435    0.358    6.897
  432.000   66.761    0.436    0.346    6.798
  432.250   68.702    0.426    0.335    6.750
  432.500   69.787    0.421    0.331    6.715
  432.750   67.818    0.427    0.323    6.756
  433.000   63.770    0.434    0.326    6.900
  433.250   60.393    0.438    0.334    7.142
  433.500   60.809    0.441    0.347    7.321
  433.750   65.132    0.439    0.350    7.491
  434.000   70.555    0.429    0.324    7.798
  434.250   75.367    0.434    0.309    7.963
  434.500   73.333    0.442    0.310    8.164
  434.750   71.428    0.447    0.318    8.245
  435.000   72.695    0.434    0.320    8.141
  435.250   73.905    0.427    0.313    7.904
  435.500   67.169    0.435    0.313    7.702
  435.750   64.283    0.434    0.317    7.535
  436.000   67.624    0.431    0.310    7.426
  436.250   69.324    0.431    0.316    7.347
  436.500   69.127    0.438    0.326    7.282
  436.750   67.891    0.439    0.336    7.393
  437.000   67.327    0.427    0.344    7.192
  437.250   67.311    0.418    0.349    7.141
  437.500   64.243    0.411    0.333    7.050
  437.750   68.505    0.420    0.320    6.988
  438.000   71.851    0.443    0.311    6.991
  438.250   69.637    0.463    0.307    7.008
  438.500   69.195    0.457    0.307    7.010
  438.750   69.057    0.442    0.312    7.013
  439.000   66.354    0.431    0.317    7.030
  439.250   63.836    0.445    0.318    7.008
  439.500   67.055    0.446    0.318    6.984
  439.750   68.265    0.449    0.316    6.962
  440.000   67.580    0.457    0.318    6.951
  440.250   65.426    0.459    0.337    6.942
  440.500   64.373    0.436    0.350    6.945
  440.750   64.726    0.417    0.345    6.948
  441.000   65.934    0.428    0.335    6.951
  441.250   68.053    0.453    0.329    6.941
  441.500   69.142    0.463    0.326    6.919
  441.750   69.129    0.448    0.326    6.896
  442.000   63.677    0.438    0.330    6.872
  442.250   75.454    0.425    0.323    6.876
  442.500   88.696    0.451    0.297    5.604
  442.750   95.770    0.496    0.281    5.410
  443.000   80.909    0.510    0.296    5.342
  443.250   76.802    0.490    0.304    5.375
  443.500   76.785    0.470    0.305    5.562
  443.750   74.756    0.457    0.310    5.756
  444.000   69.181    0.447    0.319    5.968
  444.250   67.945    0.444    0.325    6.224
  444.500   67.992    0.452    0.324    6.369
  444.750   65.105    0.466    0.321    6.395
  445.000   62.281    0.472    0.322    6.302
  445.250   61.163    0.462    0.319    6.130
  445.500   61.825    0.444    0.310    6.030
  445.750   62.238    0.423    0.299    6.021
  446.000   61.366    0.423    0.313    6.139
  446.250   61.351    0.440    0.309    6.235
  446.500   62.011    0.453    0.311    6.225
  446.750   63.951    0.441    0.314    6.112
