~VERSION INFORMATION
 VERS.                 2.0:   CWLS LOG ASCII STANDARD -VERSION 2.0
 WRAP.                  NO:   ONE LINE PER DEPTH STEP
~WELL INFORMATION BLOCK
#MNEM.UNIT           DATA                    DESCRIPTION OF MNEMONIC
#---------    -------------------            -------------------------------
# Generated from Intellog Unique Number	CS_69_70/WELL/865
WELL.         ASHLAND OIL CANADA             : Well_name    - WELL
LOC .         00/10-10-069-18W4/0            : Location     - LOCATION
UWI .         00/10-10-069-18W4/0            : Uwi          - UNIQUE WELL ID
ENTR.         SP                             : Entered      - ENTERED BY
SRVC.         SCHLUMBERGER                   : Scn          - SERVICE COMPANY
STRT.M        259.08                         : top_depth    - START DEPTH
STOP.M        487.33                         : bot_depth    - STOP DEPTH
STEP.M        0.25                           : increment    - STEP LENGTH
 NULL. -999.2500:NULL Value
~CURVE INFORMATION BLOCK
#MNEM UNIT       ERCB CURVE CODE    CURVE DESCRIPTION
#-----------   ------------------   ----------------------------------
DEPT.M        00 001 00 00         : DEPTH        - DEPTH
GR  .API      00 310 00 00         : GR           - GAMMA RAY
DPHI.V/V      00 890 00 00         : PHID         - DENSITY POROSITY (SANDSTONE)
NPHI.V/V      00 330 00 00         : PHIN         - NEUTRON POROSITY (SANDSTONE)
ILD .OHMM     00 120 00 00         : RESD         - DEEP RESISTIVITY (DIL)
~PARAMETER INFORMATION
#MNEM.UNIT           DATA             DESCRIPTION OF MNEMONIC
#---------         -----------     ------------------------------
GL  .M        549.859              : gl           - GROUND LEVEL ELEVATION
EREF.M        553.822              : kb           - ELEVATION OF DEPTH REFERENCE
DATM.M        549.859              : datum        - DATUM ELEVATION
TDD .M        548.64               : tdd          - TOTAL DEPTH DRILLER
RUN .         ONE                  : Run          - RUN NUMBER
ENG .         BILL                 : Engineer     - RECORDING ENGINEER
WIT .         JIM                  : Witness      - WITNESSED BY
MUD .         GEL                  : Mud_type     - MUD TYPE
MATR.         SANDSTONE            : Logunit      - NEUTRON MATRIX
TMAX.C        21.6667              : BHT          - MAXIMUM RECORDED TEMPERATURE
BHTD.M        548.64               : BHTDEP       - MAXIMUM RECORDED TEMPERATURE
MATR.         1                    : LOGUNIT      - NEUTRON MATRIX
RMT .C        25                   : MDTP         - TEMPERATURE OF MUD
NEUT.         1                    : NEUTRON      - NEUTRON TYPE
RESI.         0                    : RESIST       - RESISTIVITY TYPE
RMC .OHMM     0.25                 : RMC          - RESISTIVITY OF MUD CAKE
RMF .OHMM     0.25                 : RMF          - RESISTIVITY OF MUD FILTRATE
SUFT.C        15                   : SUFT         - SURFACE TEMPERATURE
~A  DEPTH       GR     PHID     PHIN     RESD
  259.080  127.290    0.268    0.513    4.413
  259.330  129.257    0.260    0.525    4.445
  259.580  132.298    0.256    0.531    4.528
  259.830  133.138    0.251    0.529    4.529
  260.080  132.239    0.241    0.528    4.491
  260.330  129.553    0.289    0.539    4.454
  260.580  129.813    0.271    0.547    4.375
  260.830  130.396    0.249    0.544    4.272
  261.080  128.810    0.240    0.534    4.193
  261.330  130.579    0.267    0.540    4.130
  261.580  134.915    0.251    0.556    4.129
  261.830  136.088    0.237    0.559    4.136
  262.080  136.596    0.268    0.532    4.139
  262.330  135.448    0.283    0.523    4.133
  262.580  134.696    0.265    0.516    4.131
  262.830  135.718    0.280    0.512    4.107
  263.080  137.349    0.270    0.531    4.023
  263.330  138.676    0.301    0.545    3.933
  263.580  139.502    0.289    0.566    3.861
  263.830  140.690    0.275    0.541    3.814
  264.080  141.368    0.261    0.512    3.749
  264.330  141.586    0.275    0.502    3.730
  264.580  140.373    0.268    0.498    3.739
  264.830  137.381    0.249    0.503    3.726
  265.080  134.950    0.245    0.514    3.787
  265.330  133.393    0.298    0.528    3.835
  265.580  131.011    0.306    0.552    4.058
  265.830  126.688    0.288    0.499    4.364
  266.080  126.723    0.288    0.482    4.656
  266.330  119.886    0.269    0.458    5.031
  266.580  111.320    0.273    0.425    5.344
  266.830  104.578    0.304    0.400    5.722
  267.080   99.329    0.315    0.384    5.973
  267.330   93.186    0.331    0.376    6.171
  267.580   86.127    0.304    0.381    6.390
  267.830   77.046    0.268    0.386    6.240
  268.080   67.143    0.186    0.387    5.752
  268.330   53.708    0.135    0.377    5.085
  268.580   44.094    0.121    0.368    4.412
  268.830   38.627    0.166    0.372    4.118
  269.080   38.684    0.260    0.358    3.882
  269.330   45.010    0.309    0.348    3.742
  269.580   59.765    0.345    0.354    3.807
  269.830   73.055    0.362    0.371    3.921
  270.080   80.246    0.347    0.386    4.059
  270.330   88.949    0.327    0.402    4.234
  270.580   95.888    0.310    0.428    4.358
  270.830  101.869    0.344    0.452    4.376
  271.080   97.217    0.328    0.488    4.329
  271.330   90.819    0.313    0.462    4.303
  271.580   84.539    0.320    0.440    4.276
  271.830   78.221    0.299    0.421    4.241
  272.080   73.544    0.286    0.401    4.214
  272.330   77.913    0.272    0.380    4.098
  272.580   85.423    0.274    0.408    4.052
  272.830   91.485    0.272    0.440    4.062
  273.080   95.482    0.308    0.464    4.099
  273.330   93.009    0.318    0.458    4.290
  273.580   85.509    0.290    0.471    4.429
  273.830   78.043    0.335    0.423    4.521
  274.080   71.122    0.322    0.391    4.554
  274.330   71.362    0.309    0.401    4.559
  274.580   77.276    0.308    0.430    4.513
  274.830   81.767    0.306    0.451    4.328
  275.080   85.104    0.299    0.467    4.158
  275.330   87.353    0.298    0.474    4.000
  275.580   88.360    0.276    0.473    3.875
  275.830   84.452    0.289    0.471    3.817
  276.080   84.333    0.308    0.450    3.840
  276.330   88.079    0.233    0.465    3.914
  276.580   81.581    0.261    0.442    4.022
  276.830   79.444    0.286    0.425    4.096
  277.080   82.823    0.285    0.454    4.143
  277.330   83.621    0.302    0.462    4.164
  277.580   82.911    0.331    0.438    4.172
  277.830   83.090    0.319    0.448    4.158
  278.080   88.643    0.307    0.449    4.061
  278.330   93.603    0.233    0.472    3.928
  278.580   98.583    0.227    0.494    3.742
  278.830   99.993    0.268    0.482    3.624
  279.080  101.251    0.267    0.506    3.543
  279.330  104.173    0.278    0.536    3.535
  279.580  106.235    0.276    0.546    3.523
  279.830   98.845    0.264    0.522    3.489
  280.080   96.694    0.303    0.543    3.585
  280.330   94.141    0.321    0.548    3.656
  280.580   89.400    0.365    0.553    3.726
  280.830   85.652    0.326    0.479    3.800
  281.080   89.674    0.283    0.507    3.880
  281.330   93.685    0.290    0.534    3.918
  281.580   92.522    0.316    0.561    4.064
  281.830   78.798    0.324    0.483    4.191
  282.080   76.166    0.277    0.454    4.349
  282.330   75.658    0.253    0.426    4.479
  282.580   72.930    0.250    0.405    4.706
  282.830   71.155    0.219    0.384    4.826
  283.080   73.441    0.250    0.421    4.851
  283.330   77.998    0.324    0.443    4.798
  283.580   81.944    0.312    0.473    4.664
  283.830   88.392    0.312    0.493    4.490
  284.080   91.419    0.323    0.472    4.317
  284.330   87.206    0.337    0.449    4.144
  284.580   84.550    0.360    0.486    4.013
  284.830   94.765    0.339    0.516    3.940
  285.080  101.967    0.273    0.544    3.899
  285.330  106.117    0.290    0.559    3.888
  285.580  108.636    0.256    0.546    3.858
  285.830  109.341    0.258    0.532    3.821
  286.080  110.999    0.276    0.543    3.785
  286.330  109.943    0.289    0.549    3.789
  286.580  109.421    0.288    0.588    3.795
  286.830  109.833    0.309    0.609    3.823
  287.080  111.380    0.288    0.610    3.804
  287.330  113.424    0.273    0.611    3.788
  287.580  115.025    0.262    0.611    3.763
  287.830  116.716    0.280    0.611    3.737
  288.080  116.126    0.315    0.608    3.689
  288.330  114.804    0.310    0.613    3.606
  288.580  113.582    0.291    0.614    3.555
  288.830  112.150    0.277    0.616    3.505
  289.080  111.113    0.272    0.617    3.482
  289.330  110.638    0.279    0.617    3.427
  289.580  112.933    0.286    0.616    3.422
  289.830  112.436    0.298    0.617    3.305
  290.080  110.385    0.293    0.617    3.283
  290.330  110.264    0.283    0.618    3.244
  290.580  111.507    0.280    0.618    3.233
  290.830  113.578    0.281    0.618    3.214
  291.080  115.161    0.278    0.619    3.242
  291.330  115.149    0.296    0.619    3.295
  291.580  112.324    0.315    0.619    3.347
  291.830  110.203    0.337    0.619    3.419
  292.080  112.197    0.321    0.619    3.469
  292.330  112.125    0.320    0.618    3.493
  292.580  111.195    0.321    0.617    3.533
  292.830  110.424    0.326    0.617    3.561
  293.080  110.519    0.309    0.618    3.612
  293.330  111.740    0.323    0.618    3.654
  293.580  114.487    0.315    0.618    3.692
  293.830  115.662    0.300    0.619    3.765
  294.080  112.255    0.320    0.619    3.791
  294.330  111.346    0.352    0.619    3.793
  294.580  112.007    0.392    0.619    3.744
  294.830  113.038    0.369    0.620    3.710
  295.080  113.530    0.355    0.620    3.601
  295.330  112.438    0.340    0.620    3.547
  295.580  110.509    0.329    0.621    3.482
  295.830  108.335    0.347    0.620    3.443
  296.080  106.384    0.336    0.620    3.417
  296.330  104.559    0.311    0.620    3.399
  296.580  103.489    0.322    0.620    3.409
  296.830  102.515    0.309    0.621    3.415
  297.080  102.239    0.321    0.621    3.393
  297.330  102.466    0.297    0.620    3.445
  297.580  103.688    0.288    0.617    3.446
  297.830  105.888    0.273    0.609    3.509
  298.080  108.082    0.279    0.603    3.540
  298.330  107.919    0.313    0.596    3.601
  298.580  104.475    0.292    0.600    3.636
  298.830  106.217    0.314    0.606    3.693
  299.080  108.617    0.330    0.599    3.750
  299.330  108.207    0.316    0.598    3.812
  299.580  107.416    0.323    0.609    3.834
  299.830  108.999    0.335    0.615    3.862
  300.080  110.662    0.334    0.618    3.908
  300.330  113.212    0.344    0.616    3.966
  300.580  114.603    0.320    0.607    4.001
  300.830  112.496    0.307    0.596    4.003
  301.080  110.069    0.280    0.586    4.042
  301.330  108.008    0.252    0.577    4.079
  301.580  107.636    0.243    0.569    4.116
  301.830  109.980    0.230    0.560    4.191
  302.080  112.630    0.267    0.566    4.211
  302.330  113.749    0.261    0.590    4.269
