~VERSION INFORMATION
 VERS.                 2.0:   CWLS LOG ASCII STANDARD -VERSION 2.0
 WRAP.                  NO:   ONE LINE PER DEPTH STEP
~WELL INFORMATION BLOCK
#MNEM.UNIT           DATA                    DESCRIPTION OF MNEMONIC
#---------    -------------------            -------------------------------
# Generated from Intellog Unique Number	CS_77_79/WELL/3309
WELL.         COLUMBIA GAS DEVELOPMENT       : Well_name    - WELL
LOC .         00/16-24-079-16W4/0            : Location     - LOCATION
UWI .         00/16-24-079-16W4/0            : Uwi          - UNIQUE WELL ID
ENTR.         JOETTE                         : Entered      - ENTERED BY
SRVC.         SCHLUMBERGER                   : Scn          - SERVICE COMPANY
DATE.         08-24-92                       : Date         - LOG DATE
STRT.M        180                            : top_depth    - START DEPTH
STOP.M        400                            : bot_depth    - STOP DEPTH
STEP.M        0.25                           : increment    - STEP LENGTH
 NULL. -999.2500:NULL Value
~CURVE INFORMATION BLOCK
#MNEM UNIT       ERCB CURVE CODE    CURVE DESCRIPTION
#-----------   ------------------   ----------------------------------
DEPT.M        00 001 00 00         : DEPTH        - DEPTH
ILD .OHMM     00 120 00 00         : RESD         - DEEP RESISTIVITY (DIL)
DPHI.V/V      00 890 00 00         : PHID         - DENSITY POROSITY (SANDSTONE)
NPHI.V/V      00 330 00 00         : PHIN         - NEUTRON POROSITY (SANDSTONE)
GR  .API      00 310 00 00         : GR           - GAMMA RAY
~PARAMETER INFORMATION
#MNEM.UNIT           DATA             DESCRIPTION OF MNEMONIC
#---------         -----------     ------------------------------
GL  .M        584.7                : gl           - GROUND LEVEL ELEVATION
EREF.M        588.2                : kb           - ELEVATION OF DEPTH REFERENCE
DATM.M        588.2                : datum        - DATUM ELEVATION
TDD .M        406                  : tdd          - TOTAL DEPTH DRILLER
RUN .         ONE                  : Run          - RUN NUMBER
ENG .         BILL                 : Engineer     - RECORDING ENGINEER
WIT .         JIM                  : Witness      - WITNESSED BY
MUD .         GEL                  : Mud_type     - MUD TYPE
MATR.         SANDSTONE            : Logunit      - NEUTRON MATRIX
TMAX.C        25                   : BHT          - MAXIMUM RECORDED TEMPERATURE
BHTD.M        406                  : BHTDEP       - MAXIMUM RECORDED TEMPERATURE
MATR.         1                    : LOGUNIT      - NEUTRON MATRIX
RMT .C        22                   : MDTP         - TEMPERATURE OF MUD
NEUT.         1                    : NEUTRON      - NEUTRON TYPE
RESI.         0                    : RESIST       - RESISTIVITY TYPE
RMC .OHMM     5                    : RMC          - RESISTIVITY OF MUD CAKE
RMF .OHMM     5                    : RMF          - RESISTIVITY OF MUD FILTRATE
SUFT.C        15                   : SUFT         - SURFACE TEMPERATURE
~A  DEPTH     RESD     PHID     PHIN       GR
# ...
  310.500   11.434    0.323    0.388   62.686
  310.750   11.428    0.325    0.401   62.662
  311.000   11.421    0.325    0.399   62.638
  311.250   11.203    0.323    0.393   62.033
  311.500   10.990    0.351    0.394   60.816
  311.750   10.985    0.348    0.406   59.610
  312.000   10.979    0.342    0.400   58.398
  312.250   10.971    0.339    0.394   58.374
  312.500   10.966    0.335    0.400   58.956
  312.750   10.958    0.333    0.417   63.707
  313.000   11.159    0.324    0.433   62.490
  313.250   11.151    0.318    0.427   60.082
  313.500   11.143    0.315    0.421   58.880
  313.750   11.139    0.315    0.412   58.856
  314.000   11.132    0.318    0.415   58.842
  314.250   11.125    0.323    0.414   58.818
  314.500   11.115    0.320    0.403   58.803
  314.750   11.112    0.316    0.394   58.188
  315.000   11.106    0.317    0.394   59.352
  315.250   11.098    0.321    0.386   61.713
  315.500   10.686    0.321    0.395   62.295
  315.750   10.292    0.316    0.394   63.473
  316.000    9.373    0.315    0.389   65.834
  316.250    8.696    0.306    0.391   71.781
  316.500    8.067    0.291    0.389   80.114
  316.750    7.625    0.260    0.394   83.075
  317.000    7.481    0.256    0.407   86.633
  317.250    7.338    0.242    0.428   91.980
  317.500    7.334    0.234    0.427   93.153
  317.750    7.330    0.236    0.412   96.707
  318.000    7.327    0.227    0.404   94.307
  318.250    7.458    0.220    0.398   94.284
  318.500    7.454    0.213    0.395   97.846
  318.750    7.450    0.213    0.404  102.001
  319.000    7.310    0.219    0.398  104.958
  319.250    6.909    0.225    0.389  102.554
  319.500    6.905    0.227    0.402  103.727
  319.750    7.162    0.226    0.422  104.299
  320.000    7.293    0.220    0.419  109.059
  320.250    7.851    0.213    0.405  111.425
  320.500    8.452    0.208    0.415   98.285
  320.750    9.269    0.224    0.409   95.881
  321.000    9.795    0.242    0.401   92.280
  321.250   10.351    0.239    0.390   97.035
  321.500   10.540    0.216    0.383  102.377
  321.750   10.147    0.210    0.373   99.377
  322.000    9.957    0.206    0.367   95.185
  322.250    9.065    0.211    0.359   99.344
  322.500    8.732    0.218    0.359   98.728
  322.750    8.251    0.228    0.394   93.344
  323.000    7.947    0.233    0.394   96.301
  323.250    7.796    0.232    0.395   98.671
  323.500    7.789    0.206    0.390   99.844
  323.750    7.787    0.206    0.400   96.840
  324.000    7.782    0.220    0.414   92.647
  324.250    7.924    0.246    0.418   89.652
  324.500    8.372    0.244    0.407   84.863
  324.750    8.848    0.205    0.388   76.493
  325.000    9.887    0.188    0.382   71.108
  325.250   10.642    0.122    0.358   65.127
  325.500   10.440    0.128    0.291   80.013
  325.750    9.868    0.144    0.352   85.956
  326.000    9.682    0.191    0.382   88.917
  326.250    9.498    0.216    0.409   83.532
  326.500   10.224    0.271    0.404   81.725
  326.750   10.804    0.304    0.403   87.668
  327.000   11.205    0.290    0.403   92.418
  327.250   11.202    0.166    0.400   59.013
  327.500   11.194    0.116    0.361   48.858
  327.750   10.983    0.131    0.398   69.109
  328.000   10.380    0.157    0.408   85.187
  328.250    9.997    0.166    0.410   91.726
  328.500    9.626    0.287    0.408   91.707
  328.750    9.619    0.286    0.393   84.529
  329.000    9.795    0.288    0.381   83.919
  329.250   10.740    0.293    0.380   86.284
  329.500   11.144    0.251    0.389   85.669
  329.750   11.346    0.167    0.355   80.880
  330.000   10.926    0.123    0.330   70.130
  330.250   10.134    0.177    0.308   64.740
  330.500    9.580    0.289    0.302   67.111
  330.750    9.400    0.303    0.395   71.260
  331.000    9.219    0.309    0.414   78.400
  331.250    9.215    0.312    0.406   75.996
  331.500    9.208    0.308    0.398   71.198
  331.750    9.554    0.306    0.392   75.949
  332.000   10.284    0.303    0.415   74.146
  332.250   10.867    0.300    0.415   71.141
  332.500   11.273    0.256    0.410   68.141
  332.750   11.476    0.208    0.358   65.737
  333.000   11.688    0.170    0.323   63.925
  333.250   11.464    0.131    0.241   60.338
  333.500   10.635    0.031    0.187   60.319
  333.750   10.244    0.155    0.373   58.511
  334.000    9.501    0.264    0.397   73.993
  334.250    9.322    0.287    0.413   77.551
  334.500    8.810    0.306    0.410   78.128
  334.750    8.807    0.304    0.404   70.359
  335.000    8.637    0.292    0.404   72.128
  335.250    8.633    0.293    0.414   72.705
  335.500    8.627    0.298    0.426   72.681
  335.750    8.622    0.301    0.435   73.258
  336.000    8.619    0.304    0.426   76.821
  336.250    8.612    0.308    0.403   76.206
  336.500    8.451    0.315    0.403   72.013
  336.750    8.446    0.316    0.397   72.586
  337.000    8.284    0.308    0.400   73.163
  337.250    8.279    0.302    0.400   74.336
  337.500    8.123    0.302    0.426   75.514
  337.750    8.118    0.305    0.411   73.110
  338.000    7.963    0.299    0.388   71.298
  338.250    7.960    0.289    0.381   68.293
  338.500    8.103    0.281    0.387   67.087
  338.750    8.100    0.280    0.401   65.279
  339.000    8.095    0.284    0.404   70.029
  339.250    8.089    0.290    0.405   73.582
  339.500    8.085    0.292    0.411   70.587
  339.750    8.081    0.290    0.412   69.967
  340.000    8.075    0.295    0.416   69.357
  340.250    8.071    0.297    0.424   67.549
  340.500    8.066    0.296    0.414   69.915
  340.750    8.061    0.288    0.382   75.857
  341.000    8.057    0.277    0.395   69.876
  341.250    8.053    0.261    0.405   70.449
  341.500    8.049    0.266    0.398   68.641
  341.750    8.043    0.275    0.396   70.415
  342.000    7.890    0.276    0.397   84.700
  342.250    7.741    0.271    0.409   68.589
  342.500    7.737    0.274    0.414   71.550
  342.750    7.589    0.278    0.424   75.705
  343.000    7.444    0.277    0.401   75.681
  343.250    7.441    0.271    0.407   78.051
  343.500    7.032    0.263    0.406   79.225
  343.750    6.403    0.252    0.398   75.032
  344.000    6.167    0.242    0.396   78.590
  344.250    5.512    0.245    0.396   84.533
  344.500    5.211    0.241    0.400   86.302
  344.750    5.017    0.236    0.415   88.663
  345.000    5.014    0.230    0.422   91.630
  345.250    5.106    0.228    0.422   96.380
  345.500    5.395    0.232    0.418  101.131
  345.750    5.808    0.233    0.418  102.900
  346.000    6.371    0.208    0.408  102.881
  346.250    7.119    0.192    0.398  101.073
  346.500    7.955    0.196    0.399   95.092
  346.750    7.660    0.222    0.406   88.515
  347.000    7.655    0.240    0.399   83.727
  347.250    8.242    0.237    0.389   81.323
  347.500    9.206    0.184    0.398   87.862
  347.750    9.552    0.184    0.414   92.011
  348.000    9.726    0.199    0.409   89.016
  348.250    9.720    0.190    0.405   81.838
  348.500    9.358    0.162    0.394   84.204
  348.750    9.182    0.158    0.394   88.358
  349.000    8.839    0.171    0.392   92.512
  349.250    8.837    0.186    0.393   91.296
  349.500    8.997    0.194    0.407   91.281
  349.750    9.507    0.194    0.398   90.666
  350.000   10.234    0.193    0.391   86.474
  350.250   10.614    0.191    0.381   88.835
  350.500   10.810    0.191    0.389   87.623
  350.750   10.803    0.190    0.386   87.013
  351.000   10.999    0.190    0.381   85.801
  351.250   10.993    0.189    0.373   85.176
  351.500   10.988    0.190    0.362   84.571
  351.750   10.980    0.196    0.349   87.528
  352.000   10.973    0.203    0.348   89.893
  352.250   10.966    0.205    0.361   84.513
  352.500   10.759    0.168    0.361   81.513
  352.750   10.555    0.149    0.364   88.052
  353.000   10.165    0.140    0.367   92.202
  353.250    9.428    0.144    0.368   93.380
  353.500    9.082    0.152    0.362   93.952
  353.750    8.271    0.163    0.358   96.919
