~VERSION INFORMATION
 VERS.                 2.0:   CWLS LOG ASCII STANDARD -VERSION 2.0
 WRAP.                  NO:   ONE LINE PER DEPTH STEP
~WELL INFORMATION BLOCK
#MNEM.UNIT           DATA                    DESCRIPTION OF MNEMONIC
#---------    -------------------            -------------------------------
# Generated from Intellog Unique Number	CS_69_70/WELL/2886
NULL.         -999.25                        : NULL_VALUE
WELL.         AEC PRIMROSE                   : Well_name    - WELL              
LOC .         00/11-30-070-04W4/0            : Location     - LOCATION          
UWI .         00/11-30-070-04W4/0            : Uwi          - UNIQUE WELL ID    
ENTR.         TIM                            : Entered      - ENTERED BY        
SRVC.         SCHLUMBERGER                   : Scn          - SERVICE COMPANY   
DATE.         02/05/92                       : Date         - LOG DATE          
STRT.M        300                            : top_depth    - START DEPTH       
STOP.M        520                            : bot_depth    - STOP DEPTH        
STEP.M        0.25                           : increment    - STEP LENGTH       
~CURVE INFORMATION BLOCK
#MNEM UNIT       ERCB CURVE CODE    CURVE DESCRIPTION
#-----------   ------------------   ----------------------------------
DEPT.M        00 001 00 00         : DEPTH        - DEPTH                       
ILD .OHMM     00 120 00 00         : RESD         - DEEP RESISTIVITY (DIL)      
DPHI.V/V      00 890 00 00         : PHID         - DENSITY POROSITY (SANDSTONE)
NPHI.V/V      00 330 00 00         : PHIN         - NEUTRON POROSITY (SANDSTONE)
GR  .API      00 310 00 00         : GR           - GAMMA RAY                   
~PARAMETER INFORMATION       
#MNEM.UNIT           DATA             DESCRIPTION OF MNEMONIC
#---------         -----------     ------------------------------
GL  .M        673                  : gl           - GROUND LEVEL ELEVATION      
EREF.M        676.8                : kb           - ELEVATION OF DEPTH REFERENCE
DATM.M        676.8                : datum        - DATUM ELEVATION             
TDD .M        531                  : tdd          - TOTAL DEPTH DRILLER         
RUN .         ONE                  : Run          - RUN NUMBER                  
ENG .         BILL                 : Engineer     - RECORDING ENGINEER          
WIT .         JIM                  : Witness      - WITNESSED BY                
MUD .         GEL                  : Mud_type     - MUD TYPE                    
MATR.         SANDSTONE            : Logunit      - NEUTRON MATRIX              
TMAX.C        27                   : BHT          - MAXIMUM RECORDED TEMPERATURE
BHTD.M        531                  : BHTDEP       - MAXIMUM RECORDED TEMPERATURE
RMT .C        14                   : MDTP         - TEMPERATURE OF MUD          
MUDD.KG/M     1130                 : MWT          - MUD DENSITY                 
NEUT.         1                    : NEUTRON      - NEUTRON TYPE                
RESI.         0                    : RESIST       - RESISTIVITY TYPE            
RM  .OHMM     6.97                 : RM           - RESISTIVITY OF MUD          
RMC .OHMM     6.97                 : RMC          - RESISTIVITY OF MUD CAKE     
RMF .OHMM     6.97                 : RMF          - RESISTIVITY OF MUD FILTRATE 
SUFT.C        4                    : SUFT         - SURFACE TEMPERATURE         
~A  DEPTH     RESD     PHID     PHIN       GR
# ...
  430.500    4.958    0.273    0.473   81.746
  430.750    4.690    0.273    0.474   81.731
  431.000    4.354    0.273    0.475   80.538
  431.250    4.044    0.273    0.477   79.936
  431.500    3.966    0.273    0.482   79.921
  431.750    3.960    0.273    0.483   81.645
  432.000    3.958    0.273    0.481   83.369
  432.250    4.028    0.273    0.480   85.674
  432.500    4.098    0.272    0.478   85.073
  432.750    4.094    0.271    0.476   83.303
  433.000    4.089    0.271    0.477   83.283
  433.250    4.089    0.271    0.475   83.850
  433.500    4.312    0.272    0.473   85.563
  433.750    4.551    0.273    0.467   86.130
  434.000    4.465    0.275    0.467   86.691
  434.250    4.462    0.276    0.478   86.089
  434.500    4.458    0.272    0.491   84.907
  434.750    4.535    0.264    0.503   84.305
  435.000    4.783    0.259    0.501   79.635
  435.250    4.869    0.251    0.491   79.614
  435.500    4.954    0.249    0.488   80.171
  435.750    4.948    0.246    0.502   77.825
  436.000    5.035    0.233    0.410   72.578
  436.250    5.412    0.118    0.385   67.326
  436.500    5.925    0.106    0.400   64.981
  436.750    6.253    0.189    0.416   69.611
  437.000    6.361    0.238    0.434   77.148
  437.250    6.127    0.267    0.426   81.197
  437.500    5.587    0.271    0.413   84.079
  437.750    5.482    0.262    0.409   85.802
  438.000    5.185    0.250    0.440   82.299
  438.250    5.180    0.256    0.445   75.880
  438.500    4.895    0.261    0.442   78.761
  438.750    4.630    0.261    0.447   79.899
  439.000    4.544    0.265    0.458   80.470
  439.250    4.457    0.272    0.466   81.031
  439.500    4.372    0.281    0.473   79.262
  439.750    4.447    0.293    0.465   78.656
  440.000    4.527    0.300    0.451   79.222
  440.250    4.605    0.304    0.443   80.941
  440.500    4.436    0.302    0.495   82.088
  440.750    3.899    0.296    0.506   83.812
  441.000    3.305    0.291    0.521   84.378
  441.250    2.852    0.287    0.529   86.102
  441.500    2.649    0.283    0.535   87.826
  441.750    2.598    0.279    0.541   90.131
  442.000    2.644    0.275    0.541   91.273
  442.250    2.740    0.273    0.539   87.765
  442.500    3.111    0.270    0.531   73.207
  442.750    3.664    0.267    0.519   68.537
  443.000    4.558    0.197    0.477   63.866
  443.250    4.989    0.131    0.419   66.748
  443.500    5.665    0.150    0.322   78.354
  443.750    6.199    0.178    0.352   80.664
  444.000    5.971    0.206    0.403   84.132
  444.250    5.752    0.223    0.437   83.530
  444.500    5.539    0.222    0.440   81.180
  444.750    5.335    0.221    0.414   81.741
  445.000    5.231    0.222    0.421   82.307
  445.250    5.133    0.226    0.423   84.612
  445.500    5.036    0.227    0.429   86.917
  445.750    4.852    0.227    0.444   87.479
  446.000    4.343    0.226    0.470   87.448
  446.250    4.034    0.225    0.483   89.167
  446.500    3.611    0.225    0.488   89.733
  446.750    3.353    0.225    0.459   90.876
  447.000    3.171    0.225    0.452   89.112
  447.250    3.168    0.225    0.445   86.772
  447.500    3.532    0.225    0.433   86.170
  447.750    3.866    0.225    0.426   87.312
  448.000    4.232    0.228    0.450   89.618
  448.250    4.306    0.230    0.459   91.923
  448.500    4.073    0.231    0.472   92.484
  448.750    3.713    0.234    0.483   92.464
  449.000    3.324    0.235    0.479   93.020
  449.250    3.087    0.235    0.472   94.157
  449.500    2.973    0.236    0.469   94.724
  449.750    2.863    0.238    0.493   95.285
  450.000    2.759    0.238    0.511   94.683
  450.250    2.706    0.239    0.512   80.712
  450.500    3.017    0.232    0.482   76.622
  450.750    3.553    0.225    0.456   67.301
  451.000    4.419    0.156    0.393   67.862
  451.250    5.808    0.197    0.370   79.469
  451.500    7.357    0.222    0.409   83.518
  451.750    7.085    0.238    0.417   86.399
  452.000    6.827    0.235    0.425   81.152
  452.250    6.454    0.250    0.430   70.087
  452.500    6.334    0.258    0.403   61.923
  452.750    6.562    0.222    0.361   55.509
  453.000    7.590    0.155    0.327   54.902
  453.250   11.130    0.196    0.349   57.208
  453.500   13.349    0.224    0.393   60.094
  453.750   13.582    0.228    0.403   61.818
  454.000   13.083    0.248    0.412   61.798
  454.250   12.373    0.259    0.411   61.782
  454.500   11.915    0.260    0.410   61.747
  454.750   11.907    0.257    0.405   61.151
  455.000   12.798    0.249    0.403   60.559
  455.250   14.009    0.231    0.399   59.953
  455.500   14.785    0.196    0.391   59.352
  455.750   16.482    0.162    0.380   58.750
  456.000   17.395    0.110    0.337   59.893
  456.250   17.064    0.161    0.290   63.355
  456.500   15.556    0.195    0.309   67.404
  456.750   13.427    0.220    0.379   72.621
  457.000   10.972    0.245    0.396   77.828
  457.250    9.471    0.243    0.437   80.133
  457.500    8.477    0.262    0.460   81.275
  457.750    8.787    0.290    0.493   80.679
  458.000   11.547    0.312    0.463   64.963
  458.250   14.364    0.320    0.409   64.362
  458.500   17.224    0.323    0.395   68.992
  458.750   19.207    0.322    0.414   74.785
  459.000   22.204    0.318    0.423   78.253
  459.250   21.000    0.310    0.431   79.977
  459.500   20.232    0.295    0.429   82.858
  459.750   18.448    0.280    0.427   84.587
  460.000   16.214    0.265    0.418   88.050
  460.250   14.251    0.255    0.411   89.774
  460.500   12.759    0.245    0.403   90.340
  460.750   12.069    0.234    0.396   91.478
  461.000   10.806    0.226    0.390   92.044
  461.250    9.853    0.219    0.380   92.595
  461.500    8.820    0.217    0.370   92.580
  461.750    9.832    0.221    0.367   93.136
  462.000   11.579    0.230    0.378   91.948
  462.250   13.389    0.238    0.384   89.031
  462.500   14.391    0.250    0.392   82.036
  462.750   16.040    0.260    0.397   69.227
  463.000   17.244    0.272    0.388   68.625
  463.250   20.308    0.280    0.370   75.581
  463.500   24.806    0.287    0.376   83.699
  463.750   28.691    0.287    0.378   61.002
  464.000   33.176    0.297    0.376   43.543
  464.250   36.316    0.322    0.371   34.798
  464.500   34.964    0.329    0.368   42.340
  464.750   32.469    0.332    0.369   57.434
  465.000   28.033    0.302    0.380   73.109
  465.250   23.329    0.285    0.380   81.228
  465.500   16.470    0.255    0.377   88.183
  465.750   12.738    0.226    0.375   93.977
  466.000   10.796    0.210    0.373   81.167
  466.250    9.665    0.220    0.376   73.009
  466.500    9.835    0.250    0.380   68.338
  466.750   10.760    0.249    0.385   67.150
  467.000   11.359    0.218    0.386   71.204
  467.250   12.437    0.193    0.376   82.224
  467.500   12.884    0.206    0.347   83.367
  467.750   13.110    0.228    0.347   79.283
  468.000   12.624    0.247    0.347   60.069
  468.250   12.390    0.277    0.344   64.118
  468.500   11.715    0.278    0.339   67.591
  468.750   10.877    0.227    0.333   78.611
  469.000   10.287    0.199    0.329   81.497
  469.250    9.908    0.205    0.329   83.221
  469.500    9.544    0.206    0.329   83.782
  469.750    9.364    0.203    0.328   83.176
  470.000    9.186    0.202    0.327   83.161
  470.250    9.178    0.201    0.327   81.983
  470.500    9.003    0.199    0.331   81.381
  470.750    8.992    0.196    0.342   81.346
  471.000    8.980    0.194    0.346   81.341
  471.250    9.137    0.190    0.348   81.311
  471.500    9.130    0.197    0.348   78.976
  471.750    9.290    0.208    0.347   70.812
  472.000    9.453    0.218    0.344   64.979
  472.250    9.618    0.226    0.343   59.145
  472.500    9.786    0.237    0.340   55.637
  472.750    9.957    0.261    0.332   55.617
  473.000   10.134    0.267    0.330   60.248
  473.250   10.496    0.260    0.330   65.454
  473.500   10.685    0.248    0.358   64.272
  473.750   11.067    0.241    0.363   63.094
