~VERSION INFORMATION
 VERS.                 2.0:   CWLS LOG ASCII STANDARD -VERSION 2.0
 WRAP.                  NO:   ONE LINE PER DEPTH STEP
~WELL INFORMATION BLOCK
#MNEM.UNIT           DATA                    DESCRIPTION OF MNEMONIC
#---------    -------------------            -------------------------------
# Generated from Intellog Unique Number	CS_67_68/WELL/840
WELL.         INTER-CITY MANUFACTURING       : Well_name    - WELL
LOC .         00/11-22-068-14W4/0            : Location     - LOCATION
UWI .         00/11-22-068-14W4/0            : Uwi          - UNIQUE WELL ID
ENTR.         SP                             : Entered      - ENTERED BY
SRVC.         SCHLUMBERGER                   : Scn          - SERVICE COMPANY
STRT.M        280                            : top_depth    - START DEPTH
STOP.M        474                            : bot_depth    - STOP DEPTH
STEP.M        0.25                           : increment    - STEP LENGTH
 NULL. -999.2500:NULL Value
~CURVE INFORMATION BLOCK
#MNEM UNIT       ERCB CURVE CODE    CURVE DESCRIPTION
#-----------   ------------------   ----------------------------------
DEPT.M        00 001 00 00         : DEPTH        - DEPTH
ILD .OHMM     00 120 00 00         : RESD         - DEEP RESISTIVITY (DIL)
DPHI.V/V      00 890 00 00         : PHID         - DENSITY POROSITY (LIMESTONE)
NPHI.V/V      00 330 00 00         : PHIN         - NEUTRON POROSITY (LIMESTONE)
GR  .API      00 310 00 00         : GR           - GAMMA RAY
~PARAMETER INFORMATION
#MNEM.UNIT           DATA             DESCRIPTION OF MNEMONIC
#---------         -----------     ------------------------------
GL  .M        564.76               : gl           - GROUND LEVEL ELEVATION
EREF.M        567.8                : kb           - ELEVATION OF DEPTH REFERENCE
DATM.M        564.76               : datum        - DATUM ELEVATION
TDD .M        471                  : tdd          - TOTAL DEPTH DRILLER
RUN .         ONE                  : Run          - RUN NUMBER
ENG .         BILL                 : Engineer     - RECORDING ENGINEER
WIT .         JIM                  : Witness      - WITNESSED BY
MUD .         GEL                  : Mud_type     - MUD TYPE
MATR.         LIMESTONE            : Logunit      - NEUTRON MATRIX
TMAX.C        21                   : BHT          - MAXIMUM RECORDED TEMPERATURE
BHTD.M        471                  : BHTDEP       - MAXIMUM RECORDED TEMPERATURE
MATR.         1                    : LOGUNIT      - NEUTRON MATRIX
RMT .C        25                   : MDTP         - TEMPERATURE OF MUD
NEUT.         1                    : NEUTRON      - NEUTRON TYPE
RESI.         0                    : RESIST       - RESISTIVITY TYPE
RMC .OHMM     0.25                 : RMC          - RESISTIVITY OF MUD CAKE
RMF .OHMM     0.25                 : RMF          - RESISTIVITY OF MUD FILTRATE
SUFT.C        15                   : SUFT         - SURFACE TEMPERATURE
~A  DEPTH     RESD     PHID     PHIN       GR
  280.000    2.465    0.273    0.482  116.790
  280.250    2.484    0.248    0.472  121.174
  280.500    2.502    0.222    0.464  126.775
  280.750    2.535    0.214    0.471  126.172
  281.000    2.607    0.216    0.476  123.258
  281.250    2.690    0.191    0.475  121.134
  281.500    2.751    0.179    0.465  120.957
  281.750    2.715    0.200    0.453  121.145
  282.000    2.606    0.209    0.446  119.629
  282.250    2.524    0.206    0.449  118.965
  282.500    2.450    0.218    0.455  120.004
  282.750    2.338    0.215    0.462  118.245
  283.000    2.278    0.222    0.463  118.311
  283.250    2.265    0.214    0.460  119.411
  283.500    2.286    0.202    0.468  120.511
  283.750    2.333    0.194    0.476  118.874
  284.000    2.386    0.210    0.468  118.575
  284.250    2.449    0.215    0.471  122.109
  284.500    2.444    0.218    0.487  124.182
  284.750    2.412    0.227    0.511  122.666
  285.000    2.453    0.250    0.523  118.961
  285.250    2.494    0.268    0.502  117.080
  285.500    2.522    0.288    0.492  116.417
  285.750    2.555    0.314    0.488  114.476
  286.000    2.559    0.288    0.478  111.804
  286.250    2.512    0.249    0.469  108.403
  286.500    2.461    0.269    0.466  107.252
  286.750    2.433    0.274    0.476  111.211
  287.000    2.465    0.267    0.462  110.547
  287.250    2.502    0.277    0.424  106.112
  287.500    2.948    0.269    0.397   99.791
  287.750    3.460    0.241    0.364   98.519
  288.000    4.216    0.205    0.354  100.836
  288.250    5.042    0.230    0.337   96.522
  288.500    6.258    0.220    0.305   80.408
  288.750    7.471    0.284    0.250   71.289
  289.000    9.466    0.322    0.177   61.075
  289.250   11.132    0.346    0.144   51.591
  289.500   14.478    0.366    0.124   46.304
  289.750   17.972    0.363    0.128   40.652
  290.000   23.549    0.359    0.132   36.461
  290.250   31.732    0.366    0.137   34.641
  290.500   34.250    0.373    0.139   34.341
  290.750   33.117    0.365    0.144   34.104
  291.000   32.564    0.387    0.149   34.109
  291.250   31.722    0.375    0.156   34.722
  291.500   29.883    0.363    0.152   36.066
  291.750   26.619    0.354    0.145   38.261
  292.000   23.057    0.368    0.160   42.706
  292.250   20.084    0.375    0.173   50.315
  292.500   15.878    0.370    0.186   56.342
  292.750   13.703    0.368    0.185   60.483
  293.000   10.672    0.380    0.190   55.744
  293.250    8.840    0.368    0.235   53.194
  293.500    6.809    0.341    0.260   53.747
  293.750    5.090    0.316    0.323   55.578
  294.000    3.680    0.297    0.360   58.137
  294.250    2.808    0.296    0.390   60.696
  294.500    2.365    0.298    0.385   65.203
  294.750    2.099    0.294    0.384   70.318
  295.000    1.996    0.285    0.379   75.797
  295.250    1.988    0.292    0.371   84.684
  295.500    2.198    0.259    0.362   90.771
  295.750    2.491    0.208    0.411   99.657
  296.000    2.770    0.176    0.433  107.509
  296.250    3.167    0.175    0.429  111.407
  296.500    3.362    0.163    0.412  113.176
  296.750    3.746    0.182    0.404  113.060
  297.000    4.127    0.191    0.394  112.883
  297.250    4.331    0.192    0.390  111.794
  297.500    4.307    0.187    0.394  109.851
  297.750    4.275    0.177    0.388  107.363
  298.000    4.211    0.157    0.371  106.273
  298.250    4.118    0.171    0.384  107.677
  298.500    4.064    0.191    0.406  104.093
  298.750    4.026    0.207    0.399   97.409
  299.000    3.996    0.219    0.391   97.656
  299.250    3.995    0.210    0.409  103.866
  299.500    3.973    0.204    0.407  104.236
  299.750    3.936    0.203    0.402   98.706
  300.000    3.913    0.209    0.395   97.009
  300.250    3.899    0.202    0.400   96.527
  300.500    3.876    0.199    0.407   95.011
  300.750    3.826    0.210    0.411   92.036
  301.000    3.797    0.201    0.408   90.216
  301.250    3.776    0.193    0.407   89.187
  301.500    3.804    0.179    0.418   88.280
  301.750    3.992    0.177    0.416   91.204
  302.000    4.022    0.178    0.395   93.947
  302.250    4.151    0.173    0.383   94.804
  302.500    4.237    0.166    0.379   96.816
  302.750    4.292    0.177    0.371  100.106
  303.000    4.260    0.156    0.364  104.613
  303.250    4.228    0.167    0.376  108.754
  303.500    4.181    0.163    0.399  107.482
  303.750    4.134    0.190    0.419  103.899
  304.000    4.103    0.213    0.400  101.166
  304.250    4.087    0.203    0.403   97.156
  304.500    4.049    0.206    0.409   93.086
  304.750    3.915    0.191    0.396   88.408
  305.000    3.879    0.204    0.385   84.459
  305.250    3.771    0.222    0.378   78.260
  305.500    3.681    0.219    0.368   76.440
  305.750    3.572    0.239    0.374   76.689
  306.000    3.513    0.180    0.359   80.769
  306.250    3.467    0.147    0.350   86.675
  306.500    3.492    0.159    0.346   91.911
  306.750    3.625    0.170    0.362   96.843
  307.000    3.869    0.167    0.385  100.316
  307.250    4.001    0.190    0.407  103.240
  307.500    3.926    0.226    0.419  105.496
  307.750    3.875    0.243    0.407   95.526
  308.000    3.678    0.248    0.397   91.334
  308.250    3.350    0.258    0.397   90.183
  308.500    3.052    0.248    0.406   89.033
  308.750    2.780    0.237    0.415   80.218
  309.000    2.481    0.259    0.412   72.802
  309.250    2.260    0.283    0.402   66.785
  309.500    2.074    0.306    0.399   60.160
  309.750    1.900    0.290    0.410   59.009
  310.000    1.790    0.276    0.424   59.075
  310.250    1.724    0.291    0.422   60.480
  310.500    1.695    0.279    0.407   62.188
  310.750    1.673    0.265    0.400   63.837
  311.000    1.673    0.259    0.394   64.815
  311.250    1.676    0.288    0.383   64.515
  311.500    1.689    0.288    0.379   61.966
  311.750    1.701    0.285    0.380   58.807
  312.000    1.679    0.289    0.374   56.684
  312.250    1.642    0.298    0.369   55.533
  312.500    1.623    0.293    0.364   66.670
  312.750    1.660    0.268    0.382   80.483
  313.000    1.768    0.237    0.409   93.566
  313.250    1.788    0.218    0.431  104.581
  313.500    1.912    0.233    0.447  111.824
  313.750    2.083    0.233    0.448  118.886
  314.000    2.291    0.251    0.442  113.355
  314.250    2.413    0.276    0.445  107.096
  314.500    2.514    0.292    0.436  103.634
  314.750    2.566    0.288    0.425  103.334
  315.000    2.463    0.277    0.414  104.435
  315.250    2.298    0.264    0.402  109.854
  315.500    2.185    0.228    0.397  117.037
  315.750    2.333    0.219    0.400  120.630
  316.000    2.504    0.222    0.401  123.555
  316.250    2.697    0.223    0.399  126.845
  316.500    2.815    0.214    0.407  129.344
  316.750    2.955    0.209    0.420  126.733
  317.000    3.016    0.231    0.433  125.340
  317.250    2.878    0.261    0.442  124.798
  317.500    2.521    0.291    0.452  116.409
  317.750    2.475    0.315    0.436  111.304
  318.000    2.433    0.309    0.419  107.660
  318.250    2.433    0.280    0.418  112.896
  318.500    2.530    0.254    0.380  120.565
  318.750    2.695    0.222    0.350  128.661
  319.000    2.856    0.192    0.364  134.080
  319.250    2.980    0.240    0.408  131.652
  319.500    3.014    0.271    0.427  127.764
  319.750    2.941    0.306    0.432  125.397
  320.000    2.704    0.276    0.440  124.307
  320.250    2.491    0.261    0.445  124.981
  320.500    2.391    0.288    0.447  127.055
  320.750    2.342    0.305    0.447  130.406
  321.000    2.282    0.311    0.456  134.608
  321.250    2.235    0.289    0.458  139.661
  321.500    2.202    0.276    0.454  145.385
  321.750    2.177    0.275    0.458  148.856
  322.000    2.165    0.294    0.470  155.066
  322.250    2.165    0.289    0.479  158.903
  322.500    2.165    0.276    0.468  163.228
  322.750    2.177    0.258    0.463  160.860
  323.000    2.205    0.248    0.467  157.763
  323.250    2.246    0.266    0.450  144.934
