~VERSION INFORMATION
 VERS.                 2.0:   CWLS LOG ASCII STANDARD -VERSION 2.0
 WRAP.                  NO:   ONE LINE PER DEPTH STEP
~WELL INFORMATION BLOCK
#MNEM.UNIT           DATA                    DESCRIPTION OF MNEMONIC
#---------    -------------------            -------------------------------
# Generated from Intellog Unique Number	CS_69_70/WELL/891
WELL.         MANVILLE OIL & GAS LTD.        : Well_name    - WELL
LOC .         00/11-21-069-17W4/0            : Location     - LOCATION
UWI .         00/11-21-069-17W4/0            : Uwi          - UNIQUE WELL ID
ENTR.         SP                             : Entered      - ENTERED BY
SRVC.         SCHLUMBERGER                   : Scn          - SERVICE COMPANY
STRT.M        290                            : top_depth    - START DEPTH
STOP.M        502                            : bot_depth    - STOP DEPTH
STEP.M        0.25                           : increment    - STEP LENGTH
 NULL. -999.2500:NULL Value
~CURVE INFORMATION BLOCK
#MNEM UNIT       ERCB CURVE CODE    CURVE DESCRIPTION
#-----------   ------------------   ----------------------------------
DEPT.M        00 001 00 00         : DEPTH        - DEPTH
ILD .OHMM     00 120 00 00         : RESD         - DEEP RESISTIVITY (DIL)
DPHI.V/V      00 890 00 00         : PHID         - DENSITY POROSITY (LIMESTONE)
NPHI.V/V      00 330 00 00         : PHIN         - NEUTRON POROSITY (LIMESTONE)
GR  .API      00 310 00 00         : GR           - GAMMA RAY
~PARAMETER INFORMATION
#MNEM.UNIT           DATA             DESCRIPTION OF MNEMONIC
#---------         -----------     ------------------------------
GL  .M        556.93               : gl           - GROUND LEVEL ELEVATION
EREF.M        560.03               : kb           - ELEVATION OF DEPTH REFERENCE
DATM.M        556.93               : datum        - DATUM ELEVATION
TDD .M        504                  : tdd          - TOTAL DEPTH DRILLER
RUN .         ONE                  : Run          - RUN NUMBER
ENG .         BILL                 : Engineer     - RECORDING ENGINEER
WIT .         JIM                  : Witness      - WITNESSED BY
MUD .         GEL                  : Mud_type     - MUD TYPE
MATR.         LIMESTONE            : Logunit      - NEUTRON MATRIX
TMAX.C        23                   : BHT          - MAXIMUM RECORDED TEMPERATURE
BHTD.M        504                  : BHTDEP       - MAXIMUM RECORDED TEMPERATURE
MATR.         1                    : LOGUNIT      - NEUTRON MATRIX
RMT .C        25                   : MDTP         - TEMPERATURE OF MUD
NEUT.         1                    : NEUTRON      - NEUTRON TYPE
RESI.         0                    : RESIST       - RESISTIVITY TYPE
RMC .OHMM     0.25                 : RMC          - RESISTIVITY OF MUD CAKE
RMF .OHMM     0.25                 : RMF          - RESISTIVITY OF MUD FILTRATE
SUFT.C        15                   : SUFT         - SURFACE TEMPERATURE
~A  DEPTH     RESD     PHID     PHIN       GR
# ...
  377.000    3.382    0.274    0.400   72.725
  377.250    3.494    0.266    0.392   71.074
  377.500    3.673    0.230    0.361   74.063
  377.750    3.738    0.161    0.324   76.441
  378.000    3.734    0.228    0.353   79.003
  378.250    3.598    0.247    0.397   80.954
  378.500    3.378    0.261    0.407   79.669
  378.750    3.249    0.264    0.409   76.797
  379.000    3.185    0.271    0.417   78.687
  379.250    3.145    0.275    0.418   83.568
  379.500    3.142    0.282    0.422   88.877
  379.750    3.150    0.243    0.439   95.224
  380.000    3.165    0.189    0.449   99.556
  380.250    3.166    0.203    0.456  101.201
  380.500    3.205    0.221    0.448  102.237
  380.750    3.275    0.233    0.425  100.586
  381.000    3.320    0.243    0.405  103.330
  381.250    3.386    0.252    0.423  102.229
  381.500    3.447    0.261    0.434   96.671
  381.750    3.475    0.280    0.433   92.700
  382.000    3.517    0.276    0.437   90.195
  382.250    3.587    0.258    0.460   87.994
  382.500    3.623    0.269    0.479   85.244
  382.750    3.702    0.265    0.463   85.486
  383.000    3.825    0.253    0.438   89.574
  383.250    3.960    0.239    0.435   94.027
  383.500    4.115    0.233    0.437   96.345
  383.750    4.204    0.238    0.436   96.709
  384.000    4.272    0.245    0.431   95.363
  384.250    4.299    0.248    0.436   91.392
  384.500    4.343    0.232    0.443   96.640
  384.750    4.404    0.217    0.446  100.728
  385.000    4.465    0.206    0.431   98.710
  385.250    4.580    0.200    0.425   89.734
  385.500    4.661    0.198    0.430   89.303
  385.750    4.691    0.193    0.426   89.851
  386.000    4.722    0.190    0.425   89.054
  386.250    4.725    0.193    0.432   94.179
  386.500    4.693    0.197    0.442   96.619
  386.750    4.635    0.185    0.452   99.120
  387.000    4.517    0.183    0.459  100.033
  387.250    4.395    0.192    0.458   97.222
  387.500    4.259    0.204    0.456   93.129
  387.750    4.081    0.232    0.453   89.586
  388.000    3.963    0.231    0.449   87.385
  388.250    4.018    0.237    0.427   86.406
  388.500    4.231    0.234    0.418   86.830
  388.750    4.507    0.181    0.390   85.668
  389.000    4.665    0.148    0.340   84.872
  389.250    4.839    0.184    0.315   83.526
  389.500    4.716    0.209    0.353   82.058
  389.750    4.494    0.224    0.386   81.384
  390.000    4.363    0.235    0.440   84.678
  390.250    4.261    0.241    0.442   87.728
  390.500    4.354    0.229    0.422   89.252
  390.750    4.490    0.222    0.423   89.982
  391.000    4.614    0.214    0.441   91.627
  391.250    4.741    0.223    0.436   94.372
  391.500    4.798    0.219    0.424   96.079
  391.750    4.838    0.213    0.426   93.818
  392.000    4.832    0.208    0.420   88.626
  392.250    4.782    0.204    0.408   86.792
  392.500    4.749    0.202    0.397   87.705
  392.750    4.743    0.202    0.415   88.374
  393.000    4.819    0.205    0.434   89.287
  393.250    4.914    0.206    0.425   90.689
  393.500    5.021    0.205    0.418   91.906
  393.750    5.102    0.198    0.416   92.454
  394.000    5.154    0.192    0.415   92.268
  394.250    5.176    0.189    0.405   91.655
  394.500    5.151    0.188    0.397   92.141
  394.750    5.087    0.185    0.403   92.931
  395.000    5.025    0.181    0.416   92.929
  395.250    4.971    0.187    0.420   93.476
  395.500    4.947    0.193    0.415   95.854
  395.750    4.942    0.193    0.419   97.012
  396.000    4.954    0.194    0.408   97.497
  396.250    4.967    0.200    0.415   96.946
  396.500    5.018    0.202    0.416   93.402
  396.750    5.041    0.201    0.406   89.859
  397.000    5.016    0.198    0.405   89.063
  397.250    4.954    0.216    0.412   90.220
  397.500    4.783    0.225    0.403   91.194
  397.750    4.422    0.230    0.390   91.558
  398.000    4.222    0.237    0.382   89.540
  398.250    4.092    0.245    0.382   87.340
  398.500    4.004    0.253    0.404   85.628
  398.750    3.955    0.258    0.439   85.625
  399.000    3.905    0.257    0.441   85.928
  399.250    3.871    0.258    0.427   86.597
  399.500    3.808    0.271    0.417   87.083
  399.750    3.643    0.284    0.414   86.836
  400.000    3.558    0.277    0.416   84.392
  400.250    3.500    0.272    0.428   81.703
  400.500    3.470    0.269    0.428   81.945
  400.750    3.434    0.273    0.435   82.614
  401.000    3.372    0.281    0.428   82.794
  401.250    2.946    0.271    0.418   91.339
  401.500    2.488    0.262    0.407  103.057
  401.750    2.082    0.253    0.398  110.075
  402.000    1.840    0.254    0.478  113.430
  402.250    1.733    0.256    0.533  114.649
  402.500    1.722    0.262    0.555  113.547
  402.750    1.779    0.273    0.527  110.676
  403.000    1.975    0.271    0.540  107.193
  403.250    2.242    0.250    0.552  104.443
  403.500    2.512    0.235    0.529  102.304
  403.750    2.794    0.227    0.495  100.226
  404.000    3.143    0.237    0.462   98.635
  404.250    3.508    0.234    0.438   99.304
  404.500    3.764    0.234    0.425   99.852
  404.750    4.024    0.244    0.433  100.216
  405.000    4.222    0.248    0.442  100.701
  405.250    4.338    0.235    0.446   96.364
  405.500    4.406    0.225    0.430   92.454
  405.750    4.443    0.218    0.420   91.353
  406.000    4.488    0.219    0.437   92.449
  406.250    4.432    0.218    0.439   93.057
  406.500    4.386    0.217    0.424   92.444
  406.750    4.540    0.221    0.413   88.595
  407.000    4.845    0.222    0.425   83.159
  407.250    5.208    0.201    0.453   78.578
  407.500    5.631    0.132    0.369   73.753
  407.750    5.862    0.109    0.331   69.233
  408.000    5.724    0.092    0.275   70.023
  408.250    4.476    0.115    0.272   74.111
  408.500    3.809    0.235    0.392   78.199
  408.750    3.417    0.268    0.426   82.531
  409.000    3.343    0.290    0.439   86.741
  409.250    3.718    0.155    0.390   83.320
  409.500    4.057    0.106    0.322   74.282
  409.750    4.313    0.117    0.287   66.770
  410.000    4.141    0.157    0.266   61.334
  410.250    3.778    0.213    0.342   60.050
  410.500    3.240    0.278    0.393   59.192
  410.750    2.917    0.244    0.412   56.565
  411.000    3.026    0.095    0.364   51.861
  411.250    3.192    0.075    0.291   50.332
  411.500    3.330    0.066    0.258   51.550
  411.750    2.976    0.101    0.252   52.401
  412.000    2.655    0.213    0.300   52.766
  412.250    2.450    0.261    0.345   53.069
  412.500    2.322    0.288    0.366   53.189
  412.750    2.263    0.307    0.379   53.064
  413.000    2.235    0.319    0.386   53.061
  413.250    2.203    0.323    0.390   52.448
  413.500    2.179    0.326    0.394   52.385
  413.750    2.153    0.328    0.398   54.274
  414.000    2.142    0.329    0.404   55.432
  414.250    2.152    0.332    0.393   54.148
  414.500    2.166    0.334    0.387   53.168
  414.750    2.197    0.333    0.380   55.180
  415.000    2.241    0.329    0.379   56.765
  415.250    2.106    0.325    0.388   58.044
  415.500    2.111    0.319    0.402   58.469
  415.750    2.138    0.313    0.418   58.649
  416.000    2.147    0.308    0.403   58.097
  416.250    2.149    0.313    0.393   58.278
  416.500    2.158    0.324    0.394   61.267
  416.750    2.180    0.324    0.405   63.035
  417.000    2.198    0.323    0.412   63.154
  417.250    2.208    0.319    0.409   63.640
  417.500    2.218    0.314    0.404   64.309
  417.750    2.228    0.311    0.400   65.405
  418.000    2.234    0.310    0.402   66.623
  418.250    2.240    0.315    0.405   67.049
  418.500    2.237    0.321    0.403   67.351
  418.750    2.243    0.326    0.399   65.273
  419.000    2.240    0.319    0.396   65.392
  419.250    2.242    0.321    0.399   66.855
  419.500    2.239    0.325    0.415   68.012
  419.750    2.232    0.326    0.429   68.315
  420.000    2.222    0.321    0.440   67.519
  420.250    2.223    0.320    0.444   67.150
