~VERSION INFORMATION
 VERS.                 2.0:   CWLS LOG ASCII STANDARD -VERSION 2.0
 WRAP.                  NO:   ONE LINE PER DEPTH STEP
~WELL INFORMATION BLOCK
#MNEM.UNIT           DATA                    DESCRIPTION OF MNEMONIC
#---------    -------------------            -------------------------------
# Generated from Intellog Unique Number	CS_67_68/WELL/2200
WELL.         10-33-067-05W4                 : Well_name    - WELL
LOC .         00/10-33-067-05W4/0            : Location     - LOCATION
UWI .         00/10-33-067-05W4/0            : Uwi          - UNIQUE WELL ID
ENTR.         SP                             : Entered      - ENTERED BY
SRVC.         SCHLUMBERGER                   : Scn          - SERVICE COMPANY
STRT.M        320                            : top_depth    - START DEPTH
STOP.M        535                            : bot_depth    - STOP DEPTH
STEP.M        0.25                           : increment    - STEP LENGTH
 NULL. -999.2500:NULL Value
~CURVE INFORMATION BLOCK
#MNEM UNIT       ERCB CURVE CODE    CURVE DESCRIPTION
#-----------   ------------------   ----------------------------------
DEPT.M        00 001 00 00         : DEPTH        - DEPTH
ILD .OHMM     00 120 00 00         : RESD         - DEEP RESISTIVITY (DIL)
DPHI.V/V      00 890 00 00         : PHID         - DENSITY POROSITY (LIMESTONE)
NPHI.V/V      00 330 00 00         : PHIN         - NEUTRON POROSITY (LIMESTONE)
GR  .API      00 310 00 00         : GR           - GAMMA RAY
CALI.MM       00 280 01 00         : CAL          - CALIPER
~PARAMETER INFORMATION
#MNEM.UNIT           DATA             DESCRIPTION OF MNEMONIC
#---------         -----------     ------------------------------
GL  .M        667.11               : gl           - GROUND LEVEL ELEVATION
EREF.M        671.01               : kb           - ELEVATION OF DEPTH REFERENCE
DATM.M        671.01               : datum        - DATUM ELEVATION
TDD .M        543                  : tdd          - TOTAL DEPTH DRILLER
RUN .         ONE                  : Run          - RUN NUMBER
ENG .         BILL                 : Engineer     - RECORDING ENGINEER
WIT .         JIM                  : Witness      - WITNESSED BY
MUD .         GEL                  : Mud_type     - MUD TYPE
MATR.         LIMESTONE            : Logunit      - NEUTRON MATRIX
TMAX.C        25.5                 : BHT          - MAXIMUM RECORDED TEMPERATURE
BHTD.M        543                  : BHTDEP       - MAXIMUM RECORDED TEMPERATURE
MATR.         1                    : LOGUNIT      - NEUTRON MATRIX
RMT .C        25                   : MDTP         - TEMPERATURE OF MUD
NEUT.         1                    : NEUTRON      - NEUTRON TYPE
RESI.         0                    : RESIST       - RESISTIVITY TYPE
RMC .OHMM     0.25                 : RMC          - RESISTIVITY OF MUD CAKE
RMF .OHMM     0.25                 : RMF          - RESISTIVITY OF MUD FILTRATE
SUFT.C        15                   : SUFT         - SURFACE TEMPERATURE
~A  DEPTH     RESD     PHID     PHIN       GR      CAL
# ...
  466.000    2.795    0.285    0.521   85.555  166.770
  466.250    2.564    0.285    0.559   82.636  166.592
  466.500    2.352    0.287    0.552   80.757  166.314
  466.750    2.169    0.296    0.528   79.979  165.729
  467.000    2.054    0.301    0.518   79.567  166.366
  467.250    2.008    0.293    0.533   77.810  167.009
  467.500    1.997    0.301    0.542   75.566  167.538
  467.750    1.989    0.302    0.536   74.664  168.482
  468.000    1.992    0.302    0.540   76.147  168.711
  468.250    1.996    0.309    0.567   76.590  169.044
  468.500    1.988    0.315    0.550   75.691  169.069
  468.750    1.972    0.305    0.545   76.683  169.195
  469.000    1.946    0.306    0.563   78.656  169.526
  469.250    1.946    0.315    0.549   80.073  169.758
  469.500    1.968    0.320    0.549   80.579  169.886
  469.750    1.993    0.317    0.565   80.655  170.013
  470.000    2.019    0.308    0.557   81.710  170.345
  470.250    2.092    0.297    0.546   83.560  170.167
  470.500    2.233    0.288    0.535   85.712  169.886
  470.750    2.371    0.288    0.510   88.232  169.403
  471.000    2.508    0.287    0.487   85.560  169.021
  471.250    2.627    0.278    0.477   86.859  168.847
  471.500    2.692    0.268    0.486   89.257  168.667
  471.750    2.661    0.261    0.501   92.149  168.592
  472.000    2.601    0.256    0.520   93.933  168.209
  472.250    2.567    0.273    0.536   94.376  168.032
  472.500    2.586    0.282    0.539   93.779  167.551
  472.750    2.624    0.291    0.523   93.491  167.676
  473.000    2.644    0.281    0.516   93.505  167.702
  473.250    2.688    0.274    0.511   94.622  167.933
  473.500    2.738    0.272    0.505   94.453  167.656
  473.750    2.779    0.274    0.510   94.715  167.780
  474.000    2.826    0.272    0.501   94.485  167.400
  474.250    2.884    0.264    0.493   92.606  167.019
  474.500    2.949    0.262    0.486   91.827  166.534
  474.750    3.073    0.268    0.511   91.172  165.951
  475.000    3.213    0.272    0.514   90.576  165.669
  475.250    3.373    0.275    0.497   90.959  165.494
  475.500    3.521    0.281    0.479   93.296  165.925
  475.750    3.600    0.283    0.473   96.309  165.444
  476.000    3.607    0.263    0.506   98.764  165.880
  476.250    3.513    0.251    0.525  103.609  166.314
  476.500    3.192    0.243    0.529  107.901  166.643
  476.750    2.895    0.231    0.525  111.217  166.874
  477.000    2.736    0.220    0.519  113.186  167.101
  477.250    2.596    0.229    0.508  111.920  167.126
  477.500    2.519    0.237    0.507  110.468  167.152
  477.750    2.664    0.243    0.502  106.084  167.687
  478.000    2.865    0.230    0.456   94.001  169.445
  478.250    3.134    0.218    0.429   84.424  170.183
  478.500    3.513    0.224    0.445   83.952  171.329
  478.750    4.050    0.235    0.395   84.699  171.355
  479.000    4.704    0.241    0.369   73.351  169.142
  479.250    5.372    0.252    0.383   67.133  165.500
  479.500    6.217    0.099    0.375   61.773  164.510
  479.750    7.288    0.000    0.335   58.550  164.233
  480.000    8.262    0.000    0.306   58.505  164.565
  480.250    9.071    0.002    0.310   64.324  164.892
  480.500    9.434    0.132    0.419   69.534  164.718
  480.750    9.291    0.244    0.444   73.764  164.537
  481.000    9.255    0.261    0.459   72.009  164.974
  481.250    9.499    0.274    0.468   63.470  165.098
  481.500   10.889    0.289    0.451   60.858  165.126
  481.750   13.709    0.308    0.441   58.919  165.357
  482.000   17.421    0.316    0.424   55.879  165.481
  482.250   21.007    0.326    0.400   51.740  165.408
  482.500   23.946    0.331    0.401   49.860  165.330
  482.750   26.540    0.332    0.407   49.389  165.055
  483.000   28.175    0.327    0.398   48.123  164.770
  483.250   29.410    0.315    0.398   48.136  163.677
  483.500   29.792    0.318    0.404   50.718  163.397
  483.750   29.899    0.325    0.401   53.484  163.019
  484.000   29.010    0.330    0.393   57.164  162.940
  484.250   28.149    0.327    0.390   60.968  163.172
  484.500   26.456    0.323    0.391   66.119  163.098
  484.750   23.951    0.322    0.395   71.936  163.119
  485.000   19.818    0.312    0.403   79.653  163.146
  485.250   16.553    0.302    0.417   84.557  163.277
  485.500   14.008    0.292    0.427   85.976  164.322
  485.750   10.339    0.296    0.406   84.158  165.057
  486.000    9.681    0.302    0.407   79.042  165.492
  486.250    9.099    0.306    0.407   76.736  166.132
  486.500    8.568    0.306    0.404   80.543  166.561
  486.750    7.873    0.297    0.400   82.877  167.096
  487.000    7.317    0.292    0.397   85.520  167.735
  487.250    6.737    0.292    0.399   88.162  167.861
  487.500    6.488    0.290    0.414   91.173  168.192
  487.750    6.426    0.286    0.410   93.513  167.913
  488.000    6.449    0.284    0.409   93.097  168.448
  488.250    6.484    0.270    0.403   88.164  168.881
  488.500    6.731    0.248    0.381   84.575  168.907
  488.750    6.921    0.227    0.363   85.141  169.341
  489.000    6.868    0.212    0.345   86.866  171.200
  489.250    6.702    0.190    0.347   91.404  173.059
  489.500    6.454    0.176    0.359   94.353  173.798
  489.750    6.333    0.169    0.365   93.696  173.418
  490.000    6.214    0.175    0.369   91.330  172.831
  490.250    6.132    0.193    0.378   92.933  173.165
  490.500    6.131    0.186    0.380   96.187  173.087
  490.750    6.165    0.183    0.395  100.542  172.707
  491.000    6.233    0.186    0.422  102.511  172.324
  491.250    6.326    0.188    0.426   94.584  170.827
  491.500    6.408    0.187    0.399   86.474  169.525
  491.750    6.516    0.179    0.378   83.495  169.347
  492.000    6.454    0.159    0.366   87.665  171.005
  492.250    6.297    0.166    0.378   92.509  172.454
  492.500    6.156    0.194    0.385   95.640  173.499
  492.750    5.996    0.195    0.391   98.161  173.830
  493.000    5.753    0.179    0.406  100.682  172.330
  493.250    5.719    0.183    0.434  102.409  171.744
  493.500    5.816    0.196    0.421  102.668  171.464
  493.750    5.936    0.211    0.407  101.892  171.694
  494.000    5.990    0.175    0.400  102.273  171.007
  494.250    6.034    0.152    0.413  103.510  169.914
  494.500    6.067    0.163    0.424  102.487  169.838
  494.750    6.089    0.180    0.437  101.281  169.864
  495.000    6.145    0.190    0.424  101.967  170.195
  495.250    6.178    0.178    0.406  102.962  169.813
  495.500    6.212    0.172    0.399  103.098  170.044
  495.750    6.269    0.183    0.416  101.953  172.513
  496.000    6.304    0.190    0.431  103.251  172.948
  496.250    6.105    0.198    0.414  104.794  173.588
  496.500    5.814    0.203    0.409  106.215  174.119
  496.750    5.715    0.198    0.422  107.636  173.846
  497.000    5.855    0.179    0.436  108.691  173.458
  497.250    6.123    0.155    0.422  103.392  172.161
  497.500    6.404    0.141    0.408   98.824  170.658
  497.750    6.684    0.146    0.399   95.051  169.971
  498.000    6.874    0.159    0.386   93.600  170.710
  498.250    6.963    0.172    0.389   99.299  172.470
  498.500    6.606    0.185    0.410  104.080  174.738
  498.750    6.398    0.185    0.417  106.966  175.884
  499.000    6.373    0.179    0.412  103.010  176.111
  499.250    6.419    0.169    0.422  100.399  175.937
  499.500    6.503    0.160    0.416  101.759  175.452
  499.750    6.624    0.166    0.409  104.585  174.966
  500.000    6.698    0.171    0.400  107.842  173.873
  500.250    6.722    0.181    0.393  107.916  172.372
  500.500    6.670    0.177    0.382  106.833  171.787
  500.750    6.632    0.155    0.392  106.970  172.524
  501.000    6.363    0.142    0.412  105.336  174.286
  501.250    6.543    0.187    0.413   99.546  173.899
  501.500    6.666    0.204    0.389   85.325  170.671
  501.750    6.945    0.171    0.371   76.786  168.250
  502.000    7.414    0.161    0.357   81.995  165.730
  502.250    7.739    0.167    0.368   92.644  166.062
