~VERSION INFORMATION
 VERS.                 2.0:   CWLS LOG ASCII STANDARD -VERSION 2.0
 WRAP.                  NO:   ONE LINE PER DEPTH STEP
~WELL INFORMATION BLOCK
#MNEM.UNIT           DATA                    DESCRIPTION OF MNEMONIC
#---------    -------------------            -------------------------------
# Generated from Intellog Unique Number	CW_73_75/WELL/1045
WELL.         L56 ET AL MARTIN 11-28         : Well_name    - WELL
LOC .         00/11-28-074-23W4/0            : Location     - LOCATION
UWI .         00/11-28-074-23W4/0            : Uwi          - UNIQUE WELL ID
ENTR.         JAYE                           : Entered      - ENTERED BY
SRVC.         SCHLUMBERGER                   : Scn          - SERVICE COMPANY
DATE.         1 JAN 76                       : Date         - LOG DATE
STRT.M        396.24                         : top_depth    - START DEPTH
STOP.M        624.74                         : bot_depth    - STOP DEPTH
STEP.M        0.25                           : increment    - STEP LENGTH
 NULL. -999.2500:NULL Value
~CURVE INFORMATION BLOCK
#MNEM UNIT       ERCB CURVE CODE    CURVE DESCRIPTION
#-----------   ------------------   ----------------------------------
DEPT.M        00 001 00 00         : DEPTH        - DEPTH
ILD .OHMM     00 120 00 00         : RESD         - DEEP RESISTIVITY (DIL)
DPHI.V/V      00 890 00 00         : PHID         - DENSITY POROSITY (SANDSTONE)
NPHI.V/V      00 330 00 00         : PHIN         - NEUTRON POROSITY (SANDSTONE)
GR  .API      00 310 00 00         : GR           - GAMMA RAY
CALI.MM       00 280 01 00         : CAL          - CALIPER
~PARAMETER INFORMATION
#MNEM.UNIT           DATA             DESCRIPTION OF MNEMONIC
#---------         -----------     ------------------------------
GL  .M        691.896              : gl           - GROUND LEVEL ELEVATION
EREF.M        695.249              : kb           - ELEVATION OF DEPTH REFERENCE
DATM.M        691.896              : datum        - DATUM ELEVATION
TDD .M        636.422              : tdd          - TOTAL DEPTH DRILLER
RUN .         ONE                  : Run          - RUN NUMBER
MATR.         SANDSTONE            : Logunit      - NEUTRON MATRIX
TMAX.C        22.2222              : BHT          - MAXIMUM RECORDED TEMPERATURE
BHTD.M        637.032              : BHTDEP       - MAXIMUM RECORDED TEMPERATURE
RMT .C        26.6667              : MDTP         - TEMPERATURE OF MUD
MUDD.KG/M     0                    : MWT          - MUD DENSITY
NEUT.         1                    : NEUTRON      - NEUTRON TYPE
RESI.         0                    : RESIST       - RESISTIVITY TYPE
RM  .OHMM     1.11                 : RM           - RESISTIVITY OF MUD
RMC .OHMM     0                    : RMC          - RESISTIVITY OF MUD CAKE
RMF .OHMM     1.02                 : RMF          - RESISTIVITY OF MUD FILTRATE
SUFT.C        -17.7778             : SUFT         - SURFACE TEMPERATURE
~A  DEPTH     RESD     PHID     PHIN       GR      CAL
# ...
  578.740    6.899    0.108    0.401   90.686  159.294
  578.990    6.703    0.126    0.398   92.496  158.430
  579.240    6.907    0.144    0.392   91.193  157.569
  579.490    6.943    0.141    0.393   90.609  157.289
  579.740    6.791    0.127    0.385   87.897  156.832
  579.990    6.559    0.107    0.377   88.979  156.692
  580.240    6.416    0.091    0.382   91.659  156.129
  580.490    6.311    0.098    0.376   94.526  155.913
  580.740    6.195    0.134    0.376   92.853  155.346
  580.990    6.106    0.126    0.381   96.700  154.886
  581.240    6.083    0.127    0.391   95.088  154.436
  581.490    6.160    0.131    0.397   98.993  153.994
  581.740    6.316    0.134    0.391  101.306  153.668
  581.990    6.444    0.135    0.390   97.733  153.220
  582.240    6.572    0.112    0.400   95.186  152.867
  582.490    6.645    0.113    0.413   94.444  152.767
  582.740    6.790    0.128    0.405   91.357  152.628
  582.990    6.876    0.107    0.381   90.179  151.957
  583.240    6.813    0.082    0.362   92.607  151.192
  583.490    6.713    0.042    0.350   96.581  150.650
  583.740    6.568    0.035    0.366   99.562  150.324
  583.990    6.426    0.104    0.381  101.939  149.974
  584.240    6.507    0.129    0.377  103.457  149.926
  584.490    6.834    0.123    0.364  100.185  150.119
  584.740    7.085    0.125    0.375   97.169  150.629
  584.990    7.097    0.118    0.366   90.651  150.377
  585.240    6.956    0.082    0.336   85.410  150.570
  585.490    6.235    0.055    0.329   88.279  150.830
  585.740    5.340    0.088    0.357   91.820  151.322
  585.990    4.034    0.136    0.362   96.036  163.669
  586.240    3.002    0.153    0.368   98.775  176.723
  586.490    2.488    0.172    0.416   99.129  173.990
  586.740    2.238    0.178    0.457   98.985  166.057
  586.990    2.162    0.266    0.526   94.796  162.290
  587.240    2.201    0.255    0.512   93.856  159.465
  587.490    2.388    0.249    0.524   97.578  154.452
  587.740    2.655    0.217    0.523  101.858  148.604
  587.990    3.122    0.232    0.514  103.129  154.600
  588.240    3.792    0.188    0.492  100.660  159.230
  588.490    4.676    0.179    0.476   97.637  152.765
  588.740    5.619    0.145    0.465   88.849  150.459
  588.990    6.382    0.108    0.418   85.455  152.605
  589.240    6.475    0.095    0.353   82.131  156.103
  589.490    6.532    0.028    0.339   81.376  163.143
  589.740    6.627    0.054    0.374   84.977  156.257
  589.990    6.785    0.092    0.410   88.394  151.348
  590.240    6.958    0.085    0.426   89.539  156.506
  590.490    7.060    0.067    0.357   84.802  158.447
  590.740    7.072    0.003    0.317   77.854  155.616
  590.990    7.071    0.031    0.333   80.042  148.938
  591.240    7.280    0.084    0.355   84.380  145.060
  591.490    8.029    0.101    0.370   82.216  148.155
  591.740    9.172    0.109    0.341   68.584  148.638
  591.990   14.327    0.139    0.315   59.978  147.266
  592.240   18.588    0.176    0.277   49.289  145.469
  592.490   24.740    0.326    0.204   43.327  144.814
  592.740   40.671    0.362    0.172   30.312  145.404
  592.990   45.609    0.349    0.150   24.040  146.213
  593.240   46.607    0.344    0.165   23.222  146.998
  593.490   44.756    0.336    0.174   24.248  148.018
  593.740   42.534    0.329    0.183   25.448  148.406
  593.990   38.817    0.324    0.193   24.703  148.371
  594.240   34.543    0.314    0.214   24.988  148.445
  594.490   31.761    0.318    0.223   25.154  148.305
  594.740   29.364    0.306    0.216   24.708  148.275
  594.990   26.655    0.302    0.211   26.714  146.793
  595.240   24.689    0.307    0.219   30.621  141.158
  595.490   22.999    0.291    0.227   31.827  138.730
  595.740   21.186    0.281    0.238   30.954  138.706
  595.990   19.338    0.271    0.238   30.934  140.346
  596.240   17.750    0.259    0.228   31.346  142.809
  596.490   14.845    0.285    0.233   29.425  145.565
  596.740    9.763    0.301    0.251   30.146  145.441
  596.990    7.334    0.298    0.279   32.581  145.408
  597.240    5.590    0.275    0.312   33.180  145.281
  597.490    4.591    0.257    0.349   32.793  144.726
  597.740    4.418    0.251    0.363   33.383  144.160
  597.990    4.581    0.247    0.358   35.083  142.699
  598.240    4.855    0.240    0.349   36.846  138.931
  598.490    5.210    0.246    0.349   38.417  138.999
  598.740    5.403    0.231    0.359   39.380  139.592
  598.990    5.352    0.235    0.363   39.611  140.911
  599.240    5.106    0.225    0.357   39.714  143.167
  599.490    4.712    0.233    0.342   40.010  143.036
  599.740    4.576    0.232    0.339   41.523  139.683
  599.990    4.551    0.228    0.346   46.043  136.218
  600.240    4.615    0.215    0.339   46.395  136.191
  600.490    4.761    0.198    0.339   41.960  139.063
  600.740    5.019    0.192    0.341   44.028  142.573
  600.990    5.109    0.208    0.331   45.293  141.820
  601.240    4.971    0.221    0.334   44.789  141.156
  601.490    4.880    0.206    0.343   44.892  140.812
  601.740    4.941    0.199    0.341   46.779  140.270
  601.990    5.135    0.198    0.338   50.679  139.929
  602.240    5.675    0.200    0.339   52.383  139.487
  602.490    6.180    0.205    0.340   52.183  139.766
  602.740    6.293    0.193    0.334   50.387  139.943
  602.990    6.304    0.182    0.330   51.894  134.723
  603.240    6.145    0.183    0.334   54.823  134.175
  603.490    6.076    0.188    0.333   56.710  135.594
  603.740    6.187    0.186    0.321   57.121  140.340
  603.990    6.510    0.168    0.318   57.655  141.146
  604.240    7.012    0.159    0.336   61.744  140.903
  604.490    7.516    0.161    0.336   62.770  140.239
  604.740    8.613    0.148    0.317   63.852  139.703
  604.990    9.659    0.130    0.303   65.433  139.468
  605.240   10.145    0.130    0.294   64.739  138.911
  605.490   10.071    0.106    0.301   68.156  138.677
  605.740    9.533    0.073    0.298   70.409  138.952
  605.990    9.073    0.057    0.284   67.685  140.164
  606.240    8.314    0.082    0.341   71.232  140.669
  606.490    7.755    0.119    0.342   76.671  138.247
  606.740    7.613    0.140    0.332   82.357  138.012
  606.990    7.666    0.144    0.342   87.612  138.187
  607.240    7.795    0.113    0.358   90.229  138.258
  607.490    7.866    0.116    0.347   84.016  137.914
  607.740    8.019    0.101    0.337   84.981  137.991
  607.990    8.066    0.109    0.345   90.848  138.380
  608.240    8.034    0.112    0.339   89.054  138.557
  608.490    7.872    0.113    0.327   84.191  138.631
  608.740    7.715    0.110    0.321   81.168  138.687
  608.990    7.547    0.114    0.335   80.660  138.569
  609.240    7.412    0.117    0.349   85.975  138.530
  609.490    7.210    0.129    0.374   91.666  138.506
  609.740    7.260    0.119    0.377   90.235  138.263
  609.990    7.380    0.110    0.369   87.890  138.133
  610.240    7.393    0.104    0.359   88.301  137.984
  610.490    7.245    0.128    0.355   90.790  137.860
  610.740    6.973    0.114    0.367   91.751  137.421
  610.990    6.564    0.101    0.368   91.798  136.555
  611.240    6.272    0.132    0.358   89.944  135.806
  611.490    6.169    0.132    0.370   89.066  134.830
  611.740    6.514    0.173    0.416   89.172  132.933
  611.990    7.160    0.227    0.549   88.908  131.557
  612.240    7.899    0.264    0.542   86.625  131.631
  612.490    8.355    0.261    0.400   75.877  131.284
  612.740    8.432    0.273    0.404   55.990  131.148
  612.990    8.664    0.313    0.463   46.837  131.850
  613.240    9.521    0.316    0.488   41.604  132.544
  613.490   11.074    0.261    0.446   36.253  133.137
  613.740   12.787    0.247    0.396   40.156  133.427
  613.990   15.881    0.246    0.391   40.813  133.810
  614.240   20.791    0.265    0.377   36.256  133.975
  614.490   21.914    0.270    0.367   31.150  133.225
  614.740   20.632    0.262    0.355   33.278  131.539
  614.990   18.630    0.281    0.367   33.444  131.619
