~VERSION INFORMATION
 VERS.                 2.0:   CWLS LOG ASCII STANDARD -VERSION 2.0
 WRAP.                  NO:   ONE LINE PER DEPTH STEP
~WELL INFORMATION BLOCK
#MNEM.UNIT           DATA                    DESCRIPTION OF MNEMONIC
#---------    -------------------            -------------------------------
# Generated from Intellog Unique Number	CC_84_87/WELL/2347
NULL.         -999.25                        : NULL_VALUE
WELL.         PETROREP ET AL HOUSE           : Well_name    - WELL              
LOC .         14-15-084-16W4                 : Location     - LOCATION          
UWI .         00/14-15-084-16W400            : Uwi          - UNIQUE WELL ID    
ENTR.         JHS                            : Entered      - ENTERED BY        
SRVC.         SCHLUMBERGER                   : Scn          - SERVICE COMPANY   
DATE.         11 MAR 80                      : Date         - LOG DATE
STRT.M        100                            : top_depth    - START DEPTH       
STOP.M        286.9                          : bot_depth    - STOP DEPTH        
STEP.M        0.3                            : increment    - STEP LENGTH       
~CURVE INFORMATION BLOCK
#MNEM UNIT       ERCB CURVE CODE    CURVE DESCRIPTION
#-----------   ------------------   ----------------------------------
DEPT.M        00 001 00 00         : DEPTH        - DEPTH                       
DPHI.V/V      00 890 00 00         : PHID         - DENSITY POROSITY (LIMESTONE)
NPHI.V/V      00 330 00 00         : PHIN         - NEUTRON POROSITY (LIMESTONE)
GR  .API      00 310 00 00         : GR           - GAMMA RAY                   
ILD .OHMM     00 120 00 00         : RESD         - DEEP RESISTIVITY (DIL)      
~PARAMETER INFORMATION       
#MNEM.UNIT           DATA             DESCRIPTION OF MNEMONIC
#---------         -----------     ------------------------------
GL  .M        528.6                : gl           - GROUND LEVEL ELEVATION      
EREF.M        531.8                : kb           - ELEVATION OF DEPTH REFERENCE
DATM.M        531.8                : datum        - DATUM ELEVATION             
TDD .M        283                  : tdd          - TOTAL DEPTH DRILLER         
RUN .         ONE                  : Run          - RUN NUMBER                  
ENG .         BILL                 : Engineer     - RECORDING ENGINEER          
WIT .         JIM                  : Witness      - WITNESSED BY                
MUD .         GEL                  : Mud_type     - MUD TYPE                    
MATR.         LIMESTONE            : Logunit      - NEUTRON MATRIX              
TMAX.C        19                   : BHT          - MAXIMUM RECORDED TEMPERATURE
BHTD.M        283                  : BHTDEP       - MAXIMUM RECORDED TEMPERATURE
MATR.         1                    : LOGUNIT      - NEUTRON MATRIX              
RMT .C        25                   : MDTP         - TEMPERATURE OF MUD          
NEUT.         1                    : NEUTRON      - NEUTRON TYPE                
RESI.         0                    : RESIST       - RESISTIVITY TYPE            
RMC .OHMM     0.25                 : RMC          - RESISTIVITY OF MUD CAKE     
RMF .OHMM     0.25                 : RMF          - RESISTIVITY OF MUD FILTRATE 
SUFT.C        15                   : SUFT         - SURFACE TEMPERATURE         
~A  DEPTH     PHID     PHIN       GR     RESD
# ...
  256.602    0.188    0.483  117.111    3.686
  256.902    0.235    0.459  119.543    3.550
  257.202    0.236    0.459  114.745    3.549
  257.502    0.223    0.449  108.142    3.972
  257.802    0.225    0.422  100.931    4.362
  258.102    0.195    0.394   91.313    5.464
  258.401    0.179    0.380   79.285    6.717
  258.701    0.200    0.373   67.862   10.150
  259.001    0.233    0.365   61.254   14.773
  259.301    0.308    0.370   58.865   19.211
  259.601    0.291    0.386   63.102   21.907
  259.901    0.290    0.402   62.521   15.920
  260.201    0.276    0.413   68.569   10.533
  260.501    0.263    0.421   66.182    9.410
  260.801    0.248    0.407   55.959    9.235
  261.101    0.275    0.411   52.969   10.933
  261.401    0.294    0.414   48.776   14.218
  261.701    0.271    0.373   51.812   19.197
  262.001    0.248    0.378   57.249   12.701
  262.301    0.198    0.371   83.778    7.508
  262.601    0.210    0.397   94.041    5.560
  262.901    0.253    0.436   97.074    5.559
  263.201    0.232    0.423   99.506    5.992
  263.501    0.238    0.395  103.743    7.095
  263.801    0.249    0.373  107.380   12.227
  264.101    0.248    0.365  108.002   14.476
  264.401    0.274    0.384   94.769   21.069
  264.701    0.295    0.414   94.193   22.710
  265.001    0.274    0.416  100.238   22.285
  265.301    0.246    0.398  108.690   19.910
  265.601    0.215    0.342  101.486   15.893
  265.901    0.205    0.353   97.889   14.742
  266.201    0.189    0.347   98.515   14.466
  266.501    0.206    0.347   98.540   15.018
  266.801    0.205    0.359   99.158   15.592
  267.101    0.202    0.364   90.744   16.806
  267.401    0.214    0.359   83.536   18.115
  267.701    0.242    0.359   79.945   19.895
  268.001    0.268    0.362   81.773   21.851
  268.301    0.257    0.362   86.012   23.552
  268.601    0.210    0.359   85.429   23.997
  268.901    0.176    0.338   78.220   22.681
  269.201    0.198    0.318   80.050   21.437
  269.501    0.208    0.328   84.889   21.841
  269.801    0.203    0.341   84.912   22.674
  270.101    0.197    0.344   84.329   22.251
  270.401    0.217    0.345   87.966   21.031
  270.701    0.225    0.346   94.012   19.878
  271.001    0.209    0.341   97.646   19.143
  271.301    0.199    0.341   92.250   19.505
  271.601    0.228    0.355   86.242   21.024
  271.901    0.252    0.363   78.435   22.660
  272.201    0.266    0.367   79.056   24.425
  272.501    0.261    0.376   82.090   25.358
  272.801    0.239    0.390   78.497   27.332
  273.101    0.262    0.399   74.902   28.375
  273.401    0.270    0.394   74.927   28.910
  273.701    0.262    0.383   80.366   29.455
  274.001    0.268    0.371   85.209   29.452
  274.301    0.240    0.360   80.409   28.903
  274.601    0.223    0.361   81.638   27.835
  274.901    0.292    0.365   86.477   26.807
  275.201    0.265    0.366   91.920   26.305
  275.501    0.245    0.372  102.786   26.802
  275.801    0.246    0.375   97.385   25.812
  276.101    0.245    0.367  106.444   24.859
  276.401    0.225    0.379  105.860   23.059
  276.701    0.198    0.390  107.087   21.389
  277.001    0.213    0.391  123.377   20.216
  277.301    0.210    0.378  121.588   19.837
  277.601    0.229    0.350  106.547   19.836
  277.901    0.242    0.357   93.924   20.210
  278.201    0.253    0.352  100.565   20.982
  278.501    0.230    0.338  107.213   20.980
  278.801    0.214    0.333  104.825   21.780
  279.101    0.300    0.350   89.182   22.611
  279.401    0.316    0.381   76.556   24.834
  279.701    0.318    0.401   79.590   30.527
  280.001    0.301    0.397   83.826   32.904
  280.301    0.260    0.385   82.643   30.521
  280.601    0.235    0.342   51.938   25.775
  280.901    0.220    0.320   52.565   21.362
  281.201    0.254    0.335   52.583   21.360
  281.501    0.301    0.362   52.001   22.175
  281.801    0.275    0.383   51.423   25.287
  282.101    0.284    0.362   51.441   27.256
  282.401    0.212    0.332   52.066   27.254
  282.701    0.188    0.306   52.090   27.768
  283.000    0.133    0.267   52.111   20.952
  283.300    0.172    0.261   52.132   11.066
  283.600    0.219    0.258   52.148   10.265
  283.900    0.257    0.257   52.171   10.859
  284.200    0.314    0.258   52.192   13.100
  284.500    0.344    0.259   52.217   30.483
  284.800    0.326    0.265   52.240   50.598
  285.100    0.327    0.282   51.654   75.038
  285.400    0.311    0.311   52.284   83.976
  285.700    0.311    0.328   52.301   88.832
  286.000    0.327    0.332   52.926   90.508
  286.300    0.265    0.329   53.549   87.165
  286.600    0.213    0.329   53.566   80.853
  286.900    0.182    0.332   53.588   73.603
