~VERSION INFORMATION
 VERS.                 2.0:   CWLS LOG ASCII STANDARD -VERSION 2.0
 WRAP.                  NO:   ONE LINE PER DEPTH STEP
~WELL INFORMATION BLOCK
#MNEM.UNIT           DATA                    DESCRIPTION OF MNEMONIC
#---------    -------------------            -------------------------------
# Generated from Intellog Unique Number	CC_80_83/WELL/2389
NULL.         -999.25                        : NULL_VALUE
WELL.         GULF RESDELN                   : Well_name    - WELL
LOC .         10-33-082-06W4                 : Location     - LOCATION          
UWI .         00/10-33-082-06W4/0            : Uwi          - UNIQUE WELL ID    
ENTR.         DW                             : Entered      - ENTERED BY        
SRVC.         SCHLUMBERGER                   : Scn          - SERVICE COMPANY   
DATE.         22 FEB 79                      : Date         - LOG DATE
STRT.M        130                            : top_depth    - START DEPTH       
STOP.M        304.899                        : bot_depth    - STOP DEPTH        
STEP.M        0.3                            : increment    - STEP LENGTH       
~CURVE INFORMATION BLOCK
#MNEM UNIT       ERCB CURVE CODE    CURVE DESCRIPTION
#-----------   ------------------   ----------------------------------
DEPT.M        00 001 00 00         : DEPTH        - DEPTH                       
DPHI.V/V      00 890 00 00         : PHID         - DENSITY POROSITY (LIMESTONE)
NPHI.V/V      00 330 00 00         : PHIN         - NEUTRON POROSITY (LIMESTONE)
GR  .API      00 310 00 00         : GR           - GAMMA RAY                   
ILD .OHMM     00 120 00 00         : RESD         - DEEP RESISTIVITY (DIL)      
~PARAMETER INFORMATION       
#MNEM.UNIT           DATA             DESCRIPTION OF MNEMONIC
#---------         -----------     ------------------------------
GL  .M        511.06               : gl           - GROUND LEVEL ELEVATION      
EREF.M        514.7                : kb           - ELEVATION OF DEPTH REFERENCE
DATM.M        514.7                : datum        - DATUM ELEVATION             
TDD .M        307                  : tdd          - TOTAL DEPTH DRILLER         
RUN .         ONE                  : Run          - RUN NUMBER                  
ENG .         BILL                 : Engineer     - RECORDING ENGINEER          
WIT .         JIM                  : Witness      - WITNESSED BY                
MUD .         GEL                  : Mud_type     - MUD TYPE                    
MATR.         LIMESTONE            : Logunit      - NEUTRON MATRIX              
TMAX.C        19.8                 : BHT          - MAXIMUM RECORDED TEMPERATURE
BHTD.M        307                  : BHTDEP       - MAXIMUM RECORDED TEMPERATURE
MATR.         1                    : LOGUNIT      - NEUTRON MATRIX              
RMT .C        25                   : MDTP         - TEMPERATURE OF MUD          
NEUT.         1                    : NEUTRON      - NEUTRON TYPE                
RESI.         0                    : RESIST       - RESISTIVITY TYPE            
RMC .OHMM     0.25                 : RMC          - RESISTIVITY OF MUD CAKE     
RMF .OHMM     0.25                 : RMF          - RESISTIVITY OF MUD FILTRATE 
SUFT.C        15                   : SUFT         - SURFACE TEMPERATURE         
~A  DEPTH     PHID     PHIN       GR     RESD
  130.000    0.372    0.526   54.426   16.327
  130.300    0.380    0.509   53.223   16.634
  130.600    0.389    0.491   49.572   16.635
  130.900    0.374    0.504   47.145   16.329
  131.200    0.396    0.515   47.770   16.028
  131.500    0.418    0.521   49.623   15.733
  131.800    0.376    0.450   53.928   15.733
  132.100    0.368    0.450   55.777   15.734
  132.400    0.358    0.477   58.239   16.030
  132.700    0.353    0.493   57.649   16.639
  133.000    0.356    0.498   57.664   17.270
  133.300    0.362    0.495   60.129   17.271
  133.600    0.365    0.484   57.699   17.271
  133.900    0.368    0.483   51.604   16.954
  134.200    0.365    0.490   53.458   16.334
  134.500    0.358    0.505   54.696   16.034
  134.800    0.359    0.506   57.163   15.738
  135.100    0.364    0.489   59.017   15.739
  135.400    0.363    0.465   60.867   16.035
  135.700    0.352    0.465   61.500   16.337
  136.000    0.352    0.477   57.236   16.036
  136.300    0.365    0.494   50.526   15.741
  136.600    0.359    0.496   51.771   15.451
  136.900    0.364    0.478   52.399   15.166
  137.200    0.354    0.484   52.419   14.887
  137.500    0.354    0.493   55.495   14.888
  137.800    0.367    0.486   56.118   15.168
  138.100    0.370    0.468   51.861   15.454
  138.400    0.378    0.451   51.266   15.454
  138.700    0.384    0.469   53.120   15.745
  139.000    0.377    0.479   55.579   15.745
  139.300    0.380    0.485   58.656   16.042
  139.600    0.379    0.492   60.511   16.344
  139.900    0.371    0.496   60.526   16.651
  140.200    0.371    0.496   56.265   16.652
  140.500    0.368    0.492   56.899   16.652
  140.800    0.355    0.469   56.910   16.653
  141.100    0.352    0.471   52.037   16.654
  141.400    0.358    0.480   52.055   16.654
  141.700    0.374    0.480   53.302   16.968
  142.000    0.381    0.470   52.704   17.287
  142.300    0.364    0.449   48.440   17.288
  142.600    0.358    0.456   46.013   17.288
  142.900    0.367    0.443   44.197   16.657
  143.200    0.370    0.439   42.998   15.753
  143.500    0.370    0.443   44.844   14.623
  143.800    0.362    0.465   52.203   13.829
  144.100    0.348    0.478   50.384   13.078
  144.400    0.336    0.495   46.121   12.600
  144.700    0.358    0.493   46.142   13.079
  145.000    0.366    0.495   49.216   14.355
  145.300    0.366    0.500   54.738   15.756
  145.600    0.358    0.489   59.647   16.053
  145.900    0.360    0.461   59.668   16.662
  146.200    0.353    0.452   56.014   16.054
  146.500    0.353    0.448   52.978   15.182
  146.800    0.354    0.455   54.218   13.833
  147.100    0.352    0.474   57.903   12.371
  147.400    0.341    0.473   59.146   10.860
  147.700    0.333    0.456   62.225    9.895
  148.000    0.328    0.472   64.072   10.081
  148.300    0.338    0.486   56.140   11.065
  148.600    0.351    0.469   50.045   12.145
  148.900    0.361    0.448   50.064   13.836
  149.200    0.355    0.447   54.364   14.361
  149.500    0.363    0.471   54.990   14.362
  149.800    0.368    0.470   54.401   14.097
  150.100    0.357    0.460   53.195   13.583
  150.400    0.356    0.451   52.600   13.087
  150.700    0.355    0.442   53.847   13.087
  151.000    0.346    0.453   56.306   13.839
  151.300    0.340    0.464   63.049   12.846
  151.600    0.335    0.500   72.850   10.085
  151.900    0.298    0.532   87.545    5.558
  152.200    0.282    0.591   97.962    3.902
  152.500    0.289    0.585   96.148    3.121
  152.800    0.276    0.581   93.716    2.844
  153.100    0.269    0.585   87.621    2.689
  153.400    0.301    0.567   90.693    2.952
  153.700    0.280    0.580   96.831    3.121
  154.000    0.280    0.604   97.457    3.180
  154.300    0.307    0.614   95.032    3.064
  154.600    0.300    0.584   90.765    2.952
  154.900    0.286    0.561   84.059    2.898
  155.200    0.311    0.558   86.523    2.952
  155.500    0.297    0.551   91.431    3.064
  155.800    0.336    0.557   89.618    3.491
  156.100    0.353    0.569   75.568    4.616
  156.400    0.364    0.536   59.076    6.335
  156.700    0.370    0.484   59.714    8.694
  157.000    0.371    0.489   60.340   10.671
  157.300    0.364    0.507   59.745   14.109
  157.600    0.354    0.507   57.928   14.374
  157.900    0.370    0.502   56.720   14.110
  158.200    0.373    0.500   55.517   13.850
  158.500    0.368    0.507   56.146   13.850
  158.800    0.365    0.535   56.778   14.377
  159.100    0.360    0.525   56.182   14.647
  159.400    0.368    0.493   54.367   15.203
  159.700    0.362    0.477   54.996   15.489
  160.000    0.358    0.475   56.850   15.490
  160.300    0.373    0.469   58.090   15.205
  160.600    0.383    0.465   59.331   14.925
  160.900    0.361    0.479   60.575   14.925
  161.200    0.358    0.462   61.203   14.651
  161.500    0.379    0.464   59.999   14.926
  161.800    0.363    0.477   56.350   14.927
  162.100    0.359    0.486   54.529   15.208
  162.400    0.355    0.501   53.935   15.494
  162.700    0.345    0.512   54.567   15.209
  163.000    0.346    0.482   58.862   14.929
  163.300    0.361    0.473   58.883   14.929
  163.600    0.353    0.461   58.288   14.930
  163.900    0.360    0.460   59.532   15.210
  164.200    0.374    0.467   63.218   14.930
  164.500    0.382    0.483   65.068   14.655
  164.800    0.351    0.490   66.311   14.656
  165.100    0.321    0.472   64.493   14.932
  165.400    0.292    0.444   59.620   15.499
  165.700    0.250    0.383   61.477   16.087
  166.000    0.304    0.416   62.718   16.088
  166.300    0.361    0.478   60.898   15.500
  166.600    0.354    0.471   57.245   15.215
  166.900    0.337    0.469   58.488   14.659
  167.200    0.341    0.488   59.730   14.389
  167.500    0.348    0.497   57.916   14.390
  167.800    0.348    0.485   55.486   14.661
  168.100    0.349    0.474   57.341   14.937
  168.400    0.360    0.478   59.191   14.937
  168.700    0.354    0.487   59.819   14.392
  169.000    0.348    0.498   61.671   14.127
  169.300    0.354    0.493   59.857   13.867
  169.600    0.359    0.470   58.654   13.867
  169.900    0.342    0.481   60.502   14.128
  170.200    0.344    0.482   62.356   14.129
  170.500    0.355    0.475   61.150   14.129
  170.800    0.361    0.469   59.333   14.129
  171.100    0.361    0.459   59.362   14.130
  171.400    0.351    0.458   59.375   14.130
  171.700    0.344    0.498   60.611   13.870
  172.000    0.338    0.502   61.854   14.131
  172.300    0.324    0.475   60.648   15.224
  172.600    0.305    0.450   55.773   17.344
  172.900    0.130    0.407   49.676   21.287
  173.200    0.023    0.212   46.030   24.706
  173.500    0.098    0.237   48.492   26.127
  173.800    0.231    0.360   55.237   22.935
  174.100    0.269    0.411   62.591   16.404
  174.400    0.311    0.455   65.668   13.618
  174.700    0.336    0.501   66.300   11.305
  175.000    0.343    0.499   66.318   11.097
  175.300    0.352    0.496   63.886   11.306
  175.600    0.360    0.500   65.741   11.735
  175.900    0.365    0.484   61.476   12.181
  176.200    0.341    0.471   58.438   12.410
  176.500    0.336    0.486   60.904   12.644
  176.800    0.363    0.478   62.755   12.882
  177.100    0.342    0.490   62.163   12.882
  177.400    0.333    0.472   64.015   13.124
  177.700    0.331    0.464   69.541   13.372
  178.000    0.360    0.464   72.001   13.372
  178.300    0.347    0.463   69.573   13.373
  178.600    0.327    0.466   67.755   13.126
  178.900    0.315    0.482   71.447   12.884
  179.201    0.326    0.509   72.071   12.185
  179.501    0.356    0.504   69.032   11.740
  179.801    0.350    0.493   62.938   11.524
  180.101    0.354    0.508   62.955   11.741
  180.401    0.349    0.504   66.640   11.962
  180.701    0.351    0.493   70.938   11.742
  181.001    0.335    0.532   74.014   11.313
  181.301    0.354    0.544   69.140   10.501
  181.601    0.351    0.491   67.939   10.118
  181.901    0.349    0.460   67.957   10.502
