~VERSION INFORMATION
 VERS.                 2.0:   CWLS LOG ASCII STANDARD -VERSION 2.0
 WRAP.                  NO:   ONE LINE PER DEPTH STEP
~WELL INFORMATION BLOCK
#MNEM.UNIT           DATA                    DESCRIPTION OF MNEMONIC
#---------    -------------------            -------------------------------
# Generated from Intellog Unique Number	CW_73_75/WELL/2737
WELL.         ICG ET AL AMADO4 10-04         : Well_name    - WELL
LOC .         00/10-04-073-20W4/0            : Location     - LOCATION
UWI .         00/10-04-073-20W4/0            : Uwi          - UNIQUE WELL ID
ENTR.         JAYE                           : Entered      - ENTERED BY
SRVC.         SCHLUMBERGER                   : Scn          - SERVICE COMPANY
DATE.         11 JAN 79                      : Date         - LOG DATE
STRT.M        365                            : top_depth    - START DEPTH
STOP.M        575                            : bot_depth    - STOP DEPTH
STEP.M        0.25                           : increment    - STEP LENGTH
 NULL. -999.2500:NULL Value
~CURVE INFORMATION BLOCK
#MNEM UNIT       ERCB CURVE CODE    CURVE DESCRIPTION
#-----------   ------------------   ----------------------------------
DEPT.M        00 001 00 00         : DEPTH        - DEPTH
ILD .OHMM     00 120 00 00         : RESD         - DEEP RESISTIVITY (DIL)
NPHI.V/V      00 330 00 00         : PHIN         - NEUTRON POROSITY (SANDSTONE)
DPHI.V/V      00 890 00 00         : PHID         - DENSITY POROSITY (SANDSTONE)
GR  .API      00 310 00 00         : GR           - GAMMA RAY
CALI.MM       00 280 01 00         : CAL          - CALIPER
~PARAMETER INFORMATION
#MNEM.UNIT           DATA             DESCRIPTION OF MNEMONIC
#---------         -----------     ------------------------------
GL  .M        680.5                : gl           - GROUND LEVEL ELEVATION
EREF.M        683.2                : kb           - ELEVATION OF DEPTH REFERENCE
DATM.M        680.5                : datum        - DATUM ELEVATION
TDD .M        576.5                : tdd          - TOTAL DEPTH DRILLER
RUN .         ONE                  : Run          - RUN NUMBER
ENG .         JORDAN               : Engineer     - RECORDING ENGINEER
WIT .         WALTERS              : Witness      - WITNESSED BY
BASE.         EDM                  : Branch       - HOME BASE OF LOGGING UNIT
MUD .         GEL CHEM             : Mud_type     - MUD TYPE
MATR.         SANDSTONE            : Logunit      - NEUTRON MATRIX
TMAX.C        28.9                 : BHT          - MAXIMUM RECORDED TEMPERATURE
BHTD.M        577                  : BHTDEP       - MAXIMUM RECORDED TEMPERATURE
RMT .C        14                   : MDTP         - TEMPERATURE OF MUD
MUDD.KG/M     9.5                  : MWT          - MUD DENSITY
NEUT.         1                    : NEUTRON      - NEUTRON TYPE
RESI.         0                    : RESIST       - RESISTIVITY TYPE
RM  .OHMM     5.18                 : RM           - RESISTIVITY OF MUD
RMC .OHMM     0                    : RMC          - RESISTIVITY OF MUD CAKE
RMF .OHMM     5.66                 : RMF          - RESISTIVITY OF MUD FILTRATE
SUFT.C        0                    : SUFT         - SURFACE TEMPERATURE
~A  DEPTH     RESD     PHIN     PHID       GR      CAL
  365.000    2.547    0.559    0.169  108.401  207.094
  365.250    2.496    0.534    0.170  106.728  209.592
  365.500    2.451    0.518    0.190  104.247  199.030
  365.750    2.452    0.541    0.193  103.197  193.133
  366.000    2.476    0.542    0.198  102.830  201.228
  366.250    2.491    0.546    0.186  102.960  192.222
  366.500    2.534    0.542    0.173  104.708  186.739
  366.750    2.598    0.539    0.164  107.327  183.434
  367.000    2.678    0.515    0.193  110.257  182.305
  367.250    2.745    0.502    0.201  110.885  181.176
  367.500    2.846    0.521    0.194  109.212  180.149
  367.750    2.906    0.541    0.191  105.798  179.125
  368.000    2.913    0.540    0.187  102.819  178.305
  368.250    2.914    0.551    0.183   99.654  177.901
  368.500    2.932    0.544    0.184  101.464  177.601
  368.750    2.961    0.533    0.192  101.347  177.613
  369.000    2.984    0.523    0.177  100.606  177.623
  369.250    2.935    0.511    0.181   98.934  177.530
  369.500    2.888    0.506    0.207   94.338  178.162
  369.750    2.840    0.520    0.190   89.120  179.107
  370.000    2.768    0.501    0.179   82.908  179.119
  370.250    2.683    0.452    0.147   82.230  176.951
  370.500    2.649    0.429    0.124   89.264  170.225
  370.750    2.766    0.466    0.188   98.226  164.431
  371.000    3.114    0.526    0.225   98.730  163.612
  371.250    3.606    0.476    0.241   97.369  169.117
  371.500    4.222    0.454    0.260   95.261  194.730
  371.750    4.925    0.451    0.231   93.775  184.375
  372.000    5.391    0.450    0.232   91.604  169.357
  372.250    5.652    0.443    0.246   88.937  158.174
  372.500    5.686    0.438    0.239   91.556  154.349
  372.750    5.667    0.416    0.215   95.418  152.805
  373.000    5.701    0.423    0.196   98.036  152.196
  373.250    5.736    0.425    0.208   98.603  152.412
  373.500    5.738    0.420    0.233   99.231  153.357
  373.750    5.677    0.414    0.230  100.357  154.506
  374.000    5.574    0.414    0.215  100.550  157.109
  374.250    5.472    0.427    0.194  100.556  160.230
  374.500    5.393    0.461    0.207  101.247  164.906
  374.750    5.316    0.465    0.217  104.052  170.201
  375.000    5.248    0.457    0.213  106.857  175.292
  375.250    5.182    0.453    0.208  106.802  178.205
  375.500    5.107    0.454    0.209  104.009  179.563
  375.750    5.024    0.485    0.217   96.988  179.989
  376.000    4.998    0.504    0.255   92.517  180.000
  376.250    5.019    0.476    0.288   90.595  180.218
  376.500    5.040    0.461    0.279   90.540  181.057
  376.750    5.052    0.477    0.294   92.413  178.684
  377.000    5.092    0.502    0.320   94.596  174.653
  377.250    5.113    0.499    0.385   95.659  170.310
  377.500    5.135    0.541    0.331   96.412  162.650
  377.750    5.146    0.542    0.293  102.762  172.923
  378.000    5.110    0.507    0.286  104.883  177.703
  378.250    4.971    0.510    0.196  100.972  177.402
  378.500    4.835    0.511    0.193   99.547  175.961
  378.750    4.729    0.494    0.200  101.296  175.973
  379.000    4.678    0.454    0.221  101.924  176.191
  379.250    4.654    0.457    0.202  102.055  172.885
  379.500    4.674    0.462    0.197  102.808  165.225
  379.750    4.782    0.449    0.209  104.431  161.711
  380.000    4.995    0.426    0.221  106.366  162.033
  380.250    5.276    0.426    0.223  103.076  164.326
  380.500    5.500    0.442    0.214   97.236  167.757
  380.750    5.702    0.464    0.257   92.206  176.682
  381.000    5.922    0.452    0.260   82.697  178.350
  381.250    6.139    0.422    0.224   72.006  171.209
  381.500    6.522    0.402    0.217   61.938  167.281
  381.750    6.888    0.378    0.224   54.543  165.737
  382.000    7.303    0.361    0.195   48.019  161.395
  382.250    8.023    0.386    0.156   39.941  154.979
  382.500    9.680    0.417    0.172   36.838  155.094
  382.750   12.148    0.432    0.252   38.711  158.215
  383.000   15.827    0.433    0.309   40.770  161.025
  383.250   23.334    0.412    0.317   42.579  163.005
  383.500   28.738    0.401    0.309   45.198  164.157
  383.750   34.478    0.420    0.293   48.127  163.751
  384.000   33.101    0.438    0.289   52.985  162.414
  384.250   28.937    0.445    0.287   57.470  161.389
  384.500   23.340    0.437    0.279   62.637  161.194
  384.750   19.876    0.424    0.246   74.833  161.203
  385.000    2.797    0.573    0.221  106.075  207.483
  385.250    2.719    0.547    0.221  103.431  202.049
  385.500    2.673    0.518    0.182  101.405  189.619
  385.750    2.603    0.540    0.205  100.057  200.124
  386.000    2.559    0.541    0.211  100.127  189.547
  386.250    2.568    0.543    0.191  100.568  183.497
  386.500    2.611    0.540    0.181  102.861  182.070
  386.750    2.706    0.543    0.163  106.449  180.030
  387.000    2.803    0.518    0.189  109.606  178.605
  387.250    2.888    0.498    0.203  109.861  177.695
  387.500    2.915    0.535    0.192  105.242  177.299
  387.750    2.969    0.547    0.184   99.698  177.109
  388.000    3.014    0.551    0.184   97.424  177.332
  388.250    3.024    0.553    0.185   99.284  177.755
  388.500    3.052    0.533    0.193   99.849  178.904
  388.750    3.046    0.515    0.183   97.884  179.946
  389.000    3.006    0.505    0.194   95.548  180.475
  389.250    2.911    0.523    0.192   90.868  181.314
  389.500    2.819    0.529    0.192   81.929  181.434
  389.750    2.755    0.469    0.139   78.421  181.138
  390.000    2.812    0.438    0.129   89.784  177.864
  390.250    3.025    0.501    0.185   97.939  168.005
  390.500    3.404    0.528    0.225   95.852  160.513
  390.750    3.933    0.483    0.237   94.317  174.412
  391.000    4.527    0.452    0.253   92.722  201.990
  391.250    4.999    0.454    0.236   90.448  174.341
  391.500    5.408    0.446    0.222   87.311  166.026
  391.750    5.603    0.441    0.249   88.492  156.991
  392.000    5.592    0.418    0.244   93.499  152.484
  392.250    5.549    0.424    0.229   95.915  151.162
  392.500    5.558    0.425    0.206   97.837  150.764
  392.750    5.599    0.418    0.225   98.402  150.883
  393.000    5.651    0.412    0.238   98.411  152.336
  393.250    5.671    0.426    0.221   98.482  155.746
  393.500    5.649    0.444    0.207   99.294  161.212
  393.750    5.605    0.466    0.215  100.845  166.678
  394.000    5.541    0.468    0.211  104.557  170.704
  394.250    5.437    0.455    0.209  105.369  174.115
  394.500    5.365    0.451    0.207  102.477  176.084
  394.750    5.334    0.460    0.208   97.118  177.335
  395.000    5.343    0.490    0.248   90.092  177.657
  395.250    5.382    0.478    0.288   89.053  177.982
  395.500    5.442    0.457    0.266   89.864  178.821
  395.750    5.544    0.487    0.277   90.984  176.469
  396.000    5.627    0.500    0.380   95.190  172.679
  396.250    5.657    0.515    0.345   94.582  163.952
  396.500    5.625    0.543    0.288   99.960  172.711
  396.750    5.488    0.525    0.304  102.437  175.502
  397.000    5.216    0.498    0.206  100.966  174.902
  397.250    4.976    0.515    0.192   97.520  174.608
  397.500    4.809    0.507    0.202   98.947  174.314
  397.750    4.763    0.458    0.219  100.378  174.432
  398.000    4.754    0.457    0.194  101.002  168.071
  398.250    4.843    0.464    0.199  101.444  161.402
  398.500    5.008    0.446    0.207  104.230  159.464
  398.750    5.277    0.420    0.225  104.363  163.078
  399.000    5.509    0.428    0.225   97.707  168.545
  399.250    5.762    0.457    0.226   87.411  174.730
  399.500    5.914    0.468    0.265   78.350  174.335
  399.750    6.162    0.426    0.220   71.139  169.003
  400.000    6.506    0.401    0.228   54.673  165.006
  400.250    6.972    0.373    0.229   46.413  160.498
  400.500    7.935    0.360    0.194   39.326  154.752
  400.750   10.936    0.384    0.159   34.769  153.123
  401.000   14.034    0.427    0.177   37.617  155.605
  401.250   18.111    0.441    0.298   38.737  159.636
