~VERSION INFORMATION
 VERS.                 2.0:   CWLS LOG ASCII STANDARD -VERSION 2.0
 WRAP.                  NO:   ONE LINE PER DEPTH STEP
~WELL INFORMATION BLOCK
#MNEM.UNIT           DATA                    DESCRIPTION OF MNEMONIC
#---------    -------------------            -------------------------------
# Generated from Intellog Unique Number	CW_79_81/WELL/2488
WELL.         13-10-081-21W4                 : Well_name    - WELL
LOC .         00/13-10-081-21W4/0            : Location     - LOCATION
UWI .         00/13-10-081-21W4/0            : Uwi          - UNIQUE WELL ID
ENTR.         MAX                            : Entered      - ENTERED BY
SRVC.         SCHLUMBERGER                   : Scn          - SERVICE COMPANY
STRT.M        215                            : top_depth    - START DEPTH
STOP.M        440                            : bot_depth    - STOP DEPTH
STEP.M        0.25                           : increment    - STEP LENGTH
 NULL. -999.2500:NULL Value
~CURVE INFORMATION BLOCK
#MNEM UNIT       ERCB CURVE CODE    CURVE DESCRIPTION
#-----------   ------------------   ----------------------------------
DEPT.M        00 001 00 00         : DEPTH        - DEPTH
ILD .OHMM     00 120 00 00         : RESD         - DEEP RESISTIVITY (DIL)
NPHI.V/V      00 330 00 00         : PHIN         - NEUTRON POROSITY (SANDSTONE)
DPHI.V/V      00 890 00 00         : PHID         - DENSITY POROSITY (SANDSTONE)
GR  .API      00 310 00 00         : GR           - GAMMA RAY
CALI.MM       00 280 01 00         : CAL          - CALIPER
~PARAMETER INFORMATION
#MNEM.UNIT           DATA             DESCRIPTION OF MNEMONIC
#---------         -----------     ------------------------------
GL  .M        599.6                : gl           - GROUND LEVEL ELEVATION
EREF.M        603.9                : kb           - ELEVATION OF DEPTH REFERENCE
DATM.M        599.6                : datum        - DATUM ELEVATION
TDD .M        448.25               : tdd          - TOTAL DEPTH DRILLER
RUN .         ONE                  : Run          - RUN NUMBER
ENG .         BILL                 : Engineer     - RECORDING ENGINEER
WIT .         JIM                  : Witness      - WITNESSED BY
MUD .         GEL                  : Mud_type     - MUD TYPE
MATR.         SANDSTONE            : Logunit      - NEUTRON MATRIX
TMAX.C        28.6                 : BHT          - MAXIMUM RECORDED TEMPERATURE
BHTD.M        448.25               : BHTDEP       - MAXIMUM RECORDED TEMPERATURE
MATR.         1                    : LOGUNIT      - NEUTRON MATRIX
RMT .C        15                   : MDTP         - TEMPERATURE OF MUD
NEUT.         1                    : NEUTRON      - NEUTRON TYPE
RESI.         0                    : RESIST       - RESISTIVITY TYPE
RMC .OHMM     9.82                 : RMC          - RESISTIVITY OF MUD CAKE
RMF .OHMM     4.93                 : RMF          - RESISTIVITY OF MUD FILTRATE
SUFT.C        -15                  : SUFT         - SURFACE TEMPERATURE
~A  DEPTH     RESD     PHIN     PHID       GR      CAL
# ...
  361.000   11.615    0.419    0.204   91.656  217.751
  361.250   11.699    0.408    0.201   91.289  217.932
  361.500   11.697    0.406    0.197   91.457  217.915
  361.750   11.694    0.432    0.204   94.966  217.895
  362.000   11.691    0.436    0.214   94.707  217.876
  362.250   11.775    0.428    0.189   93.984  221.031
  362.500   11.794    0.423    0.175   94.687  221.808
  362.750   11.791    0.419    0.178   95.509  221.594
  363.000   11.788    0.417    0.192   95.559  221.280
  363.250   11.767    0.419    0.200   93.761  221.424
  363.500   11.674    0.422    0.198   90.774  222.235
  363.750   11.584    0.420    0.197   88.384  222.614
  364.000   11.561    0.424    0.187   89.208  222.399
  364.250   11.558    0.429    0.183   92.293  221.588
  364.500   11.577    0.427    0.189   95.377  220.380
  364.750   11.678    0.405    0.197   94.638  219.335
  365.000   11.765    0.398    0.195   93.390  220.144
  365.250   11.503    0.413    0.190   95.522  221.711
  365.500   11.247    0.419    0.183   97.118  222.389
  365.750   11.122    0.421    0.181   97.583  222.573
  366.000   11.120    0.422    0.184   96.205  222.556
  366.250   11.116    0.415    0.180   92.394  222.532
  366.500   11.113    0.403    0.160   93.623  222.518
  366.750   10.947    0.403    0.155   93.851  222.500
  367.000   10.724    0.410    0.169   93.900  222.779
  367.250   10.604    0.409    0.169   92.818  223.358
  367.500   10.562    0.401    0.146   91.915  224.433
  367.750   10.339    0.405    0.127   95.305  226.314
  368.000   10.023    0.410    0.157   98.023  225.884
  368.250    9.512    0.398    0.176   97.537  223.484
  368.500    8.977    0.386    0.184   93.658  222.575
  368.750    8.718    0.374    0.179   91.862  222.756
  369.000    8.858    0.368    0.159   93.339  223.529
  369.250    9.599    0.384    0.127   94.994  224.302
  369.500   10.290    0.398    0.155   94.983  224.286
  369.750   10.061    0.407    0.158   90.925  224.668
  370.000    9.838    0.400    0.164   87.047  222.369
  370.250   10.190    0.385    0.165   84.299  219.971
  370.500   11.660    0.372    0.169   82.562  218.863
  370.750   15.995    0.369    0.199   79.457  219.569
  371.000   18.407    0.345    0.171   73.495  221.205
  371.250   20.679    0.314    0.132   67.770  221.982
  371.500   24.229    0.275    0.070   63.653  222.461
  371.750   28.750    0.249    0.038   61.144  222.244
  372.000   33.938    0.243    0.045   59.944  221.729
  372.250   41.480    0.255    0.061   60.049  221.775
  372.500   48.111    0.255    0.074   63.016  220.103
  372.750   44.974    0.291    0.095   68.718  217.708
  373.000   38.734    0.354    0.134   73.528  216.204
  373.250   31.699    0.384    0.173   77.565  215.988
  373.500   26.354    0.376    0.201   81.126  216.764
  373.750   23.129    0.379    0.213   84.882  217.537
  374.000   20.320    0.382    0.197   85.862  217.522
  374.250   18.291    0.387    0.189   84.186  217.504
  374.500   16.959    0.385    0.199   81.975  217.487
  374.750   16.169    0.383    0.208   80.774  217.668
  375.000   15.783    0.383    0.206   80.645  218.048
  375.250   15.758    0.379    0.198   79.265  218.505
  375.500   16.250    0.366    0.194   74.790  218.900
  375.750   16.609    0.353    0.162   69.305  219.678
  376.000   16.885    0.308    0.119   65.427  221.345
  376.250   18.119    0.288    0.084   66.011  222.319
  376.500   20.652    0.317    0.086   70.879  221.611
  376.750   23.099    0.388    0.165   77.663  218.235
  377.000   22.224    0.394    0.165   81.868  215.325
  377.250   20.620    0.379    0.164   84.952  214.910
  377.500   19.358    0.377    0.169   85.001  215.091
  377.750   18.311    0.382    0.167   84.157  215.470
  378.000   17.352    0.392    0.163   83.135  215.750
  378.250   16.150    0.408    0.180   80.573  215.730
  378.500   15.186    0.399    0.194   77.340  215.711
  378.750   15.984    0.362    0.174   71.379  216.089
  379.000   17.744    0.319    0.145   66.488  216.173
  379.250   21.049    0.279    0.102   65.406  216.155
  379.500   25.866    0.261    0.073   68.549  216.137
  379.750   28.121    0.307    0.122   74.707  216.118
  380.000   25.460    0.363    0.159   78.169  216.101
  380.250   20.744    0.378    0.186   80.301  215.291
  380.500   18.089    0.389    0.187   81.004  215.373
  380.750   16.644    0.397    0.181   80.160  216.349
  381.000   15.834    0.400    0.178   78.425  217.919
  381.250   15.145    0.391    0.167   77.074  219.484
  381.500   15.142    0.379    0.157   76.318  219.467
  381.750   15.938    0.382    0.149   77.261  220.640
  382.000   16.327    0.390    0.163   77.846  222.112
  382.250   16.445    0.395    0.168   77.835  223.086
  382.500   16.380    0.394    0.160   78.003  223.366
  382.750   16.061    0.391    0.159   80.628  223.345
  383.000   15.691    0.389    0.154   83.100  223.326
  383.250   15.114    0.390    0.187   84.992  223.310
  383.500   14.560    0.393    0.198   88.136  223.292
  383.750   14.028    0.395    0.204   91.697  223.077
  384.000   13.490    0.394    0.209   94.663  222.169
  384.250   12.720    0.392    0.198   95.593  220.262
  384.500   11.869    0.393    0.187   94.340  222.723
  384.750   11.519    0.402    0.183   94.092  225.086
  385.000   11.180    0.405    0.184   93.487  224.773
  385.250   11.056    0.406    0.189   93.240  222.374
  385.500   11.216    0.406    0.196   94.005  218.588
  385.750   11.691    0.397    0.202   97.414  216.269
  386.000   11.962    0.392    0.186  102.610  226.585
  386.250   11.784    0.402    0.199  103.315  227.756
  386.500   11.285    0.401    0.204  101.340  228.632
  386.750   10.671    0.397    0.199  100.258  230.799
  387.000   10.193    0.395    0.187  100.903  234.453
  387.250   10.161    0.404    0.182  100.822  237.161
  387.500   10.397    0.422    0.188   98.084  230.942
  387.750   10.395    0.409    0.175   92.836  224.973
  388.000   10.393    0.399    0.157   85.982  222.874
  388.250   10.543    0.378    0.137   81.567  221.072
  388.500   10.973    0.347    0.109   81.259  219.070
  388.750   12.304    0.324    0.074   85.135  219.360
  389.000   15.456    0.346    0.156   89.091  218.930
  389.250   19.302    0.361    0.168   88.844  218.122
  389.500   22.316    0.365    0.166   87.881  217.014
  389.750   24.676    0.350    0.157   85.252  216.799
  390.000   26.160    0.323    0.137   81.433  217.375
  390.250   25.322    0.301    0.083   79.020  217.437
  390.500   25.910    0.292    0.042   82.482  217.834
  390.750   28.079    0.339    0.078   87.708  218.611
  391.000   30.766    0.361    0.139   91.150  219.091
  391.250   31.971    0.369    0.182   94.472  219.469
  391.500   30.840    0.372    0.197   97.556  219.748
  391.750   28.007    0.377    0.199   98.101  219.730
  392.000   25.165    0.379    0.196   96.106  219.712
  392.250   23.525    0.381    0.199   87.765  219.296
  392.500   22.124    0.384    0.208   76.387  218.285
  392.750   21.088    0.384    0.223   65.663  217.476
  393.000   20.771    0.382    0.244   56.489  216.966
  393.250   22.360    0.388    0.265   45.962  216.150
  393.500   25.128    0.389    0.265   40.992  216.129
  393.750   32.041    0.380    0.264   39.076  215.719
  394.000   43.835    0.370    0.266   40.554  215.602
  394.250   60.299    0.363    0.273   43.758  215.584
  394.500   78.232    0.357    0.282   46.425  215.568
  394.750  103.052    0.349    0.279   45.650  215.629
  395.000  117.653    0.346    0.278   45.392  216.025
  395.250  112.487    0.352    0.276   45.381  216.405
  395.500  103.921    0.363    0.270   45.550  216.488
  395.750   94.689    0.374    0.267   46.253  216.472
  396.000   86.207    0.381    0.269   47.611  216.554
  396.250   77.808    0.385    0.268   50.246  216.929
  396.500   72.611    0.386    0.265   53.957  216.912
  396.750   66.865    0.376    0.269   55.136  218.083
  397.000   62.666    0.368    0.275   57.566  219.257
  397.250   58.130    0.360    0.263   62.437  220.232
