~VERSION INFORMATION
 VERS.                 2.0:   CWLS LOG ASCII STANDARD -VERSION 2.0
 WRAP.                  NO:   ONE LINE PER DEPTH STEP
~WELL INFORMATION BLOCK
#MNEM.UNIT           DATA                    DESCRIPTION OF MNEMONIC
#---------    -------------------            -------------------------------
# Generated from Intellog Unique Number	CW_79_81/WELL/2482
WELL.         11-09-080-21W4                 : Well_name    - WELL
LOC .         00/11-09-080-21W4/0            : Location     - LOCATION
UWI .         00/11-09-080-21W4/0            : Uwi          - UNIQUE WELL ID
ENTR.         MAX                            : Entered      - ENTERED BY
SRVC.         WESTERN ATLAS                  : Scn          - SERVICE COMPANY
STRT.M        213.36                         : top_depth    - START DEPTH
STOP.M        447.86                         : bot_depth    - STOP DEPTH
STEP.M        0.25                           : increment    - STEP LENGTH
 NULL. -999.2500:NULL Value
~CURVE INFORMATION BLOCK
#MNEM UNIT       ERCB CURVE CODE    CURVE DESCRIPTION
#-----------   ------------------   ----------------------------------
DEPT.M        00 001 00 00         : DEPTH        - DEPTH
ILD .OHMM     00 120 00 00         : RESD         - DEEP RESISTIVITY (DIL)
NPHI.V/V      00 330 00 00         : PHIN         - NEUTRON POROSITY (SANDSTONE)
DPHI.V/V      00 890 00 00         : PHID         - DENSITY POROSITY (SANDSTONE)
GR  .API      00 310 00 00         : GR           - GAMMA RAY
CALI.MM       00 280 01 00         : CAL          - CALIPER
~PARAMETER INFORMATION
#MNEM.UNIT           DATA             DESCRIPTION OF MNEMONIC
#---------         -----------     ------------------------------
GL  .M        584.545              : gl           - GROUND LEVEL ELEVATION
EREF.M        588.051              : kb           - ELEVATION OF DEPTH REFERENCE
DATM.M        584.545              : datum        - DATUM ELEVATION
TDD .M        496.214              : tdd          - TOTAL DEPTH DRILLER
RUN .         ONE                  : Run          - RUN NUMBER
ENG .         BILL                 : Engineer     - RECORDING ENGINEER
WIT .         JIM                  : Witness      - WITNESSED BY
MUD .         GEL                  : Mud_type     - MUD TYPE
MATR.         SANDSTONE            : Logunit      - NEUTRON MATRIX
TMAX.C        19.4444              : BHT          - MAXIMUM RECORDED TEMPERATURE
BHTD.M        496.214              : BHTDEP       - MAXIMUM RECORDED TEMPERATURE
MATR.         1                    : LOGUNIT      - NEUTRON MATRIX
RMT .C        20                   : MDTP         - TEMPERATURE OF MUD
NEUT.         1                    : NEUTRON      - NEUTRON TYPE
RESI.         0                    : RESIST       - RESISTIVITY TYPE
RMC .OHMM     4                    : RMC          - RESISTIVITY OF MUD CAKE
RMF .OHMM     7.1                  : RMF          - RESISTIVITY OF MUD FILTRATE
SUFT.C        -6.66667             : SUFT         - SURFACE TEMPERATURE
~A  DEPTH     RESD     PHIN     PHID       GR      CAL
# ...
  395.860   55.050    0.357    0.284   49.121  155.449
  396.110   54.041    0.357    0.285   49.592  154.565
  396.360   53.183    0.353    0.290   50.805  154.145
  396.610   52.753    0.349    0.294   53.605  154.928
  396.860   52.604    0.346    0.297   55.003  155.117
  397.110   52.558    0.345    0.297   55.933  155.307
  397.360   52.426    0.346    0.296   56.922  155.595
  397.610   51.759    0.351    0.292   58.523  155.669
  397.860   50.550    0.356    0.290   60.711  156.071
  398.110   49.777    0.360    0.287   63.978  156.064
  398.360   48.750    0.362    0.285   67.071  156.353
  398.610   47.304    0.361    0.281   70.222  156.542
  398.860   45.229    0.357    0.277   73.373  156.534
  399.110   41.611    0.354    0.266   76.904  156.607
  399.360   38.276    0.346    0.243   80.552  157.011
  399.610   34.242    0.343    0.227   86.158  157.795
  399.860   30.120    0.342    0.188   96.673  158.282
  400.110   26.292    0.340    0.151  104.850  159.658
  400.360   22.857    0.337    0.137  108.586  162.222
  400.610   19.192    0.334    0.176  111.502  166.535
  400.860   16.639    0.335    0.202  114.419  172.299
  401.110   14.662    0.331    0.215  114.414  171.104
  401.360   12.633    0.328    0.220  113.358  169.314
  401.610   11.872    0.326    0.220  109.614  167.921
  401.860   12.334    0.326    0.218  103.530  166.923
  402.110   13.854    0.327    0.212   96.326  164.587
  402.360   15.531    0.315    0.198   90.719  160.867
  402.610   18.153    0.285    0.045   96.091  160.859
  402.860   20.090    0.243    0.022  105.847  161.444
  403.110   20.842    0.211    0.068  116.595  162.624
  403.360   20.284    0.228    0.138  124.890  164.298
  403.610   17.371    0.351    0.204  126.248  166.104
  403.860   12.761    0.358    0.213  121.373  165.270
  404.110   11.761    0.350    0.225  121.368  165.657
  404.360   11.465    0.350    0.236  117.856  165.155
  404.610   12.425    0.352    0.239  111.541  163.761
  404.860   14.691    0.354    0.231  101.659  161.872
  405.110   16.774    0.351    0.217   85.064  160.361
  405.360   18.949    0.342    0.222   80.432  160.765
  405.610   23.403    0.336    0.222   81.127  160.361
  405.860   27.051    0.339    0.219   83.401  159.363
  406.110   29.555    0.344    0.205   86.903  158.563
  406.360   30.175    0.348    0.182   91.399  158.259
  406.610   26.991    0.347    0.158   97.160  158.413
  406.860   24.101    0.349    0.129   99.103  159.230
  407.110   22.707    0.352    0.093   96.994  159.221
  407.360   21.762    0.354    0.094   98.392  159.807
  407.610   20.889    0.355    0.126   99.206  161.382
  407.860   19.868    0.355    0.162   96.571  162.857
  408.110   18.308    0.357    0.156   88.996  161.083
  408.360   16.966    0.350    0.153   89.722  158.188
  408.610   15.521    0.353    0.157   96.496  157.389
  408.860   13.722    0.375    0.159   99.940  157.480
  409.110   12.313    0.397    0.159   99.118  157.471
  409.360   11.580    0.410    0.163   94.788  157.265
  409.610   11.928    0.413    0.189   86.386  157.487
  409.860   12.966    0.410    0.232   71.284  156.654
  410.110   14.840    0.429    0.399   62.394  157.832
  410.360   16.835    0.448    0.431   59.641  156.637
  410.610   19.100    0.458    0.413   62.090  155.046
  410.860   21.674    0.455    0.388   66.587  153.949
  411.110   24.433    0.433    0.351   68.529  153.147
  411.360   25.754    0.417    0.318   72.420  153.136
  411.610   26.682    0.409    0.368   89.012  153.525
  411.860   24.880    0.417    0.408  101.748  154.507
  412.110   22.009    0.413    0.412  107.239  155.687
  412.360   19.330    0.380    0.376  103.787  156.866
  412.610   17.151    0.313    0.282   91.633  158.457
  412.860   16.257    0.309    0.138   92.846  160.511
  413.110   14.982    0.304    0.113   95.412  160.898
  413.360   14.363    0.299    0.128   96.576  160.395
  413.610   14.453    0.295    0.141   97.974  160.386
  413.860   15.166    0.291    0.138  100.014  161.169
  414.110   16.281    0.289    0.133  102.415  162.033
  414.360   16.772    0.292    0.132  105.089  162.438
  414.610   17.002    0.296    0.129  108.591  163.221
  414.860   17.051    0.296    0.125  111.741  164.599
  415.110   17.036    0.296    0.120  115.360  166.174
  415.360   17.021    0.296    0.116  119.154  168.046
  415.610   16.954    0.302    0.113  122.061  170.807
  415.860   16.682    0.316    0.113  123.760  170.799
  416.110   16.310    0.320    0.115  126.094  167.624
  416.360   15.943    0.321    0.123  128.952  165.636
  416.610   15.585    0.324    0.132  128.715  166.222
  416.860   15.293    0.328    0.140  126.021  169.480
  417.110   15.190    0.334    0.147  125.392  177.105
  417.360   15.293    0.342    0.152  123.438  191.530
  417.610   15.731    0.344    0.152  120.628  182.815
  417.860   16.181    0.341    0.143  118.695  175.879
  418.110   16.762    0.335    0.140  117.054  172.109
  418.360   17.436    0.329    0.145  115.354  170.617
  418.610   17.991    0.322    0.149  114.013  168.313
  418.860   18.252    0.318    0.148  116.686  168.718
  419.110   18.502    0.320    0.142  119.721  174.251
  419.360   18.759    0.319    0.144  123.281  178.003
  419.610   18.949    0.320    0.145  127.251  178.787
  419.860   19.002    0.322    0.140  130.987  176.998
  420.110   18.788    0.327    0.133  133.076  174.036
  420.360   18.489    0.330    0.128  131.852  171.140
  420.610   18.208    0.337    0.132  129.277  167.569
  420.860   17.732    0.343    0.134  125.298  165.187
  421.110   17.401    0.344    0.142  119.565  164.387
  421.360   17.509    0.342    0.158  112.256  164.379
  421.610   18.654    0.342    0.184  102.898  163.099
  421.860   19.963    0.342    0.226   97.049  162.678
  422.110   21.594    0.345    0.246   91.666  162.272
  422.360   23.488    0.347    0.245   88.038  161.869
  422.610   25.262    0.347    0.230   86.980  161.664
  422.860   26.669    0.345    0.215   88.086  162.051
  423.110   27.665    0.342    0.213   89.863  163.706
  423.360   26.818    0.341    0.215   90.588  164.111
  423.610   26.026    0.345    0.212   86.143  164.103
  423.860   26.099    0.347    0.214   80.118  164.094
  424.110   26.744    0.346    0.226   72.749  164.086
  424.360   28.051    0.344    0.249   64.738  164.078
  424.610   30.880    0.345    0.285   56.471  163.244
  424.860   32.296    0.340    0.287   52.570  159.112
  425.110   33.463    0.337    0.284   43.449  159.499
  425.360   35.416    0.336    0.289   36.079  160.184
  425.610   38.041    0.336    0.296   35.605  160.572
  425.860   40.841    0.335    0.301   42.378  160.662
  426.110   42.700    0.332    0.299   53.711  161.047
  426.360   42.988    0.332    0.296   62.473  161.039
  426.610   41.719    0.332    0.290   70.416  162.218
  426.860   38.485    0.333    0.286   81.341  163.990
  427.110   34.707    0.335    0.274   91.623  164.973
  427.360   30.067    0.339    0.247   99.742  163.977
  427.610   23.353    0.342    0.177  107.452  160.419
  427.860   20.094    0.345    0.013  113.291  162.473
  428.110   19.934    0.350    0.003  118.429  159.299
  428.360   19.663    0.355    0.013  122.691  158.201
  428.610   19.075    0.356    0.041  128.648  158.589
  428.860   18.248    0.354    0.069  134.254  160.361
  429.110   17.295    0.355    0.059  131.920  163.255
  429.360   16.515    0.359    0.049  127.289  159.946
  429.610   16.145    0.367    0.054  125.880  157.959
  429.860   16.045    0.374    0.028  123.947  157.160
  430.110   16.090    0.380    0.009  123.008  157.152
  430.360   16.106    0.386    0.020  123.937  157.341
  430.610   15.736    0.391    0.060  127.020  156.935
  430.860   15.139    0.391    0.010  127.258  156.927
  431.110   15.127    0.378    0.031  132.395  156.918
  431.360   14.784    0.375    0.097  133.151  156.614
  431.610   14.348    0.376    0.156  131.277  156.408
  431.860   14.130    0.378    0.187  124.729  156.102
  432.110   14.686    0.376    0.190  108.433  154.823
