~VERSION INFORMATION
 VERS.                 2.0:   CWLS LOG ASCII STANDARD -VERSION 2.0
 WRAP.                  NO:   ONE LINE PER DEPTH STEP
~WELL INFORMATION BLOCK
#MNEM.UNIT           DATA                    DESCRIPTION OF MNEMONIC
#---------    -------------------            -------------------------------
# Generated from Intellog Unique Number	CS_73_76/WELL/834
WELL.         DOME ET AL KIRBY               : Well_name    - WELL
LOC .         00/10-29-073-05W4/0            : Location     - LOCATION
UWI .         00/10-29-073-05W4/0            : Uwi          - UNIQUE WELL ID
ENTR.         SP                             : Entered      - ENTERED BY
SRVC.         SCHLUMBERGER                   : Scn          - SERVICE COMPANY
STRT.M        270                            : top_depth    - START DEPTH
STOP.M        507                            : bot_depth    - STOP DEPTH
STEP.M        0.25                           : increment    - STEP LENGTH
 NULL. -999.2500:NULL Value
~CURVE INFORMATION BLOCK
#MNEM UNIT       ERCB CURVE CODE    CURVE DESCRIPTION
#-----------   ------------------   ----------------------------------
DEPT.M        00 001 00 00         : DEPTH        - DEPTH
ILD .OHMM     00 120 00 00         : RESD         - DEEP RESISTIVITY (DIL)
DPHI.V/V      00 890 00 00         : PHID         - DENSITY POROSITY (LIMESTONE)
NPHI.V/V      00 330 00 00         : PHIN         - NEUTRON POROSITY (LIMESTONE)
GR  .API      00 310 00 00         : GR           - GAMMA RAY
~PARAMETER INFORMATION
#MNEM.UNIT           DATA             DESCRIPTION OF MNEMONIC
#---------         -----------     ------------------------------
GL  .M        669.03               : gl           - GROUND LEVEL ELEVATION
EREF.M        672.93               : kb           - ELEVATION OF DEPTH REFERENCE
DATM.M        669.03               : datum        - DATUM ELEVATION
TDD .M        514.6                : tdd          - TOTAL DEPTH DRILLER
RUN .         ONE                  : Run          - RUN NUMBER
ENG .         BILL                 : Engineer     - RECORDING ENGINEER
WIT .         JIM                  : Witness      - WITNESSED BY
MUD .         GEL                  : Mud_type     - MUD TYPE
MATR.         LIMESTONE            : Logunit      - NEUTRON MATRIX
TMAX.C        20                   : BHT          - MAXIMUM RECORDED TEMPERATURE
BHTD.M        514.6                : BHTDEP       - MAXIMUM RECORDED TEMPERATURE
MATR.         1                    : LOGUNIT      - NEUTRON MATRIX
RMT .C        25                   : MDTP         - TEMPERATURE OF MUD
NEUT.         1                    : NEUTRON      - NEUTRON TYPE
RESI.         0                    : RESIST       - RESISTIVITY TYPE
RMC .OHMM     0.25                 : RMC          - RESISTIVITY OF MUD CAKE
RMF .OHMM     0.25                 : RMF          - RESISTIVITY OF MUD FILTRATE
SUFT.C        15                   : SUFT         - SURFACE TEMPERATURE
~A  DEPTH     RESD     PHID     PHIN       GR
# ...
  444.000    4.814    0.155    0.379  104.012
  444.250    4.997    0.175    0.406  104.617
  444.500    5.188    0.180    0.436  105.223
  444.750    5.287    0.202    0.440  105.224
  445.000    5.191    0.201    0.429  105.829
  445.250    5.192    0.214    0.416  105.225
  445.500    5.005    0.237    0.402  106.436
  445.750    4.824    0.237    0.412  107.041
  446.000    4.736    0.233    0.411  104.623
  446.250    4.650    0.259    0.384   92.527
  446.500    4.651    0.258    0.373   83.455
  446.750    4.653    0.236    0.364   74.384
  447.000    4.742    0.214    0.356   69.546
  447.250    4.743    0.201    0.344   68.942
  447.500    4.833    0.235    0.358   70.152
  447.750    4.834    0.262    0.367   71.968
  448.000    4.836    0.259    0.384   71.969
  448.250    4.837    0.269    0.377   76.808
  448.500    4.929    0.258    0.377   79.833
  448.750    5.117    0.249    0.385   81.648
  449.000    5.412    0.248    0.385   83.464
  449.250    6.165    0.247    0.383   85.279
  449.500    6.767    0.241    0.379   85.280
  449.750    7.290    0.246    0.389   78.023
  450.000    9.059    0.261    0.387   70.803
  450.250   10.122    0.267    0.385   67.216
  450.500   11.102    0.235    0.396   73.230
  450.750   12.178    0.248    0.397   75.041
  451.000   13.606    0.264    0.375   73.854
  451.250   14.382    0.273    0.365   69.069
  451.500   15.485    0.280    0.372   74.482
  451.750   16.673    0.277    0.378   70.897
  452.000   17.952    0.277    0.381   65.508
  452.250   19.690    0.269    0.390   58.920
  452.500   21.596    0.281    0.401   56.532
  452.750   22.409    0.287    0.393   58.947
  453.000   21.994    0.293    0.394   62.561
  453.250   23.681    0.283    0.376   64.373
  453.500   25.030    0.277    0.361   67.989
  453.750   24.566    0.280    0.353   71.000
  454.000   22.809    0.277    0.355   74.013
  454.250   19.665    0.272    0.361   71.625
  454.500   16.643    0.271    0.358   69.239
  454.750   14.349    0.269    0.367   67.451
  455.000   13.572    0.260    0.388   67.467
  455.250   14.612    0.246    0.410   79.480
  455.500   15.734    0.270    0.424   77.692
  455.750   17.258    0.322    0.388   70.505
  456.000   16.938    0.293    0.365   68.116
  456.250   15.154    0.277    0.365   68.733
  456.500   14.070    0.283    0.367   68.144
  456.750   14.331    0.273    0.375   73.559
  457.000   15.718    0.256    0.394   76.569
  457.250   17.561    0.249    0.409   81.385
  457.500   17.888    0.258    0.395   73.597
  457.750   18.559    0.260    0.391   69.409
  458.000   17.883    0.276    0.394   67.026
  458.250   16.603    0.282    0.385   65.236
  458.500   16.910    0.280    0.383   65.846
  458.750   16.908    0.272    0.380   73.663
  459.000   16.905    0.263    0.389   77.875
  459.250   15.696    0.265    0.393   81.490
  459.500   13.785    0.277    0.389   71.903
  459.750   11.884    0.291    0.381   70.713
  460.000   11.241    0.277    0.386   75.525
  460.250    9.873    0.267    0.390   88.140
  460.500    8.512    0.257    0.379   96.552
  460.750    7.475    0.250    0.374  107.370
  461.000    7.203    0.234    0.381  112.781
  461.250    7.473    0.212    0.403  119.993
  461.500    7.753    0.217    0.410  124.205
  461.750    8.195    0.223    0.408  115.219
  462.000    8.989    0.235    0.399  109.233
  462.250   10.043    0.243    0.395  111.045
  462.500   10.616    0.250    0.398  112.857
  462.750   11.221    0.266    0.398  106.871
  463.000   11.642    0.263    0.403  101.483
  463.250   12.305    0.262    0.403   96.696
  463.500   13.249    0.255    0.413  100.910
  463.750   14.265    0.239    0.411   96.728
  464.000   15.078    0.252    0.381   92.541
  464.250   15.645    0.262    0.373   90.149
  464.500   15.642    0.262    0.371   93.161
  464.750   15.353    0.279    0.383  105.176
  465.000   14.792    0.270    0.393  112.387
  465.250   13.734    0.275    0.402  116.002
  465.500   12.990    0.276    0.396  104.614
  465.750   13.986    0.274    0.387   95.026
  466.000   14.245    0.275    0.375   92.043
  466.250   13.981    0.286    0.385   84.254
  466.500   12.742    0.294    0.394   72.268
  466.750   11.401    0.300    0.385   64.479
  467.000   10.391    0.299    0.380   83.695
  467.250    9.297    0.285    0.370   96.307
  467.500    8.793    0.268    0.363  107.721
  467.750    9.467    0.243    0.372  114.934
  468.000   11.183    0.226    0.391  119.747
  468.250   14.491    0.231    0.405   79.558
  468.500   17.762    0.299    0.402   65.171
  468.750   20.980    0.315    0.390   53.783
  469.000   21.768    0.309    0.377   50.797
  469.250   18.423    0.304    0.371   56.211
  469.500   15.025    0.305    0.363   67.023
  469.750   17.102    0.292    0.372   78.441
  470.000   20.962    0.275    0.384   83.249
  470.250   25.223    0.287    0.393   91.664
  470.500   29.793    0.305    0.401   76.077
  470.750   32.080    0.312    0.393   71.291
  471.000   34.540    0.299    0.384   68.302
  471.250   29.780    0.290    0.372   64.118
  471.500   24.739    0.277    0.365   67.130
  471.750   23.837    0.289    0.370   73.142
  472.000   28.681    0.300    0.381   72.556
  472.250   33.253    0.305    0.382   68.967
  472.500   35.149    0.304    0.382   62.981
  472.750   37.153    0.311    0.383   66.596
  473.000   40.751    0.300    0.383   67.807
  473.250   42.283    0.301    0.383   68.419
  473.500   47.243    0.311    0.393   72.634
  473.750   53.771    0.317    0.400   75.047
  474.000   56.837    0.317    0.395   64.862
  474.250   60.076    0.300    0.392   57.072
  474.500   62.333    0.291    0.393   54.685
  474.750   50.834    0.283    0.401   52.301
  475.000   42.235    0.297    0.409   50.516
  475.250   35.089    0.308    0.417   51.127
  475.500   36.407    0.315    0.421   51.144
  475.750   40.679    0.320    0.424   51.152
  476.000   45.452    0.327    0.415   48.164
  476.250   48.940    0.334    0.402   45.777
  476.500   51.728    0.340    0.400   43.990
  476.750   48.922    0.331    0.400   45.803
  477.000   42.180    0.329    0.396   48.819
  477.250   35.043    0.319    0.394   51.232
  477.500   31.353    0.310    0.390   51.245
  477.750   28.052    0.299    0.387   53.060
  478.000   25.097    0.287    0.377   52.469
  478.250   22.874    0.273    0.366   50.683
  478.500   26.035    0.285    0.357   57.301
  478.750   27.520    0.304    0.383   60.309
  479.000   31.323    0.313    0.389   62.120
  479.250   35.653    0.310    0.388   57.937
  479.500   37.684    0.322    0.389   50.750
  479.750   27.501    0.315    0.385   47.160
  480.000   21.614    0.300    0.378   47.172
  480.250   16.987    0.290    0.374   60.387
  480.500   13.105    0.271    0.384   72.401
  480.750   11.299    0.264    0.392   75.415
  481.000    9.046    0.266    0.396   77.227
  481.250    7.242    0.265    0.398   82.640
  481.500    6.129    0.254    0.395   90.456
  481.750    5.484    0.236    0.387   95.267
  482.000    4.906    0.219    0.387   98.277
  482.250    4.309    0.206    0.389  103.694
  482.500    4.152    0.194    0.386  105.505
  482.750    3.855    0.208    0.380   98.918
  483.000    3.714    0.223    0.376   92.331
  483.250    3.645    0.227    0.373   88.746
  483.500    3.645    0.219    0.370   85.163
  483.750    3.577    0.225    0.364   83.972
  484.000    3.446    0.227    0.356   81.584
  484.250    3.260    0.248    0.351   77.996
  484.500    2.971    0.256    0.348   72.014
  484.750    2.862    0.266    0.342   67.825
  485.000    2.809    0.275    0.339   62.438
  485.250    2.809    0.267    0.343   60.047
  485.500    2.757    0.252    0.339   60.060
  485.750    2.756    0.237    0.330   58.874
  486.000    2.656    0.237    0.322   56.488
  486.250    2.607    0.248    0.320   51.703
  486.500    2.512    0.253    0.328   48.116
  486.750    2.465    0.257    0.332   46.325
  487.000    2.465    0.251    0.338   44.538
  487.250    2.464    0.262    0.334   43.353
