~VERSION INFORMATION
 VERS.                 2.0:   CWLS LOG ASCII STANDARD -VERSION 2.0
 WRAP.                  NO:   ONE LINE PER DEPTH STEP
~WELL INFORMATION BLOCK
#MNEM.UNIT           DATA                    DESCRIPTION OF MNEMONIC
#---------    -------------------            -------------------------------
# Generated from Intellog Unique Number	CW_73_75/WELL/198
WELL.         IOE CDN SUP CALLING LK 10-16   : Well_name    - WELL
LOC .         00/10-16-073-22W4/0M           : Location     - LOCATION
UWI .         00/10-16-073-22W4/0            : Uwi          - UNIQUE WELL ID
ENTR.         JJ                             : Entered      - ENTERED BY
SRVC.         SCHLUMBERGER                   : Scn          - SERVICE COMPANY
DATE.         18 FEB 66                      : Date         - LOG DATE
STRT.M        463.296                        : top_depth    - START DEPTH
STOP.M        591.296                        : bot_depth    - STOP DEPTH
STEP.M        0.25                           : increment    - STEP LENGTH
 NULL. -999.2500:NULL Value
~CURVE INFORMATION BLOCK
#MNEM UNIT       ERCB CURVE CODE    CURVE DESCRIPTION
#-----------   ------------------   ----------------------------------
DEPT.M        00 001 00 00         : DEPTH        - DEPTH
DELT.US/F     00 520 00 00         : DELT         - SONIC TRAVEL TIME
GR  .API      00 310 00 00         : GR           - GAMMA RAY
ILD .OHMM     00 120 00 00         : RESD         - DEEP RESISTIVITY (DIL)
~PARAMETER INFORMATION
#MNEM.UNIT           DATA             DESCRIPTION OF MNEMONIC
#---------         -----------     ------------------------------
GL  .M        626.852              : gl           - GROUND LEVEL ELEVATION
EREF.M        630.022              : kb           - ELEVATION OF DEPTH REFERENCE
DATM.M        626.852              : datum        - DATUM ELEVATION
TDD .M        594.36               : tdd          - TOTAL DEPTH DRILLER
RUN .         ONE                  : Run          - RUN NUMBER
ENG .         SWINARTON            : Engineer     - RECORDING ENGINEER
WIT .         BURNE                : Witness      - WITNESSED BY
BASE.         EDM                  : Branch       - HOME BASE OF LOGGING UNIT
MUD .         GEL-CHEM             : Mud_type     - MUD TYPE
MATR.         SANDSTONE            : Logunit      - NEUTRON MATRIX
TMAX.C        18.8889              : BHT          - MAXIMUM RECORDED TEMPERATURE
BHTD.M        594.665              : BHTDEP       - MAXIMUM RECORDED TEMPERATURE
RMT .C        18.8889              : MDTP         - TEMPERATURE OF MUD
MUDD.KG/M     1140                 : MWT          - MUD DENSITY
NEUT.         1                    : NEUTRON      - NEUTRON TYPE
RESI.         0                    : RESIST       - RESISTIVITY TYPE
RM  .OHMM     3.24                 : RM           - RESISTIVITY OF MUD
RMC .OHMM     2.16                 : RMC          - RESISTIVITY OF MUD CAKE
RMF .OHMM     2.88                 : RMF          - RESISTIVITY OF MUD FILTRATE
SUFT.C        5                    : SUFT         - SURFACE TEMPERATURE
~A  DEPTH     DELT       GR     RESD
# ...
  517.546  366.830   85.094    6.343
  517.796  368.353   83.194    6.358
  518.046  368.344   85.110    6.371
  518.296  373.411   87.175    6.484
  518.546  373.601   89.842    6.601
  518.796  362.091   85.785    6.611
  519.046  349.577   76.960    6.724
  519.296  343.684   72.952    6.838
  519.546  337.723   74.718    7.347
  519.796  336.240   74.725    7.859
  520.046  336.227   75.887    8.667
  520.296  336.149   80.412   10.069
  520.546  335.203   76.305   11.274
  520.796  330.646   72.447   12.876
  521.046  313.052   63.772   14.874
  521.296  298.669   55.950   17.965
  521.546  282.948   51.441   21.351
  521.796  260.609   44.925   26.029
  522.046  244.018   41.218   21.381
  522.296  231.707   42.129   16.037
  522.546  223.606   58.900   12.280
  522.796  221.722   66.235    9.019
  523.046  246.043   76.883    6.950
  523.296  317.958   79.350    6.073
  523.546  340.875   76.798    5.887
  523.796  346.878   76.956    5.901
  524.046  347.069   78.068    5.917
  524.296  347.191   78.328    6.128
  524.546  349.585   78.687    6.243
  524.796  351.177   79.296    6.257
  525.046  351.767   80.809    6.469
  525.296  349.149   83.075    6.781
  525.546  343.388   86.346    6.795
  525.796  348.655   84.295    6.711
  526.046  348.376   78.431    6.725
  526.296  344.220   76.682    6.738
  526.546  340.198   80.555    6.852
  526.796  337.513   85.330    6.966
  527.046  340.041   87.798    7.081
  527.296  344.842   88.457    7.093
  527.546  350.712   88.866    7.206
  527.796  352.840   89.126    7.218
  528.046  346.278   87.427    6.935
  528.296  333.698   80.960    7.052
  528.546  328.205   78.709    6.867
  528.796  325.920   80.676    6.883
  529.046  335.000   83.543    6.798
  529.296  349.961   86.662    6.812
  529.546  350.616   85.415    6.822
  529.796  350.338   82.514    6.836
  530.046  350.327   82.219    6.852
  530.296  348.909   82.177    6.769
  530.546  349.367   82.687    6.583
  530.796  351.829   83.998    6.396
  531.046  351.349   79.992    5.914
  531.296  343.782   75.281    4.938
  531.546  334.879   75.490    3.861
  531.796  332.127   79.010    3.082
  532.046  338.399   82.632    2.796
  532.296  360.380   84.898    2.516
  532.546  412.175   85.960    2.431
  532.796  440.438   87.474    2.442
  533.046  449.520   90.241    2.458
  533.296  445.161   91.755    2.569
  533.546  441.340   90.006    2.783
  533.796  437.918   89.261    3.093
  534.046  433.159   88.316    3.803
  534.296  399.325   84.509    4.612
  534.546  365.955   83.765    5.418
  534.796  349.566   84.324    6.029
  535.046  340.330   86.090    6.341
  535.296  332.094   87.550    6.652
  535.546  346.722   91.674    7.063
  535.796  360.282   92.585    7.475
  536.046  376.313   90.034    7.489
  536.296  364.870   74.181    7.305
  536.546  311.581   64.352    7.022
  536.796  298.065   65.865    6.835
  537.046  304.672   72.950    6.557
  537.296  340.156   80.586    6.468
  537.546  355.586   82.953    6.582
  537.796  368.810   81.406    6.992
  538.046  339.653   79.304    7.106
  538.296  317.314   73.641    7.118
  538.546  315.898   71.943    6.935
  538.796  330.523   73.707    6.753
  539.046  335.727   75.974    6.567
  539.296  338.991   78.139    6.483
  539.546  341.051   81.359    6.494
  539.796  344.047   84.780    6.508
  540.046  351.188   86.644    6.523
  540.296  364.010   83.891    6.539
  540.546  366.473   80.686    6.552
  540.796  368.131   79.038    6.567
  541.046  362.638   82.660    6.581
  541.296  359.619   85.528    6.594
  541.546  357.934   89.852    6.608
  541.796  358.526   87.351    6.524
  542.046  360.520   79.831    6.439
  542.296  346.803   76.024    6.255
  542.546  340.573   75.881    6.069
  542.796  337.553   78.951    5.886
  543.046  342.624   82.069    5.505
  543.296  358.454   86.244    5.317
  543.546  366.864   89.865    5.133
  543.796  379.688   94.239    5.048
  544.046  383.351   96.555    4.962
  544.296  384.074   92.949    4.976
  544.546  387.407   87.436    4.990
  544.796  386.125   83.529    5.104
  545.046  376.287   83.537    5.318
  545.296  375.739   86.053    5.431
  545.546  368.974   88.520    5.548
  545.796  387.815   90.285    5.657
  546.046  382.589   90.292    5.870
  546.296  368.673   84.379    5.983
  546.546  344.796   76.557    5.901
  546.796  329.343   73.954    5.813
  547.046  337.821   86.108    5.729
  547.296  343.625   92.590    5.642
  547.546  378.507   93.551    5.561
  547.796  365.995   88.088    5.575
  548.046  352.746   83.027    5.587
  548.296  340.568   92.119    5.500
  548.546  329.327   97.096    5.418
  548.796  368.754  101.470    5.331
  549.046  387.393  101.378    5.448
  549.296  399.814   97.972    5.559
  549.546  405.551   93.967    5.873
  549.796  401.662   94.273    6.083
  550.046  391.557  100.505    6.492
  550.296  384.460  101.516    6.808
  550.546  375.422   97.911    7.116
  550.796  365.717   95.057    7.328
  551.046  359.489   93.559    7.643
  551.296  356.537   94.320    7.856
  551.546  358.261   94.126    8.066
  551.796  362.929   92.478    8.282
  552.046  365.925   90.930    8.395
  552.296  362.238   89.081    8.505
  552.546  347.920   87.031    8.221
  552.796  341.357   87.943    7.741
  553.046  339.943   91.965    7.456
  553.296  340.867   91.521    7.075
  553.546  353.221   86.862    6.692
  553.796  349.398   81.800    6.407
  554.046  345.908   76.538    5.828
  554.296  348.036   80.611    5.641
  554.546  358.253   84.433    5.657
  554.796  377.359   84.993    6.068
  555.046  395.731   87.109    6.578
  555.296  396.186   87.116    7.088
  555.546  391.162   79.947    7.697
  555.796  392.955   88.287    8.505
  556.046  382.582   88.595    9.114
  556.296  411.849   82.984    9.427
  556.546  416.918   80.128    9.243
  556.796  384.886   75.620    8.561
  557.046  316.089   78.136    6.988
  557.296  318.550   75.384    5.615
  557.546  324.420   49.193    4.835
  557.796  311.374   34.646    4.254
  558.046  321.053   26.925    3.969
  558.296  325.855   20.258    3.784
  558.546  342.555   18.961    3.503
  558.796  342.745   19.721    3.417
  559.046  337.048   21.988    3.433
  559.296  337.506   12.108    3.446
  559.546  339.967   13.321    3.458
  559.796  339.753   21.910    3.571
  560.046  337.669   30.400    3.686
  560.296  334.783   29.404    3.698
  560.546  332.632   31.269    3.714
  560.796  337.032   44.577    3.726
  561.046  348.049   45.990    3.740
  561.296  352.250   40.880    3.855
  561.546  348.361   35.366    4.068
  561.796  343.738   33.616    4.480
  562.046  344.327   69.709    5.089
  562.296  342.844   75.840    5.899
  562.546  349.318   81.669    6.504
  562.796  363.879   94.977    7.315
  563.046  384.456  114.157    7.627
  563.296  404.362   99.861    7.641
  563.546  410.970   83.256    7.458
  563.796  395.783   67.606    7.173
  564.046  389.355   71.026    7.185
  564.296  385.397   66.918    7.199
  564.546  393.208   48.657    7.612
  564.796  412.448   39.481    8.219
  565.046  408.827   53.691    9.028
  565.296  410.083   69.508    9.638
  565.546  402.252   76.543   10.346
  565.796  405.582   57.630   11.552
  566.046  420.878   39.369   11.764
  566.296  433.166   43.793   10.289
  566.546  445.387   61.618    7.726
  566.796  424.051   71.513    6.944
  567.046  358.328   68.258    6.361
  567.296  347.220   58.930    5.286
  567.546  341.458   40.068    4.703
  567.796  348.066   35.809    4.620
  568.046  349.255   41.239    4.636
  568.296  347.305   76.227    4.749
  568.546  353.044   77.740    5.158
  568.796  360.986  113.381    6.066
  569.046  361.041  120.867    6.674
  569.296  372.794  113.798    7.286
  569.546  370.176  115.311    7.594
  569.796  397.838  114.467    7.908
  570.046  377.571  129.279    8.021
  570.296  355.767  155.235    8.136
  570.546  287.505  162.620    8.251
  570.796  281.476  175.024    8.364
  571.046  287.814  185.772    8.476
  571.296  294.353  201.388    8.491
  571.546  289.663  210.381    8.502
