~VERSION INFORMATION
 VERS.                 2.0:   CWLS LOG ASCII STANDARD -VERSION 2.0
 WRAP.                  NO:   ONE LINE PER DEPTH STEP
~WELL INFORMATION BLOCK
#MNEM.UNIT           DATA                    DESCRIPTION OF MNEMONIC
#---------    -------------------            -------------------------------
# Generated from Intellog Unique Number	CC_80_83/WELL/2328
NULL.         -999.25                        : NULL_VALUE
WELL.         CHEVRON CAN OXY JOLI FOU       : Well_name    - WELL
LOC .         10-01-082-18W4                 : Location     - LOCATION          
UWI .         00/10-01-082-18W400            : Uwi          - UNIQUE WELL ID    
ENTR.         DW                             : Entered      - ENTERED BY        
SRVC.         SCHLUMBERGER                   : Scn          - SERVICE COMPANY   
DATE.         14 FEB 73                      : Date         - LOG DATE
STRT.M        131.064                        : top_depth    - START DEPTH       
STOP.M        338.328                        : bot_depth    - STOP DEPTH        
STEP.M        0.305                          : increment    - STEP LENGTH       
~CURVE INFORMATION BLOCK
#MNEM UNIT       ERCB CURVE CODE    CURVE DESCRIPTION
#-----------   ------------------   ----------------------------------
DEPT.M        00 001 00 00         : DEPTH        - DEPTH                       
DPHI.V/V      00 890 00 00         : PHID         - DENSITY POROSITY (LIMESTONE)
NPHI.V/V      00 330 00 00         : PHIN         - NEUTRON POROSITY (LIMESTONE)
GR  .API      00 310 00 00         : GR           - GAMMA RAY                   
ILD .OHMM     00 120 00 00         : RESD         - DEEP RESISTIVITY (DIL)      
~PARAMETER INFORMATION       
#MNEM.UNIT           DATA             DESCRIPTION OF MNEMONIC
#---------         -----------     ------------------------------
GL  .M        545.287              : gl           - GROUND LEVEL ELEVATION      
EREF.M        548.64               : kb           - ELEVATION OF DEPTH REFERENCE
DATM.M        548.64               : datum        - DATUM ELEVATION             
TDD .M        336.499              : tdd          - TOTAL DEPTH DRILLER         
RUN .         ONE                  : Run          - RUN NUMBER                  
ENG .         BILL                 : Engineer     - RECORDING ENGINEER          
WIT .         JIM                  : Witness      - WITNESSED BY                
MUD .         GEL                  : Mud_type     - MUD TYPE                    
MATR.         LIMESTONE            : Logunit      - NEUTRON MATRIX              
TMAX.C        17.7778              : BHT          - MAXIMUM RECORDED TEMPERATURE
BHTD.M        336.499              : BHTDEP       - MAXIMUM RECORDED TEMPERATURE
MATR.         1                    : LOGUNIT      - NEUTRON MATRIX              
RMT .C        25                   : MDTP         - TEMPERATURE OF MUD          
NEUT.         1                    : NEUTRON      - NEUTRON TYPE                
RESI.         0                    : RESIST       - RESISTIVITY TYPE            
RMC .OHMM     0.25                 : RMC          - RESISTIVITY OF MUD CAKE     
RMF .OHMM     0.25                 : RMF          - RESISTIVITY OF MUD FILTRATE 
SUFT.C        15                   : SUFT         - SURFACE TEMPERATURE         
~A  DEPTH     PHID     PHIN       GR     RESD
# ...
  184.098    0.293    0.562   64.894    7.943
  184.403    0.300    0.546   67.294    7.541
  184.708    0.301    0.540   64.287    7.340
  185.013    0.276    0.534   61.880    7.538
  185.317    0.271    0.530   60.075    7.937
  185.622    0.285    0.504   56.466    8.536
  185.927    0.294    0.501   54.058    9.534
  186.232    0.341    0.504   53.456   10.133
  186.537    0.368    0.501   55.255   10.931
  186.841    0.344    0.517   56.455   11.130
  187.146    0.333    0.518   57.654   10.928
  187.451    0.322    0.499   57.651   10.728
  187.756    0.316    0.506   55.244   10.126
  188.061    0.329    0.487   53.439    9.524
  188.365    0.311    0.478   55.839    8.323
  188.670    0.295    0.483   59.442    7.121
  188.975    0.294    0.512   61.844    7.120
  189.280    0.315    0.488   58.234    8.118
  189.585    0.323    0.485   57.631    8.717
  189.889    0.305    0.501   59.432    9.115
  190.194    0.300    0.522   62.433    9.314
  190.499    0.330    0.574   63.031    8.912
  190.804    0.322    0.544   66.634    8.511
  191.108    0.274    0.533   69.636    8.310
  191.413    0.267    0.531   70.835    8.108
  191.718    0.281    0.538   69.630    8.506
  192.023    0.305    0.557   63.017    9.305
  192.328    0.311    0.538   59.407   10.104
  192.632    0.306    0.535   59.405   11.103
  192.937    0.329    0.544   64.811   12.300
  193.242    0.340    0.557   66.612   12.700
  193.547    0.330    0.543   65.407   12.698
  193.852    0.314    0.510   65.404   12.496
  194.156    0.311    0.520   66.603   12.496
  194.461    0.315    0.541   68.403   11.894
  194.766    0.329    0.558   69.001   11.292
  195.071    0.355    0.551   67.196   10.490
  195.376    0.390    0.557   61.784    9.689
  195.680    0.502    0.608   56.373    8.287
  195.985    0.517    0.685   51.563    6.885
  196.290    0.450    0.693   49.757    5.883
  196.595    0.252    0.679   53.360    5.482
  196.900    0.254    0.676   74.390    5.280
  197.204    0.277    0.679   76.791    5.478
  197.509    0.276    0.677   75.585    5.477
  197.814    0.288    0.675   74.382    5.476
  198.119    0.304    0.675   74.379    5.275
  198.424    0.265    0.675   74.375    4.873
  198.728    0.252    0.675   75.576    5.071
  199.033    0.258    0.675   76.774    5.470
  199.338    0.256    0.672   76.771    5.669
  199.643    0.262    0.671   73.764    5.868
  199.948    0.282    0.666   73.760    5.866
  200.252    0.252    0.656   75.560    5.865
  200.557    0.266    0.652   73.755    6.063
  200.862    0.257    0.642   71.348    6.262
  201.167    0.237    0.630   70.745    6.860
  201.471    0.268    0.617   68.338    7.659
  201.776    0.246    0.603   65.931    8.058
  202.081    0.239    0.590   63.525    9.056
  202.386    0.271    0.563   61.118   10.255
  202.691    0.293    0.544   58.109   11.453
  202.995    0.308    0.515   57.507   11.852
  203.300    0.320    0.531   56.903   11.051
  203.605    0.320    0.520   57.502    8.249
  203.910    0.279    0.511   62.907    6.847
  204.215    0.244    0.558   73.121    6.045
  204.519    0.198    0.533   79.127    5.643
  204.824    0.182    0.516   81.528    5.442
  205.129    0.188    0.527   82.126    5.640
  205.434    0.211    0.555   84.527    5.639
  205.739    0.228    0.575   88.129    5.837
  206.043    0.228    0.588   89.930    5.836
  206.348    0.239    0.572   89.326    5.634
  206.653    0.240    0.538   86.319    5.433
  206.958    0.234    0.559   79.105    5.432
  207.263    0.236    0.565   70.688    5.831
  207.567    0.235    0.517   64.075    7.229
  207.872    0.224    0.479   59.265    8.828
  208.177    0.334    0.487   55.656   10.027
  208.482    0.347    0.477   52.649   12.225
  208.787    0.343    0.517   49.641   13.024
  209.091    0.339    0.543   49.038   13.422
  209.396    0.339    0.554   50.837   13.422
  209.701    0.343    0.550   52.638   13.420
  210.006    0.339    0.534   56.841   14.018
  210.311    0.338    0.511   59.843   14.417
  210.615    0.338    0.498   59.240   15.416
  210.920    0.344    0.491   53.828   16.814
  211.225    0.343    0.469   50.821   18.213
  211.530    0.326    0.405   50.216   19.212
  211.834    0.308    0.308   50.213   34.413
  212.139    0.314    0.312   53.215   30.011
  212.444    0.328    0.373   55.016   22.408
  212.749    0.322    0.507   56.816   19.806
  213.054    0.320    0.557   57.414   16.404
  213.358    0.319    0.538   57.411   13.402
  213.663    0.327    0.537   53.202   12.800
  213.968    0.338    0.547   53.198   12.399
  214.273    0.342    0.542   54.999   11.997
  214.578    0.327    0.526   54.996   11.996
  214.882    0.319    0.519   53.791   12.394
  215.187    0.321    0.534   51.984   12.593
  215.492    0.326    0.579   51.983   12.391
  215.797    0.318    0.576   53.783   12.590
  216.102    0.326    0.550   54.982   12.589
  216.406    0.331    0.540   53.176   12.387
  216.711    0.331    0.560   51.971   12.386
  217.016    0.330    0.566   53.772   13.184
  217.321    0.315    0.542   55.572   13.583
  217.626    0.296    0.502   56.771   14.781
  217.930    0.261    0.447   54.964   15.380
  218.235    0.196    0.383   53.159   15.579
  218.540    0.278    0.464   52.556   15.178
  218.845    0.314    0.564   54.956   13.575
  219.150    0.317    0.566   57.358   12.773
  219.454    0.324    0.553   59.158   12.771
  219.759    0.336    0.531   55.549   12.770
  220.064    0.340    0.511   56.748   12.769
  220.369    0.334    0.497   62.154   12.368
  220.674    0.295    0.541   69.963   10.766
  220.978    0.280    0.568   73.566    8.564
  221.283    0.286    0.551   66.953    8.163
  221.588    0.274    0.590   66.350    7.961
  221.893    0.266    0.582   70.552    7.759
  222.197    0.268    0.566   71.752    7.758
  222.502    0.255    0.544   74.152    7.957
  222.807    0.253    0.541   75.953    7.955
  223.112    0.267    0.544   77.753    7.753
  223.417    0.251    0.543   82.557    7.552
  223.721    0.234    0.555   84.959    7.150
  224.026    0.234    0.572   87.360    6.949
  224.331    0.243    0.585   87.957    6.947
  224.636    0.262    0.595   87.955    6.946
  224.941    0.231    0.593   83.745    7.344
  225.245    0.232    0.568   78.935    7.543
  225.550    0.263    0.535   74.125    8.142
  225.855    0.245    0.553   69.915    8.340
  226.160    0.288    0.531   71.715    8.339
  226.465    0.247    0.524   74.717    8.137
  226.769    0.265    0.518   75.315    7.936
  227.074    0.241    0.502   75.913    7.934
  227.379    0.207    0.504   79.517    8.133
  227.684    0.195    0.435   78.912    8.131
  227.989    0.199    0.454   73.501    7.330
  228.293    0.259    0.506   68.090    7.328
  228.598    0.295    0.554   62.679    7.727
  228.903    0.318    0.529   59.671    8.126
  229.208    0.331    0.525   57.265    8.924
  229.513    0.317    0.535   56.060    9.123
  229.817    0.313    0.568   58.460    9.322
  230.122    0.305    0.555   61.462    9.120
  230.427    0.320    0.548   62.061    9.318
  230.732    0.329    0.547   60.255    9.717
  231.037    0.339    0.535   57.247    9.716
  231.341    0.341    0.537   60.849    9.514
  231.646    0.327    0.559   62.049    9.113
  231.951    0.327    0.537   62.647    8.110
  232.256    0.336    0.533   62.043    7.909
  232.561    0.336    0.566   62.642    7.708
  232.865    0.312    0.549   68.648    8.107
  233.170    0.291    0.547   64.439    8.505
  233.475    0.277    0.565   60.831    8.904
  233.780    0.270    0.569   66.236    8.702
  234.084    0.287    0.548   72.844    8.501
  234.389    0.276    0.530   78.850    7.699
  234.694    0.261    0.514   81.250    6.897
  234.999    0.275    0.510   80.648    6.896
  235.304    0.284    0.509   72.231    7.094
  235.608    0.292    0.514   70.426    7.692
  235.913    0.299    0.541   69.221    8.091
  236.218    0.299    0.537   70.421    8.290
  236.523    0.286    0.540   69.817    8.088
  236.828    0.277    0.546   69.814    7.887
