~VERSION INFORMATION
 VERS.                 2.0:   CWLS LOG ASCII STANDARD -VERSION 2.0
 WRAP.                  NO:   ONE LINE PER DEPTH STEP
~WELL INFORMATION BLOCK
#MNEM.UNIT           DATA                    DESCRIPTION OF MNEMONIC
#---------    -------------------            -------------------------------
# Generated from Intellog Unique Number	CW_76_78/WELL/927
WELL.         10-31-077-03W5                 : Well_name    - WELL
LOC .         00/10-31-077-03W5/0            : Location     - LOCATION
UWI .         00/10-31-077-03W5/0            : Uwi          - UNIQUE WELL ID
ENTR.         JAYE                           : Entered      - ENTERED BY
SRVC.         SCHLUMBERGER                   : Scn          - SERVICE COMPANY
DATE.         7 DEC 73                       : Date         - LOG DATE
STRT.M        362.712                        : top_depth    - START DEPTH
STOP.M        641.962                        : bot_depth    - STOP DEPTH
STEP.M        0.25                           : increment    - STEP LENGTH
 NULL. -999.2500:NULL Value
~CURVE INFORMATION BLOCK
#MNEM UNIT       ERCB CURVE CODE    CURVE DESCRIPTION
#-----------   ------------------   ----------------------------------
DEPT.M        00 001 00 00         : DEPTH        - DEPTH
GR  .API      00 310 00 00         : GR           - GAMMA RAY
CALI.MM       00 280 01 00         : CAL          - CALIPER
DPHI.V/V      00 890 00 00         : PHID         - DENSITY POROSITY (SANDSTONE)
NPHI.V/V      00 330 00 00         : PHIN         - NEUTRON POROSITY (SANDSTONE)
ILD .OHMM     00 120 00 00         : RESD         - DEEP RESISTIVITY (DLL)
~PARAMETER INFORMATION
#MNEM.UNIT           DATA             DESCRIPTION OF MNEMONIC
#---------         -----------     ------------------------------
GL  .M        680.923              : gl           - GROUND LEVEL ELEVATION
EREF.M        683.971              : kb           - ELEVATION OF DEPTH REFERENCE
DATM.M        680.923              : datum        - DATUM ELEVATION
TDD .M        649.529              : tdd          - TOTAL DEPTH DRILLER
RUN .         ONE                  : Run          - RUN NUMBER
MATR.         SANDSTONE            : Logunit      - NEUTRON MATRIX
TMAX.C        35                   : BHT          - MAXIMUM RECORDED TEMPERATURE
BHTD.M        649.529              : BHTDEP       - MAXIMUM RECORDED TEMPERATURE
RMT .C        -3.88889             : MDTP         - TEMPERATURE OF MUD
MUDD.KG/M     0                    : MWT          - MUD DENSITY
NEUT.         0                    : NEUTRON      - NEUTRON TYPE
RESI.         1                    : RESIST       - RESISTIVITY TYPE
RM  .OHMM     1.65                 : RM           - RESISTIVITY OF MUD
RMC .OHMM     0.25                 : RMC          - RESISTIVITY OF MUD CAKE
RMF .OHMM     7.25                 : RMF          - RESISTIVITY OF MUD FILTRATE
SUFT.C        4.5                  : SUFT         - SURFACE TEMPERATURE
~A  DEPTH       GR      CAL     PHID     PHIN     RESD
# ...
  508.712   59.776  159.450    0.010    0.167   20.882
  508.962   59.424  160.106    0.014    0.176   30.395
  509.212   59.811  160.763    0.024    0.189   24.808
  509.462   61.309  161.210    0.044    0.215   19.629
  509.712   64.716  161.554    0.096    0.302   13.432
  509.962   72.436  161.691    0.182    0.342    9.140
  510.212   73.071  161.722    0.223    0.455    7.051
  510.462   73.274  161.750    0.245    0.468    6.442
  510.712   73.600  161.990    0.258    0.458    6.070
  510.962   73.126  162.230    0.253    0.449    5.825
  511.212   74.252  162.055    0.251    0.512    5.631
  511.462   75.626  162.082    0.269    0.507    5.523
  511.712   73.980  162.215    0.280    0.494    5.506
  511.962   72.457  162.455    0.268    0.499    5.519
  512.212   74.324  163.007    0.272    0.476    5.563
  512.462   81.059  164.184    0.261    0.470    5.719
  512.712   82.125  166.719    0.240    0.445    5.958
  512.962   78.137  172.490    0.197    0.465    6.600
  513.212   76.183  174.712    0.208    0.438    7.013
  513.462   74.659  170.672    0.191    0.393    7.069
  513.712   73.323  166.632    0.194    0.367    6.758
  513.962   81.044  163.849    0.209    0.439    6.243
  514.212   85.314  163.144    0.235    0.504    5.724
  514.462   79.477  162.551    0.225    0.545    5.384
  514.712   76.969  162.268    0.233    0.523    5.167
  514.962   77.417  162.609    0.262    0.484    5.040
  515.212   83.166  163.478    0.234    0.470    5.071
  515.462   88.424  164.347    0.205    0.483    5.436
  515.712   90.967  164.581    0.213    0.486    5.642
  515.962   93.081  164.404    0.225    0.485    5.769
  516.212   90.325  164.639    0.229    0.506    5.785
  516.462   89.111  166.026    0.222    0.520    5.778
  516.712   87.341  167.624    0.220    0.531    5.780
  516.962   86.189  168.490    0.220    0.541    5.794
  517.212   86.146  168.414    0.221    0.529    5.851
  517.462   90.107  166.461    0.222    0.494    5.897
  517.712   91.665  164.614    0.228    0.507    5.945
  517.962   86.876  163.496    0.232    0.519    6.179
  518.212   83.076  162.795    0.240    0.530    6.650
  518.462   80.320  162.304    0.247    0.544    7.968
  518.712   78.857  162.022    0.263    0.493    9.408
  518.962   79.861  162.054    0.271    0.495   10.927
  519.212   78.338  162.082    0.274    0.456   11.485
  519.462   80.699  162.009    0.237    0.431   11.702
  519.712   81.086  162.352    0.123    0.400   11.796
  519.962   77.161  163.634    0.088    0.326   11.674
  520.212   72.494  164.603    0.059    0.284   11.285
  520.462   73.623  165.261    0.052    0.278   10.909
  520.712   80.973  165.604    0.161    0.326   10.915
  520.962   80.621  166.157    0.170    0.410   10.804
  521.212   83.782  166.711    0.187    0.426    9.692
  521.462   87.066  166.845    0.208    0.452    8.937
  521.712   89.858  166.563    0.215    0.471    8.224
  521.962   92.712  166.488    0.207    0.452    7.763
  522.212   91.804  166.936    0.213    0.460    7.505
  522.462   93.796  167.905    0.198    0.469    7.308
  522.712   96.215  169.294    0.202    0.448    7.154
  522.962   91.611  170.156    0.199    0.440    7.043
  523.212   92.123  170.186    0.199    0.447    6.969
  523.462   94.112  170.009    0.200    0.447    6.924
  523.712   98.814  169.728    0.193    0.445    6.903
  523.962  100.928  169.547    0.184    0.449    6.920
  524.212   97.555  169.583    0.187    0.443    6.925
  524.462   95.540  169.713    0.187    0.429    6.978
  524.712   92.477  169.851    0.174    0.414    7.020
  524.962   92.618  170.190    0.172    0.443    7.038
  525.212   98.552  170.956    0.170    0.438    7.031
  525.462   95.303  171.293    0.166    0.450    6.944
  525.712   94.460  172.159    0.162    0.460    6.799
  525.962   95.709  172.504    0.161    0.457    6.658
  526.212   96.281  172.846    0.170    0.463    6.400
  526.462   95.993  172.982    0.163    0.474    6.129
  526.712   96.255  171.968    0.164    0.491    5.926
  526.962   96.519  171.060    0.171    0.507    5.739
  527.212   98.079  170.151    0.166    0.515    5.669
  527.462   95.877  169.661    0.177    0.507    5.683
  527.712   93.493  168.962    0.185    0.492    5.833
  527.962   93.387  168.675    0.179    0.471    6.019
  528.212   96.178  168.393    0.171    0.460    6.167
  528.462   97.675  168.423    0.170    0.453    6.228
  528.712   94.982  169.186    0.173    0.446    6.278
  528.962   95.431  169.947    0.174    0.457    6.158
  529.212   96.126  170.395    0.172    0.430    6.027
  529.462   96.146  170.631    0.163    0.479    5.944
  529.712   96.224  169.309    0.170    0.520    5.938
  529.962   97.043  167.564    0.183    0.492    6.039
  530.212   97.307  165.299    0.165    0.485    6.199
  530.462   95.908  163.034    0.170    0.502    6.515
  530.712   91.120  161.499    0.213    0.491    7.024
  530.962   88.920  160.172    0.244    0.465    7.867
  531.212   87.210  158.739    0.265    0.437    9.023
  531.462   82.423  158.354    0.292    0.425   10.576
  531.712   80.962  158.070    0.305    0.415   12.108
  531.962   80.424  157.475    0.289    0.409   12.403
  532.212   80.442  157.610    0.269    0.474   12.122
  532.462   79.227  158.373    0.248    0.494   11.611
  532.712   74.993  159.758    0.230    0.484   11.662
  532.962   72.548  160.934    0.213    0.456   12.345
  533.212   69.790  161.595    0.192    0.402   13.117
  533.462   66.604  161.206    0.160    0.358   13.440
  533.712   66.746  160.193    0.179    0.368   12.989
  533.962   71.141  158.974    0.264    0.420   12.309
  534.212   73.683  157.853    0.276    0.447   11.327
  534.462   72.716  156.943    0.281    0.453   10.674
  534.712   73.966  156.145    0.272    0.451   10.205
  534.962   75.280  156.172    0.261    0.447    9.938
  535.212   77.330  156.932    0.263    0.450    9.673
  535.462   79.321  158.215    0.264    0.478    9.595
  535.712   76.259  159.600    0.270    0.515    9.496
  535.962   76.397  160.778    0.283    0.546    9.451
  536.212   76.970  161.541    0.270    0.523    9.491
  536.462   77.728  161.260    0.260    0.491    9.830
  536.712   76.513  160.766    0.255    0.426   10.424
  536.962   74.311  160.481    0.248    0.393   10.996
  537.212   74.577  160.618    0.229    0.365   11.496
  537.462   76.012  160.437    0.154    0.317   10.833
  537.712   72.518  159.948    0.179    0.320    9.861
  537.962   74.202  159.461    0.217    0.372    9.142
  538.212   77.051  159.485    0.217    0.434    8.397
  538.462   80.582  159.623    0.207    0.452    7.828
  538.712   81.093  159.757    0.205    0.487    7.471
  538.962   81.297  159.993    0.225    0.499    7.489
  539.212   82.423  160.760    0.250    0.497    7.842
  539.462   82.010  162.040    0.260    0.472    8.424
  539.712   79.317  163.424    0.256    0.444    8.918
  539.962   79.829  165.333    0.222    0.430    9.423
  540.212   80.584  167.452    0.194    0.402    9.689
  540.462   82.513  169.151    0.169    0.367    9.557
  540.712   84.073  169.597    0.201    0.405    8.859
  540.962   85.568  169.419    0.221    0.457    8.301
  541.212   88.115  168.097    0.229    0.478    7.938
  541.462   88.316  167.188    0.241    0.474    7.618
  541.712   86.425  166.799    0.225    0.438    7.404
  541.962   87.489  166.932    0.216    0.453    7.196
  542.212   88.617  167.278    0.210    0.447    7.109
  542.462   85.986  167.626    0.206    0.440    7.074
  542.712   87.728  167.964    0.197    0.432    7.119
  542.962   89.718  168.307    0.182    0.423    7.266
  543.212   90.477  168.653    0.196    0.416    7.075
  543.462   88.892  168.472    0.207    0.417    6.965
  543.712   89.588  167.979    0.208    0.433    6.906
  543.962   90.899  167.697    0.205    0.441    6.910
  544.212   85.926  166.894    0.209    0.438    6.864
  544.462   87.238  165.569    0.200    0.444    6.756
  544.712   90.707  164.040    0.190    0.465    6.662
  544.962   91.710  163.334    0.207    0.458    6.570
