~VERSION INFORMATION
 VERS.                 2.0:   CWLS LOG ASCII STANDARD -VERSION 2.0
 WRAP.                  NO:   ONE LINE PER DEPTH STEP
~WELL INFORMATION BLOCK
#MNEM.UNIT           DATA                    DESCRIPTION OF MNEMONIC
#---------    -------------------            -------------------------------
# Generated from Intellog Unique Number	CS_71_72/WELL/868
WELL.         PEX PHILLIPS AEC GRIST         : Well_name    - WELL
LOC .         00/10-23-072-07W4/0            : Location     - LOCATION
UWI .         00/10-23-072-07W4/0            : Uwi          - UNIQUE WELL ID
ENTR.         SP                             : Entered      - ENTERED BY
SRVC.         SCHLUMBERGER                   : Scn          - SERVICE COMPANY
STRT.M        320                            : top_depth    - START DEPTH
STOP.M        547                            : bot_depth    - STOP DEPTH
STEP.M        0.25                           : increment    - STEP LENGTH
 NULL. -999.2500:NULL Value
~CURVE INFORMATION BLOCK
#MNEM UNIT       ERCB CURVE CODE    CURVE DESCRIPTION
#-----------   ------------------   ----------------------------------
DEPT.M        00 001 00 00         : DEPTH        - DEPTH
ILD .OHMM     00 120 00 00         : RESD         - DEEP RESISTIVITY (DIL)
DPHI.V/V      00 890 00 00         : PHID         - DENSITY POROSITY (LIMESTONE)
NPHI.V/V      00 330 00 00         : PHIN         - NEUTRON POROSITY (LIMESTONE)
GR  .API      00 310 00 00         : GR           - GAMMA RAY
~PARAMETER INFORMATION
#MNEM.UNIT           DATA             DESCRIPTION OF MNEMONIC
#---------         -----------     ------------------------------
GL  .M        691.2                : gl           - GROUND LEVEL ELEVATION
EREF.M        694.7                : kb           - ELEVATION OF DEPTH REFERENCE
DATM.M        691.2                : datum        - DATUM ELEVATION
TDD .M        550                  : tdd          - TOTAL DEPTH DRILLER
RUN .         ONE                  : Run          - RUN NUMBER
ENG .         BILL                 : Engineer     - RECORDING ENGINEER
WIT .         JIM                  : Witness      - WITNESSED BY
MUD .         GEL                  : Mud_type     - MUD TYPE
MATR.         LIMESTONE            : Logunit      - NEUTRON MATRIX
TMAX.C        24                   : BHT          - MAXIMUM RECORDED TEMPERATURE
BHTD.M        550                  : BHTDEP       - MAXIMUM RECORDED TEMPERATURE
MATR.         1                    : LOGUNIT      - NEUTRON MATRIX
RMT .C        25                   : MDTP         - TEMPERATURE OF MUD
NEUT.         1                    : NEUTRON      - NEUTRON TYPE
RESI.         0                    : RESIST       - RESISTIVITY TYPE
RMC .OHMM     0.25                 : RMC          - RESISTIVITY OF MUD CAKE
RMF .OHMM     0.25                 : RMF          - RESISTIVITY OF MUD FILTRATE
SUFT.C        15                   : SUFT         - SURFACE TEMPERATURE
~A  DEPTH     RESD     PHID     PHIN       GR
# ...
  494.000    8.012    0.210    0.357   75.478
  494.250    8.315    0.202    0.342   72.433
  494.500    8.314    0.213    0.338   72.439
  494.750    8.160    0.230    0.336   74.884
  495.000    8.159    0.211    0.335   81.598
  495.250    8.008    0.174    0.328   88.922
  495.500    8.007    0.148    0.345   91.975
  495.750    8.156    0.131    0.370   87.715
  496.000    8.156    0.145    0.365   87.109
  496.250    8.308    0.156    0.347   87.725
  496.500    8.463    0.163    0.342   86.511
  496.750    8.621    0.177    0.353   82.249
  497.000    8.620    0.181    0.358   78.596
  497.250    9.114    0.177    0.368   81.041
  497.500    9.637    0.186    0.352   81.048
  497.750   10.189    0.183    0.348   78.006
  498.000   10.188    0.179    0.369   75.570
  498.250   10.187    0.176    0.359   75.577
  498.500   10.377    0.180    0.343   81.072
  498.750   10.770    0.188    0.347   85.956
  499.000   11.600    0.193    0.353   89.620
  499.250   12.040    0.210    0.364   84.750
  499.500   12.730    0.228    0.387   79.876
  499.750   14.233    0.250    0.370   82.320
  500.000   16.827    0.252    0.349   91.472
  500.250   18.467    0.228    0.361   78.674
  500.500   19.893    0.261    0.383   60.995
  500.750   21.033    0.278    0.368   52.464
  501.000   21.829    0.278    0.354   57.349
  501.250   21.827    0.255    0.383   65.893
  501.500   20.257    0.251    0.405   67.117
  501.750   18.801    0.246    0.388   66.514
  502.000   18.113    0.241    0.371   67.740
  502.250   17.775    0.247    0.377   67.135
  502.500   17.774    0.252    0.388   72.629
  502.750   19.146    0.258    0.390   76.903
  503.000   20.624    0.243    0.394   70.813
  503.250   21.806    0.252    0.396   67.768
  503.500   22.214    0.272    0.401   60.458
  503.750   21.801    0.291    0.393   56.194
  504.000   19.862    0.290    0.386   58.640
  504.250   18.094    0.269    0.383   67.184
  504.500   19.491    0.252    0.384   72.677
  504.750   23.476    0.257    0.385   63.536
  505.000   25.764    0.275    0.383   55.615
  505.250   28.275    0.296    0.379   49.523
  505.500   30.457    0.297    0.396   45.261
  505.750   31.026    0.297    0.406   53.194
  506.000   30.451    0.304    0.385   59.297
  506.250   28.793    0.282    0.377   54.428
  506.500   27.226    0.263    0.379   51.383
  506.750   27.735    0.276    0.374   47.729
  507.000   29.876    0.284    0.383   44.076
  507.250   33.402    0.291    0.403   50.180
  507.500   37.346    0.300    0.420   44.700
  507.750   42.540    0.280    0.410   42.265
  508.000   49.367    0.271    0.382   41.661
  508.250   53.179    0.289    0.377   43.496
  508.500   53.172    0.302    0.385   38.626
  508.750   50.278    0.320    0.391   37.410
  509.000   48.435    0.327    0.408   36.197
  509.250   44.954    0.327    0.423   39.251
  509.500   39.454    0.316    0.428   44.137
  509.750   36.620    0.311    0.422   47.803
  510.000   30.396    0.329    0.411   53.296
  510.250   23.418    0.316    0.432   60.009
  510.500   19.079    0.294    0.438   66.722
  510.750   18.380    0.283    0.447   73.435
  511.000   19.074    0.286    0.459   66.734
  511.250   19.796    0.301    0.474   61.862
  511.500   20.166    0.327    0.487   55.770
  511.750   20.542    0.344    0.476   52.117
  512.000   20.161    0.309    0.457   49.077
  512.250   18.367    0.300    0.436   46.643
  512.500   14.688    0.293    0.414   45.426
  512.750   10.903    0.300    0.407   42.993
  513.000    8.883    0.316    0.418   46.658
  513.250    7.103    0.306    0.395   51.544
  513.500    6.120    0.273    0.383   53.377
  513.750    5.079    0.244    0.392   58.873
  514.000    4.295    0.278    0.413   49.732
  514.250    3.841    0.301    0.385   43.030
  514.500    3.565    0.321    0.355   36.327
  514.750    3.499    0.300    0.359   47.310
  515.000    3.498    0.267    0.367   54.634
  515.250    3.564    0.258    0.391   58.907
  515.500    3.630    0.285    0.420   49.156
  515.750    3.630    0.295    0.373   47.333
  516.000    3.629    0.282    0.352   52.828
  516.250    3.629    0.305    0.409   49.174
  516.500    3.496    0.313    0.399   42.474
  516.750    3.367    0.322    0.376   38.212
  517.000    3.305    0.325    0.375   36.996
  517.250    3.244    0.328    0.379   43.712
  517.500    3.184    0.297    0.385   44.327
  517.750    3.067    0.305    0.417   41.892
  518.000    3.010    0.306    0.419   37.633
  518.250    2.900    0.296    0.387   35.807
  518.500    2.846    0.294    0.393   32.764
  518.750    2.793    0.319    0.396   30.332
  519.000    2.793    0.331    0.397   29.726
  519.250    2.792    0.325    0.386   28.515
  519.500    2.792    0.317    0.371   30.959
  519.750    2.792    0.317    0.355   32.794
  520.000    2.844    0.320    0.370   32.799
  520.250    2.843    0.312    0.376   38.295
  520.500    2.843    0.302    0.374   39.519
  520.750    2.790    0.315    0.378   37.698
  521.000    2.790    0.329    0.386   36.482
  521.250    2.738    0.336    0.388   35.269
  521.500    2.738    0.321    0.387   40.763
  521.750    2.738    0.313    0.378   41.988
  522.000    2.737    0.320    0.377   37.727
  522.250    2.737    0.330    0.383   35.904
  522.500    2.737    0.326    0.395   35.297
  522.750    2.737    0.302    0.394   46.891
  523.000    2.686    0.272    0.398   54.214
  523.250    2.685    0.279    0.415   57.267
  523.500    2.636    0.302    0.416   45.688
  523.750    2.635    0.320    0.400   39.596
  524.000    2.635    0.331    0.390   34.115
  524.250    2.586    0.332    0.383   31.681
  524.500    2.586    0.316    0.375   37.176
  524.750    2.586    0.299    0.378   46.938
  525.000    2.543    0.314    0.460   35.986
  525.250    2.451    0.321    0.391   34.181
  525.500    2.545    0.320    0.376   33.586
  525.750    2.743    0.316    0.372   34.829
  526.000    2.847    0.312    0.358   41.559
  526.250    3.127    0.309    0.346   50.724
  526.500    3.246    0.279    0.336   60.506
  526.750    3.434    0.257    0.364   65.402
  527.000    3.500    0.236    0.387   71.521
  527.250    3.500    0.227    0.408   74.592
  527.500    3.436    0.221    0.446   77.050
  527.750    3.437    0.218    0.435   72.195
  528.000    3.374    0.245    0.406   66.117
  528.250    3.312    0.268    0.383   64.311
  528.500    3.252    0.266    0.359   63.715
  528.750    3.252    0.263    0.389   63.733
  529.000    3.315    0.285    0.407   60.705
  529.250    3.315    0.280    0.408   61.951
  529.500    3.316    0.271    0.404   63.796
  529.750    3.316    0.279    0.408   60.767
  530.000    3.380    0.289    0.398   60.180
  530.250    3.380    0.268    0.384   61.415
  530.500    3.319    0.259    0.383   63.264
  530.750    3.197    0.247    0.396   64.507
  531.000    2.968    0.247    0.408   63.919
  531.250    2.755    0.274    0.414   61.503
  531.500    2.557    0.297    0.421   58.473
  531.750    2.330    0.321    0.409   51.780
  532.000    2.287    0.340    0.396   37.160
  532.250    2.204    0.358    0.402   32.913
  532.500    2.164    0.344    0.403   31.112
  532.750    2.205    0.339    0.394   30.513
  533.000    2.247    0.334    0.391   31.751
  533.250    2.290    0.331    0.387   34.216
  533.500    2.333    0.324    0.377   37.897
  533.750    2.468    0.313    0.358   43.400
  534.000    2.660    0.299    0.364   57.452
  534.250    2.814    0.284    0.387   64.792
  534.500    2.977    0.275    0.394   70.300
  534.750    3.091    0.263    0.392   73.373
  535.000    3.149    0.244    0.389   75.215
  535.250    3.150    0.234    0.373   69.749
  535.500    3.093    0.247    0.367   62.451
  535.750    3.036    0.252    0.364   58.812
  536.000    2.871    0.243    0.391   63.102
  536.250    2.567    0.246    0.405   68.617
  536.500    2.428    0.285    0.403   69.848
  536.750    2.254    0.307    0.388   54.625
  537.000    2.131    0.322    0.378   50.371
  537.250    2.054    0.328    0.384   45.513
