~VERSION INFORMATION
 VERS.                 2.0:   CWLS LOG ASCII STANDARD -VERSION 2.0
 WRAP.                  NO:   ONE LINE PER DEPTH STEP
~WELL INFORMATION BLOCK
#MNEM.UNIT           DATA                    DESCRIPTION OF MNEMONIC
#---------    -------------------            -------------------------------
# Generated from Intellog Unique Number	CW_70_72/WELL/1067
NULL.         -999.25                        : NULL_VALUE
WELL.         WINCAN ET AL CALL W 12-30      : Well_name    - WELL              
LOC .         12-30-071-19W4                 : Location     - LOCATION          
UWI .         00/12-30-071-19W4/0            : Uwi          - UNIQUE WELL ID    
ENTR.         JAYE                           : Entered      - ENTERED BY        
SRVC.         SCHLUMBERGER                   : Scn          - SERVICE COMPANY   
DATE.         19 FEB 80                      : Date         - LOG DATE          
STRT.M        305                            : top_depth    - START DEPTH       
STOP.M        495                            : bot_depth    - STOP DEPTH        
STEP.M        0.25                           : increment    - STEP LENGTH       
~CURVE INFORMATION BLOCK
#MNEM UNIT       ERCB CURVE CODE    CURVE DESCRIPTION
#-----------   ------------------   ----------------------------------
DEPT.M        00 001 00 00         : DEPTH        - DEPTH                       
DPHI.V/V      00 890 00 00         : PHID         - DENSITY POROSITY (SANDSTONE)
NPHI.V/V      00 330 00 00         : PHIN         - NEUTRON POROSITY (SANDSTONE)
GR  .API      00 310 00 00         : GR           - GAMMA RAY                   
CALI.MM       00 280 01 00         : CAL          - CALIPER                     
ILD .OHMM     00 120 00 00         : RESD         - DEEP RESISTIVITY (DIL)      
~PARAMETER INFORMATION       
#MNEM.UNIT           DATA             DESCRIPTION OF MNEMONIC
#---------         -----------     ------------------------------
GL  .M        592.17               : gl           - GROUND LEVEL ELEVATION      
EREF.M        596.27               : kb           - ELEVATION OF DEPTH REFERENCE
DATM.M        592.17               : datum        - DATUM ELEVATION             
TDD .M        498                  : tdd          - TOTAL DEPTH DRILLER         
RUN .         ONE                  : Run          - RUN NUMBER                  
ENG .         HOOK                 : Engineer     - RECORDING ENGINEER          
WIT .         WAUNCH               : Witness      - WITNESSED BY                
BASE.         EDM                  : Branch       - HOME BASE OF LOGGING UNIT   
MUD .         GEL CHEM             : Mud_type     - MUD TYPE                    
MATR.         SANDSTONE            : Logunit      - NEUTRON MATRIX              
TMAX.C        27.5                 : BHT          - MAXIMUM RECORDED TEMPERATURE
BHTD.M        498                  : BHTDEP       - MAXIMUM RECORDED TEMPERATURE
RMT .C        18.9                 : MDTP         - TEMPERATURE OF MUD          
MUDD.KG/M     9.5                  : MWT          - MUD DENSITY                 
NEUT.         1                    : NEUTRON      - NEUTRON TYPE                
RESI.         0                    : RESIST       - RESISTIVITY TYPE            
RM  .OHMM     4.68                 : RM           - RESISTIVITY OF MUD          
RMC .OHMM     0                    : RMC          - RESISTIVITY OF MUD CAKE     
RMF .OHMM     4.03                 : RMF          - RESISTIVITY OF MUD FILTRATE 
SUFT.C        0                    : SUFT         - SURFACE TEMPERATURE         
~A  DEPTH     PHID     PHIN       GR      CAL     RESD
# ...
  341.500    0.253    0.471   87.625  170.278    3.317
  341.750    0.265    0.479   82.348  172.635    3.931
  342.000    0.279    0.480   77.950  168.007    4.962
  342.250    0.271    0.474   76.862  160.361    6.229
  342.500    0.262    0.466   79.149  154.279    7.203
  342.750    0.252    0.461   81.127  152.155    7.476
  343.000    0.255    0.459   80.602  152.112    7.347
  343.250    0.267    0.458   77.766  152.804    7.279
  343.500    0.278    0.452   73.739  154.325    7.233
  343.750    0.285    0.446   70.214  155.011    7.300
  344.000    0.295    0.439   69.877  154.141    7.423
  344.250    0.293    0.431   70.664  152.329    7.474
  344.500    0.286    0.429   73.266  151.139    7.401
  344.750    0.275    0.440   78.180  151.310    7.009
  345.000    0.261    0.429   81.721  152.310    6.431
  345.250    0.249    0.451   83.887  154.047    5.944
  345.500    0.239    0.474   80.547  156.924    5.756
  345.750    0.270    0.490   76.960  159.069    5.974
  346.000    0.278    0.486   76.248  157.778    6.482
  346.250    0.264    0.478   77.097  155.240    7.303
  346.500    0.249    0.473   77.889  152.905    7.705
  346.750    0.245    0.472   78.428  152.650    7.562
  347.000    0.262    0.470   79.216  153.348    7.282
  347.250    0.260    0.465   80.130  155.073    7.051
  347.500    0.256    0.458   80.168  156.909    6.791
  347.750    0.251    0.453   78.332  158.021    6.578
  348.000    0.249    0.451   77.493  158.396    6.405
  348.250    0.244    0.450   79.094  158.349    6.122
  348.500    0.233    0.448   79.697  158.314    5.964
  348.750    0.228    0.448   78.297  158.896    6.028
  349.000    0.216    0.452   74.335  160.734    6.220
  349.250    0.229    0.451   64.744  164.963    6.639
  349.500    0.250    0.425   54.216  165.554    7.150
  349.750    0.270    0.412   48.439  161.235    7.476
  350.000    0.263    0.395   53.292  155.882    7.487
  350.250    0.274    0.406   60.458  153.134    7.237
  350.500    0.270    0.421   67.561  153.614    6.553
  350.750    0.256    0.441   68.347  157.325    6.023
  351.000    0.262    0.456   66.075  160.101    5.640
  351.250    0.282    0.443   63.612  157.766    5.432
  351.500    0.282    0.439   62.963  155.747    5.330
  351.750    0.282    0.437   67.253  154.040    5.269
  352.000    0.295    0.439   70.605  152.746    5.217
  352.250    0.303    0.451   72.393  152.186    5.187
  352.500    0.295    0.459   74.995  152.768    5.177
  352.750    0.285    0.450   77.097  153.565    5.165
  353.000    0.273    0.452   78.884  155.293    5.135
  353.250    0.274    0.488   72.923  157.551    5.086
  353.500    0.299    0.514   65.272  161.780    5.055
  353.750    0.331    0.528   60.058  164.343    5.167
  354.000    0.363    0.531   53.967  164.516    5.618
  354.250    0.383    0.475   46.880  162.281    5.841
  354.500    0.366    0.446   39.916  157.349    5.754
  354.750    0.277    0.413   43.955  152.724    5.581
  355.000    0.292    0.401   46.368  150.908    5.278
  355.250    0.298    0.403   47.030  150.241    5.119
  355.500    0.307    0.418   47.007  150.090    4.948
  355.750    0.313    0.427   46.859  150.470    4.828
  356.000    0.311    0.432   47.960  150.752    4.765
  356.250    0.317    0.427   48.749  151.430    4.745
  356.500    0.319    0.406   48.160  151.916    4.726
  356.750    0.319    0.406   44.887  152.296    4.706
  357.000    0.322    0.408   44.113  152.567    4.687
  357.250    0.323    0.410   45.965  152.732    4.676
  357.500    0.323    0.411   48.129  152.488    4.666
  357.750    0.328    0.412   49.852  152.232    4.675
  358.000    0.332    0.413   49.267  151.887    4.656
  358.250    0.332    0.415   45.428  151.527    4.644
  358.500    0.333    0.418   44.216  151.384    4.617
  358.750    0.337    0.417   43.317  151.246    4.589
  359.000    0.335    0.403   43.228  150.884    4.563
  359.250    0.334    0.392   43.333  150.637    4.536
  359.500    0.329    0.398   42.429  150.702    4.509
  359.750    0.325    0.408   43.221  150.547    4.498
  360.000    0.328    0.418   43.510  150.521    4.474
  360.250    0.332    0.420   42.296  150.583    4.438
  360.500    0.339    0.416   40.834  150.648    4.411
  360.750    0.333    0.412   39.123  150.710    4.352
  361.000    0.326    0.408   38.849  150.668    4.303
  361.250    0.328    0.406   39.698  150.836    4.261
  361.500    0.335    0.403   40.865  150.898    4.205
  361.750    0.340    0.400   42.592  150.963    4.165
  362.000    0.347    0.403   44.002  151.127    4.155
  362.250    0.351    0.411   44.477  151.400    4.146
  362.500    0.347    0.418   44.019  151.465    4.129
  362.750    0.341    0.418   42.304  151.532    4.098
  363.000    0.343    0.420   42.031  151.489    4.066
  363.250    0.347    0.429   43.004  151.342    4.042
  363.500    0.351    0.425   44.048  151.209    4.032
  363.750    0.359    0.418   45.775  151.058    3.988
  364.000    0.341    0.416   48.312  151.017    3.963
  364.250    0.338    0.435   50.851  150.974    3.931
  364.500    0.337    0.455   52.202  150.943    3.923
  364.750    0.338    0.449   51.805  151.001    3.931
  365.000    0.342    0.443   49.591  150.853    3.937
  365.250    0.346    0.445   48.630  150.813    3.928
  365.500    0.350    0.455   48.290  150.879    3.920
  365.750    0.349    0.463   48.641  150.737    3.903
  366.000    0.347    0.456   49.996  150.699    3.879
  366.250    0.346    0.444   51.972  150.663    3.872
  366.500    0.348    0.435   53.321  150.618    3.884
  366.750    0.347    0.429   53.487  150.890    3.904
  367.000    0.340    0.427   52.025  151.046    3.918
  367.250    0.331    0.426   50.373  151.226    3.924
  367.500    0.328    0.426   48.533  151.296    3.938
  367.750    0.333    0.429   47.012  151.456    3.958
  368.000    0.329    0.436   45.049  151.527    3.964
  368.250    0.324    0.432   43.897  151.589    3.972
  368.500    0.325    0.424   43.812  151.441    3.985
  368.750    0.324    0.424   44.661  151.293    3.998
  369.000    0.315    0.427   46.387  151.147    4.027
  369.250    0.322    0.429   47.803  150.906    4.040
  369.500    0.334    0.431   48.719  150.858    4.045
  369.750    0.346    0.438   50.445  150.807    4.046
  370.000    0.358    0.439   53.173  150.780    4.058
  370.250    0.352    0.432   53.649  150.644    4.104
  370.500    0.343    0.428   53.312  150.492    4.156
  370.750    0.340    0.431   53.536  150.238    4.216
  371.000    0.337    0.434   53.636  150.307    4.303
  371.250    0.327    0.435   52.865  150.165    4.400
  371.500    0.326    0.438   51.903  150.130    4.496
  371.750    0.332    0.441   52.377  150.194    4.623
  372.000    0.341    0.444   53.412  150.258    4.745
  372.250    0.349    0.448   54.767  149.692    4.869
  372.500    0.344    0.450   56.682  149.439    5.041
  372.750    0.333    0.448   58.781  149.402    5.321
  373.000    0.327    0.440   60.694  149.571    5.583
  373.250    0.309    0.431   61.986  149.428    5.893
  373.500    0.296    0.423   60.461  149.491    6.206
  373.750    0.270    0.402   55.061  149.447    6.368
  374.000    0.237    0.378   54.972  149.310    6.167
  374.250    0.233    0.359   55.387  149.365    5.637
  374.500    0.295    0.340   53.550  149.328    5.806
  374.750    0.309    0.324   50.210  148.868    6.491
  375.000    0.296    0.305   47.625  148.414    7.777
  375.250    0.275    0.284   44.411  148.275    9.459
  375.500    0.225    0.261   42.824  150.105   11.039
  375.750    0.130    0.248   44.299  151.733   11.716
  376.000    0.111    0.274   47.526  153.153   10.335
  376.250    0.152    0.303   51.441  152.698    8.351
  376.500    0.224    0.362   55.670  151.292    6.914
  376.750    0.277    0.429   59.021  150.422    5.777
  377.000    0.304    0.467   58.811  149.238    4.965
  377.250    0.309    0.475   58.599  147.636    4.598
  377.500    0.305    0.481   59.573  146.137    4.528
  377.750    0.300    0.483   60.489  145.052    4.535
