~VERSION INFORMATION
 VERS.                 2.0:   CWLS LOG ASCII STANDARD -VERSION 2.0
 WRAP.                  NO:   ONE LINE PER DEPTH STEP
~WELL INFORMATION BLOCK
#MNEM.UNIT           DATA                    DESCRIPTION OF MNEMONIC
#---------    -------------------            -------------------------------
# Generated from Intellog Unique Number	CW_76_78/WELL/901
WELL.         PCP MARTEN HILLS 10-22         : Well_name    - WELL
LOC .         00/10-22-076-04W5/0            : Location     - LOCATION
UWI .         00/10-22-076-04W5/0            : Uwi          - UNIQUE WELL ID
ENTR.         JAYE                           : Entered      - ENTERED BY
SRVC.         SCHLUMBERGER                   : Scn          - SERVICE COMPANY
DATE.         24 MAR 74                      : Date         - LOG DATE
STRT.M        524.256                        : top_depth    - START DEPTH
STOP.M        777.256                        : bot_depth    - STOP DEPTH
STEP.M        0.25                           : increment    - STEP LENGTH
 NULL. -999.2500:NULL Value
~CURVE INFORMATION BLOCK
#MNEM UNIT       ERCB CURVE CODE    CURVE DESCRIPTION
#-----------   ------------------   ----------------------------------
DEPT.M        00 001 00 00         : DEPTH        - DEPTH
ILD .OHMM     00 120 00 00         : RESD         - DEEP RESISTIVITY (DIL)
NPHI.V/V      00 330 00 00         : PHIN         - NEUTRON POROSITY (SANDSTONE)
DPHI.V/V      00 890 00 00         : PHID         - DENSITY POROSITY (SANDSTONE)
GR  .API      00 310 00 00         : GR           - GAMMA RAY
CALI.MM       00 280 01 00         : CAL          - CALIPER
~PARAMETER INFORMATION
#MNEM.UNIT           DATA             DESCRIPTION OF MNEMONIC
#---------         -----------     ------------------------------
GL  .M        833.476              : gl           - GROUND LEVEL ELEVATION
EREF.M        837.133              : kb           - ELEVATION OF DEPTH REFERENCE
DATM.M        833.476              : datum        - DATUM ELEVATION
TDD .M        790.346              : tdd          - TOTAL DEPTH DRILLER
RUN .         ONE                  : Run          - RUN NUMBER
ENG .         WILLIGER             : Engineer     - RECORDING ENGINEER
WIT .         BOND                 : Witness      - WITNESSED BY
BASE.         RD                   : Branch       - HOME BASE OF LOGGING UNIT
MUD .         CHEM GEL             : Mud_type     - MUD TYPE
MATR.         SANDSTONE            : Logunit      - NEUTRON MATRIX
TMAX.C        27.7778              : BHT          - MAXIMUM RECORDED TEMPERATURE
BHTD.M        790.651              : BHTDEP       - MAXIMUM RECORDED TEMPERATURE
RMT .C        9.44444              : MDTP         - TEMPERATURE OF MUD
MUDD.KG/M     1164                 : MWT          - MUD DENSITY
NEUT.         1                    : NEUTRON      - NEUTRON TYPE
RESI.         0                    : RESIST       - RESISTIVITY TYPE
RM  .OHMM     4.84                 : RM           - RESISTIVITY OF MUD
RMC .OHMM     0                    : RMC          - RESISTIVITY OF MUD CAKE
RMF .OHMM     5.54                 : RMF          - RESISTIVITY OF MUD FILTRATE
SUFT.C        -17.7778             : SUFT         - SURFACE TEMPERATURE
~A  DEPTH     RESD     PHIN     PHID       GR      CAL
# ...
  597.256    8.427    0.467    0.356   58.744  195.549
  597.506    8.567    0.484    0.359   58.144  193.296
  597.756    8.692    0.466    0.355   54.927  191.043
  598.006    8.886    0.451    0.344   53.719  189.411
  598.256    9.066    0.440    0.337   51.842  190.045
  598.506    9.217    0.427    0.337   51.547  192.122
  598.756    9.404    0.437    0.349   49.547  193.480
  599.006    9.596    0.428    0.335   47.060  193.805
  599.256    9.881    0.409    0.321   46.156  193.716
  599.506   10.195    0.392    0.309   49.454  193.115
  599.756   10.655    0.402    0.311   49.037  192.718
  600.006   11.323    0.413    0.312   48.256  192.631
  600.256   12.145    0.420    0.320   48.690  192.751
  600.506   12.120    0.436    0.324   49.918  192.767
  600.756   12.006    0.428    0.316   50.719  192.990
  601.006   12.115    0.421    0.318   51.519  193.212
  601.256   12.203    0.433    0.311   52.563  193.225
  601.506   12.245    0.433    0.308   52.816  193.037
  601.756   12.288    0.437    0.329   52.399  192.742
  602.006   12.264    0.436    0.328   51.191  192.552
  602.256   12.261    0.428    0.315   46.573  192.259
  602.506   12.191    0.419    0.312   45.366  192.380
  602.756   12.121    0.418    0.309   45.985  192.394
  603.006   12.074    0.430    0.307   46.906  192.511
  603.256   12.049    0.439    0.318   45.820  192.529
  603.506   12.091    0.424    0.321   46.133  192.649
  603.756   12.179    0.435    0.316   46.326  192.559
  604.006   12.267    0.449    0.325   46.030  192.680
  604.256   12.355    0.445    0.332   45.674  192.489
  604.506   12.353    0.418    0.322   45.746  192.710
  604.756   12.351    0.423    0.317   45.876  192.932
  605.006   12.235    0.422    0.334   46.068  192.742
  605.256   12.075    0.417    0.342   46.625  191.728
  605.506   11.896    0.405    0.340   47.731  190.093
  605.756   11.697    0.390    0.339   49.018  188.564
  606.006   11.608    0.386    0.337   50.610  187.651
  606.256   11.499    0.400    0.327   51.959  187.977
  606.506   11.455    0.408    0.313   51.482  188.921
  606.756   11.347    0.400    0.314   50.334  190.278
  607.006   11.240    0.402    0.333   49.065  191.529
  607.256   11.196    0.406    0.327   48.100  193.504
  607.506   11.153    0.410    0.325   47.623  195.377
  607.756   11.130    0.417    0.328   47.511  196.423
  608.006   11.067    0.433    0.316   47.825  196.954
  608.256   10.983    0.433    0.331   48.260  197.279
  608.506   10.920    0.419    0.328   48.634  197.499
  608.756   10.838    0.420    0.327   48.156  197.928
  609.006   10.836    0.414    0.323   47.497  198.460
  609.256   10.754    0.411    0.320   47.871  198.886
  609.506   10.613    0.423    0.315   48.733  199.112
  609.756   10.475    0.433    0.321   49.047  199.127
  610.006   10.357    0.423    0.322   49.420  199.042
  610.256   10.203    0.412    0.316   51.135  198.849
  610.506   10.108    0.412    0.321   54.432  198.660
  610.756    9.957    0.410    0.316   58.824  198.466
  611.006    9.864    0.416    0.319   64.555  198.173
  611.256    9.753    0.426    0.314   61.217  197.882
  611.506    9.697    0.441    0.326   60.800  197.896
  611.756    9.553    0.431    0.334   61.237  197.709
  612.006    9.238    0.410    0.329   61.550  197.619
  612.256    9.001    0.393    0.315   62.106  197.222
  612.506    8.900    0.367    0.290   61.691  197.547
  612.756    9.777    0.329    0.204   59.995  198.699
  613.006   10.922    0.287    0.105   56.960  200.261
  613.256   13.259    0.232    0.064   55.144  202.131
  613.506   17.819    0.197    0.028   51.074  203.899
  613.756   24.987    0.168    0.002   48.953  205.049
  614.006   32.902    0.151    0.031   49.327  206.095
  614.256   30.892    0.174    0.066   53.294  206.627
  614.506   22.936    0.215    0.107   56.469  206.542
  614.756   17.605    0.276    0.196   59.095  205.937
  615.006   12.927    0.377    0.250   63.427  201.107
  615.256    8.082    0.405    0.294   66.054  197.722
  615.506    6.135    0.478    0.284   68.925  196.913
  615.756    5.213    0.455    0.264   70.517  197.034
  616.006    4.805    0.430    0.256   71.013  197.256
  616.256    4.570    0.435    0.245   72.545  197.477
  616.506    4.510    0.452    0.269   74.563  197.492
  616.756    4.468    0.469    0.248   76.399  197.305
  617.006    4.442    0.471    0.255   73.790  197.321
  617.256    4.417    0.431    0.266   72.521  197.539
  617.506    4.392    0.433    0.263   72.287  197.866
  617.756    4.326    0.443    0.253   72.479  198.292
  618.006    4.254    0.443    0.242   73.828  199.031
  618.256    4.191    0.435    0.246   75.603  200.387
  618.506    4.144    0.420    0.251   74.760  202.366
  618.756    4.090    0.412    0.235   75.499  203.823
  619.006    4.051    0.416    0.238   77.213  204.866
  619.256    3.998    0.422    0.241   79.232  206.124
  619.506    3.961    0.428    0.244   81.676  206.445
  619.756    3.909    0.431    0.252   85.461  206.667
  620.006    3.858    0.445    0.248   86.199  206.579
  620.256    3.836    0.463    0.232   86.087  206.183
  620.506    3.807    0.479    0.251   85.489  205.684
  620.756    3.813    0.455    0.252   85.924  205.185
  621.006    3.848    0.435    0.232   86.481  204.066
  621.256    3.897    0.442    0.234   87.221  201.609
  621.506    3.947    0.449    0.222   87.168  200.698
  621.756    3.983    0.462    0.228   87.604  200.505
  622.006    3.975    0.481    0.228   84.813  200.727
  622.256    3.960    0.481    0.219   80.257  201.155
  622.506    3.930    0.502    0.211   77.527  201.585
  622.756    3.914    0.515    0.214   77.050  202.013
  623.006    3.878    0.492    0.209   77.667  202.855
  623.256    3.855    0.469    0.205   80.356  203.280
  623.506    3.848    0.468    0.198   80.487  204.123
  623.756    3.840    0.472    0.196   80.497  204.653
  624.006    3.825    0.455    0.186   80.750  205.806
  624.256    3.789    0.439    0.193   81.003  206.747
  624.506    3.746    0.420    0.196   81.255  207.690
  624.756    3.603    0.426    0.196   81.264  208.327
  625.006    3.352    0.440    0.209   80.786  208.443
  625.256    3.176    0.448    0.207   77.388  209.079
  625.506    3.112    0.453    0.210   76.057  209.403
  625.756    3.282    0.464    0.225   78.684  208.490
  626.006    3.566    0.471    0.238   78.937  206.033
  626.256    3.762    0.447    0.228   75.232  203.265
  626.506    3.998    0.433    0.231   74.146  197.612
  626.756    4.194    0.440    0.242   73.425  194.639
  627.006    4.400    0.455    0.246   71.912  194.346
  627.256    4.598    0.450    0.248   69.487  194.670
  627.506    4.788    0.437    0.253   66.940  196.133
  627.756    4.841    0.420    0.240   66.828  197.072
  628.006    4.769    0.404    0.229   69.028  199.770
  628.256    4.689    0.418    0.219   72.507  201.952
  628.506    4.585    0.431    0.226   73.795  202.996
  628.756    4.500    0.443    0.237   72.709  203.942
  629.006    4.433    0.427    0.230   76.310  204.679
  629.256    4.375    0.417    0.225   80.155  205.002
  629.506    4.367    0.416    0.225   79.616  205.430
  629.756    4.366    0.418    0.221   77.739  205.652
  630.006    4.325    0.424    0.248   76.471  205.771
  630.256    4.260    0.434    0.249   74.652  205.685
  630.506    4.151    0.449    0.254   71.922  205.082
  630.756    4.037    0.482    0.270   69.801  200.767
  631.006    3.954    0.474    0.306   67.923  196.557
  631.256    3.896    0.455    0.329   64.768  194.820
  631.506    3.881    0.427    0.337   62.099  193.702
  631.756    3.901    0.393    0.336   61.073  193.204
  632.006    3.930    0.379    0.329   58.890  193.323
  632.256    3.987    0.392    0.341   55.674  193.339
  632.506    4.137    0.417    0.325   56.535  193.354
  632.756    4.315    0.431    0.309   59.467  193.473
  633.006    4.569    0.425    0.290   61.119  194.004
  633.256    4.838    0.430    0.290   60.947  194.432
  633.506    5.094    0.415    0.300   60.712  194.347
