~VERSION INFORMATION
 VERS.                 2.0:   CWLS LOG ASCII STANDARD -VERSION 2.0
 WRAP.                  NO:   ONE LINE PER DEPTH STEP
~WELL INFORMATION BLOCK
#MNEM.UNIT           DATA                    DESCRIPTION OF MNEMONIC
#---------    -------------------            -------------------------------
# Generated from Intellog Unique Number	CN_91_93/WELL/2683
WELL.         10-26-091-18W4                 : Well_name    - WELL
LOC .         00/10-26-091-18W4/0            : Location     - LOCATION
UWI .         00/10-26-091-18W400            : Uwi          - UNIQUE WELL ID
ENTR.         JOETTE                         : Entered      - ENTERED BY
SRVC.         WESTERN ATLAS                  : Scn          - SERVICE COMPANY
DATE.         02/11/92                       : Date         - LOG DATE
STRT.M        100                            : top_depth    - START DEPTH
STOP.M        255                            : bot_depth    - STOP DEPTH
STEP.M        0.25                           : increment    - STEP LENGTH
 NULL. -999.2500:NULL Value
~CURVE INFORMATION BLOCK
#MNEM UNIT       ERCB CURVE CODE    CURVE DESCRIPTION
#-----------   ------------------   ----------------------------------
DEPT.M        00 001 00 00         : DEPTH        - DEPTH
GR  .API      00 310 00 00         : GR           - GAMMA RAY
CALI.MM       00 280 01 00         : CAL          - CALIPER
NPHI.V/V      00 330 00 00         : PHIN         - NEUTRON POROSITY (SANDSTONE)
DPHI.V/V      00 890 00 00         : PHID         - DENSITY POROSITY (SANDSTONE)
ILD .OHMM     00 120 00 00         : RESD         - DEEP RESISTIVITY (DIL)
~PARAMETER INFORMATION
#MNEM.UNIT           DATA             DESCRIPTION OF MNEMONIC
#---------         -----------     ------------------------------
GL  .M        611.06               : gl           - GROUND LEVEL ELEVATION
EREF.M        614.42               : kb           - ELEVATION OF DEPTH REFERENCE
DATM.M        614.42               : datum        - DATUM ELEVATION
TDD .M        267                  : tdd          - TOTAL DEPTH DRILLER
RUN .         ONE                  : Run          - RUN NUMBER
ENG .         BILL                 : Engineer     - RECORDING ENGINEER
WIT .         JIM                  : Witness      - WITNESSED BY
MUD .         GEL                  : Mud_type     - MUD TYPE
MATR.         SANDSTONE            : Logunit      - NEUTRON MATRIX
TMAX.C        20                   : BHT          - MAXIMUM RECORDED TEMPERATURE
BHTD.M        267                  : BHTDEP       - MAXIMUM RECORDED TEMPERATURE
RMT .C        13                   : MDTP         - TEMPERATURE OF MUD
MUDD.KG/M     1140                 : MWT          - MUD DENSITY
NEUT.         1                    : NEUTRON      - NEUTRON TYPE
RESI.         0                    : RESIST       - RESISTIVITY TYPE
RM  .OHMM     3.2                  : RM           - RESISTIVITY OF MUD
RMC .OHMM     3.8                  : RMC          - RESISTIVITY OF MUD CAKE
RMF .OHMM     2.8                  : RMF          - RESISTIVITY OF MUD FILTRATE
SUFT.C        4                    : SUFT         - SURFACE TEMPERATURE
~A  DEPTH       GR      CAL     PHIN     PHID     RESD
  100.000   49.581  186.721    0.474    0.311   30.730
  100.250   47.773  189.324    0.466    0.241   34.385
  100.500   45.667  192.430    0.467    0.231   36.051
  100.750   46.919  197.080    0.479    0.257   36.084
  101.000   47.261  198.669    0.491    0.303   34.164
  101.250   46.065  199.226    0.498    0.331   32.637
  101.500   54.668  200.299    0.489    0.334   32.637
  101.750   52.864  202.399    0.464    0.330   30.942
  102.000   50.755  204.485    0.465    0.327   30.390
  102.250   54.454  206.585    0.471    0.325   30.418
  102.500   53.572  206.121    0.473    0.324   30.442
  102.750   50.541  204.142    0.464    0.323   30.469
  103.000   53.942  203.175    0.461    0.324   28.845
  103.250   56.422  202.718    0.462    0.328   25.831
  103.500   56.458  202.772    0.450    0.331   23.345
  103.750   58.933  203.335    0.447    0.334   20.137
  104.000   71.517  202.878    0.461    0.332   18.713
  104.250   75.523  201.918    0.455    0.322   17.070
  104.500   75.253  200.945    0.458    0.204   14.867
  104.750   75.587  211.707    0.472    0.156   13.310
  105.000   71.335  204.118    0.457    0.181   11.065
  105.250   85.445  197.032    0.506    0.208    8.947
  105.500  100.163  194.026    0.543    0.299    8.238
  105.750   99.889  193.053    0.529    0.284    6.912
  106.000  113.693  193.053    0.529    0.280    6.305
  106.250  127.497  193.186    0.544    0.270    5.968
  106.500  131.511  193.729    0.550    0.265    5.546
  106.750  123.282  193.729    0.539    0.264    5.203
  107.000  113.213  193.842    0.554    0.263    5.018
  107.250  132.521  193.889    0.558    0.261    4.929
  107.500  142.041  194.459    0.529    0.254    4.934
  107.750  136.260  194.459    0.515    0.218    5.078
  108.000  131.393  195.612    0.554    0.116    5.324
  108.250  124.082  199.718    0.561    0.086    5.531
  108.500  119.830  203.857    0.557    0.089    5.591
  108.750  134.858  206.460    0.557    0.125    5.697
  109.000  141.009  208.030    0.562    0.185    5.864
  109.250  128.497  209.613    0.566    0.234    5.868
  109.500  128.533  209.666    0.569    0.243    5.765
  109.750  129.479  209.216    0.561    0.253    5.359
  110.000  125.231  207.753    0.561    0.256    5.215
  110.250  127.707  207.793    0.553    0.250    5.268
  110.500  124.075  206.833    0.557    0.250    5.472
  110.750  124.405  206.880    0.562    0.252    5.633
  111.000  131.780  206.430    0.561    0.258    5.744
  111.250  129.365  206.490    0.558    0.262    5.696
  111.500  132.766  206.490    0.558    0.264    5.649
  111.750  134.940  206.610    0.553    0.266    5.649
  112.000  136.199  206.636    0.553    0.265    5.557
  112.250  122.149  206.186    0.553    0.264    5.508
  112.500  120.958  205.736    0.545    0.259    5.565
  112.750  123.135  205.776    0.555    0.242    5.626
  113.000  121.026  206.849    0.543    0.237    5.733
  113.250  121.057  208.452    0.537    0.234    6.065
  113.500  118.340  210.029    0.527    0.230    6.539
  113.750  113.468  210.082    0.513    0.211    7.182
  114.000  116.262  209.116    0.499    0.221    7.887
  114.250  108.025  206.619    0.488    0.243    8.347
  114.500  112.039  206.163    0.513    0.257    8.347
  114.750  111.459  206.719    0.527    0.263    8.763
  115.000  107.513  207.792    0.526    0.262    9.014
  115.250   99.586  208.355    0.526    0.257    9.108
  115.500   98.704  208.925    0.527    0.257    8.866
  115.750  106.695  208.469    0.541    0.261    8.316
  116.000  110.705  206.986    0.551    0.262    7.584
  116.250  111.956  204.489    0.545    0.248    6.544
  116.500  107.705  202.006    0.549    0.208    5.147
  116.750  104.983  202.059    0.556    0.128    4.278
  117.000   98.590  203.642    0.564    0.142    4.088
  117.250  121.879  203.642    0.561    0.175    3.834
  117.500  121.299  205.815    0.561    0.200    3.629
  117.750  117.354  207.365    0.562    0.247    3.436
  118.000  118.005  209.968    0.559    0.273    3.376
  118.250  119.869  210.571    0.560    0.271    3.379
  118.500  121.121  211.618    0.560    0.268    3.413
  118.750  112.590  211.618    0.558    0.269    3.513
  119.000  109.562  212.757    0.560    0.257    3.615
  119.250  106.531  213.307    0.564    0.240    3.686
  119.500  110.846  212.851    0.564    0.249    3.655
  119.750  120.057  210.348    0.563    0.290    3.592
  120.000  117.947  208.368    0.568    0.296    3.497
  120.250  109.718  213.521    0.559    0.294    3.467
  120.500  113.732  212.051    0.561    0.297    3.440
  120.750  122.644  209.548    0.566    0.300    3.441
  121.000  126.034  207.051    0.558    0.289    3.441
  121.250  123.312  206.078    0.562    0.283    3.448
  121.500  126.408  205.621    0.565    0.279    3.483
  121.750  118.787  204.152    0.551    0.267    3.686
  122.000  117.599  203.225    0.528    0.265    4.010
  122.250  117.019  202.722    0.508    0.259    4.833
  122.500  117.353  199.212    0.496    0.252    6.045
  122.750  116.161  196.206    0.485    0.236    7.559
  123.000  107.932  192.683    0.500    0.206    8.458
  123.250   96.028  190.187    0.502    0.191   12.048
  123.500  100.959  191.260    0.443    0.233   12.513
  123.750   99.155  190.300    0.454    0.218   12.525
  124.000  101.329  188.313    0.468    0.123   12.192
  124.250   92.186  187.850    0.464    0.129   11.331
  124.500   85.483  189.446    0.460    0.142   10.528
  124.750   92.858  192.043    0.474    0.171    9.517
  125.000   99.009  192.043    0.486    0.249    9.092
  125.250  111.903  195.745    0.496    0.248    8.373
  125.500  110.096  199.355    0.498    0.247    8.148
  125.750  111.351  200.925    0.488    0.248    8.080
  126.000  112.603  203.024    0.492    0.253    8.393
  126.250  115.695  203.084    0.491    0.258    9.306
  126.500  102.265  203.131    0.489    0.265   10.125
  126.750   95.562  202.158    0.492    0.280   11.017
  127.000   93.452  199.668    0.490    0.285   11.767
  127.250   95.324  197.675    0.496    0.279   11.767
  127.500   96.281  198.245    0.491    0.273   12.239
  127.750   95.999  200.344    0.484    0.271   12.135
  128.000   95.725  201.934    0.488    0.271   12.032
  128.250   97.287  201.974    0.491    0.271   12.384
  128.500   93.648  199.478    0.483    0.256   14.922
  128.750   92.766  195.458    0.472    0.223   16.238
  129.000   91.570  194.492    0.475    0.169   16.556
  129.250   89.460  197.095    0.479    0.135   12.896
  129.500   83.985  199.188    0.436    0.129   10.330
  129.750   86.465  200.267    0.412    0.154    9.600
  130.000  115.872  200.831    0.401    0.227    9.174
  130.250  119.588  200.884    0.414    0.237    9.174
  130.500  122.063  201.434    0.452    0.224    8.939
  130.750  118.420  202.010    0.490    0.212    8.700
  131.000  121.214  202.580    0.491    0.209    8.469
  131.250  119.708  203.130    0.494    0.204    8.092
  131.500  114.236  203.197    0.506    0.196    7.589
  131.750  112.429  203.237    0.508    0.189    7.053
  132.000  124.699  204.316    0.503    0.207    6.677
  132.250  124.119  205.389    0.495    0.187    6.440
  132.500  114.360  205.436    0.498    0.151    6.328
  132.750   96.647  204.483    0.500    0.137    5.990
  133.000  108.611  203.006    0.493    0.173    6.457
  133.250  123.031  201.517    0.493    0.242    8.227
  133.500  125.511  199.537    0.503    0.234    8.317
  133.750  128.606  200.093    0.488    0.233    8.633
  134.000  121.899  201.696    0.503    0.220    9.661
  134.250  114.282  201.736    0.494    0.182   10.128
  134.500  102.684  197.710    0.476    0.168   10.820
  134.750  103.026  195.724    0.458    0.183   11.448
  135.000  114.684  197.320    0.452    0.234   11.460
  135.250  118.999  198.393    0.467    0.239   10.747
  135.500  106.491  198.440    0.488    0.239    9.624
  135.750  104.989  197.467    0.484    0.239    9.281
  136.000  108.999  196.500    0.491    0.239    9.290
  136.250  101.688  196.057    0.498    0.229   10.014
