~VERSION INFORMATION
 VERS.                 2.0:   CWLS LOG ASCII STANDARD -VERSION 2.0
 WRAP.                  NO:   ONE LINE PER DEPTH STEP
~WELL INFORMATION BLOCK
#MNEM.UNIT           DATA                    DESCRIPTION OF MNEMONIC
#---------    -------------------            -------------------------------
# Generated from Intellog Unique Number	CX_WELLS/WELL/2955
WELL.         ATCOR HANGINGSTONE             : Well_name    - WELL
LOC .         00/12-07-082-10W4/0            : Location     - LOCATION
UWI .         00/12-07-082-10W400            : Uwi          - UNIQUE WELL ID
ENTR.         T                              : Entered      - ENTERED BY
SRVC.         SCHLUMBERGER                   : Scn          - SERVICE COMPANY
STRT.M        260                            : top_depth    - START DEPTH
STOP.M        480                            : bot_depth    - STOP DEPTH
STEP.M        0.25                           : increment    - STEP LENGTH
 NULL. -999.2500:NULL Value
~CURVE INFORMATION BLOCK
#MNEM UNIT       ERCB CURVE CODE    CURVE DESCRIPTION
#-----------   ------------------   ----------------------------------
DEPT.M        00 001 00 00         : DEPTH        - DEPTH
GR  .API      00 310 00 00         : GR           - GAMMA RAY
NPHI.V/V      00 330 00 00         : PHIN         - NEUTRON POROSITY (SANDSTONE)
DPHI.V/V      00 890 00 00         : PHID         - DENSITY POROSITY (SANDSTONE)
ILD .OHMM     00 120 00 00         : RESD         - DEEP RESISTIVITY (OTHER)
~PARAMETER INFORMATION
#MNEM.UNIT           DATA             DESCRIPTION OF MNEMONIC
#---------         -----------     ------------------------------
GL  .M        702                  : gl           - GROUND LEVEL ELEVATION
EREF.M        706                  : kb           - ELEVATION OF DEPTH REFERENCE
DATM.M        706                  : datum        - DATUM ELEVATION
TDD .M        490                  : tdd          - TOTAL DEPTH DRILLER
RUN .         ONE                  : Run          - RUN NUMBER
ENG .         BILL                 : Engineer     - RECORDING ENGINEER
WIT .         JIM                  : Witness      - WITNESSED BY
MUD .         GEL                  : Mud_type     - MUD TYPE
MATR.         SANDSTONE            : Logunit      - NEUTRON MATRIX
TMAX.C        24                   : BHT          - MAXIMUM RECORDED TEMPERATURE
BHTD.M        490                  : BHTDEP       - MAXIMUM RECORDED TEMPERATURE
MATR.         1                    : LOGUNIT      - NEUTRON MATRIX
RMT .C        24                   : MDTP         - TEMPERATURE OF MUD
NEUT.         1                    : NEUTRON      - NEUTRON TYPE
RESI.         7                    : RESIST       - RESISTIVITY TYPE
RMC .OHMM     8.6                  : RMC          - RESISTIVITY OF MUD CAKE
RMF .OHMM     8.6                  : RMF          - RESISTIVITY OF MUD FILTRATE
SUFT.C        4                    : SUFT         - SURFACE TEMPERATURE
~A  DEPTH       GR     PHIN     PHID     RESD
# ...
  303.500   77.003    0.452    0.251   11.050
  303.750   77.641    0.445    0.247   10.667
  304.000   77.662    0.444    0.243    9.936
  304.250   80.580    0.443    0.250    9.253
  304.500   83.498    0.447    0.274    8.774
  304.750   84.711    0.452    0.281    9.110
  305.000   84.156    0.453    0.289    9.455
  305.250   82.472    0.433    0.295   10.945
  305.500   77.911    0.419    0.304   13.383
  305.750   70.473    0.429    0.310   15.213
  306.000   64.186    0.427    0.317   16.983
  306.250   57.324    0.410    0.324   18.965
  306.500   45.859    0.417    0.330   20.044
  306.750   44.174    0.426    0.337   21.600
  307.000   45.366    0.430    0.345   22.016
  307.250   48.295    0.436    0.351   22.441
  307.500   49.498    0.435    0.356   22.887
  307.750   48.378    0.431    0.354   25.091
  308.000   44.382    0.419    0.353   27.013
  308.250   44.423    0.418    0.355   27.543
  308.500   43.900    0.423    0.357   27.578
  308.750   43.356    0.428    0.361   27.604
  309.000   42.267    0.420    0.358   27.160
  309.250   41.723    0.391    0.352   27.186
  309.500   41.754    0.417    0.352   27.229
  309.750   41.816    0.421    0.355   27.263
  310.000   41.837    0.415    0.357   26.799
  310.250   42.465    0.404    0.361   26.842
  310.500   42.496    0.395    0.362   26.876
  310.750   43.709    0.393    0.354   26.418
  311.000   44.325    0.404    0.350   25.985
  311.250   43.802    0.395    0.349   26.009
  311.500   40.956    0.388    0.349   26.051
  311.750   39.837    0.378    0.354   26.084
  312.000   37.577    0.383    0.356   25.648
  312.250   39.345    0.383    0.358   25.680
  312.500   41.688    0.377    0.355   25.713
  312.750   42.890    0.369    0.354   25.754
  313.000   42.367    0.363    0.353   25.778
  313.250   41.822    0.371    0.353   26.292
  313.500   41.864    0.396    0.354   26.317
  313.750   41.895    0.398    0.357   26.350
  314.000   41.957    0.411    0.361   26.384
  314.250   41.988    0.440    0.364   26.426
  314.500   43.201    0.445    0.373   26.468
  314.750   43.808    0.436    0.370   26.978
  315.000   44.414    0.423    0.366   27.012
  315.250   44.477    0.405    0.365   27.038
  315.500   44.508    0.404    0.364   26.586
  315.750   44.539    0.398    0.365   25.680
  316.000   44.591    0.393    0.363   24.804
  316.250   44.632    0.391    0.347   23.951
  316.500   44.663    0.423    0.334   23.551
  316.750   44.705    0.442    0.340   23.573
  317.000   44.181    0.416    0.349   24.035
  317.250   44.213    0.395    0.356   24.506
  317.500   44.264    0.403    0.365   24.537
  317.750   44.306    0.407    0.367   25.026
  318.000   43.772    0.404    0.367   25.050
  318.250   43.814    0.404    0.368   25.090
  318.500   44.451    0.404    0.368   25.573
  318.750   45.047    0.405    0.368   25.606
  319.000   45.664    0.412    0.369   25.194
  319.250   46.877    0.418    0.371   25.210
  319.500   46.322    0.429    0.375   24.358
  319.750   45.789    0.430    0.381   23.951
  320.000   44.680    0.423    0.387   23.550
  320.250   43.591    0.408    0.395   23.580
  320.500   43.622    0.333    0.204   23.179
  320.750   43.664    0.313    0.229   23.230
  321.000   43.695    0.390    0.252   23.245
  321.250   44.898    0.424    0.294   23.267
  321.500   47.240    0.445    0.320   22.878
  321.750   49.008    0.450    0.337   22.907
  322.000   47.899    0.451    0.355   22.524
  322.250   46.789    0.451    0.356   22.155
  322.500   46.831    0.445    0.357   22.176
  322.750   46.893    0.438    0.357   21.805
  323.000   46.924    0.447    0.358   21.833
  323.250   46.956    0.442    0.361   21.475
  323.500   48.148    0.433    0.364   21.509
  323.750   48.200    0.442    0.368   21.536
  324.000   45.375    0.440    0.338   21.557
  324.250   43.670    0.389    0.257   21.979
  324.500   40.835    0.249    0.220   22.014
  324.750   38.575    0.239    0.262   22.445
  325.000   36.911    0.382    0.288   23.304
  325.250   38.093    0.400    0.310   23.333
  325.500   41.011    0.415    0.317   23.378
  325.750   43.940    0.424    0.326   23.385
  326.000   45.132    0.425    0.337   22.994
  326.250   44.598    0.419    0.350   22.617
  326.500   44.639    0.414    0.357   22.646
  326.750   44.691    0.416    0.357   22.675
  327.000   44.137    0.421    0.357   22.711
  327.250   44.178    0.429    0.360   22.747
  327.500   44.220    0.429    0.361   22.761
  327.750   44.272    0.418    0.367   22.790
  328.000   44.313    0.411    0.370   22.819
  328.250   43.214    0.413    0.371   22.855
  328.500   42.670    0.418    0.371   22.877
  328.750   41.571    0.430    0.371   22.906
  329.000   41.603    0.437    0.371   22.935
  329.250   41.644    0.438    0.372   22.566
  329.500   41.696    0.439    0.372   22.175
  329.750   41.737    0.441    0.371   21.811
  330.000   41.779    0.441    0.368   21.446
  330.250   41.810    0.439    0.366   21.480
  330.500   41.862    0.434    0.367   21.515
  330.750   42.489    0.425    0.368   21.535
  331.000   42.510    0.423    0.369   21.556
  331.250   42.562    0.427    0.369   21.583
  331.500   42.593    0.427    0.368   21.610
  331.750   42.080    0.427    0.366   21.645
  332.000   41.546    0.430    0.364   21.672
  332.250   41.012    0.433    0.359   21.707
  332.500   41.054    0.429    0.358   21.727
  332.750   41.085    0.423    0.358   21.748
  333.000   42.873    0.425    0.358   21.783
  333.250   43.469    0.432    0.359   21.817
  333.500   45.247    0.440    0.359   21.845
  333.750   45.854    0.442    0.355   21.880
  334.000   47.642    0.439    0.351   21.894
  334.250   48.824    0.433    0.349   21.929
  334.500   50.026    0.430    0.347   21.956
  334.750   50.057    0.428    0.346   21.977
  335.000   50.109    0.419    0.348   22.005
  335.250   50.151    0.422    0.349   21.644
  335.500   51.343    0.432    0.342   21.665
  335.750   53.110    0.439    0.336   21.700
  336.000   54.867    0.441    0.331   21.727
  336.250   54.334    0.441    0.331   21.748
  336.500   53.821    0.441    0.334   21.782
  336.750   53.276    0.436    0.335   21.425
  337.000   52.743    0.429    0.333   21.452
  337.250   54.510    0.424    0.326   20.342
  337.500   58.014    0.416    0.326   18.937
  337.750   59.196    0.412    0.325   16.111
  338.000   62.135    0.406    0.327   14.464
  338.250   63.892    0.403    0.330   12.527
  338.500   65.659    0.409    0.333   10.849
  338.750   68.002    0.418    0.335   10.100
  339.000   69.769    0.426    0.335   10.119
  339.250   70.386    0.439    0.327   10.894
  339.500   66.411    0.445    0.320   11.939
  339.750   64.706    0.442    0.317   14.078
  340.000   63.032    0.433    0.320   15.711
  340.250   63.084    0.425    0.322   17.860
  340.500   63.690    0.428    0.320   19.234
  340.750   64.882    0.432    0.317   18.573
  341.000   66.085    0.435    0.313   17.295
  341.250   66.126    0.436    0.308   15.258
  341.500   66.168    0.429    0.302   13.953
  341.750   66.209    0.424    0.306   13.971
  342.000   66.261    0.420    0.308   13.984
  342.250   66.282    0.423    0.311   14.011
  342.500   65.758    0.432    0.311   14.024
  342.750   64.660    0.447    0.310   14.042
  343.000   63.530    0.465    0.311   14.056
  343.250   61.845    0.454    0.312   14.073
  343.500   62.462    0.432    0.317   13.838
  343.750   64.815    0.426    0.324   13.607
  344.000   67.168    0.430    0.327   13.383
  344.250   68.936    0.433    0.329   13.164
  344.500   70.128    0.440    0.325   13.172
  344.750   72.481    0.437    0.316   13.197
  345.000   73.077    0.426    0.303   13.210
  345.250   74.845    0.420    0.303   12.993
  345.500   76.037    0.424    0.310   12.776
  345.750   79.562    0.428    0.303   12.119
  346.000   80.733    0.434    0.288   11.698
  346.250   82.501    0.436    0.275   11.292
  346.500   80.241    0.441    0.267   10.522
  346.750   77.416    0.444    0.268   10.154
