~VERSION INFORMATION
 VERS.                 2.0:   CWLS LOG ASCII STANDARD -VERSION 2.0
 WRAP.                  NO:   ONE LINE PER DEPTH STEP
~WELL INFORMATION BLOCK
#MNEM.UNIT           DATA                    DESCRIPTION OF MNEMONIC
#---------    -------------------            -------------------------------
# Generated from Intellog Unique Number	CS_69_70/WELL/2878
WELL.         AEC FISHER 10-27-69-03 W4M     : Well_name    - WELL
LOC .         00/10-27-069-03W4/0            : Location     - LOCATION
UWI .         00/10-27-069-03W4/0            : Uwi          - UNIQUE WELL ID
ENTR.         ANDERSEN                       : Entered      - ENTERED BY
SRVC.         SCHLUMBERGER                   : Scn          - SERVICE COMPANY
STRT.M        365                            : top_depth    - START DEPTH
STOP.M        605                            : bot_depth    - STOP DEPTH
STEP.M        0.25                           : increment    - STEP LENGTH
 NULL. -999.2500:NULL Value
~CURVE INFORMATION BLOCK
#MNEM UNIT       ERCB CURVE CODE    CURVE DESCRIPTION
#-----------   ------------------   ----------------------------------
DEPT.M        00 001 00 00         : DEPTH        - DEPTH
ILD .OHMM     00 120 00 00         : RESD         - DEEP RESISTIVITY (DIL)
GR  .API      00 310 00 00         : GR           - GAMMA RAY
CALI.MM       00 280 01 00         : CAL          - CALIPER
NPHI.V/V      00 330 00 00         : PHIN         - NEUTRON POROSITY (SANDSTONE)
DPHI.V/V      00 890 00 00         : PHID         - DENSITY POROSITY (SANDSTONE)
~PARAMETER INFORMATION
#MNEM.UNIT           DATA             DESCRIPTION OF MNEMONIC
#---------         -----------     ------------------------------
GL  .M        707                  : gl           - GROUND LEVEL ELEVATION
EREF.M        710.3                : kb           - ELEVATION OF DEPTH REFERENCE
DATM.M        710.3                : datum        - DATUM ELEVATION
TDD .M        612                  : tdd          - TOTAL DEPTH DRILLER
RUN .         ONE                  : Run          - RUN NUMBER
ENG .         BILL                 : Engineer     - RECORDING ENGINEER
WIT .         JIM                  : Witness      - WITNESSED BY
MUD .         GEL                  : Mud_type     - MUD TYPE
MATR.         SANDSTONE            : Logunit      - NEUTRON MATRIX
TMAX.C        25                   : BHT          - MAXIMUM RECORDED TEMPERATURE
BHTD.M        612                  : BHTDEP       - MAXIMUM RECORDED TEMPERATURE
MATR.         1                    : LOGUNIT      - NEUTRON MATRIX
RMT .C        22                   : MDTP         - TEMPERATURE OF MUD
NEUT.         1                    : NEUTRON      - NEUTRON TYPE
RESI.         0                    : RESIST       - RESISTIVITY TYPE
RMC .OHMM     2.54                 : RMC          - RESISTIVITY OF MUD CAKE
RMF .OHMM     4.82                 : RMF          - RESISTIVITY OF MUD FILTRATE
SUFT.C        15                   : SUFT         - SURFACE TEMPERATURE
~A  DEPTH     RESD       GR      CAL     PHIN     PHID
# ...
  584.000    4.057   42.355  168.062    0.350    0.340
  584.250    3.989   45.799  168.116    0.345    0.341
  584.500    3.925   48.103  168.159    0.351    0.324
  584.750    3.859   43.009  168.202    0.366    0.333
  585.000    3.794   35.061  168.246    0.380    0.347
  585.250    3.731   32.809  168.289    0.350    0.349
  585.500    3.670   32.834  168.332    0.356    0.355
  585.750    3.543   30.012  168.386    0.352    0.358
  586.000    3.548   27.760  168.419    0.353    0.367
  586.250    3.489   28.925  168.483    0.347    0.372
  586.500    3.432   30.090  168.505    0.349    0.354
  586.750    3.438   30.123  168.548    0.356    0.324
  587.000    3.445   26.724  168.591    0.361    0.320
  587.250    3.452   21.067  169.606    0.356    0.333
  587.500    3.455   19.385  169.638    0.352    0.345
  587.750    3.460   22.822  169.681    0.349    0.349
  588.000    3.403   26.265  170.674    0.350    0.339
  588.250    3.348   28.570  170.717    0.352    0.344
  588.500    3.353   30.874  170.771    0.357    0.351
  588.750    3.360   30.913  170.814    0.362    0.346
  589.000    3.363   29.799  170.868    0.365    0.347
  589.250    3.563   28.680  170.922    0.366    0.350
  589.500    3.771   31.560  170.944    0.368    0.353
  589.750    4.217   31.586  170.987    0.360    0.356
  590.000    4.717   32.751  171.041    0.338    0.327
  590.250    5.278   37.903  171.085    0.305    0.292
  590.500    5.385   67.548  171.128    0.235    0.214
  590.750    4.920   85.238  171.182    0.266    0.187
  591.000    4.101   71.024  171.225    0.281    0.210
  591.250    3.885   56.241  171.268    0.364    0.234
  591.500    3.822   44.305  171.301    0.383    0.271
  591.750    3.829   37.489  171.344    0.386    0.348
  592.000    3.979   39.800  171.387    0.393    0.380
  592.250    4.058   36.978  170.503    0.390    0.365
  592.500    4.140   33.587  170.535    0.360    0.327
  592.750    4.302   31.334  170.578    0.300    0.301
  593.000    4.556   40.474  168.723    0.294    0.270
  593.250    4.734   40.500  166.878    0.304    0.268
  593.500    4.742   34.836  166.922    0.311    0.281
  593.750    4.580   32.584  166.954    0.320    0.296
  594.000    4.502   29.198  167.957    0.329    0.306
  594.250    4.510   26.946  168.950    0.332    0.314
  594.500    4.517   24.687  169.004    0.332    0.326
  594.750    4.524   27.561  169.047    0.326    0.325
  595.000    4.793   34.422  168.141    0.307    0.307
  595.250    5.074   52.681  167.235    0.338    0.268
  595.500    5.470   54.416  166.329    0.365    0.275
  595.750    5.682   56.151  164.484    0.378    0.282
  596.000    6.362   62.443  163.567    0.364    0.282
  596.250    6.859   77.854  162.661    0.352    0.155
  596.500    7.395   87.563  162.705    0.335    0.157
  596.750    7.828   89.874  162.748    0.325    0.165
  597.000    8.440   87.621  163.740    0.328    0.173
  597.250    8.607   87.647  165.682    0.340    0.178
  597.500    8.789   87.104  166.696    0.351    0.169
  597.750    8.803   83.719  165.790    0.332    0.157
  598.000    8.818   83.744  164.884    0.321    0.165
  598.250    8.832   81.486  164.917    0.323    0.168
  598.500    8.847   77.524  164.021    0.321    0.179
  598.750    8.700   69.006  164.065    0.294    0.184
  599.000    8.555   69.602  164.108    0.302    0.182
  599.250    8.259   95.836  164.151    0.316    0.199
  599.500    7.971  103.836  164.194    0.315    0.223
  599.750    7.695  104.431  164.237    0.314    0.233
  600.000    7.567  104.464  164.292    0.319    0.221
  600.250    7.447  104.490  164.335    0.323    0.227
  600.500    7.460  104.516  164.378    0.325    0.234
  600.750    7.608  104.548  164.421    0.323    0.227
  601.000    7.906  104.574  164.486    0.325    0.212
  601.250    8.368  104.594  164.518    0.326    0.185
  601.500    8.538  104.639  164.562    0.326    0.193
  601.750    8.711  104.652  164.605    0.325    0.200
  602.000    9.400  104.678  164.648    0.325    0.192
  602.250   10.134  104.710  163.742    0.324    0.151
  602.500   11.332  104.736  163.775    0.324    0.152
  602.750   19.365  104.762  163.829    0.341    0.154
  603.000   24.651  104.788  163.883    0.368    0.081
  603.250   32.543  104.814  163.926    0.224    0.000
  603.500   41.409  104.840  163.969    0.197   -0.012
  603.750   74.782  104.866  164.962    0.173   -0.007
  604.000   88.401  104.892  165.005    0.109    0.011
  604.250   95.312  104.931  165.059    0.099    0.016
  604.500  104.759  104.944  165.091    0.104    0.000
  604.750  104.931  104.976  165.135    0.107    0.011
  605.000  103.144  105.021  165.189    0.112    0.007
