~VERSION INFORMATION
 VERS.                 2.0:   CWLS LOG ASCII STANDARD -VERSION 2.0
 WRAP.                  NO:   ONE LINE PER DEPTH STEP
~WELL INFORMATION BLOCK
#MNEM.UNIT           DATA                    DESCRIPTION OF MNEMONIC
#---------    -------------------            -------------------------------
# Generated from Intellog Unique Number	CW_70_72/WELL/3035
NULL.         -999.25                        : NULL_VALUE
WELL.         PALOMA MITSUE 11-33            : Well_name    - WELL              
LOC .         11-33-070-03W5                 : Location     - LOCATION          
UWI .         00/11-33-070-03W5/0            : Uwi          - UNIQUE WELL ID    
ENTR.         JAYE                           : Entered      - ENTERED BY        
SRVC.         SCHLUMBERGER                   : Scn          - SERVICE COMPANY   
DATE.         7 AUG 84                       : Date         - LOG DATE          
STRT.M        495                            : top_depth    - START DEPTH       
STOP.M        700                            : bot_depth    - STOP DEPTH        
STEP.M        0.25                           : increment    - STEP LENGTH       
~CURVE INFORMATION BLOCK
#MNEM UNIT       ERCB CURVE CODE    CURVE DESCRIPTION
#-----------   ------------------   ----------------------------------
DEPT.M        00 001 00 00         : DEPTH        - DEPTH                       
ILD .OHMM     00 120 00 00         : RESD         - DEEP RESISTIVITY (DIL)      
CALI.MM       00 280 01 00         : CAL          - CALIPER                     
GR  .API      00 310 00 00         : GR           - GAMMA RAY                   
NPHI.V/V      00 330 00 00         : PHIN         - NEUTRON POROSITY (SANDSTONE)
DPHI.V/V      00 890 00 00         : PHID         - DENSITY POROSITY (SANDSTONE)
~PARAMETER INFORMATION       
#MNEM.UNIT           DATA             DESCRIPTION OF MNEMONIC
#---------         -----------     ------------------------------
GL  .M        654.6                : gl           - GROUND LEVEL ELEVATION      
EREF.M        660.3                : kb           - ELEVATION OF DEPTH REFERENCE
DATM.M        654.6                : datum        - DATUM ELEVATION             
TDD .M        1723                 : tdd          - TOTAL DEPTH DRILLER         
RUN .         ONE                  : Run          - RUN NUMBER                  
ENG .         CSIKOS/CORNISH       : Engineer     - RECORDING ENGINEER          
WIT .         KELLY                : Witness      - WITNESSED BY                
BASE.         EDM                  : Branch       - HOME BASE OF LOGGING UNIT   
MUD .         GEL                  : Mud_type     - MUD TYPE                    
MATR.         SANDSTONE            : Logunit      - NEUTRON MATRIX              
TMAX.C        50                   : BHT          - MAXIMUM RECORDED TEMPERATURE
BHTD.M        1725.7               : BHTDEP       - MAXIMUM RECORDED TEMPERATURE
RMT .C        22.7                 : MDTP         - TEMPERATURE OF MUD          
MUDD.KG/M     1100                 : MWT          - MUD DENSITY                 
NEUT.         1                    : NEUTRON      - NEUTRON TYPE                
RESI.         0                    : RESIST       - RESISTIVITY TYPE            
RM  .OHMM     1.17                 : RM           - RESISTIVITY OF MUD          
RMC .OHMM     0.25                 : RMC          - RESISTIVITY OF MUD CAKE     
RMF .OHMM     0.89                 : RMF          - RESISTIVITY OF MUD FILTRATE 
SUFT.C        0                    : SUFT         - SURFACE TEMPERATURE         
~A  DEPTH     RESD      CAL       GR     PHIN     PHID
  495.000    1.973  209.101  103.348    0.500    0.286
  495.250    2.045  208.731  102.002    0.520    0.277
  495.500    2.035  206.683   97.601    0.517    0.259
  495.750    1.977  203.606   92.583    0.513    0.244
  496.000    1.931  207.473   94.843    0.514    0.286
  496.250    1.939  222.030  100.524    0.509    0.288
  496.500    1.980  222.990  104.029    0.507    0.283
  496.750    2.030  212.761  102.991    0.512    0.279
  497.000    2.089  209.691  102.637    0.544    0.268
  497.250    2.133  209.719  103.467    0.544    0.257
  497.500    2.146  206.329  103.738    0.517    0.275
  497.750    2.144  200.345  103.072    0.502    0.279
  498.000    2.129  205.774  101.226    0.482    0.266
  498.250    2.107  208.812   97.700    0.522    0.267
  498.500    2.077  216.832   99.775    0.537    0.303
  498.750    2.059  230.447  105.080    0.511    0.316
  499.000    2.064  213.370  105.104    0.495    0.290
  499.250    2.089  211.330  102.323    0.492    0.265
  499.500    2.153  215.929   98.109    0.505    0.258
  499.750    2.244  214.198   91.536    0.489    0.249
  500.000    2.326  212.679   95.042    0.475    0.252
  500.250    2.402  212.091   98.047    0.464    0.256
  500.500    2.509  212.645  101.926    0.447    0.254
  500.750    2.785  213.815  103.935    0.449    0.244
  501.000    3.186  218.411   85.789    0.469    0.229
  501.250    3.395  225.808   67.576    0.352    0.193
  501.500    3.280  214.016   62.494    0.328    0.163
  501.750    3.024  214.880   69.423    0.378    0.260
  502.000    2.643  234.412   79.645    0.459    0.311
  502.250    2.275  241.499   83.523    0.506    0.323
  502.500    2.010  234.168   83.480    0.553    0.334
  502.750    2.053  228.910   80.578    0.586    0.350
  503.000    2.168  224.174   78.857    0.501    0.358
  503.250    2.298  234.683   82.919    0.451    0.340
  503.500    2.409  254.002   83.127    0.437    0.326
  503.750    2.510  267.207   81.342    0.479    0.345
  504.000    2.651  240.902   75.450    0.510    0.370
  504.250    2.743  224.861   68.937    0.488    0.300
  504.500    2.880  203.432   62.051    0.404    0.267
  504.750    3.019  195.682   59.644    0.384    0.259
  505.000    3.135  191.152   62.776    0.376    0.258
  505.250    3.220  188.599   67.838    0.376    0.255
  505.500    3.288  189.363   73.704    0.388    0.221
  505.750    3.218  191.676   67.565    0.378    0.185
  506.000    3.029  195.332   61.736    0.366    0.106
  506.250    2.866  210.712   69.720    0.396    0.184
  506.500    2.810  226.197   82.371    0.460    0.302
  506.750    2.755  207.879   86.686    0.445    0.318
  507.000    2.622  212.893   86.520    0.452    0.313
  507.250    2.418  229.512   89.089    0.457    0.331
  507.500    2.242  239.191   93.028    0.428    0.279
  507.750    2.134  232.691   87.947    0.472    0.315
  508.000    2.115  250.456   85.856    0.595    0.369
  508.250    2.297  267.407   92.093    0.582    0.184
  508.500    2.686  261.931   94.727    0.410    0.049
  508.750    3.038  262.694   90.889    0.410    0.016
  509.000    3.336  254.221   98.189    0.403    0.183
  509.250    3.503  225.424   92.361    0.384    0.237
  509.500    3.340  204.101   86.409    0.373    0.244
  509.750    3.149  199.256   84.624    0.361    0.259
  510.000    3.025  197.008   89.436    0.413    0.278
  510.250    2.960  215.500   94.558    0.436    0.311
  510.500    2.849  227.048   93.147    0.409    0.268
  510.750    2.731  225.216   92.605    0.415    0.240
  511.000    2.748  245.781   94.745    0.454    0.264
  511.250    2.750  264.581   97.938    0.510    0.312
  511.500    2.676  234.747  101.938    0.516    0.278
  511.750    2.510  217.469   96.917    0.477    0.203
  512.000    2.297  208.688   64.211    0.425    0.217
  512.250    2.067  202.080   53.589    0.388    0.265
  512.500    1.851  196.826   46.268    0.345    0.292
  512.750    1.729  195.099   38.697    0.333    0.297
  513.000    1.746  193.995   44.505    0.321    0.293
  513.250    1.813  193.196   59.892    0.316    0.271
  513.500    2.014  193.121   72.980    0.337    0.248
  513.750    2.126  192.954   69.703    0.362    0.236
  514.000    2.317  193.501   68.539    0.380    0.251
  514.250    2.379  194.572   73.226    0.360    0.255
  514.500    2.260  201.561   84.258    0.333    0.244
  514.750    2.131  209.053   92.120    0.441    0.301
  515.000    1.954  220.802   85.791    0.494    0.342
  515.250    1.740  226.131   60.987    0.482    0.390
  515.500    1.601  219.936   45.018    0.404    0.330
  515.750    1.474  208.875   36.078    0.365    0.311
  516.000    1.497  197.708   30.311    0.349    0.317
  516.250    1.610  195.572   33.691    0.344    0.321
  516.500    1.775  195.084   45.407    0.342    0.312
  516.750    2.004  195.329   66.582    0.350    0.276
  517.000    2.143  195.881   78.922    0.371    0.248
  517.250    2.306  196.319   86.160    0.357    0.226
  517.500    2.494  196.457   82.075    0.383    0.223
  517.750    2.450  196.402   75.996    0.400    0.236
  518.000    2.340  196.946   69.421    0.401    0.266
  518.250    2.099  197.502   69.381    0.374    0.277
  518.500    1.889  197.635   75.995    0.348    0.262
  518.750    1.710  198.494   75.206    0.365    0.241
  519.000    1.533  199.459   68.194    0.380    0.264
  519.250    1.404  200.424   49.923    0.344    0.289
  519.500    1.353  201.082   40.113    0.343    0.296
  519.750    1.357  201.220   33.598    0.333    0.293
  520.000    1.422  200.528   29.386    0.324    0.288
  520.250    1.553  198.900   30.215    0.322    0.282
  520.500    1.721  198.932   39.009    0.317    0.275
  520.750    1.957  198.758   50.603    0.307    0.258
  521.000    2.314  199.727   59.645    0.305    0.240
  521.250    2.657  200.697   69.868    0.325    0.228
  521.500    2.977  202.182   78.723    0.352    0.206
  521.750    3.245  203.358   93.990    0.369    0.190
  522.000    3.407  204.844   99.918    0.389    0.170
  522.250    3.565  205.807   95.835    0.380    0.152
  522.500    3.688  207.500   94.172    0.368    0.158
  522.750    3.760  214.063   94.818    0.366    0.187
  523.000    3.572  243.445   98.009    0.377    0.214
  523.250    2.963  250.219  104.437    0.408    0.229
  523.500    2.329  231.483  107.070    0.377    0.192
  523.750    2.050  232.241  106.656    0.353    0.230
  524.000    1.962  254.364   99.270    0.372    0.332
  524.250    2.064  280.424   88.775    0.483    0.448
  524.500    2.241  302.238   91.907    0.540    0.525
  524.750    2.438  280.706   95.162    0.555    0.498
  525.000    2.633  271.092   97.921    0.550    0.364
  525.250    2.729  250.903   86.802    0.480    0.269
  525.500    2.597  221.590   71.827    0.422    0.222
  525.750    2.481  203.788   66.372    0.412    0.241
  526.000    2.414  199.772   59.675    0.406    0.266
  526.250    2.367  198.774   62.495    0.399    0.246
  526.500    2.333  198.601   64.256    0.377    0.216
  526.750    2.292  199.045   60.543    0.344    0.196
  527.000    2.285  199.295   55.211    0.370    0.214
  527.250    2.299  199.633   52.247    0.398    0.261
  527.500    2.352  200.702   53.633    0.390    0.292
  527.750    2.447  201.472   58.633    0.374    0.287
  528.000    2.667  202.738   65.623    0.357    0.273
  528.250    2.817  205.777   71.056    0.360    0.266
  528.500    2.777  210.170   77.419    0.387    0.280
  528.750    2.604  212.586   75.885    0.387    0.257
  529.000    2.469  215.321   69.683    0.376    0.214
  529.250    2.411  226.343   73.811    0.382    0.216
  529.500    2.449  222.746   77.749    0.388    0.227
  529.750    2.558  228.898   78.080    0.383    0.239
  530.000    2.701  241.581   78.101    0.415    0.295
  530.250    2.868  237.987   83.286    0.457    0.321
  530.500    3.000  231.283   86.914    0.487    0.306
  530.750    3.013  216.795   81.708    0.475    0.262
  531.000    3.021  201.793   77.745    0.411    0.254
  531.250    3.045  198.404   76.894    0.383    0.248
