~VERSION INFORMATION
 VERS.                 2.0:   CWLS LOG ASCII STANDARD -VERSION 2.0
 WRAP.                  NO:   ONE LINE PER DEPTH STEP
~WELL INFORMATION BLOCK
#MNEM.UNIT           DATA                    DESCRIPTION OF MNEMONIC
#---------    -------------------            -------------------------------
# Generated from Intellog Unique Number	CW_70_72/WELL/3020
NULL.         -999.25                        : NULL_VALUE
WELL.         SUNDANCE ET AL CALLS 10-08     : Well_name    - WELL              
LOC .         10-08-070-23W4                 : Location     - LOCATION          
UWI .         00/10-08-070-23W4/0            : Uwi          - UNIQUE WELL ID    
ENTR.         jj                             : Entered      - ENTERED BY        
SRVC.         SCHLUMBERGER                   : Scn          - SERVICE COMPANY   
DATE.         17 MAR 76                      : Date         - LOG DATE
STRT.M        396.24                         : top_depth    - START DEPTH       
STOP.M        575.99                         : bot_depth    - STOP DEPTH        
STEP.M        0.25                           : increment    - STEP LENGTH       
~CURVE INFORMATION BLOCK
#MNEM UNIT       ERCB CURVE CODE    CURVE DESCRIPTION
#-----------   ------------------   ----------------------------------
DEPT.M        00 001 00 00         : DEPTH        - DEPTH                       
ILD .OHMM     00 120 00 00         : RESD         - DEEP RESISTIVITY (DIL)      
CALI.MM       00 280 01 00         : CAL          - CALIPER                     
GR  .API      00 310 00 00         : GR           - GAMMA RAY                   
NPHI.V/V      00 330 00 00         : PHIN         - NEUTRON POROSITY (SANDSTONE)
DPHI.V/V      00 890 00 00         : PHID         - DENSITY POROSITY (SANDSTONE)
~PARAMETER INFORMATION       
#MNEM.UNIT           DATA             DESCRIPTION OF MNEMONIC
#---------         -----------     ------------------------------
GL  .M        615.391              : gl           - GROUND LEVEL ELEVATION      
EREF.M        618.744              : kb           - ELEVATION OF DEPTH REFERENCE
DATM.M        615.391              : datum        - DATUM ELEVATION             
TDD .M        586.74               : tdd          - TOTAL DEPTH DRILLER         
RUN .         ONE                  : Run          - RUN NUMBER                  
BASE.         EDM                  : Branch       - HOME BASE OF LOGGING UNIT   
MUD .         GEL CHEM             : Mud_type     - MUD TYPE                    
MATR.         SANDSTONE            : Logunit      - NEUTRON MATRIX              
TMAX.C        26.1111              : BHT          - MAXIMUM RECORDED TEMPERATURE
BHTD.M        586.74               : BHTDEP       - MAXIMUM RECORDED TEMPERATURE
RMT .C        -17.7778             : MDTP         - TEMPERATURE OF MUD          
MUDD.KG/M     1068                 : MWT          - MUD DENSITY                 
NEUT.         1                    : NEUTRON      - NEUTRON TYPE                
RESI.         0                    : RESIST       - RESISTIVITY TYPE            
RM  .OHMM     2.65                 : RM           - RESISTIVITY OF MUD          
RMC .OHMM     0.25                 : RMC          - RESISTIVITY OF MUD CAKE     
RMF .OHMM     2.72                 : RMF          - RESISTIVITY OF MUD FILTRATE 
SUFT.C        -17.7778             : SUFT         - SURFACE TEMPERATURE         
~A  DEPTH     RESD      CAL       GR     PHIN     PHID
# ...
  469.240    2.000  141.003   63.768    0.406    0.327
  469.490    2.082  143.043   65.423    0.404    0.314
  469.740    2.227  144.309   69.403    0.401    0.308
  469.990    2.355  140.774   69.444    0.409    0.294
  470.240    2.562  138.005   66.698    0.424    0.300
  470.490    2.651  140.025   67.460    0.436    0.307
  470.740    2.709  143.484   70.214    0.476    0.306
  470.990    2.684  145.516   72.122    0.467    0.314
  471.240    2.568  143.087   72.297    0.443    0.308
  471.490    2.395  140.517   69.686    0.420    0.322
  471.740    2.292  139.719   67.076    0.440    0.309
  471.990    2.229  139.451   66.654    0.455    0.291
  472.240    2.200  140.051   68.771    0.460    0.298
  472.490    2.180  141.222   70.878    0.459    0.322
  472.740    2.253  142.500   72.728    0.454    0.320
  472.990    2.272  143.657   73.407    0.449    0.308
  473.240    2.294  144.152   73.382    0.442    0.296
  473.490    2.313  144.434   73.106    0.434    0.304
  473.740    2.351  143.530   72.559    0.428    0.313
  473.990    2.385  142.822   71.568    0.426    0.323
  474.240    2.446  140.707   71.084    0.427    0.304
  474.490    2.555  139.450   71.126    0.433    0.319
  474.740    2.723  139.198   69.877    0.435    0.326
  474.990    2.891  139.813   68.235    0.437    0.316
  475.240    3.122  140.308   67.623    0.438    0.317
  475.490    3.375  141.574   68.435    0.435    0.315
  475.740    3.863  143.079   71.191    0.431    0.292
  475.990    4.520  143.680   74.596    0.417    0.313
  476.240    5.288  144.193   72.440    0.390    0.321
  476.490    5.973  144.706   70.597    0.373    0.290
  476.740    6.531  145.199   70.129    0.366    0.270
  476.990    5.757  145.279   70.742    0.375    0.299
  477.240    4.909  145.110   71.755    0.408    0.311
  477.490    4.157  144.863   74.382    0.435    0.302
  477.740    3.519  144.484   76.164    0.430    0.289
  477.990    3.046  144.225   77.638    0.420    0.270
  478.240    2.729  144.186   78.313    0.427    0.238
  478.490    2.540  144.026   78.874    0.460    0.267
  478.740    2.417  144.436   78.459    0.447    0.295
  478.990    2.317  145.153   76.697    0.431    0.319
  479.240    2.295  144.992   77.377    0.428    0.314
  479.490    2.303  144.631   78.713    0.423    0.319
  479.740    2.328  144.376   76.296    0.431    0.313
  479.990    2.375  144.436   73.742    0.447    0.292
  480.240    2.383  143.852   74.111    0.450    0.282
  480.490    2.382  143.354   75.629    0.419    0.275
  480.740    2.356  142.986   78.969    0.418    0.288
  480.990    2.325  142.510   81.919    0.432    0.299
  481.240    2.312  141.478   84.354    0.444    0.298
  481.490    2.299  139.911   83.748    0.449    0.294
  481.740    2.281  139.324   80.746    0.451    0.286
  481.990    2.264  139.495   79.686    0.445    0.278
  482.240    2.243  139.127   80.438    0.426    0.302
  482.490    2.234  139.532   83.647    0.427    0.323
  482.740    2.229  140.342   88.221    0.437    0.304
  482.990    2.250  141.852   93.299    0.452    0.277
  483.240    2.286  142.780  102.976    0.468    0.255
  483.490    2.397  144.058  113.102    0.487    0.238
  483.740    2.517  145.780  115.995    0.507    0.224
  483.990    2.728  147.045  109.177    0.506    0.221
  484.240    2.987  147.993  105.329    0.467    0.210
  484.490    3.456  148.388  105.500    0.453    0.211
  484.740    3.891  148.437  108.063    0.449    0.201
  484.990    4.185  148.298  108.229    0.443    0.217
  485.240    4.332  147.920  110.079    0.430    0.225
  485.490    4.363  147.764  114.712    0.439    0.220
  485.740    4.237  147.525  112.686    0.453    0.212
  485.990    4.090  147.146  107.871    0.472    0.199
  486.240    3.929  146.896  110.053    0.490    0.206
  486.490    3.871  146.724  111.064    0.484    0.228
  486.740    3.891  146.576  109.286    0.465    0.236
  486.990    3.904  146.414  104.541    0.454    0.206
  487.240    3.932  146.587  103.418    0.449    0.198
  487.490    3.939  146.438  102.683    0.451    0.199
  487.740    3.946  145.763  101.679    0.451    0.200
  487.990    3.943  145.707  101.402    0.443    0.208
  488.240    3.950  145.596  105.190    0.427    0.206
  488.490    3.955  145.512  108.657    0.440    0.201
  488.740    3.991  145.599  112.578    0.460    0.194
  488.990    4.048  145.211  112.428    0.468    0.200
  489.240    4.093  145.262  110.648    0.478    0.214
  489.490    4.083  145.015  112.378    0.449    0.207
  489.740    4.024  144.651  117.010    0.433    0.188
  489.990    3.935  143.120  116.524    0.433    0.177
  490.240    3.821  142.704  113.786    0.446    0.186
  490.490    3.702  141.773  111.625    0.455    0.208
  490.740    3.505  141.773  109.594    0.457    0.230
  490.990    3.305  139.876  106.537    0.461    0.228
  491.240    3.121  139.894  104.239    0.470    0.221
  491.490    3.059  139.191   99.881    0.490    0.247
  491.740    3.069  139.191   92.484    0.457    0.271
  491.990    3.155  137.506   87.027    0.429    0.301
  492.240    3.199  137.208   84.736    0.424    0.281
  492.490    3.299  136.830   94.026    0.431    0.265
  492.740    3.408  136.474   99.369    0.452    0.275
  492.990    3.529  136.983  102.316    0.452    0.266
  493.240    3.632  138.142  101.515    0.427    0.249
  493.490    3.752  139.952  102.467    0.423    0.220
  493.740    4.073  142.567  105.806    0.425    0.199
  493.990    4.445  143.474  108.495    0.429    0.182
  494.240    5.079  144.423  107.172    0.431    0.165
  494.490    5.844  144.423  100.299    0.425    0.179
  494.740    7.040  142.710   90.693    0.351    0.157
  494.990    8.012  141.448   75.470    0.297    0.130
  495.240    9.424  139.251   69.558    0.309    0.152
  495.490   11.170  138.734   68.829    0.338    0.187
  495.740   12.734  138.362   66.278    0.370    0.203
  495.990   14.815  138.430   61.600    0.197    0.134
  496.240   17.748  139.365   58.919    0.169   -0.005
  496.490   20.391  140.984   56.044    0.147   -0.013
  496.740   20.568  142.235   52.012    0.132   -0.017
  496.990   17.903  144.642   50.305    0.125   -0.019
  497.240   15.982  145.132   53.838    0.130   -0.003
  497.490   14.111  145.510   59.576    0.156    0.011
  497.740   12.709  145.510   64.263    0.211    0.023
  497.990   10.898  145.349   70.706    0.253    0.142
  498.240    9.396  145.172   78.312    0.264    0.153
  498.490    8.205  145.027   86.954    0.244    0.110
  498.740    6.833  144.683   97.862    0.254    0.097
  498.990    5.924  144.714  106.566    0.277    0.132
  499.240    5.154  144.004  105.837    0.332    0.166
  499.490    4.610  143.855  100.112    0.408    0.156
  499.740    4.214  143.816  102.552    0.424    0.128
  499.990    3.988  143.879  107.442    0.409    0.148
  500.240    3.866  143.397  112.585    0.393    0.211
  500.490    3.823  142.830  114.695    0.397    0.165
  500.740    3.879  142.336  107.430    0.414    0.141
  500.990    3.934  141.419  100.941    0.427    0.155
  501.240    4.012  140.065   97.482    0.425    0.172
  501.490    4.079  139.457   95.062    0.407    0.198
  501.740    4.085  137.352   94.907    0.418    0.223
  501.990    4.099  135.662   93.330    0.414    0.228
  502.240    4.174  136.278   90.978    0.391    0.170
  502.490    4.180  137.873   92.829    0.373    0.154
  502.740    4.081  141.664  100.049    0.376    0.175
  502.990    3.918  142.381  109.337    0.402    0.187
  503.240    3.689  140.163  113.319    0.434    0.204
  503.490    3.608  138.692  107.485    0.429    0.245
  503.740    3.560  137.667  104.926    0.421    0.237
  503.990    3.541  137.513  104.845    0.419    0.239
  504.240    3.579  138.351  106.239    0.427    0.241
  504.490    3.623  139.390  108.088    0.426    0.252
  504.740    3.649  141.670  109.810    0.416    0.265
  504.990    3.569  143.373  112.758    0.417    0.235
  505.240    3.503  145.404  117.716    0.444    0.216
  505.490    3.434  147.541  125.964    0.480    0.208
