~VERSION INFORMATION
 VERS.                 2.0:   CWLS LOG ASCII STANDARD -VERSION 2.0
 WRAP.                  NO:   ONE LINE PER DEPTH STEP
~WELL INFORMATION BLOCK
#MNEM.UNIT           DATA                    DESCRIPTION OF MNEMONIC
#---------    -------------------            -------------------------------
# Generated from Intellog Unique Number	CS_71_72/WELL/873
WELL.         BVX ET AL BRETT                : Well_name    - WELL
LOC .         00/10-30-071-12W4/0            : Location     - LOCATION
UWI .         00/10-30-071-12W4/0            : Uwi          - UNIQUE WELL ID
ENTR.         SP                             : Entered      - ENTERED BY
SRVC.         SCHLUMBERGER                   : Scn          - SERVICE COMPANY
STRT.M        310                            : top_depth    - START DEPTH
STOP.M        540                            : bot_depth    - STOP DEPTH
STEP.M        0.25                           : increment    - STEP LENGTH
 NULL. -999.2500:NULL Value
~CURVE INFORMATION BLOCK
#MNEM UNIT       ERCB CURVE CODE    CURVE DESCRIPTION
#-----------   ------------------   ----------------------------------
DEPT.M        00 001 00 00         : DEPTH        - DEPTH
GR  .API      00 310 00 00         : GR           - GAMMA RAY
NPHI.V/V      00 330 00 00         : PHIN         - NEUTRON POROSITY (LIMESTONE)
DPHI.V/V      00 890 00 00         : PHID         - DENSITY POROSITY (LIMESTONE)
ILD .OHMM     00 120 00 00         : RESD         - DEEP RESISTIVITY (DIL)
~PARAMETER INFORMATION
#MNEM.UNIT           DATA             DESCRIPTION OF MNEMONIC
#---------         -----------     ------------------------------
GL  .M        643.76               : gl           - GROUND LEVEL ELEVATION
EREF.M        646.5                : kb           - ELEVATION OF DEPTH REFERENCE
DATM.M        643.76               : datum        - DATUM ELEVATION
TDD .M        542                  : tdd          - TOTAL DEPTH DRILLER
RUN .         ONE                  : Run          - RUN NUMBER
ENG .         BILL                 : Engineer     - RECORDING ENGINEER
WIT .         JIM                  : Witness      - WITNESSED BY
MUD .         GEL                  : Mud_type     - MUD TYPE
MATR.         LIMESTONE            : Logunit      - NEUTRON MATRIX
TMAX.C        20                   : BHT          - MAXIMUM RECORDED TEMPERATURE
BHTD.M        542                  : BHTDEP       - MAXIMUM RECORDED TEMPERATURE
MATR.         1                    : LOGUNIT      - NEUTRON MATRIX
RMT .C        25                   : MDTP         - TEMPERATURE OF MUD
NEUT.         1                    : NEUTRON      - NEUTRON TYPE
RESI.         0                    : RESIST       - RESISTIVITY TYPE
RMC .OHMM     0.25                 : RMC          - RESISTIVITY OF MUD CAKE
RMF .OHMM     0.25                 : RMF          - RESISTIVITY OF MUD FILTRATE
SUFT.C        15                   : SUFT         - SURFACE TEMPERATURE
~A  DEPTH       GR     PHIN     PHID     RESD
# ...
  484.000   65.443    0.285    0.125    5.416
  484.250   66.157    0.269    0.155    5.559
  484.500   65.051    0.322    0.190    5.569
  484.750   70.573    0.341    0.209    5.590
  485.000   76.459    0.332    0.213    5.663
  485.250   73.833    0.329    0.223    6.044
  485.500   62.864    0.334    0.236    6.560
  485.750   57.132    0.333    0.242    7.200
  486.000   52.492    0.328    0.233    7.685
  486.250   49.986    0.327    0.225    8.326
  486.500   52.708    0.329    0.218    8.450
  486.750   55.737    0.321    0.214    8.466
  487.000   60.044    0.313    0.197    8.262
  487.250   64.351    0.301    0.098    8.185
  487.500   62.694    0.278    0.011    8.433
  487.750   62.742    0.244    0.042    8.736
  488.000   58.408    0.216    0.076    8.983
  488.250   53.768    0.282    0.145    9.117
  488.500   53.269    0.313    0.182    9.100
  488.750   56.358    0.309    0.211    8.948
  489.000   59.934    0.310    0.216    8.717
  489.250   63.450    0.303    0.213    8.492
  489.500   68.000    0.297    0.210    8.166
  489.750   74.436    0.316    0.212    8.000
  490.000   78.865    0.330    0.213    7.837
  490.250   72.644    0.318    0.199    7.578
  490.500   74.638    0.312    0.186    7.112
  490.750   83.873    0.308    0.183    6.419
  491.000   90.005    0.306    0.180    6.025
  491.250   94.434    0.307    0.178    5.718
  491.500  104.155    0.326    0.176    5.560
  491.750   99.700    0.347    0.186    5.529
  492.000   96.522    0.339    0.197    5.549
  492.250   89.023    0.328    0.205    5.642
  492.500   82.437    0.320    0.211    5.791
  492.750   90.882    0.317    0.205    5.944
  493.000   98.231    0.322    0.198    6.192
  493.250  103.147    0.317    0.198    6.391
  493.500  100.517    0.320    0.199    6.535
  493.750   86.690    0.328    0.209    6.720
  494.000   76.696    0.325    0.225    6.949
  494.250   65.060    0.318    0.232    7.146
  494.500   61.638    0.311    0.230    7.500
  494.750   60.592    0.308    0.223    7.541
  495.000   64.166    0.321    0.234    7.683
  495.250   69.323    0.325    0.241    7.783
  495.500   73.633    0.319    0.222    7.841
  495.750   79.886    0.315    0.195    7.768
  496.000   80.116    0.332    0.182    7.624
  496.250   74.927    0.332    0.202    7.609
  496.500   71.569    0.317    0.211    7.637
  496.750   72.345    0.306    0.200    7.780
  497.000   78.171    0.295    0.180    7.912
  497.250   80.349    0.286    0.173    8.090
  497.500   78.816    0.307    0.183    8.226
  497.750   72.471    0.307    0.193    8.256
  498.000   69.966    0.303    0.189    8.302
  498.250   68.309    0.317    0.194    8.426
  498.500   67.564    0.312    0.204    7.634
  498.750   67.065    0.289    0.203    7.662
  499.000   65.287    0.280    0.211    7.776
  499.250   63.204    0.331    0.230    8.238
  499.500   70.918    0.355    0.245    8.842
  499.750   63.967    0.361    0.257    9.723
  500.000   60.728    0.361    0.269   10.436
  500.250   65.400    0.342    0.276   11.201
  500.500   54.677    0.322    0.281   11.713
  500.750   49.490    0.308    0.285   11.625
  501.000   49.476    0.296    0.274   10.870
  501.250   56.217    0.287    0.257    9.921
  501.500   61.863    0.282    0.208    8.357
  501.750   70.976    0.277    0.168    7.226
  502.000   80.455    0.277    0.130    6.237
  502.250  100.826    0.327    0.059    5.661
  502.500  108.540    0.353    0.031    5.005
  502.750  105.117    0.347    0.036    4.671
  503.000  102.001    0.336    0.065    4.287
  503.250   94.564    0.338    0.114    4.115
  503.500  108.422    0.388    0.152    3.994
  503.750  112.426    0.400    0.188    4.046
  504.000  114.968    0.388    0.248    4.114
  504.250  108.200    0.360    0.277    4.262
  504.500   79.100    0.347    0.303    4.549
  504.750   51.887    0.348    0.300    4.938
  505.000   53.029    0.355    0.291    5.491
  505.250   51.069    0.359    0.282    6.244
  505.500   57.321    0.346    0.279    6.995
  505.750   59.317    0.331    0.276    7.692
  506.000   54.922    0.319    0.275    8.348
  506.250   52.900    0.319    0.266    8.779
  506.500   59.030    0.324    0.251    8.943
  506.750   63.459    0.314    0.242    8.943
  507.000   64.359    0.308    0.233    8.519
  507.250   60.208    0.302    0.229    7.922
  507.500   70.781    0.301    0.222    7.380
  507.750   75.392    0.319    0.211    6.926
  508.000   78.299    0.307    0.180    6.586
  508.250   81.875    0.308    0.164    6.286
  508.500   80.218    0.307    0.176    6.044
  508.750   78.136    0.285    0.173    5.866
  509.000   86.518    0.273    0.159    5.630
  509.250   89.669    0.283    0.168    5.454
  509.500   80.772    0.308    0.181    5.383
  509.750   91.529    0.305    0.167    5.323
  510.000   90.115    0.308    0.151    5.423
  510.250  103.975    0.325    0.169    5.525
  510.500  107.673    0.342    0.176    5.766
  510.750  105.651    0.320    0.198    6.294
  511.000   88.173    0.320    0.228    7.224
  511.250   70.210    0.322    0.069    8.369
  511.500   55.471    0.274    0.060    9.535
  511.750   47.117    0.271    0.065   10.742
  512.000   45.218    0.310    0.199   12.147
  512.250   46.302    0.321    0.228   14.020
  512.500   65.273    0.341    0.240   15.188
  512.750   66.658    0.367    0.253   15.676
  513.000   46.565    0.351    0.275   15.443
  513.250   37.484    0.317    0.284   14.685
  513.500   45.990    0.285    0.174   12.936
  513.750   81.025    0.264    0.125   11.041
  514.000   85.696    0.284    0.122    9.441
  514.250   86.838    0.298    0.131    8.224
  514.500   87.007    0.309    0.132    7.098
  514.750   85.473    0.320    0.142    6.347
  515.000   78.338    0.320    0.158    5.869
  515.250   74.187    0.314    0.156    5.825
  515.500   73.688    0.322    0.181    5.934
  515.750   69.353    0.327    0.193    6.056
  516.000   64.227    0.321    0.209    6.135
  516.250   67.378    0.317    0.166    6.262
  516.500   60.672    0.300    0.122    6.285
  516.750   56.459    0.281    0.153    6.261
  517.000   53.278    0.264    0.188    6.157
  517.250   52.355    0.280    0.220    5.976
  517.500   53.619    0.309    0.194    5.693
  517.750   61.149    0.316    0.180    5.333
  518.000   68.743    0.308    0.193    5.099
  518.250   63.860    0.298    0.197    4.867
  518.500   57.458    0.301    0.202    4.611
  518.750   60.060    0.318    0.223    4.352
  519.000   53.653    0.309    0.236    4.239
  519.250   50.783    0.300    0.234    3.949
  519.500   52.900    0.308    0.238    3.783
  519.750   52.156    0.328    0.261    3.453
  520.000   41.067    0.329    0.267    3.253
  520.250   37.464    0.315    0.212    3.128
  520.500   59.538    0.333    0.210    3.076
  520.750   72.789    0.344    0.230    3.058
  521.000   69.915    0.330    0.243    3.047
  521.250   62.843    0.317    0.254    3.064
  521.500   52.727    0.310    0.249    3.081
  521.750   59.529    0.301    0.237    3.075
  522.000   57.691    0.310    0.223    3.046
  522.250   50.739    0.314    0.219    3.001
  522.500   51.761    0.313    0.224    2.978
  522.750   55.398    0.314    0.224    2.945
  523.000   55.202    0.322    0.225    2.939
  523.250   48.068    0.332    0.236    2.956
  523.500   46.594    0.317    0.234    2.983
  523.750   52.909    0.310    0.254    2.983
  524.000   46.689    0.320    0.271    2.928
  524.250   40.408    0.330    0.277    2.847
  524.500   39.481    0.329    0.281    2.748
  524.750   40.745    0.312    0.279    2.662
  525.000   43.470    0.304    0.253    2.622
  525.250   42.055    0.314    0.234    2.677
  525.500   37.905    0.325    0.239    2.717
  525.750   34.423    0.313    0.254    2.788
  526.000   48.952    0.307    0.267    2.830
  526.250   50.399    0.317    0.237    2.867
  526.500   48.315    0.309    0.250    2.867
  526.750   45.746    0.303    0.248    2.808
  527.000   40.560    0.311    0.266    2.731
  527.250   33.974    0.327    0.285    2.650
