~VERSION INFORMATION
 VERS.                 2.0:   CWLS LOG ASCII STANDARD -VERSION 2.0
 WRAP.                  NO:   ONE LINE PER DEPTH STEP
~WELL INFORMATION BLOCK
#MNEM.UNIT           DATA                    DESCRIPTION OF MNEMONIC
#---------    -------------------            -------------------------------
# Generated from Intellog Unique Number	CC_80_83/WELL/2378
NULL.         -999.25                        : NULL_VALUE
WELL.         PACIFIC STONY RAPIDS           : Well_name    - WELL
LOC .         10-27-080-18W4                 : Location     - LOCATION          
UWI .         00/10-27-080-18W4/0            : Uwi          - UNIQUE WELL ID    
ENTR.         DW                             : Entered      - ENTERED BY        
SRVC.         SCHLUMBERGER                   : Scn          - SERVICE COMPANY   
DATE.         04 FEB 77                      : Date         - LOG DATE
STRT.M        149.352                        : top_depth    - START DEPTH       
STOP.M        356.617                        : bot_depth    - STOP DEPTH        
STEP.M        0.305                          : increment    - STEP LENGTH       
~CURVE INFORMATION BLOCK
#MNEM UNIT       ERCB CURVE CODE    CURVE DESCRIPTION
#-----------   ------------------   ----------------------------------
DEPT.M        00 001 00 00         : DEPTH        - DEPTH                       
DPHI.V/V      00 890 00 00         : PHID         - DENSITY POROSITY (LIMESTONE)
NPHI.V/V      00 330 00 00         : PHIN         - NEUTRON POROSITY (LIMESTONE)
GR  .API      00 310 00 00         : GR           - GAMMA RAY                   
ILD .OHMM     00 120 00 00         : RESD         - DEEP RESISTIVITY (DIL)      
~PARAMETER INFORMATION       
#MNEM.UNIT           DATA             DESCRIPTION OF MNEMONIC
#---------         -----------     ------------------------------
GL  .M        554.126              : gl           - GROUND LEVEL ELEVATION      
EREF.M        557.327              : kb           - ELEVATION OF DEPTH REFERENCE
DATM.M        557.327              : datum        - DATUM ELEVATION             
TDD .M        387.401              : tdd          - TOTAL DEPTH DRILLER         
RUN .         ONE                  : Run          - RUN NUMBER                  
ENG .         BILL                 : Engineer     - RECORDING ENGINEER          
WIT .         JIM                  : Witness      - WITNESSED BY                
MUD .         GEL                  : Mud_type     - MUD TYPE                    
MATR.         LIMESTONE            : Logunit      - NEUTRON MATRIX              
TMAX.C        19.4444              : BHT          - MAXIMUM RECORDED TEMPERATURE
BHTD.M        387.096              : BHTDEP       - MAXIMUM RECORDED TEMPERATURE
MATR.         1                    : LOGUNIT      - NEUTRON MATRIX              
RMT .C        25                   : MDTP         - TEMPERATURE OF MUD          
NEUT.         1                    : NEUTRON      - NEUTRON TYPE                
RESI.         0                    : RESIST       - RESISTIVITY TYPE            
RMC .OHMM     0.25                 : RMC          - RESISTIVITY OF MUD CAKE     
RMF .OHMM     0.25                 : RMF          - RESISTIVITY OF MUD FILTRATE 
SUFT.C        15                   : SUFT         - SURFACE TEMPERATURE         
~A  DEPTH     PHID     PHIN       GR     RESD
# ...
  308.457    0.255    0.393  107.034   12.234
  308.762    0.239    0.408   96.455   11.827
  309.067    0.226    0.409   91.477   11.419
  309.372    0.213    0.400   93.344   11.213
  309.677    0.212    0.398   98.325   11.213
  309.981    0.224    0.397   97.081   11.210
  310.286    0.226    0.395   94.592   11.210
  310.591    0.232    0.395   97.705   11.411
  310.896    0.247    0.402  102.063   11.206
  311.201    0.249    0.408  102.686   11.204
  311.505    0.245    0.408  105.176   11.000
  311.810    0.236    0.426  103.310   10.592
  312.115    0.221    0.418  104.556   10.387
  312.420    0.210    0.408  107.046   10.183
  312.725    0.206    0.377  107.670    9.775
  313.029    0.212    0.373  105.181    9.571
  313.334    0.190    0.393  105.182    9.569
  313.639    0.176    0.417  105.805    9.160
  313.944    0.177    0.430  112.030    8.956
  314.249    0.222    0.433  121.989    8.548
  314.553    0.224    0.430  124.480    7.937
  314.858    0.221    0.412  124.481    7.530
  315.163    0.212    0.408  118.880    7.528
  315.468    0.205    0.397  111.412    7.526
  315.773    0.192    0.387  108.924    8.338
  316.078    0.181    0.373  107.057    9.352
  316.382    0.171    0.369  102.702   10.164
  316.687    0.192    0.361   98.968   11.585
  316.992    0.217    0.360   97.724   12.599
  317.297    0.226    0.355  100.215   13.207
  317.602    0.226    0.351   99.593   13.206
  317.906    0.210    0.347   93.993   14.221
  318.211    0.169    0.350   91.504   15.439
  318.516    0.186    0.360   95.862   15.843
  318.821    0.219    0.364  107.688   15.435
  319.126    0.229    0.363  115.157   14.418
  319.430    0.227    0.363  116.403   13.807
  319.735    0.221    0.361  115.782   13.805
  320.040    0.222    0.343  114.538   14.007
  320.345    0.210    0.330  107.693   15.021
  320.650    0.179    0.321  106.449   15.630
  320.954    0.151    0.310  110.807   16.442
  321.259    0.171    0.315  112.052   17.456
  321.564    0.167    0.343  109.563   17.454
  321.869    0.124    0.355  109.564   17.047
  322.174    0.191    0.377  113.922   16.029
  322.479    0.206    0.379  123.881   13.792
  322.783    0.226    0.381  126.994   12.775
  323.088    0.229    0.394  128.862   10.944
  323.393    0.228    0.394  128.241   10.130
  323.698    0.227    0.363  125.752    8.096
  324.003    0.227    0.378  113.928    7.079
  324.307    0.267    0.393  105.837    6.062
  324.612    0.290    0.376   91.523    4.840
  324.917    0.254    0.382   82.188    5.245
  325.222    0.254    0.392   79.078    5.854
  325.527    0.264    0.398   80.946    6.868
  325.831    0.259    0.398   80.324    9.102
  326.136    0.254    0.399   77.835   12.962
  326.441    0.274    0.403   76.591   15.195
  326.746    0.260    0.408   82.194   14.991
  327.051    0.239    0.414   88.419   13.770
  327.355    0.223    0.415   92.777   11.127
  327.660    0.224    0.415   96.512    8.687
  327.965    0.228    0.419  102.737    6.653
  328.270    0.214    0.424  104.605    5.839
  328.575    0.206    0.407  105.850    5.837
  328.880    0.208    0.392  102.117    6.039
  329.184    0.193    0.390  104.608    6.850
  329.489    0.145    0.377   95.272    7.458
  329.794    0.133    0.366   97.763    8.473
  330.099    0.152    0.366  102.121    8.675
  330.404    0.193    0.392  111.457    8.877
  330.708    0.216    0.402  120.794    8.266
  331.013    0.228    0.403  119.550    7.451
  331.318    0.232    0.393  117.062    6.637
  331.623    0.227    0.384  115.818    6.432
  331.928    0.212    0.383  101.504    6.431
  332.232    0.192    0.382   97.770    7.039
  332.537    0.180    0.363  107.730    8.257
  332.842    0.182    0.356  112.709   10.694
  333.147    0.197    0.351  112.710   11.505
  333.452    0.206    0.347  112.711   12.317
  333.756    0.217    0.347  120.803   11.706
  334.061    0.226    0.346  128.895   10.891
  334.366    0.232    0.350  131.386   10.077
  334.671    0.236    0.371  127.030   10.075
  334.976    0.244    0.384  114.583    9.668
  335.281    0.255    0.384  105.871    7.634
  335.585    0.257    0.378  105.871    7.429
  335.890    0.253    0.377   98.404    7.631
  336.195    0.271    0.378   98.405    8.645
  336.500    0.283    0.377  100.273   10.270
  336.805    0.275    0.377  100.274   12.504
  337.109    0.243    0.376   98.407   14.738
  337.414    0.222    0.364   93.430   14.736
  337.719    0.181    0.346   89.073   14.531
  338.024    0.138    0.304   83.473   15.139
  338.329    0.143    0.291   82.852   17.373
  338.633    0.152    0.330   85.342   23.468
  338.938    0.165    0.348   92.811   23.466
  339.243    0.182    0.367  102.148   22.652
  339.548    0.186    0.376  110.863   21.228
  339.853    0.185    0.379  117.087   19.804
  340.157    0.186    0.389  113.977   18.177
  340.462    0.185    0.407  117.089   15.940
  340.767    0.177    0.421  118.957   14.110
  341.072    0.177    0.417  118.958   13.499
  341.377    0.237    0.415  112.735   13.294
  341.682    0.253    0.410  100.288   13.699
  341.986    0.260    0.407   89.709   14.307
  342.291    0.268    0.400   95.311   14.712
  342.596    0.275    0.402   94.690   15.117
  342.901    0.285    0.420   84.733   15.116
  343.206    0.296    0.429   80.999   14.911
  343.510    0.283    0.434   82.867   14.503
  343.815    0.265    0.431   99.672   14.298
  344.120    0.255    0.417   98.428   14.296
  344.425    0.258    0.397   95.318   14.295
  344.730    0.262    0.374  100.920   14.497
  345.034    0.262    0.377  106.523   14.698
  345.339    0.258    0.382  107.768   14.900
  345.644    0.245    0.387  109.014   14.899
  345.949    0.248    0.379  110.882   15.100
  346.254    0.263    0.382  108.393   15.303
  346.558    0.273    0.397  100.926   15.708
  346.863    0.264    0.405  100.304   15.909
  347.168    0.260    0.399  100.928   16.111
  347.473    0.260    0.395   99.684   16.109
  347.778    0.271    0.392  100.307   16.108
  348.083    0.291    0.389  106.532   16.106
  348.387    0.284    0.382  108.400   16.105
  348.692    0.271    0.381  106.534   16.104
  348.997    0.258    0.388  108.402   15.899
  349.302    0.252    0.407  115.249   15.491
  349.607    0.250    0.429  120.851   15.287
  349.911    0.259    0.433  127.698   14.878
  350.216    0.283    0.436  135.168   14.673
  350.521    0.291    0.426  137.658   14.673
  350.826    0.286    0.417  100.316   15.281
  351.131    0.264    0.392   73.554   16.905
  351.435    0.192    0.377   59.240   17.716
  351.740    0.141    0.377   61.108   17.918
  352.045    0.001    0.400   68.578   17.307
  352.350    0.114    0.409   79.160   17.102
  352.655    0.017    0.405   86.629   17.304
  352.959    0.064    0.397   90.364   17.709
  353.264    0.145    0.388   90.365   19.739
  353.569    0.182    0.378   78.541   23.396
  353.874    0.216    0.372   61.737   27.052
  354.179    0.245    0.371   51.780   32.334
  354.484    0.231    0.368   53.026   34.771
  354.788    0.196    0.366   53.649   38.021
  355.093    0.208    0.357   51.783   41.677
  355.398    0.231    0.337   48.049   45.334
  355.703    0.195    0.312   44.316   47.771
  356.008    0.136    0.278   42.450   49.394
  356.312    0.140    0.203   43.073   49.596
  356.617    0.139    0.283   44.941   50.001
