~VERSION INFORMATION
 VERS.                 2.0:   CWLS LOG ASCII STANDARD -VERSION 2.0
 WRAP.                  NO:   ONE LINE PER DEPTH STEP
~WELL INFORMATION BLOCK
#MNEM.UNIT           DATA                    DESCRIPTION OF MNEMONIC
#---------    -------------------            -------------------------------
# Generated from Intellog Unique Number	CW_79_81/WELL/2476
WELL.         10-32-080-20W4                 : Well_name    - WELL
LOC .         00/10-32-080-20W4/0            : Location     - LOCATION
UWI .         00/10-32-080-20W4/0            : Uwi          - UNIQUE WELL ID
ENTR.         MAX                            : Entered      - ENTERED BY
SRVC.         SCHLUMBERGER                   : Scn          - SERVICE COMPANY
STRT.M        149.602                        : top_depth    - START DEPTH
STOP.M        396.102                        : bot_depth    - STOP DEPTH
STEP.M        0.25                           : increment    - STEP LENGTH
 NULL. -999.2500:NULL Value
~CURVE INFORMATION BLOCK
#MNEM UNIT       ERCB CURVE CODE    CURVE DESCRIPTION
#-----------   ------------------   ----------------------------------
DEPT.M        00 001 00 00         : DEPTH        - DEPTH
ILD .OHMM     00 120 00 00         : RESD         - DEEP RESISTIVITY (DIL)
NPHI.V/V      00 330 00 00         : PHIN         - NEUTRON POROSITY (SANDSTONE)
DPHI.V/V      00 890 00 00         : PHID         - DENSITY POROSITY (SANDSTONE)
GR  .API      00 310 00 00         : GR           - GAMMA RAY
CALI.MM       00 280 01 00         : CAL          - CALIPER
~PARAMETER INFORMATION
#MNEM.UNIT           DATA             DESCRIPTION OF MNEMONIC
#---------         -----------     ------------------------------
GL  .M        578.815              : gl           - GROUND LEVEL ELEVATION
EREF.M        581.254              : kb           - ELEVATION OF DEPTH REFERENCE
DATM.M        578.815              : datum        - DATUM ELEVATION
TDD .M        403.25               : tdd          - TOTAL DEPTH DRILLER
RUN .         ONE                  : Run          - RUN NUMBER
ENG .         BILL                 : Engineer     - RECORDING ENGINEER
WIT .         JIM                  : Witness      - WITNESSED BY
MUD .         GEL                  : Mud_type     - MUD TYPE
MATR.         SANDSTONE            : Logunit      - NEUTRON MATRIX
TMAX.C        21.1111              : BHT          - MAXIMUM RECORDED TEMPERATURE
BHTD.M        403.25               : BHTDEP       - MAXIMUM RECORDED TEMPERATURE
MATR.         1                    : LOGUNIT      - NEUTRON MATRIX
RMT .C        13.3333              : MDTP         - TEMPERATURE OF MUD
NEUT.         1                    : NEUTRON      - NEUTRON TYPE
RESI.         0                    : RESIST       - RESISTIVITY TYPE
RMC .OHMM     8                    : RMC          - RESISTIVITY OF MUD CAKE
RMF .OHMM     4.46                 : RMF          - RESISTIVITY OF MUD FILTRATE
SUFT.C        -20.5556             : SUFT         - SURFACE TEMPERATURE
~A  DEPTH     RESD     PHIN     PHID       GR      CAL
# ...
  186.102    2.785    0.592    0.232  104.596  187.463
  186.352    2.777    0.594    0.233  107.038  190.505
  186.602    2.752    0.592    0.248  111.243  191.367
  186.852    2.749    0.586    0.250  111.207  187.978
  187.102    2.725    0.579    0.256  109.993  181.518
  187.352    2.717    0.579    0.263  109.667  183.163
  187.602    2.724    0.584    0.265  109.865  186.303
  187.852    2.740    0.589    0.260  110.120  187.638
  188.102    2.761    0.587    0.250  109.362  187.336
  188.352    2.778    0.586    0.243  106.869  188.114
  188.602    2.795    0.591    0.244  103.533  188.056
  188.852    2.827    0.588    0.248  101.429  185.896
  189.102    2.906    0.580    0.247  100.923  183.638
  189.352    3.032    0.573    0.243  100.835  183.182
  189.602    3.224    0.577    0.245   97.599  186.394
  189.852    3.556    0.587    0.261   93.382  186.737
  190.102    4.012    0.588    0.243   89.103  186.697
  190.352    4.857    0.567    0.224   82.522  185.141
  190.602    6.404    0.532    0.219   74.468  181.884
  190.852    9.290    0.504    0.224   66.001  177.035
  191.102   15.044    0.516    0.231   57.917  168.647
  191.352   21.352    0.544    0.313   55.424  156.925
  191.602   26.004    0.522    0.326   51.380  157.272
  191.852   29.599    0.498    0.332   50.697  158.518
  192.102   31.954    0.481    0.336   51.842  159.860
  192.352   33.645    0.476    0.338   53.518  161.597
  192.602   36.199    0.480    0.336   54.607  165.029
  192.852   39.309    0.494    0.340   54.329  164.564
  193.102   41.904    0.487    0.343   54.295  160.900
  193.352   46.090    0.492    0.344   55.140  159.046
  193.602   50.822    0.499    0.346   56.049  159.190
  193.852   55.141    0.505    0.350   56.432  161.029
  194.102   59.258    0.511    0.351   55.767  164.090
  194.352   61.474    0.499    0.346   54.991  165.706
  194.602   63.646    0.487    0.350   56.611  167.245
  194.852   64.873    0.479    0.352   57.344  169.384
  195.102   65.518    0.478    0.352   56.718  166.328
  195.352   65.675    0.484    0.347   55.208  160.074
  195.602   64.904    0.488    0.339   53.932  160.987
  195.852   63.849    0.494    0.340   52.426  163.845
  196.102   62.390    0.506    0.345   50.505  165.372
  196.352   60.967    0.516    0.346   50.001  166.909
  196.602   59.354    0.526    0.347   50.555  168.049
  196.852   57.689    0.531    0.349   51.459  168.892
  197.102   56.023    0.515    0.348   51.555  168.866
  197.352   54.280    0.512    0.345   51.028  162.975
  197.602   53.442    0.511    0.337   50.053  163.322
  197.852   52.310    0.496    0.324   49.251  166.356
  198.102   51.307    0.494    0.320   49.450  168.295
  198.352   50.418    0.504    0.331   50.479  168.842
  198.602   48.870    0.496    0.350   51.151  171.673
  198.852   47.007    0.502    0.346   51.112  174.109
  199.102   44.939    0.498    0.343   51.782  167.660
  199.352   41.532    0.518    0.339   52.639  167.502
  199.602   37.862    0.529    0.341   52.962  169.238
  199.852   34.696    0.526    0.346   52.808  170.472
  200.102   31.863    0.527    0.346   52.956  171.049
  200.352   29.079    0.515    0.346   52.671  172.255
  200.602   26.195    0.516    0.339   51.932  172.590
  200.852   24.019    0.523    0.334   51.896  172.327
  201.102   22.401    0.522    0.336   51.742  169.073
  201.352   21.157    0.511    0.345   52.061  163.928
  201.602   19.834    0.505    0.346   54.847  161.798
  201.852   18.651    0.496    0.338   54.815  163.389
  202.102   17.700    0.486    0.332   55.488  163.337
  202.352   16.611    0.489    0.341   56.874  164.183
  202.602   15.479    0.493    0.344   58.375  166.122
  202.852   14.379    0.496    0.336   59.752  166.960
  203.102   13.132    0.512    0.328   61.270  161.354
  203.352   12.074    0.512    0.334   61.971  157.549
  203.602   11.291    0.509    0.333   60.994  158.689
  203.852   10.498    0.509    0.327   61.436  159.820
  204.102    9.937    0.507    0.331   62.231  160.758
  204.352    9.499    0.502    0.337   63.258  161.903
  204.602    8.806    0.502    0.325   65.490  164.486
  204.852    8.406    0.499    0.346   66.188  165.680
  205.102    7.977    0.500    0.328   65.921  160.829
  205.352    7.444    0.504    0.315   66.000  158.370
  205.602    7.019    0.507    0.304   67.145  158.511
  205.852    6.787    0.508    0.296   68.885  160.255
  206.102    6.778    0.515    0.301   69.157  161.798
  206.352    6.769    0.525    0.306   67.148  163.811
  206.602    6.909    0.520    0.307   68.068  164.957
  206.852    7.130    0.516    0.305   70.215  165.791
  207.102    7.333    0.519    0.297   71.950  161.933
  207.352    7.551    0.520    0.282   73.155  156.184
  207.602    8.122    0.487    0.255   75.627  160.181
  207.852    8.821    0.458    0.242   77.561  168.447
  208.102    9.404    0.498    0.237   75.875  167.996
  208.352   10.399    0.512    0.265   68.884  165.734
  208.602   11.432    0.506    0.299   60.711  164.877
  208.852   12.025    0.490    0.318   54.603  165.726
  209.102   11.633    0.483    0.308   54.186  164.741
  209.352   10.697    0.480    0.317   60.531  160.104
  209.602    7.787    0.473    0.305   65.693  163.235
  209.852    6.430    0.463    0.302   71.029  166.674
  210.102    5.956    0.454    0.295   77.718  171.614
  210.352    6.012    0.449    0.277   86.353  177.151
  210.602    6.356    0.458    0.246   98.355  181.353
  210.852    6.799    0.488    0.240  105.444  186.707
  211.102    7.562    0.482    0.240  102.583  183.055
  211.352    8.331    0.479    0.236   99.542  177.900
  211.602    9.054    0.474    0.231   98.681  179.043
  211.852    9.695    0.466    0.228   99.941  184.583
  212.102   10.530    0.456    0.233  100.696  183.409
  212.352   12.074    0.468    0.219   99.927  185.845
  212.602   13.053    0.472    0.217   90.687  186.991
  212.852   13.897    0.460    0.229   82.162  172.552
  213.102   14.864    0.448    0.248   73.047  160.508
  213.352   16.031    0.440    0.270   64.577  157.353
  213.602   17.378    0.432    0.287   59.347  158.077
  213.852   18.874    0.439    0.284   53.414  158.022
  214.102   19.834    0.439    0.286   47.483  159.562
  214.352   20.841    0.430    0.294   41.376  162.000
  214.602   21.592    0.418    0.303   35.443  162.541
  214.852   21.759    0.407    0.310   31.041  160.684
  215.102   20.712    0.397    0.317   31.803  157.798
  215.352   18.903    0.401    0.317   38.159  155.669
  215.602   16.655    0.401    0.317   45.204  158.007
  215.852   14.348    0.403    0.315   54.725  160.345
  216.102   12.400    0.411    0.308   68.964  163.882
  216.352   10.975    0.423    0.295   84.795  169.016
  216.602   10.014    0.437    0.275   93.374  175.420
  216.852    9.488    0.476    0.262   91.622  175.775
  217.102    8.938    0.469    0.243   96.065  170.125
  217.352    7.906    0.451    0.236  102.463  171.070
  217.602    6.710    0.464    0.229  110.924  176.806
  217.852    5.671    0.506    0.219  120.269  183.739
  218.102    4.882    0.541    0.212  128.650  186.220
  218.352    4.591    0.576    0.217  131.808  184.905
  218.602    4.586    0.573    0.211  132.010  187.243
  218.852    4.530    0.563    0.202  130.619  187.485
  219.102    4.443    0.554    0.198  129.522  185.030
  219.352    4.318    0.554    0.199  129.603  182.976
  219.602    4.064    0.570    0.193  130.889  188.685
  219.852    3.765    0.584    0.183  131.598  191.531
  220.102    3.599    0.585    0.217  132.035  191.866
  220.352    3.654    0.569    0.238  131.940  193.109
  220.602    3.995    0.548    0.250  130.962  193.859
  220.852    4.580    0.529    0.257  128.394  192.711
  221.102    5.140    0.505    0.258  121.342  188.081
  221.352    6.274    0.471    0.248  112.215  187.188
  221.602    7.534    0.454    0.244  110.519  190.725
  221.852    7.969    0.439    0.239  111.133  193.063
  222.102    7.754    0.447    0.234  113.227  195.598
  222.352    7.223    0.472    0.230  115.909  198.132
