~VERSION INFORMATION
 VERS.                 2.0:   CWLS LOG ASCII STANDARD -VERSION 2.0
 WRAP.                  NO:   ONE LINE PER DEPTH STEP
~WELL INFORMATION BLOCK
#MNEM.UNIT           DATA                    DESCRIPTION OF MNEMONIC
#---------    -------------------            -------------------------------
# Generated from Intellog Unique Number	CW_70_72/WELL/1052
NULL.         -999.25                        : NULL_VALUE
WELL.         G.P.D. SMITH 11-03             : Well_name    - WELL              
LOC .         11-03-072-01W5                 : Location     - LOCATION          
UWI .         00/11-03-072-01W5/0            : Uwi          - UNIQUE WELL ID    
ENTR.         JAYE                           : Entered      - ENTERED BY        
SRVC.         SCHLUMBERGER                   : Scn          - SERVICE COMPANY   
DATE.         30 JULY 76                     : Date         - LOG DATE          
STRT.M        435.864                        : top_depth    - START DEPTH       
STOP.M        694.864                        : bot_depth    - STOP DEPTH        
STEP.M        0.25                           : increment    - STEP LENGTH       
~CURVE INFORMATION BLOCK
#MNEM UNIT       ERCB CURVE CODE    CURVE DESCRIPTION
#-----------   ------------------   ----------------------------------
DEPT.M        00 001 00 00         : DEPTH        - DEPTH                       
DPHI.V/V      00 890 00 00         : PHID         - DENSITY POROSITY (SANDSTONE)
NPHI.V/V      00 330 00 00         : PHIN         - NEUTRON POROSITY (SANDSTONE)
GR  .API      00 310 00 00         : GR           - GAMMA RAY                   
CALI.MM       00 280 01 00         : CAL          - CALIPER                     
ILD .OHMM     00 120 00 00         : RESD         - DEEP RESISTIVITY (DIL)      
~PARAMETER INFORMATION       
#MNEM.UNIT           DATA             DESCRIPTION OF MNEMONIC
#---------         -----------     ------------------------------
GL  .M        635.203              : gl           - GROUND LEVEL ELEVATION      
EREF.M        638.861              : kb           - ELEVATION OF DEPTH REFERENCE
DATM.M        635.203              : datum        - DATUM ELEVATION             
TDD .M        719.328              : tdd          - TOTAL DEPTH DRILLER         
RUN .         ONE                  : Run          - RUN NUMBER                  
BASE.         EDM                  : Branch       - HOME BASE OF LOGGING UNIT   
MUD .         GEL                  : Mud_type     - MUD TYPE                    
MATR.         SANDSTONE            : Logunit      - NEUTRON MATRIX              
TMAX.C        36.1111              : BHT          - MAXIMUM RECORDED TEMPERATURE
BHTD.M        719.938              : BHTDEP       - MAXIMUM RECORDED TEMPERATURE
RMT .C        15.5556              : MDTP         - TEMPERATURE OF MUD          
MUDD.KG/M     1164                 : MWT          - MUD DENSITY                 
NEUT.         1                    : NEUTRON      - NEUTRON TYPE                
RESI.         0                    : RESIST       - RESISTIVITY TYPE            
RM  .OHMM     5.56                 : RM           - RESISTIVITY OF MUD          
RMC .OHMM     0                    : RMC          - RESISTIVITY OF MUD CAKE     
RMF .OHMM     5.16                 : RMF          - RESISTIVITY OF MUD FILTRATE 
SUFT.C        0                    : SUFT         - SURFACE TEMPERATURE         
~A  DEPTH     PHID     PHIN       GR      CAL     RESD
# ...
  508.864    0.304    0.432   52.753  160.527    2.463
  509.114    0.297    0.425   54.349  160.674    2.484
  509.364    0.305    0.420   55.996  160.732    2.509
  509.614    0.297    0.417   57.085  160.879    2.534
  509.864    0.303    0.428   56.342  161.015    2.574
  510.114    0.310    0.433   54.938  161.065    2.619
  510.364    0.312    0.431   54.958  161.208    2.669
  510.614    0.299    0.428   55.489  161.467    2.731
  510.864    0.284    0.420   56.270  161.512    2.773
  511.114    0.265    0.413   56.645  161.441    2.822
  511.364    0.273    0.402   55.444  160.953    2.877
  511.614    0.263    0.385   53.989  160.885    2.997
  511.864    0.233    0.362   54.060  161.033    3.264
  512.114    0.187    0.321   53.369  162.686    3.693
  512.364    0.127    0.296   53.286  165.636    4.125
  512.614    0.127    0.336   55.136  164.070    4.516
  512.864    0.178    0.406   57.446  161.414    4.837
  513.114    0.238    0.419   59.400  159.521    4.701
  513.364    0.284    0.417   59.925  159.775    4.278
  513.614    0.274    0.418   60.303  160.687    3.767
  513.864    0.277    0.425   61.236  161.157    3.354
  514.114    0.286    0.433   62.427  161.413    3.102
  514.364    0.278    0.429   62.954  161.566    2.849
  514.614    0.281    0.438   63.635  161.393    2.704
  514.864    0.280    0.453   63.910  161.004    2.707
  515.114    0.278    0.464   62.607  160.615    2.820
  515.364    0.272    0.459   62.376  160.438    2.938
  515.614    0.277    0.454   63.206  160.484    3.045
  515.864    0.291    0.452   63.433  160.628    3.133
  516.114    0.289    0.453   63.246  161.007    3.159
  516.364    0.292    0.451   62.912  161.047    3.138
  516.614    0.304    0.450   62.727  161.304    3.068
  516.864    0.310    0.446   63.206  161.560    3.003
  517.114    0.303    0.445   63.937  161.808    2.951
  517.364    0.295    0.445   64.668  162.404    2.890
  517.614    0.288    0.447   65.044  162.768    2.850
  517.864    0.283    0.436   64.097  162.795    2.837
  518.114    0.272    0.428   62.950  163.058    2.840
  518.364    0.279    0.421   62.461  162.886    2.853
  518.614    0.278    0.416   61.973  162.825    2.872
  518.864    0.283    0.411   62.350  162.863    2.932
  519.114    0.284    0.416   62.722  162.911    3.010
  519.364    0.287    0.431   60.861  163.167    3.160
  519.614    0.274    0.438   58.339  163.422    3.323
  519.864    0.256    0.434   55.105  163.564    3.552
  520.114    0.266    0.425   52.990  163.617    3.770
  520.364    0.266    0.419   55.399  163.651    3.871
  520.614    0.269    0.418   56.486  163.476    3.960
  520.864    0.270    0.418   53.862  163.412    4.015
  521.114    0.258    0.419   53.275  163.562    4.070
  521.364    0.264    0.417   54.818  163.610    4.066
  521.614    0.268    0.417   56.871  163.217    4.122
  521.864    0.274    0.419   59.334  163.256    4.280
  522.114    0.279    0.422   61.283  163.628    4.419
  522.364    0.281    0.427   63.032  163.662    4.439
  522.614    0.286    0.442   63.411  163.822    4.206
  522.864    0.295    0.445   62.107  163.748    3.962
  523.114    0.281    0.443   60.093  163.686    3.606
  523.364    0.268    0.440   57.930  163.839    3.336
  523.614    0.264    0.435   56.320  163.991    3.190
  523.864    0.263    0.427   54.254  164.244    3.192
  524.114    0.265    0.416   52.444  164.825    3.302
  524.364    0.278    0.421   51.703  164.973    3.492
  524.614    0.289    0.428   51.874  165.014    3.692
  524.864    0.292    0.428   52.811  164.628    3.903
  525.114    0.271    0.422   53.948  164.241    4.045
  525.364    0.284    0.426   55.390  163.857    3.983
  525.614    0.290    0.427   56.886  163.569    3.808
  525.864    0.298    0.430   58.227  163.399    3.555
  526.114    0.295    0.437   59.875  163.334    3.295
  526.364    0.306    0.438   62.233  163.379    3.048
  526.614    0.295    0.429   65.303  163.422    2.835
  526.864    0.274    0.438   66.748  163.025    2.818
  527.114    0.269    0.429   60.972  162.962    2.952
  527.364    0.288    0.413   59.059  162.789    3.105
  527.614    0.300    0.402   59.743  163.053    3.067
  527.864    0.292    0.403   60.217  163.192    2.895
  528.114    0.282    0.408   61.305  163.889    2.753
  528.364    0.265    0.420   63.359  164.465    2.618
  528.614    0.244    0.434   66.938  165.154    2.563
  528.864    0.225    0.447   67.111  165.196    2.618
  529.114    0.255    0.455   64.638  165.019    2.693
  529.364    0.291    0.444   64.049  164.417    2.730
  529.614    0.288    0.433   64.222  163.918    2.728
  529.864    0.289    0.431   66.327  164.723    2.690
  530.114    0.275    0.441   68.329  165.836    2.678
  530.364    0.257    0.436   68.198  166.528    2.729
  530.614    0.246    0.430   67.657  166.783    2.839
  530.864    0.246    0.433   66.917  166.389    2.975
  531.114    0.257    0.430   65.765  166.218    3.105
  531.364    0.271    0.422   62.785  166.154    3.212
  531.614    0.263    0.418   58.178  166.303    3.238
  531.864    0.285    0.423   54.485  166.346    3.206
  532.114    0.305    0.418   51.200  166.277    3.122
  532.364    0.312    0.409   52.901  165.901    3.001
  532.614    0.300    0.412   55.002  165.826    2.737
  532.864    0.284    0.419   57.819  166.091    2.616
  533.114    0.294    0.429   60.889  166.776    2.487
  533.364    0.278    0.437   63.809  167.894    2.499
  533.614    0.256    0.443   61.337  168.898    2.599
  533.864    0.259    0.451   56.322  169.373    2.723
  534.114    0.267    0.431   50.496  168.230    2.858
  534.364    0.287    0.400   46.397  167.092    2.919
  534.614    0.307    0.373   43.823  166.704    2.827
  534.864    0.288    0.344   41.758  167.282    2.742
  535.114    0.242    0.325   41.322  168.723    2.720
  535.364    0.173    0.310   41.747  170.058    2.881
  535.614    0.152    0.316   42.226  171.072    3.069
  535.864    0.182    0.340   43.364  170.679    3.317
  536.114    0.207    0.363   44.402  169.215    3.685
  536.364    0.236    0.391   45.235  167.322    4.057
  536.614    0.280    0.407   45.867  166.067    4.082
  536.864    0.280    0.422   46.291  164.822    3.621
  537.114    0.280    0.427   46.870  164.107    3.362
  537.364    0.296    0.426   47.451  163.826    3.238
  537.614    0.299    0.420   47.926  163.762    3.241
  537.864    0.290    0.411   48.404  163.803    3.352
  538.114    0.284    0.405   48.781  164.060    3.558
  538.364    0.285    0.396   49.107  164.426    3.790
  538.614    0.290    0.387   49.583  164.684    4.007
  538.864    0.299    0.377   50.318  165.170    4.206
  539.114    0.311    0.376   50.742  165.528    4.367
  539.364    0.310    0.396   50.915  166.001    4.443
  539.614    0.317    0.421   50.426  166.143    4.391
  539.864    0.319    0.440   47.103  166.409    4.221
  540.114    0.306    0.453   47.416  166.557    4.021
  540.364    0.308    0.444   47.027  166.380    3.686
  540.614    0.327    0.434   46.642  165.777    3.596
  540.864    0.331    0.435   45.848  165.179    3.747
  541.114    0.321    0.436   45.918  164.674    3.940
  541.364    0.324    0.432   47.006  164.298    4.174
  541.614    0.317    0.439   48.299  164.113    4.278
  541.864    0.316    0.447   49.233  163.409    4.227
  542.114    0.308    0.444   49.812  162.805    4.086
  542.364    0.292    0.431   49.577  161.987    3.886
  542.614    0.298    0.418   47.360  161.167    3.742
  542.864    0.303    0.410   47.025  160.668    3.745
  543.114    0.302    0.406   47.908  160.276    3.939
  543.364    0.298    0.402   48.690  160.320    4.149
  543.614    0.286    0.400   48.102  160.363    4.215
  543.864    0.285    0.401   46.951  160.404    4.202
  544.114    0.296    0.406   47.072  160.444    4.137
  544.364    0.300    0.415   48.009  160.595    3.985
  544.614    0.305    0.415   48.434  160.638    3.839
  544.864    0.299    0.415   47.335  160.897    3.704
  545.114    0.283    0.421   46.389  160.830    3.633
