~Version Information
VERS.                2.00:
WRAP.                  NO:
~Well Information Block
#MNEM.UNIT       Data Type    Information
#---------    -------------   -------------------
FLD.   :FIELD
FLD.   :FIELD
FLD.   :FIELD
FLD.   :FIELD
STRT.M          1950.0000:
STOP.M          4060.0000:
STEP.M             0.8202:
NULL.           -999.2500:
COMP.  MUTUAL EXPLORATION FUNDS:COMPANY
WELL.  MUTES IOE SEAFORTH:WELL
FLD.   :FIELD
LOC.   15-20-095-20W4:LOCATION
CTRY.  CANADA:COUNTRY
PROV.  ALBERTA:PROVINCE
SRVC.  SCHLUMBERGER:SERVICE COMPANY
DATE.  01 MAR 69:LOG DATE
UWI.   00/15-20-095-20W4/0:UNIQUE WELL ID
~Curve Information Block
#MNEM.UNIT        API CODE    Curve Description
#---------    ------------    -----
DEPT.M                    :   DEPTH
CALI.in                   :   CALI
GR  .API                  :   GR
SNP .V/V                  :   SNP
~A  Depth           CALI          GR         SNP
# ...
3026.1024        14.8407     15.7594      0.0345
3026.9226        14.8324     14.9856      0.0251
3027.7428        14.8006     13.7413      0.0348
3028.5630        14.7976     15.7747      0.0462
3029.3832        14.7009     17.8176      0.0683
3030.2034        14.5875     18.6142      0.1349
3031.0236        13.7850     18.7778      0.2518
3031.8438        10.2428     18.4945      0.2626
3032.6640         9.7016     17.1368      0.0918
3033.4842         9.4772     14.6445      0.0744
3034.3044         9.4576     13.8584      0.0810
3035.1246         9.5332     14.8658      0.1059
3035.9448        10.1459     15.6130      0.1428
3036.7650        11.7929     16.1109      0.2101
3037.5852        13.8798     15.3716      0.2187
3038.4054        12.0260     15.1126      0.2126
3039.2256        10.0893     15.7817      0.0796
3040.0458         9.8137     15.5747      0.0665
3040.8660         9.9288     15.5712      0.0715
3041.6862        10.4501     15.6002      0.0783
3042.5064        11.6452     14.9471      0.0846
3043.3266        12.5321     15.5702      0.0793
3044.1468        13.0643     16.3960      0.0682
3044.9670        13.5486     16.8924      0.0570
3045.7872        14.0016     16.2766      0.0521
3046.6074        14.4021     15.8736      0.0608
3047.4276        14.4612     15.1473      0.0573
3048.2478        14.5436     16.2787      0.0499
3049.0680        14.7775     16.3183      0.0795
3049.8882        14.8405     15.9945      0.1078
3050.7084        14.8788     15.9885      0.1390
3051.5286        14.7092     17.1246      0.2385
3052.3488        13.4808     17.6351      0.2107
3053.1690        11.4538     15.8838      0.1706
3053.9892        11.0258     15.0111      0.1339
3054.8094        10.9684     13.7921      0.1224
3055.6296        10.8765     12.6921      0.1114
3056.4498        10.7388     11.8787      0.1031
3057.2700        10.5110     10.7511      0.0854
3058.0902        10.2077      9.9303      0.0728
3058.9104        10.1744     10.2007      0.0625
3059.7306        10.2340     10.9835      0.0728
3060.5508        10.3674     11.9870      0.1006
3061.3710        11.9400     14.6092      0.1505
3062.1912        13.0673     17.0129      0.1689
3063.0114        13.9415     18.1040      0.1553
3063.8316        14.7617     17.8437      0.1679
3064.6518        14.1955     16.2417      0.2156
3065.4720        13.1479     17.3995      0.1982
3066.2922        12.5460     17.8612      0.1514
3067.1124        13.9742     16.7097      0.1149
3067.9326        14.6242     16.4035      0.0752
3068.7528        14.7333     15.5577      0.0812
3069.5730        14.8424     14.3944      0.1023
3070.3932        14.9515     14.0777      0.1198
3071.2134        14.7449     14.0149      0.1598
3072.0336        13.3160     14.0467      0.1556
3072.8538        12.2031     12.5238      0.0830
3073.6740        11.7802     13.6834      0.0684
3074.4942        11.4939     14.5507      0.0740
3075.3144        11.6845     15.1357      0.0775
3076.1346        13.6648     15.7197      0.0911
3076.9548        14.6098     15.8585      0.0961
3077.7750        14.8063     16.9233      0.0945
3078.5952        14.8754     17.6705      0.0957
3079.4154        14.9238     17.9699      0.0973
3080.2356        14.8991     16.6934      0.0919
3081.0558        14.9688     15.5038      0.0486
3081.8760        14.9812     14.8070      0.0525
3082.6962        14.9506     14.2278      0.0549
3083.5164        14.9496     15.2984      0.0450
3084.3366        14.9525     16.0635      0.0304
3085.1568        14.9559     16.2115      0.0203
3085.9770        14.9594     15.5758      0.0222
3086.7972        14.9334     15.5250      0.0263
3087.6174        14.9288     15.5287      0.0305
3088.4376        14.9295     15.9088      0.0288
3089.2578        14.9327     15.6422      0.0257
3090.0780        14.8998     15.6423      0.0282
3090.8982        14.8631     15.6650      0.0354
3091.7184        14.8624     16.4131      0.0451
3092.5386        14.8654     17.2597      0.0556
3093.3588        14.8689     17.3835      0.0682
3094.1790        14.8724     17.4277      0.0831
3094.9992        14.8759     16.3771      0.0982
3095.8194        14.8794     15.5732      0.0997
3096.6396        14.8829     14.9422      0.0469
3097.4598        14.8864     14.7520      0.0339
3098.2800        14.8898     14.7613      0.0320
3099.1002        14.8933     14.7934      0.0333
3099.9204        14.8587     15.9392      0.0384
3100.7406        14.8603     16.0549      0.0526
3101.5608        14.8632     16.1104      0.0798
3102.3810        14.8667     16.4571      0.0807
3103.2012        14.9092     16.5868      0.0503
3104.0214        14.9143     17.0108      0.0287
3104.8416        14.9178     17.4551      0.0304
3105.6618        14.9213     17.5105      0.0423
3106.4820        14.9248     17.1583      0.0538
3107.3022        14.9283     16.7877      0.0593
3108.1224        14.9318     16.0320      0.0442
3108.9426        14.9353     15.2590      0.0389
3109.7628        14.9388     14.1084      0.0370
3110.5830        14.9423     13.6873      0.0380
3111.4032        14.9458     14.4650      0.0388
3112.2234        14.9492     15.3211      0.0412
3113.0436        14.9527     15.7817      0.0457
3113.8638        14.9562     16.2277      0.0533
3114.6840        14.9597     16.2684      0.0795
3115.5042        14.9299     15.9034      0.1228
3116.3244        14.6420     15.9333      0.1831
3117.1446        14.1120     16.9546      0.2119
3117.9648        13.6152     17.5111      0.1907
3118.7850        13.9774     17.6263      0.1571
3119.6052        14.4490     17.3593      0.1031
3120.4254        14.7587     17.3393      0.0934
3121.2456        14.8146     17.3644      0.1405
3122.0658        14.0521     17.3977      0.1844
3122.8860        13.4110     17.7721      0.2173
3123.7062        13.1999     18.5517      0.2140
3124.5264        13.5485     19.3995      0.1602
3125.3466        14.1874     18.1724      0.1667
3126.1668        14.5334     17.7631      0.1751
3126.9870        14.7337     17.6356      0.1597
3127.8072        14.6635     17.6461      0.1795
3128.6274        13.8315     18.0274      0.2194
3129.4476        12.9939     18.4639      0.2312
3130.2678        13.2927     18.1986      0.1862
3131.0880        14.5095     17.9108      0.1507
3131.9082        14.7111     18.1887      0.1202
3132.7284        14.7831     18.6133      0.1435
3133.5486        14.3869     18.3342      0.1716
3134.3688        13.7513     17.6175      0.2256
3135.1890        13.1155     17.5781      0.1735
3136.0092        13.1386     17.5880      0.1495
3136.8294        13.8088     17.9841      0.1269
3137.6496        14.5935     18.4245      0.0780
3138.4698        14.8722     17.7669      0.0705
3139.2900        14.9373     17.0046      0.0644
3140.1102        14.9457     16.5923      0.0584
3140.9304        14.9495     16.5803      0.0568
3141.7506        14.9531     16.9794      0.0708
3142.5708        14.9566     15.5918      0.0891
3143.3910        14.9219     15.1139      0.1063
3144.2112        14.8849     16.0105      0.1034
3145.0314        14.8859     17.0723      0.0800
3145.8516        14.8509     16.8090      0.0687
3146.6718        14.8522     16.5202      0.0709
3147.4920        14.7790     16.0805      0.0834
3148.3122        14.5536     16.0793      0.1052
3149.1324        13.0951     16.1116      0.1252
3149.9526        12.3146     16.5292      0.1398
3150.7728        11.7918     16.5823      0.0950
3151.5930        11.4826     16.2379      0.0519
3152.4132        11.2357     15.1099      0.0593
3153.2334        10.9398     16.2349      0.0763
3154.0536        10.5553     16.3190      0.0969
3154.8738        10.3134     14.8053      0.1141
3155.6940        10.0785     14.0042      0.1247
3156.5142        10.0335     14.3115      0.0992
3157.3344        10.0214     14.8151      0.0705
3158.1546        10.1747     15.8252      0.0774
3158.9748        11.0400     16.1198      0.1043
3159.7950        12.6158     16.1591      0.2629
