~VERSION INFORMATION
 VERS.                 2.0:   CWLS LOG ASCII STANDARD -VERSION 2.0
 WRAP.                  NO:   ONE LINE PER DEPTH STEP
~WELL INFORMATION BLOCK
#MNEM.UNIT           DATA                    DESCRIPTION OF MNEMONIC
#---------    -------------------            -------------------------------
# Generated from Intellog Unique Number	CW_76_78/WELL/2779
WELL.         ASHLAND ET AL PELICAN          : Well_name    - WELL
LOC .         00/10-28-077-20W4/0            : Location     - LOCATION
UWI .         00/10-28-077-20W4/0            : Uwi          - UNIQUE WELL ID
ENTR.         JOE                            : Entered      - ENTERED BY
SRVC.         SCHLUMBERGER                   : Scn          - SERVICE COMPANY
STRT.M        228.6                          : top_depth    - START DEPTH
STOP.M        466.35                         : bot_depth    - STOP DEPTH
STEP.M        0.25                           : increment    - STEP LENGTH
 NULL. -999.2500:NULL Value
~CURVE INFORMATION BLOCK
#MNEM UNIT       ERCB CURVE CODE    CURVE DESCRIPTION
#-----------   ------------------   ----------------------------------
DEPT.M        00 001 00 00         : DEPTH        - DEPTH
ILD .OHMM     00 120 00 00         : RESD         - DEEP RESISTIVITY (DIL)
DPHI.V/V      00 890 00 00         : PHID         - DENSITY POROSITY (SANDSTONE)
NPHI.V/V      00 330 00 00         : PHIN         - NEUTRON POROSITY (SANDSTONE)
GR  .API      00 310 00 00         : GR           - GAMMA RAY
CALI.MM       00 280 01 00         : CAL          - CALIPER
~PARAMETER INFORMATION
#MNEM.UNIT           DATA             DESCRIPTION OF MNEMONIC
#---------         -----------     ------------------------------
GL  .M        571.195              : gl           - GROUND LEVEL ELEVATION
EREF.M        574.853              : kb           - ELEVATION OF DEPTH REFERENCE
DATM.M        574.853              : datum        - DATUM ELEVATION
TDD .M        499.872              : tdd          - TOTAL DEPTH DRILLER
RUN .         ONE                  : Run          - RUN NUMBER
ENG .         McNAUGHTON           : Engineer     - RECORDING ENGINEER
WIT .         LINKE                : Witness      - WITNESSED BY
MUD .         GEL                  : Mud_type     - MUD TYPE
MATR.         SANDSTONE            : Logunit      - NEUTRON MATRIX
TMAX.C        22.7778              : BHT          - MAXIMUM RECORDED TEMPERATURE
BHTD.M        499.872              : BHTDEP       - MAXIMUM RECORDED TEMPERATURE
RMT .C        16.1111              : MDTP         - TEMPERATURE OF MUD
MUDD.KG/M     61000                : MWT          - MUD DENSITY
NEUT.         1                    : NEUTRON      - NEUTRON TYPE
RESI.         0                    : RESIST       - RESISTIVITY TYPE
RM  .OHMM     1.1                  : RM           - RESISTIVITY OF MUD
RMC .OHMM     1.34                 : RMC          - RESISTIVITY OF MUD CAKE
RMF .OHMM     2.87                 : RMF          - RESISTIVITY OF MUD FILTRATE
SUFT.C        -12.2222             : SUFT         - SURFACE TEMPERATURE
~A  DEPTH     RESD     PHID     PHIN       GR      CAL
  228.600    3.151    0.222    0.662   97.745  174.780
  228.850    3.048    0.226    0.658   98.023  175.746
  229.100    2.946    0.219    0.652  100.338  176.704
  229.350    2.942    0.212    0.648  100.616  177.172
  229.600    2.840    0.213    0.637  101.766  177.155
  229.850    2.835    0.222    0.626  101.171  177.130
  230.100    2.929    0.220    0.615   99.995  176.618
  230.350    3.024    0.217    0.599   99.691  176.596
  230.600    3.118    0.202    0.584  101.713  176.572
  230.850    3.212    0.211    0.574   98.207  176.550
  231.100    3.306    0.222    0.555   97.905  177.020
  231.350    3.401    0.216    0.526   98.472  176.993
  231.600    3.397    0.222    0.534  100.788  176.971
  231.850    3.590    0.225    0.549  102.229  176.952
  232.100    3.881    0.231    0.567  101.633  176.434
  232.350    4.270    0.236    0.582  100.164  175.922
  232.600    4.759    0.231    0.584   98.116  175.898
  232.850    5.346    0.228    0.575   94.901  176.366
  233.100    6.032    0.212    0.557   91.687  177.824
  233.350    5.633    0.195    0.535   90.221  180.262
  233.600    4.940    0.203    0.520   86.134  180.736
  233.850    3.851    0.199    0.525   80.301  180.711
  234.100    3.158    0.181    0.525   75.052  178.713
  234.350    2.956    0.172    0.481   73.586  175.738
  234.600    2.854    0.131    0.558   79.682  172.761
  234.850    2.849    0.131    0.588   84.320  172.240
  235.100    2.846    0.249    0.576   83.436  173.206
  235.350    3.038    0.251    0.564   84.587  191.906
  235.600    3.526    0.235    0.581   86.028  187.448
  235.850    4.212    0.238    0.595   86.304  183.981
  236.100    5.193    0.245    0.601   86.001  181.985
  236.350    7.159    0.250    0.588   84.242  179.993
  236.600   11.982    0.266    0.565   79.575  177.998
  236.850   15.228    0.273    0.516   72.580  175.510
  237.100   14.929    0.304    0.456   58.892  171.057
  237.350   14.432    0.317    0.423   53.934  166.109
  237.600   14.034    0.341    0.412   53.921  162.144
  237.850   13.734    0.340    0.421   57.105  161.134
  238.100   13.631    0.333    0.435   58.839  160.619
  238.350   13.529    0.326    0.450   62.317  161.092
  238.600   13.426    0.327    0.454   67.537  162.548
  238.850   13.224    0.331    0.463   66.364  164.494
  239.100   12.531    0.312    0.466   63.149  165.457
  239.350   11.049    0.295    0.460   59.643  166.418
  239.600    9.863    0.305    0.443   60.214  166.398
  239.850    9.071    0.299    0.423   66.310  166.371
  240.100    9.165    0.278    0.439   72.697  166.352
  240.350    9.752    0.269    0.461   76.466  166.825
  240.600   11.225    0.264    0.461   79.068  166.800
  240.850   12.403    0.255    0.452   76.729  166.773
  241.100   13.778    0.243    0.469   72.933  167.249
  241.350   15.054    0.245    0.484   69.721  166.732
  241.600   14.557    0.252    0.477   64.470  166.217
  241.850   12.189    0.267    0.460   60.092  164.717
  242.100    9.427    0.269    0.442   56.590  163.217
  242.350    7.452    0.283    0.457   53.957  161.715
  242.600    5.674    0.289    0.472   54.524  161.696
  242.850    4.981    0.285    0.481   57.131  164.134
  243.100    4.484    0.293    0.469   61.480  167.065
  243.350    4.578    0.290    0.448   66.414  168.523
  243.600    5.165    0.282    0.433   76.874  169.974
  243.850    6.146    0.268    0.460   87.043  171.928
  244.100    7.620    0.253    0.497   94.302  174.366
  244.350    9.093    0.254    0.531   93.124  179.270
  244.600   11.650    0.238    0.542   90.202  190.575
  244.850   12.040    0.247    0.504   85.826  187.108
  245.100   11.149    0.251    0.461   79.120  182.157
  245.350    9.963    0.270    0.377   66.016  178.194
  245.600    8.874    0.255    0.391   60.474  173.736
  245.850    8.575    0.239    0.413   60.169  169.770
  246.100    8.374    0.226    0.405   61.030  167.775
  246.350    9.749    0.213    0.390   68.581  167.266
  246.600   11.617    0.256    0.397   72.059  168.229
  246.850   14.566    0.293    0.435   70.591  172.145
  247.100   14.760    0.297    0.508   65.340  174.589
  247.350   14.854    0.330    0.401   60.382  176.037
  247.600   14.752    0.336    0.382   55.423  174.050
  247.850   14.649    0.287    0.397   51.336  170.579
  248.100   15.138    0.292    0.411   50.449  167.106
  248.350   15.232    0.298    0.399   51.305  166.096
  248.600   15.030    0.297    0.404   54.206  166.072
  248.850   14.632    0.286    0.406   59.429  165.563
  249.100   13.840    0.271    0.412   62.907  164.555
  249.350   12.851    0.241    0.356   59.691  163.548
  249.600   11.960    0.184    0.292   54.734  163.521
  249.850   11.266    0.151    0.282   55.012  163.994
  250.100   10.967    0.172    0.338   55.870  164.957
  250.350   10.568    0.252    0.431   55.857  164.933
  250.600   10.269    0.289    0.442   56.715  164.908
  250.850   10.068    0.294    0.443   59.031  164.908
  251.100    9.768    0.279    0.440   63.382  164.861
  251.350    9.665    0.285    0.429   69.478  163.857
  251.600    9.562    0.279    0.414   75.865  163.339
  251.850    9.262    0.269    0.403   79.923  162.825
  252.100    8.667    0.239    0.410   78.745  162.803
  252.350    8.367    0.251    0.412   77.568  162.781
  252.600    8.362    0.270    0.417   76.102  162.756
  252.850    8.655    0.278    0.419   74.341  162.244
  253.100    9.044    0.271    0.419   73.748  162.244
  253.350    9.434    0.277    0.420   75.478  162.192
  253.600   10.119    0.269    0.430   77.791  162.671
  253.850   10.903    0.257    0.454   80.109  163.631
  254.100   12.081    0.240    0.466   83.296  166.559
  254.350   13.259    0.267    0.454   81.825  170.478
  254.600   13.353    0.273    0.397   78.321  171.444
  254.850   13.448    0.264    0.379   81.219  171.419
  255.100   13.739    0.269    0.385   87.024  169.430
  255.350   14.130    0.251    0.382   91.374  164.974
  255.600   14.420    0.236    0.372   91.069  161.994
  255.850   14.810    0.230    0.375   87.854  164.438
  256.100   15.299    0.247    0.388   84.643  167.864
  256.350   15.787    0.242    0.382   79.101  167.836
  256.600   16.472    0.231    0.375   74.433  167.325
  256.850   17.256    0.232    0.370   69.475  166.317
  257.100   18.138    0.241    0.371   63.644  165.797
  257.350   17.543    0.246    0.369   56.357  165.781
  257.600   16.948    0.251    0.367   40.053  167.721
  257.850   15.663    0.270    0.361   29.273  171.153
  258.100   13.787    0.293    0.360   32.752  181.968
  258.350   12.109    0.292    0.367   39.430  193.276
  258.600   10.527    0.293    0.384   45.525  199.658
  258.850    9.637    0.288    0.395   49.877  196.185
  259.100    8.747    0.301    0.397   54.809  189.759
  259.350    7.757    0.296    0.381   62.360  184.318
  259.600    7.162    0.284    0.361   72.236  179.365
  259.850    6.567    0.255    0.360   80.078  176.390
  260.100    5.972    0.234    0.355   87.629  174.398
  260.350    5.080    0.190    0.363   92.852  172.892
  260.600    4.387    0.199    0.371   91.092  172.383
  260.850    3.693    0.213    0.376   89.043  171.866
  261.100    2.999    0.218    0.384   90.192  171.844
  261.350    2.699    0.194    0.401   93.380  171.819
  261.600    2.695    0.217    0.413   98.311  171.794
  261.850    2.691    0.236    0.456  104.700  172.758
  262.100    2.687    0.232    0.526  110.505  173.721
  262.350    2.683    0.213    0.567  115.146  175.669
  262.600    2.875    0.205    0.605  118.623  177.128
  262.850    2.970    0.223    0.626  121.517  180.056
  263.100    3.163    0.219    0.629  123.833  182.995
  263.350    3.454    0.227    0.618  122.655  187.401
  263.600    3.843    0.209    0.597  120.025  188.361
  263.850    4.135    0.177    0.573  116.812  186.862
  264.100    4.525    0.170    0.550  112.431  183.889
  264.350    5.309    0.170    0.545  111.257  177.458
  264.600    5.797    0.155    0.577  111.244  179.899
  264.850    6.088    0.179    0.589  116.177  184.313
