~VERSION INFORMATION
 VERS.                 2.0:   CWLS LOG ASCII STANDARD -VERSION 2.0
 WRAP.                  NO:   ONE LINE PER DEPTH STEP
~WELL INFORMATION BLOCK
#MNEM.UNIT           DATA                    DESCRIPTION OF MNEMONIC
#---------    -------------------            -------------------------------
# Generated from Intellog Unique Number	CW_76_78/WELL/2814
WELL.         11-10-076-02W5                 : Well_name    - WELL
LOC .         00/11-10-076-02W5/0            : Location     - LOCATION
UWI .         00/11-10-076-02W5/0            : Uwi          - UNIQUE WELL ID
ENTR.         JJ                             : Entered      - ENTERED BY
SRVC.         WESTERN ATLAS                  : Scn          - SERVICE COMPANY
DATE.         30 JAN 71                      : Date         - LOG DATE
STRT.M        685.8                          : top_depth    - START DEPTH
STOP.M        807.8                          : bot_depth    - STOP DEPTH
STEP.M        0.25                           : increment    - STEP LENGTH
 NULL. -999.2500:NULL Value
~CURVE INFORMATION BLOCK
#MNEM UNIT       ERCB CURVE CODE    CURVE DESCRIPTION
#-----------   ------------------   ----------------------------------
DEPT.M        00 001 00 00         : DEPTH        - DEPTH
DELT.US/F     00 520 00 00         : DELT         - SONIC TRAVEL TIME
CALI.MM       00 280 01 00         : CAL          - CALIPER
GR  .API      00 310 00 00         : GR           - GAMMA RAY
ILD .OHMM     00 120 00 00         : RESD         - DEEP RESISTIVITY (DIL)
~PARAMETER INFORMATION
#MNEM.UNIT           DATA             DESCRIPTION OF MNEMONIC
#---------         -----------     ------------------------------
GL  .M        900.989              : gl           - GROUND LEVEL ELEVATION
EREF.M        904.646              : kb           - ELEVATION OF DEPTH REFERENCE
DATM.M        904.646              : datum        - DATUM ELEVATION
TDD .M        811.378              : tdd          - TOTAL DEPTH DRILLER
RUN .         ONE                  : Run          - RUN NUMBER
ENG .         SUPRONOVICH-COLE     : Engineer     - RECORDING ENGINEER
WIT .         KVILL                : Witness      - WITNESSED BY
BASE.         EDMONTON             : Branch       - HOME BASE OF LOGGING UNIT
MUD .         GEL                  : Mud_type     - MUD TYPE
MATR.         SANDSTONE            : Logunit      - NEUTRON MATRIX
TMAX.C        26.6667              : BHT          - MAXIMUM RECORDED TEMPERATURE
BHTD.M        810.463              : BHTDEP       - MAXIMUM RECORDED TEMPERATURE
RMT .C        7.22222              : MDTP         - TEMPERATURE OF MUD
MUDD.KG/M     1176                 : MWT          - MUD DENSITY
NEUT.         1                    : NEUTRON      - NEUTRON TYPE
RESI.         0                    : RESIST       - RESISTIVITY TYPE
RM  .OHMM     6                    : RM           - RESISTIVITY OF MUD
RMC .OHMM     0                    : RMC          - RESISTIVITY OF MUD CAKE
RMF .OHMM     0                    : RMF          - RESISTIVITY OF MUD FILTRATE
SUFT.C        5                    : SUFT         - SURFACE TEMPERATURE
~A  DEPTH     DELT      CAL       GR     RESD
# ...
  729.300  352.448  196.744   73.225    6.297
  729.550  366.044  198.230   71.050    6.052
  729.800  376.972  199.387   76.257    5.866
  730.050  375.960  199.955   77.500    5.642
  730.300  376.579  200.099   77.378    5.456
  730.550  378.180  199.535   76.037    5.272
  730.800  372.475  198.882   76.789    5.204
  731.050  364.945  198.217   82.634    5.060
  731.300  361.000  196.430   90.527    4.934
  731.550  359.728  197.092   94.462    4.809
  731.800  352.330  197.954   94.829    4.664
  732.050  368.275  200.853   89.522    4.379
  732.300  380.894  201.724   91.650    4.194
  732.550  375.907  196.180   96.904    4.150
  732.800  363.353  197.041   97.613    4.201
  733.050  355.430  200.751   89.373    4.234
  733.300  362.381  207.006   89.837    4.108
  733.550  370.631  210.713   94.358    3.905
  733.800  378.817  206.299   89.590    3.740
  734.050  380.415  203.905   96.020    3.792
  734.300  375.098  202.640  104.065    3.926
  734.550  374.742  202.482  109.562    4.240
  734.800  388.213  201.404  112.377    4.633
  735.050  373.052  199.318  113.767    5.264
  735.300  394.347  198.050  113.495    5.954
  735.550  421.898  197.187  102.423    6.784
  735.800  429.500  196.721   95.257    7.715
  736.050  432.078  196.983   85.504    7.987
  736.300  425.460  197.741   83.915    7.902
  736.550  434.689  198.906   85.991    7.717
  736.800  444.045  198.959   82.250    7.492
  737.050  445.257  199.516   82.078    7.207
  737.300  422.070  199.971   90.267    6.942
  737.550  407.629  200.836   84.423    6.858
  737.800  429.836  200.990   85.523    7.050
  738.050  447.214  200.325   83.298    7.521
  738.300  424.162  199.970   79.849    8.352
  738.550  363.351  200.527   80.119    9.682
  738.800  299.211  202.107   76.622   10.890
  739.050  282.876  203.995   83.441   11.760
  739.300  260.608  205.257   76.523   12.311
  739.550  246.096  205.312   63.691   12.485
  739.800  234.589  204.240   64.787   12.220
  740.050  232.079  203.676   69.555   11.696
  740.300  282.917  202.813   73.831   10.956
  740.550  310.862  202.256   74.444   10.233
  740.800  336.461  201.491   72.463    9.669
  741.050  322.409  200.521   77.472    9.124
  741.300  361.834  200.467   79.893    8.541
  741.550  388.802  199.913   85.784    8.215
  741.800  392.678  199.956   87.222    7.911
  742.050  381.500  200.010   83.874    7.784
  742.300  361.643  199.753   81.599    7.723
  742.550  362.056  199.504   87.539    7.713
  742.800  360.465  199.250   85.851    7.787
  743.050  355.021  198.987   85.046    7.944
  743.300  347.885  198.124   84.434    8.013
  743.550  337.486  197.364   82.696    8.028
  743.800  299.825  197.003   86.974    8.064
  744.050  343.421  196.652   99.760    8.056
  744.300  368.957  195.786   95.088    8.049
  744.550  338.533  195.429   91.298    7.925
  744.800  320.110  195.275  101.736    7.819
  745.050  333.579  195.223   97.361    7.596
  745.300  334.723  194.964   92.053    7.350
  745.550  325.105  195.322  102.835    7.124
  745.800  333.288  197.513   97.334    6.960
  746.050  340.042  197.554   96.186    6.892
  746.300  316.858  194.557  102.027    6.888
  746.550  294.524  193.282   95.841    6.741
  746.800  353.121  192.220   90.680    6.477
  747.050  367.047  191.657   93.542    6.014
  747.300  364.470  191.297  100.360    5.710
  747.550  347.939  191.146  101.362    5.703
  747.800  331.735  191.803  105.347    5.796
  748.050  310.835  192.360   99.896    5.909
  748.300  342.825  194.046   91.998    6.004
  748.550  351.597  196.737   94.612    6.019
  748.800  344.522  198.323  102.312    6.070
  749.050  339.664  198.867  104.097    6.107
  749.300  312.113  199.025  103.925    6.039
  749.550  335.623  199.688  105.610    6.053
  749.800  352.612  199.736   94.685    5.867
  750.050  359.497  199.781  100.035    5.444
  750.300  346.682  199.229   94.144    5.597
  750.550  329.303  199.269  102.967    5.890
  750.800  302.272  199.223  107.588    6.144
  751.050  337.849  199.267  100.277    6.097
  751.300  345.900  199.018   96.097    5.992
  751.550  349.064  199.474  106.779    5.865
  751.800  343.691  200.545  108.416    5.621
  752.050  350.049  201.300   99.004    5.556
  752.300  345.976  202.467  106.169    5.531
  752.550  348.939  202.925  105.750    5.584
  752.800  340.891  203.287  107.239    5.617
  753.050  345.880  203.332  103.793    5.630
  753.300  335.806  202.975   98.632    5.784
  753.550  312.166  201.202  105.795    6.076
  753.800  318.850  203.179  105.040    6.708
  754.050  292.147  204.854  100.416    7.578
  754.300  284.614  206.232   96.332    8.608
  754.550  270.695  206.884   93.082    9.459
  754.800  320.291  207.054   91.004    8.856
  755.050  347.061  207.292   84.816    7.855
  755.300  348.464  207.548  107.624    6.853
  755.550  346.674  207.798  109.310    5.989
  755.800  348.796  207.849  112.710    5.090
  756.050  350.265  207.693  110.337    4.943
  756.300  343.191  207.251  111.338    5.035
  756.550  349.679  206.581  106.423    5.330
  756.800  348.275  206.224  105.422    5.742
  757.050  331.554  205.152  108.083    5.914
  757.300  355.716  203.883  111.876    5.789
  757.550  369.512  203.931  110.282    5.765
  757.800  336.218  205.607  107.911    5.935
  758.050  326.863  206.977  103.879    6.329
  758.300  335.440  206.320   99.845    6.382
  758.550  359.471  204.128   96.543    6.536
  758.800  355.594  201.433   93.240    7.206
  759.050  349.107  198.937  102.163    8.536
  759.300  412.267  197.268  100.670    9.823
  759.550  414.912  197.308   88.130   12.148
  759.800  365.317  198.792   79.553   13.974
  760.050  304.699  201.792   74.048   16.042
  760.300  259.277  204.080   67.717   17.768
  760.550  244.050  205.045   64.855   19.715
  760.800  232.537  203.872   62.043   21.043
  761.050  251.879  201.479   59.818   20.737
  761.300  338.064  198.279   60.818   19.795
  761.550  357.989  197.408   61.234   18.477
  761.800  355.604  197.458   64.825   17.214
  762.050  351.729  197.824   71.449   15.634
  762.300  356.066  198.077   75.483   15.349
  762.550  353.754  198.117   74.630   16.718
  762.800  268.290  197.970   78.317   18.345
  763.050  265.063  198.018   72.181   19.057
  763.300  374.332  198.059   68.930   18.116
  763.550  389.495  197.919   75.946   16.834
  763.800  380.401  198.278   77.238   15.355
  764.050  375.348  198.625   80.199   13.974
  764.300  386.988  198.983   76.704   13.291
  764.550  349.975  199.351   73.058   13.465
  764.800  345.319  199.400   68.582   13.617
  765.050  341.245  199.124   70.515   13.772
  765.300  339.320  199.180   71.612   14.064
  765.550  342.810  199.130   69.730   14.575
  765.800  332.998  199.078   69.803   14.668
  766.050  335.183  198.720   74.960   14.045
  766.300  340.758  198.355   71.855   13.484
  766.550  344.969  197.495   73.394   13.318
  766.800  349.047  197.544   71.462   13.708
  767.050  299.581  198.100   67.917   15.237
  767.300  273.334  198.562   68.822   17.485
  767.550  243.628  199.632   73.588   19.111
  767.800  243.206  200.190   69.650   21.115
  768.050  259.214  200.844   61.068   21.268
  768.300  272.947  200.284   65.446   19.072
  768.550  321.109  197.894   66.887   17.352
  768.800  328.120  196.216   82.018   15.555
  769.050  330.307  194.940   79.058   14.434
  769.300  341.489  193.782   75.419   13.769
  769.550  349.224  193.221   72.165   12.887
  769.800  359.823  193.264   80.400   12.126
  770.050  354.245  194.131   80.330   11.639
  770.300  331.718  196.516   80.157   11.115
  770.550  346.030  197.683   89.668   11.547
  770.800  307.721  196.006   85.045   12.597
  771.050  285.448  194.127   78.957   13.530
  771.300  326.114  192.446   79.029   13.940
  771.550  355.234  191.276   75.484   13.776
  771.800  360.281  190.310   77.272   13.372
  772.050  352.295  189.754   82.523   12.727
  772.300  352.791  189.590   85.870   11.367
  772.550  360.975  189.949   85.357   10.425
