~VERSION INFORMATION
 VERS.                 2.0:   CWLS LOG ASCII STANDARD -VERSION 2.0
 WRAP.                  NO:   ONE LINE PER DEPTH STEP
~WELL INFORMATION BLOCK
#MNEM.UNIT           DATA                    DESCRIPTION OF MNEMONIC
#---------    -------------------            -------------------------------
# Generated from Intellog Unique Number	CN_91_93/WELL/1164
WELL.         PARAMOUNT RESOURCES LTD.       : Well_name    - WELL
LOC .         00/11-03-091-20W4/0            : Location     - LOCATION
UWI .         00/11-03-091-20W4/0            : Uwi          - UNIQUE WELL ID
ENTR.         JOETTE                         : Entered      - ENTERED BY
SRVC.         SCHLUMBERGER                   : Scn          - SERVICE COMPANY
DATE.         01/15/92                       : Date         - LOG DATE
STRT.F        262.467                        : top_depth    - START DEPTH
STOP.F        738.189                        : bot_depth    - STOP DEPTH
STEP.F        0.82                           : increment    - STEP LENGTH
 NULL. -999.2500:NULL Value
~CURVE INFORMATION BLOCK
#MNEM UNIT       ERCB CURVE CODE    CURVE DESCRIPTION
#-----------   ------------------   ----------------------------------
DEPT.F        00 001 00 00         : DEPTH        - DEPTH
ILD .OHMM     00 120 00 00         : RESD         - DEEP RESISTIVITY (DIL)
DPHI.V/V      00 890 00 00         : PHID         - DENSITY POROSITY (SANDSTONE)
NPHI.V/V      00 330 00 00         : PHIN         - NEUTRON POROSITY (SANDSTONE)
CALI.IN       00 280 01 00         : CAL          - CALIPER
GR  .API      00 310 00 00         : GR           - GAMMA RAY
~PARAMETER INFORMATION
#MNEM.UNIT           DATA             DESCRIPTION OF MNEMONIC
#---------         -----------     ------------------------------
GL  .F        1635.5               : gl           - GROUND LEVEL ELEVATION
EREF.F        1647.97              : kb           - ELEVATION OF DEPTH REFERENCE
DATM.F        1647.97              : datum        - DATUM ELEVATION
TDD .F        738.189              : tdd          - TOTAL DEPTH DRILLER
RUN .         ONE                  : Run          - RUN NUMBER
ENG .         BILL                 : Engineer     - RECORDING ENGINEER
WIT .         JIM                  : Witness      - WITNESSED BY
MUD .         GEL                  : Mud_type     - MUD TYPE
MATR.         SANDSTONE            : Logunit      - NEUTRON MATRIX
TMAX.F        77                   : BHT          - MAXIMUM RECORDED TEMPERATURE
BHTD.F        738.189              : BHTDEP       - MAXIMUM RECORDED TEMPERATURE
RMT .F        47                   : MDTP         - TEMPERATURE OF MUD
MUDD.LB/G     9.16666              : MWT          - MUD DENSITY
NEUT.         1                    : NEUTRON      - NEUTRON TYPE
RESI.         0                    : RESIST       - RESISTIVITY TYPE
RM  .OHMM     7.42                 : RM           - RESISTIVITY OF MUD
RMC .OHMM     4.8                  : RMC          - RESISTIVITY OF MUD CAKE
RMF .OHMM     5                    : RMF          - RESISTIVITY OF MUD FILTRATE
SUFT.F        39.2                 : SUFT         - SURFACE TEMPERATURE
~A  DEPTH     RESD     PHID     PHIN      CAL       GR
  262.467   26.858    0.374    0.469    7.071   38.637
  263.287   22.986    0.417    0.390    7.501   44.577
  264.108   19.485    0.368    0.378    6.694   45.266
  264.928   18.475    0.351    0.379    6.678   45.301
  265.748   21.283    0.338    0.371    6.681   45.063
  266.568   21.336    0.323    0.368    6.583   43.877
  267.388   20.984    0.322    0.360    6.648   42.690
  268.209   18.290    0.329    0.362    6.652   44.292
  269.029   17.827    0.320    0.370    6.696   53.314
  269.849   15.399    0.243    0.386    6.720   67.897
  270.669   10.642    0.235    0.410    6.642   94.844
  271.490    7.704    0.215    0.424    6.646   81.926
  272.310    7.370    0.199    0.432    6.609   74.561
  273.130    9.233    0.222    0.416    6.411   62.254
  273.950    9.606    0.299    0.399    6.658   62.620
  274.770    7.917    0.303    0.403    6.803   84.315
  275.591    6.839    0.288    0.410    6.787   91.800
  276.411    6.133    0.291    0.417    6.669   92.776
  277.231    5.705    0.288    0.429    6.672   96.856
  278.051    5.358    0.289    0.448    6.676  100.310
  278.871    5.127    0.297    0.472    6.640  101.912
  279.692    5.383    0.297    0.473    6.623   96.401
  280.512    5.812    0.295    0.448    6.687   84.725
  281.332    5.664    0.303    0.427    6.752   88.482
  282.152    5.471    0.311    0.418    6.654   85.140
  282.972    5.531    0.298    0.397    6.516   85.815
  283.793    5.917    0.296    0.413    6.399   83.400
  284.613    7.009    0.290    0.433    6.666   72.019
  285.433    8.619    0.248    0.432    6.588   64.044
  286.253   10.213    0.186    0.411    6.431   49.876
  287.073   11.768    0.156    0.375    6.393   46.857
  287.894   14.070    0.271    0.376    6.437   47.209
  288.714   16.513    0.308    0.382    6.603   51.597
  289.534   16.396    0.336    0.382    6.648   52.588
  290.354   13.903    0.329    0.389    6.652   53.564
  291.175   11.355    0.299    0.399    6.655   63.204
  291.995    9.023    0.269    0.412    6.659   89.225
  292.815    7.938    0.259    0.424    6.683  103.808
  293.635    7.386    0.252    0.440    6.585  102.937
  294.455    7.134    0.251    0.449    6.528   98.360
  295.276    7.148    0.250    0.461    6.633  100.593
  296.096    7.168    0.253    0.460    6.638   99.407
  296.916    6.923    0.257    0.455    6.641   97.610
  297.736    6.620    0.259    0.439    6.726   97.969
  298.556    6.217    0.259    0.433    6.750  104.829
  299.377    5.948    0.253    0.436    6.673  104.583
  300.197    5.798    0.257    0.444    6.676  101.249
  301.017    5.757    0.266    0.444    6.700  101.291
  301.837    5.769    0.263    0.443    6.704  101.657
  302.657    5.947    0.259    0.450    6.850   98.624
  303.478    6.184    0.251    0.463    6.914   99.608
  304.298    6.492    0.242    0.467    6.898  103.062
  305.118    6.820    0.234    0.450    6.841  101.574
  305.938    6.961    0.233    0.433    6.784   98.851
  306.759    7.107    0.226    0.414    6.767   97.679
  307.579    7.260    0.217    0.407    6.791   96.499
  308.399    7.278    0.231    0.413    6.836   94.085
  309.219    7.221    0.245    0.424    6.859   94.134
  310.039    7.038    0.254    0.439    6.843   98.221
  310.860    6.671    0.256    0.448    6.826  100.749
  311.680    6.688    0.251    0.443    6.749  100.490
  312.500    6.892    0.238    0.435    6.712   98.700
  313.320    7.035    0.237    0.428    6.736   98.138
  314.140    7.456    0.250    0.429    6.740   97.261
  314.961    7.830    0.252    0.441    6.663   96.082
  315.781    7.994    0.247    0.441    6.626   97.374
  316.601    7.794    0.243    0.435    6.630   94.349
  317.421    7.384    0.239    0.435    6.572   95.332
  318.241    6.558    0.243    0.449    6.577   97.853
  319.062    5.508    0.255    0.474    6.722  107.191
  319.882    4.629    0.279    0.490    6.868  110.021
  320.702    4.346    0.277    0.497    6.811  111.005
  321.522    4.196    0.270    0.497    6.653  107.354
  322.343    4.208    0.267    0.489    6.656  109.264
  323.163    4.334    0.259    0.490    6.660  104.378
  323.983    4.635    0.249    0.490    6.643  100.419
  324.803    5.052    0.242    0.483    6.647   96.150
  325.623    5.504    0.247    0.476    6.712   93.118
  326.444    5.942    0.253    0.476    6.695   94.108
  327.264    5.903    0.257    0.464    6.700   97.556
  328.084    5.493    0.256    0.454    6.723  100.393
  328.904    5.254    0.255    0.452    6.747  108.503
  329.724    4.843    0.265    0.463    6.710  111.325
  330.545    4.465    0.283    0.499    6.653  113.867
  331.365    4.273    0.278    0.514    6.636  108.040
  332.185    4.320    0.227    0.484    6.660   93.570
  333.005    4.839    0.222    0.448    6.623   82.808
  333.825    6.007    0.303    0.424    6.526   68.647
  334.646    7.738    0.367    0.415    6.692   57.891
  335.466   11.351    0.361    0.404    6.777   48.673
  336.286   14.487    0.353    0.405    6.780   50.583
  337.106   17.651    0.351    0.409    6.785   53.427
  337.927   17.689    0.351    0.416    6.809   53.483
  338.747   16.156    0.345    0.421    6.815   55.401
  339.567   14.086    0.330    0.419    6.816   60.393
  340.387   12.165    0.269    0.390    6.739   70.960
  341.207   10.031    0.225    0.377    6.600   88.639
  342.028    8.583    0.261    0.396    6.584   94.264
  342.848    6.757    0.269    0.434    6.668   94.622
  343.668    5.835    0.271    0.473    6.712   90.972
  344.488    5.635    0.280    0.456    6.736   87.630
  345.308    5.862    0.281    0.425    6.761   85.215
  346.129    6.818    0.284    0.407    6.786   81.256
  346.949    8.305    0.299    0.396    6.809   74.509
  347.769    9.656    0.308    0.401    6.813   67.769
  348.589   11.765    0.314    0.397    6.797   64.119
  349.409   12.942    0.322    0.394    6.801   67.883
  350.230   12.728    0.314    0.402    6.783   84.010
  351.050   11.411    0.273    0.401    6.788   98.902
  351.870    8.573    0.281    0.404    6.689   94.016
  352.690    7.337    0.282    0.419    6.572   97.162
  353.510    6.279    0.272    0.435    6.576  108.347
  354.331    6.179    0.271    0.454    6.576   96.973
  355.151    6.733    0.279    0.459    6.605   90.226
  355.971    7.132    0.278    0.442    6.607   85.347
  356.791    7.084    0.269    0.422    6.570   89.104
  357.612    7.032    0.274    0.419    6.533   93.801
  358.432    7.180    0.282    0.426    6.619   91.696
  359.252    7.681    0.288    0.431    6.643   83.713
  360.072    7.774    0.293    0.434    6.646   74.811
  360.892    8.387    0.283    0.433    6.649   73.625
  361.713    9.487    0.241    0.424    6.673   80.485
  362.533   10.731    0.255    0.410    6.718   71.575
  363.353   12.251    0.306    0.421    6.661   62.673
  364.173   13.473    0.344    0.398    6.583   50.064
  364.993   14.955    0.352    0.368    6.608   54.137
  365.814   16.447    0.348    0.378    6.611   53.266
  366.634   18.426    0.344    0.396    6.594   53.632
  367.454   18.823    0.343    0.401    6.599   56.476
  368.274   17.837    0.339    0.386    6.602   56.532
  369.094   16.448    0.334    0.376    6.606   57.200
  369.915   15.154    0.276    0.372    6.630   61.581
  370.735   12.973    0.233    0.394    6.716   77.407
  371.555   11.956    0.216    0.409    6.760   83.951
  372.375   11.653    0.235    0.411    6.683   72.570
  373.196   12.583    0.279    0.408    6.645   63.977
  374.016   13.206    0.299    0.408    6.629   66.203
  374.836   12.288    0.269    0.410    6.632   73.674
  375.656   10.522    0.281    0.424    6.637   83.314
  376.476   10.448    0.290    0.433    6.660   84.916
  377.297   10.761    0.285    0.429    6.684   86.833
  378.117   10.295    0.277    0.419    6.709   90.590
  378.937    8.487    0.263    0.419    6.773   95.596
  379.757    7.334    0.256    0.418    6.837   96.579
  380.577    7.082    0.256    0.409    6.922   97.879
  381.398    6.775    0.255    0.415    6.988  100.091
