~VERSION INFORMATION
 VERS.                 2.0:   CWLS LOG ASCII STANDARD -VERSION 2.0
 WRAP.                  NO:   ONE LINE PER DEPTH STEP
~WELL INFORMATION BLOCK
#MNEM.UNIT           DATA                    DESCRIPTION OF MNEMONIC
#---------    -------------------            -------------------------------
# Generated from Intellog Unique Number	CW_70_72/WELL/1049
NULL.         -999.25                        : NULL_VALUE
WELL.         HOME CDN SUP MITSUE 10-34      : Well_name    - WELL              
LOC .         10-34-071-03W5                 : Location     - LOCATION          
UWI .         00/10-34-071-03W5/0            : Uwi          - UNIQUE WELL ID    
ENTR.         JAYE                           : Entered      - ENTERED BY        
SRVC.         COMPUTALOG                     : Scn          - SERVICE COMPANY   
DATE.         7 SEPT 84                      : Date         - LOG DATE          
STRT.M        420                            : top_depth    - START DEPTH       
STOP.M        625                            : bot_depth    - STOP DEPTH        
STEP.M        0.25                           : increment    - STEP LENGTH       
~CURVE INFORMATION BLOCK
#MNEM UNIT       ERCB CURVE CODE    CURVE DESCRIPTION
#-----------   ------------------   ----------------------------------
DEPT.M        00 001 00 00         : DEPTH        - DEPTH                       
DPHI.V/V      00 890 00 00         : PHID         - DENSITY POROSITY (SANDSTONE)
NPHI.V/V      00 330 00 00         : PHIN         - NEUTRON POROSITY (SANDSTONE)
GR  .API      00 310 00 00         : GR           - GAMMA RAY                   
CALI.MM       00 280 01 00         : CAL          - CALIPER                     
ILD .OHMM     00 120 00 00         : RESD         - DEEP RESISTIVITY (DIL)      
~PARAMETER INFORMATION       
#MNEM.UNIT           DATA             DESCRIPTION OF MNEMONIC
#---------         -----------     ------------------------------
GL  .M        625.4                : gl           - GROUND LEVEL ELEVATION      
EREF.M        628.3                : kb           - ELEVATION OF DEPTH REFERENCE
DATM.M        625.4                : datum        - DATUM ELEVATION             
TDD .M        643                  : tdd          - TOTAL DEPTH DRILLER         
RUN .         ONE                  : Run          - RUN NUMBER                  
ENG .         MACLEAN              : Engineer     - RECORDING ENGINEER          
WIT .         COOK/YARDLEY         : Witness      - WITNESSED BY                
BASE.         EDM                  : Branch       - HOME BASE OF LOGGING UNIT   
MUD .         GEL CHEM             : Mud_type     - MUD TYPE                    
MATR.         SANDSTONE            : Logunit      - NEUTRON MATRIX              
TMAX.C        22                   : BHT          - MAXIMUM RECORDED TEMPERATURE
BHTD.M        632.5                : BHTDEP       - MAXIMUM RECORDED TEMPERATURE
RMT .C        17                   : MDTP         - TEMPERATURE OF MUD          
MUDD.KG/M     1120                 : MWT          - MUD DENSITY                 
NEUT.         1                    : NEUTRON      - NEUTRON TYPE                
RESI.         0                    : RESIST       - RESISTIVITY TYPE            
RM  .OHMM     4                    : RM           - RESISTIVITY OF MUD          
RMC .OHMM     3.2                  : RMC          - RESISTIVITY OF MUD CAKE     
RMF .OHMM     3.8                  : RMF          - RESISTIVITY OF MUD FILTRATE 
SUFT.C        0                    : SUFT         - SURFACE TEMPERATURE         
~A  DEPTH     PHID     PHIN       GR      CAL     RESD
# ...
  529.500    0.334    0.436   35.323  194.270    2.018
  529.750    0.331    0.443   34.898  193.980    2.010
  530.000    0.329    0.433   33.224  193.892    2.009
  530.250    0.332    0.416   33.110  193.807    2.031
  530.500    0.333    0.404   34.744  194.034    2.061
  530.750    0.333    0.414   35.506  193.952    2.107
  531.000    0.331    0.429   35.079  193.968    2.154
  531.250    0.328    0.436   34.779  193.677    2.210
  531.500    0.324    0.429   34.853  193.594    2.259
  531.750    0.323    0.413   34.926  193.614    2.296
  532.000    0.325    0.401   35.748  193.734    2.347
  532.250    0.328    0.391   36.697  193.647    2.403
  532.500    0.327    0.402   35.772  193.563    2.448
  532.750    0.323    0.408   34.847  193.478    2.511
  533.000    0.291    0.428   33.798  193.396    2.567
  533.250    0.247    0.385   32.560  193.307    2.654
  533.500    0.247    0.345   30.763  193.226    2.784
  533.750    0.283    0.385   29.526  193.555    2.970
  534.000    0.213    0.370   28.290  194.198    3.258
  534.250    0.214    0.301   27.366  194.945    3.594
  534.500    0.168    0.271   27.001  196.419    3.863
  534.750    0.156    0.282   27.075  197.061    3.686
  535.000    0.210    0.333   27.773  195.000    3.339
  535.250    0.308    0.366   29.969  192.731    2.953
  535.500    0.321    0.388   31.602  192.438    2.695
  535.750    0.316    0.384   28.682  192.980    2.505
  536.000    0.313    0.387   28.818  193.000    2.364
  536.250    0.312    0.390   30.827  193.120    2.281
  536.500    0.310    0.396   33.083  193.243    2.243
  536.750    0.302    0.392   30.600  193.370    2.284
  537.000    0.282    0.391   31.546  193.593    2.352
  537.250    0.241    0.397   33.179  193.925    2.427
  537.500    0.232    0.400   36.749  194.363    2.570
  537.750    0.236    0.396   41.939  194.586    2.747
  538.000    0.248    0.408   43.074  194.709    2.824
  538.250    0.276    0.401   38.966  194.727    2.705
  538.500    0.299    0.391   33.050  194.644    2.524
  538.750    0.311    0.376   30.379  194.767    2.373
  539.000    0.316    0.393   27.707  194.891    2.290
  539.250    0.311    0.388   26.782  194.908    2.230
  539.500    0.312    0.380   27.292  195.034    2.196
  539.750    0.317    0.393   28.302  194.633    2.159
  540.000    0.323    0.407   28.251  194.341    2.139
  540.250    0.326    0.410   29.324  194.051    2.130
  540.500    0.323    0.404   30.646  193.964    2.141
  540.750    0.322    0.394   31.717  193.775    2.164
  541.000    0.326    0.383   32.352  193.586    2.180
  541.250    0.325    0.372   30.805  193.606    2.220
  541.500    0.313    0.376   30.067  193.623    2.373
  541.750    0.297    0.379   31.889  193.751    2.603
  542.000    0.273    0.371   32.773  193.770    2.845
  542.250    0.250    0.358   32.659  193.893    2.990
  542.500    0.238    0.347   32.608  194.120    3.102
  542.750    0.261    0.404   33.244  194.450    3.177
  543.000    0.296    0.405   33.943  194.777    3.037
  543.250    0.311    0.395   34.577  195.109    2.741
  543.500    0.322    0.385   34.839  195.337    2.530
  543.750    0.337    0.388   35.288  195.876    2.405
  544.000    0.345    0.397   35.610  196.414    2.377
  544.250    0.347    0.410   35.808  196.120    2.363
  544.500    0.328    0.418   36.694  195.100    2.402
  544.750    0.307    0.417   38.701  193.767    2.442
  545.000    0.290    0.415   37.964  193.577    2.534
  545.250    0.275    0.418   36.352  193.910    2.658
  545.500    0.272    0.420   38.485  194.135    2.863
  545.750    0.277    0.416   40.931  194.053    2.964
  546.000    0.284    0.408   42.378  194.175    2.947
  546.250    0.295    0.400   36.648  194.297    2.908
  546.500    0.304    0.394   35.413  194.419    2.912
  546.750    0.288    0.385   37.420  194.542    2.933
  547.000    0.249    0.391   41.862  195.393    2.981
  547.250    0.228    0.397   42.434  196.347    3.093
  547.500    0.225    0.392   37.829  197.406    3.282
  547.750    0.224    0.380   36.529  198.155    3.494
  548.000    0.218    0.384   37.476  198.070    3.626
  548.250    0.212    0.387   38.112  197.256    3.706
  548.500    0.213    0.383   38.810  196.756    3.767
  548.750    0.213    0.382   38.947  194.383    3.916
  549.000    0.211    0.383   38.645  193.778    4.116
  549.250    0.209    0.380   38.657  194.109    4.262
  549.500    0.207    0.372   39.980  193.825    4.349
  549.750    0.204    0.361   41.363  192.483    4.404
  550.000    0.199    0.358   41.313  190.213    4.354
  550.250    0.243    0.377   40.824  190.648    4.139
  550.500    0.261    0.399   40.650  192.748    4.017
  550.750    0.257    0.399   40.909  195.054    4.015
  551.000    0.225    0.391   41.420  197.362    4.089
  551.250    0.211    0.382   41.619  200.708    4.227
  551.500    0.202    0.377   41.193  200.623    4.451
  551.750    0.214    0.376   40.019  196.171    4.687
  552.000    0.229    0.385   37.847  194.733    4.694
  552.250    0.250    0.394   35.673  193.504    4.414
  552.500    0.266    0.397   34.999  193.214    4.103
  552.750    0.268    0.389   37.069  193.647    3.759
  553.000    0.262    0.377   39.827  193.875    3.405
  553.250    0.255    0.377   36.843  194.308    3.366
  553.500    0.250    0.388   38.539  194.744    3.434
  553.750    0.246    0.396   39.924  194.762    3.603
  554.000    0.239    0.372   38.873  194.577    3.816
  554.250    0.225    0.357   34.954  194.490    4.178
  554.500    0.209    0.375   36.026  194.404    4.319
  554.750    0.213    0.399   39.157  194.425    4.293
  555.000    0.235    0.388   40.917  194.652    4.097
  555.250    0.233    0.386   41.114  195.085    3.866
  555.500    0.224    0.405   41.126  196.356    3.642
  555.750    0.218    0.429   41.262  197.619    3.580
  556.000    0.219    0.431   45.080  202.837    3.572
  556.250    0.223    0.423   48.336  210.344    3.638
  556.500    0.234    0.415   45.664  205.788    3.739
  556.750    0.224    0.411   45.989  202.270    3.822
  557.000    0.208    0.414   48.558  204.474    3.951
  557.250    0.193    0.410   46.261  209.382    4.076
  557.500    0.201    0.399   42.903  204.615    4.190
  557.750    0.215    0.390   39.731  199.748    4.236
  558.000    0.217    0.388   39.494  200.078    4.242
  558.250    0.209    0.398   39.379  201.554    4.264
  558.500    0.199    0.414   39.641  202.615    4.271
  558.750    0.188    0.432   39.777  202.944    4.285
  559.000    0.181    0.438   39.977  203.173    4.316
  559.250    0.169    0.419   40.362  202.772    4.314
  559.500    0.177    0.400   40.811  200.919    4.321
  559.750    0.184    0.383   41.257  195.843    4.327
  560.000    0.185    0.419   41.394  195.758    4.342
  560.250    0.187    0.426   41.842  197.337    4.381
  560.500    0.191    0.414   41.916  200.267    4.379
  560.750    0.196    0.387   41.864  204.032    4.402
  561.000    0.201    0.374   42.252  206.858    4.393
  561.250    0.200    0.396   42.513  204.589    4.407
  561.500    0.199    0.416   43.023  202.633    4.455
  561.750    0.195    0.416   43.034  203.898    4.537
  562.000    0.174    0.392   41.113  201.943    4.742
  562.250    0.169    0.352   39.250  200.401    5.050
  562.500    0.193    0.371   38.200  200.213    5.230
  562.750    0.216    0.406   40.646  200.647    5.238
  563.000    0.208    0.414   45.961  201.497    4.970
  563.250    0.196    0.421   51.464  201.727    4.656
  563.500    0.183    0.425   51.164  201.745    4.434
  563.750    0.166    0.413   49.739  201.867    4.319
  564.000    0.160    0.402   49.127  201.679    4.262
  564.250    0.170    0.394   50.948  201.284    4.252
  564.500    0.185    0.402   51.770  200.987    4.314
  564.750    0.201    0.400   50.034  201.014    4.402
  565.000    0.216    0.385   48.112  200.719    4.584
  565.250    0.234    0.378   46.751  200.633    4.918
  565.500    0.247    0.379   45.639  200.649    5.316
  565.750    0.244    0.387   44.714  200.566    5.587
