~VERSION INFORMATION
 VERS.                 2.0:   CWLS LOG ASCII STANDARD -VERSION 2.0
 WRAP.                  NO:   ONE LINE PER DEPTH STEP
~WELL INFORMATION BLOCK
#MNEM.UNIT           DATA                    DESCRIPTION OF MNEMONIC
#---------    -------------------            -------------------------------
# Generated from Intellog Unique Number	CS_77_79/WELL/3308
WELL.         ANDERSON EXPLORATION LTD.      : Well_name    - WELL
LOC .         00/14-33-077-03W4/0            : Location     - LOCATION
UWI .         00/14-33-077-03W4/0            : Uwi          - UNIQUE WELL ID
ENTR.         JOETTE                         : Entered      - ENTERED BY
SRVC.         COMPUTALOG                     : Scn          - SERVICE COMPANY
DATE.         08/26/92                       : Date         - LOG DATE
STRT.M        175                            : top_depth    - START DEPTH
STOP.M        435                            : bot_depth    - STOP DEPTH
STEP.M        0.25                           : increment    - STEP LENGTH
 NULL. -999.2500:NULL Value
~CURVE INFORMATION BLOCK
#MNEM UNIT       ERCB CURVE CODE    CURVE DESCRIPTION
#-----------   ------------------   ----------------------------------
DEPT.M        00 001 00 00         : DEPTH        - DEPTH
ILD .OHMM     00 120 00 00         : RESD         - DEEP RESISTIVITY (DIL)
NPHI.V/V      00 330 00 00         : PHIN         - NEUTRON POROSITY (SANDSTONE)
GR  .API      00 310 00 00         : GR           - GAMMA RAY
~PARAMETER INFORMATION
#MNEM.UNIT           DATA             DESCRIPTION OF MNEMONIC
#---------         -----------     ------------------------------
GL  .M        565.2                : gl           - GROUND LEVEL ELEVATION
EREF.M        568.8                : kb           - ELEVATION OF DEPTH REFERENCE
DATM.M        568.8                : datum        - DATUM ELEVATION
TDD .M        434.4                : tdd          - TOTAL DEPTH DRILLER
RUN .         ONE                  : Run          - RUN NUMBER
ENG .         BILL                 : Engineer     - RECORDING ENGINEER
WIT .         JIM                  : Witness      - WITNESSED BY
MUD .         GEL                  : Mud_type     - MUD TYPE
MATR.         SANDSTONE            : Logunit      - NEUTRON MATRIX
TMAX.C        25                   : BHT          - MAXIMUM RECORDED TEMPERATURE
BHTD.M        434.3                : BHTDEP       - MAXIMUM RECORDED TEMPERATURE
MATR.         1                    : LOGUNIT      - NEUTRON MATRIX
RMT .C        13                   : MDTP         - TEMPERATURE OF MUD
NEUT.         1                    : NEUTRON      - NEUTRON TYPE
RESI.         0                    : RESIST       - RESISTIVITY TYPE
RMC .OHMM     1.9                  : RMC          - RESISTIVITY OF MUD CAKE
RMF .OHMM     1.7                  : RMF          - RESISTIVITY OF MUD FILTRATE
SUFT.C        15                   : SUFT         - SURFACE TEMPERATURE
~A  DEPTH     RESD     PHIN       GR
# ...
  229.250   21.134    0.394   58.806
  229.500   21.948    0.402   60.724
  229.750   22.366    0.396   62.640
  230.000   22.794    0.394   63.918
  230.250   22.799    0.406   65.204
  230.500   22.381    0.413   64.579
  230.750   22.386    0.414   63.317
  231.000   22.390    0.409   60.786
  231.250   21.981    0.398   59.526
  231.500   21.985    0.381   60.172
  231.750   21.991    0.374   62.723
  232.000   21.995    0.383   64.004
  232.250   21.999    0.389   62.111
  232.500   22.005    0.401   60.851
  232.750   22.008    0.410   59.589
  233.000   22.014    0.419   56.423
  233.250   22.020    0.420   58.339
  233.500   22.024    0.432   62.796
  233.750   21.621    0.426   65.347
  234.000   21.627    0.422   66.630
  234.250   21.227    0.425   66.643
  234.500   21.232    0.434   66.648
  234.750   21.239    0.442   66.661
  235.000   21.242    0.444   68.577
  235.250   21.246    0.431   71.761
  235.500   21.251    0.427   72.406
  235.750   21.659    0.434   69.876
  236.000   21.662    0.437   71.794
  236.250   22.495    0.440   69.902
  236.500   23.360    0.444   68.639
  236.750   24.258    0.449   67.379
  237.000   27.153    0.450   67.392
  237.250   28.729    0.399   68.673
  237.500   35.319    0.400   66.778
  237.750   39.531    0.381   64.245
  238.000   47.697    0.290   64.890
  238.250   46.819    0.251   64.265
  238.500   41.846    0.220   58.559
  238.750   29.868    0.211   53.491
  239.000   27.714    0.274   54.771
  239.250   24.772    0.414   57.955
  239.500   21.729    0.425   61.779
  239.750   21.332    0.437   62.425
  240.000   22.570    0.432   61.797
  240.250   24.794    0.403   59.267
  240.500   26.234    0.390   55.466
  240.750   26.239    0.397   52.936
  241.000   25.757    0.425   49.770
  241.250   24.814    0.431   45.969
  241.500   23.908    0.446   42.806
  241.750   22.604    0.449   47.263
  242.000   21.374    0.437   52.987
  242.250   20.981    0.431   58.717
  242.500   20.213    0.439   58.092
  242.750   19.473    0.431   57.470
  243.000   18.411    0.405   58.116
  243.250   16.151    0.393   58.758
  243.500   14.708    0.397   59.404
  243.750   12.427    0.425   60.685
  244.000    9.383    0.472   63.874
  244.250    8.077    0.465   67.057
  244.500    7.357    0.446   75.960
  244.750    6.955    0.449   85.499
  245.000    6.455    0.434   95.037
  245.250    6.218    0.433  100.129
  245.500    6.105    0.418  103.317
  245.750    5.992    0.443  100.785
  246.000    5.773    0.449   96.986
  246.250    5.562    0.432  100.170
  246.500    5.460    0.421  109.711
  246.750    5.461    0.426  107.816
  247.000    5.888    0.453  105.288
  247.250    6.348    0.464  102.120
  247.500    6.843    0.471   95.143
  247.750    7.241    0.480   91.345
  248.000    7.662    0.485   90.720
  248.250    7.808    0.486   93.268
  248.500    7.665    0.477  100.268
  248.750    7.524    0.470   99.644
  249.000    7.248    0.452   94.570
  249.250    7.250    0.443   90.134
  249.500    7.965    0.439   97.767
  249.750    8.749    0.445   95.871
  250.000    9.793    0.451   86.989
  250.250   11.381    0.447   80.012
  250.500   12.269    0.435   72.403
  250.750   12.273    0.409   69.870
  251.000   12.047    0.402   67.975
  251.250   11.826    0.407   71.799
  251.500   12.750    0.406   74.347
  251.750   13.745    0.404   75.631
  252.000   15.676    0.409   68.652
  252.250   16.903    0.398   64.216
  252.500   17.226    0.391   64.861
  252.750   17.231    0.397   66.777
  253.000   17.233    0.405   67.425
  253.250   17.236    0.425   67.436
  253.500   16.920    0.419   68.086
  253.750   16.609    0.410   69.362
  254.000   16.001    0.410   70.643
  254.250   15.416    0.423   70.018
  254.500   14.576    0.425   67.490
  254.750   13.275    0.426   66.868
  255.000   12.318    0.422   66.876
  255.250   10.805    0.420   68.791
  255.500    9.302    0.414   72.610
  255.750    8.008    0.414   76.432
  256.000    7.025    0.432   80.891
  256.250    6.279    0.457   85.348
  256.500    5.508    0.474   92.343
  256.750    5.208    0.490   98.707
  257.000    4.833    0.495  101.256
  257.250    4.744    0.490  102.539
  257.500    4.834    0.485  101.914
  257.750    5.213    0.493  103.195
  258.000    5.515    0.500  109.560
  258.250    6.290    0.509  105.121
  258.500    9.504    0.481   98.145
  258.750   10.440    0.485   91.168
  259.000   15.194    0.475   84.826
  259.250   15.777    0.436   77.215
  259.500   17.660    0.389   63.886
  259.750   20.910    0.393   58.182
  260.000   22.971    0.422   57.557
  260.250   23.411    0.425   59.473
  260.500   22.982    0.420   60.754
  260.750   22.986    0.412   58.861
  261.000   22.146    0.402   57.596
  261.250   21.740    0.427   57.607
  261.500   21.339    0.436   58.252
  261.750   20.950    0.441   60.168
  262.000   20.564    0.444   61.452
  262.250   20.185    0.456   61.462
  262.500   20.191    0.458   59.567
  262.750   19.820    0.420   57.674
  263.000   19.456    0.407   57.047
  263.250   19.459    0.421   57.690
  263.500   19.463    0.420   58.970
  263.750   19.469    0.414   60.251
  264.000   19.474    0.424   60.261
  264.250   19.477    0.442   59.637
  264.500   19.483    0.443   59.014
  264.750   19.485    0.419   59.660
  265.000   19.491    0.419   59.673
  265.250   19.493    0.445   58.415
  265.500   19.138    0.461   57.785
  265.750   19.141    0.493   57.801
  266.000   19.146    0.478   59.079
  266.250   19.149    0.468   60.360
  266.500   18.799    0.455   61.638
  266.750   18.804    0.452   62.286
  267.000   18.457    0.452   62.299
  267.250   18.460    0.458   62.304
  267.500   18.815    0.465   61.682
  267.750   18.818    0.462   61.692
  268.000   19.180    0.451   60.432
  268.250   19.548    0.439   58.537
  268.500   19.551    0.437   58.545
  268.750   19.554    0.444   58.555
  269.000   19.197    0.437   59.836
  269.250   18.843    0.412   64.295
  269.500   17.816    0.408   64.938
  269.750   17.164    0.405   62.408
  270.000   16.536    0.411   59.245
  270.250   16.233    0.423   61.793
  270.500   16.237    0.432   64.344
  270.750   16.240    0.443   66.898
  271.000   16.243    0.452   68.181
  271.250   16.555    0.454   64.381
  271.500   16.872    0.444   66.297
  271.750   17.195    0.432   66.940
  272.000   17.199    0.420   68.220
  272.250   17.203    0.418   67.598
  272.500   17.207    0.421   65.703
  272.750   16.890    0.424   63.808
  273.000   16.895    0.424   64.453
  273.250   16.583    0.425   66.367
  273.500   16.588    0.432   68.285
  273.750   16.905    0.443   67.660
  274.000   17.228    0.459   66.400
  274.250   17.890    0.461   65.143
  274.500   18.579    0.440   64.513
  274.750   18.583    0.436   64.523
  275.000   18.587    0.429   65.804
  275.250   17.906    0.405   65.179
  275.500   16.309    0.412   63.919
  275.750   15.133    0.437   65.200
  276.000   13.782    0.445   64.575
  276.250   12.551    0.443   66.491
  276.500   11.218    0.478   73.491
  276.750    8.313    0.474   77.315
  277.000    5.714    0.475   79.866
  277.250    5.302    0.488   82.415
  277.500    3.578    0.510   97.669
  277.750    3.447    0.513  106.575
  278.000    3.139    0.511  105.312
  278.250    3.024    0.510  102.149
  278.500    3.025    0.511   99.617
  278.750    3.025    0.514  107.249
  279.000    3.026    0.520  112.344
  279.250    3.027    0.549  112.354
  279.500    3.085    0.575  112.997
  279.750    3.144    0.591  113.007
  280.000    3.204    0.601  114.288
  280.250    3.205    0.610  116.204
  280.500    3.206    0.613  114.314
  280.750    3.147    0.607  114.959
  281.000    3.147    0.591  117.508
  281.250    3.148    0.568  119.424
  281.500    3.149    0.559  117.529
  281.750    3.270    0.552  114.998
  282.000    3.592    0.538  115.644
  282.250    3.872    0.517  118.198
  282.500    4.254    0.523  113.759
  282.750    4.761    0.525  101.066
  283.000    5.231    0.519   98.535
  283.250    5.965    0.506   94.734
