~VERSION INFORMATION
 VERS.                 2.0:   CWLS LOG ASCII STANDARD -VERSION 2.0
 WRAP.                  NO:   ONE LINE PER DEPTH STEP
~WELL INFORMATION BLOCK
#MNEM.UNIT           DATA                    DESCRIPTION OF MNEMONIC
#---------    -------------------            -------------------------------
# Generated from Intellog Unique Number	CW_82_90/WELL/3075
WELL.         TEXACO WOODEN                  : Well_name    - WELL
LOC .         00/11-12-087-22W4/0            : Location     - LOCATION
UWI .         00/11-12-087-22W4/0            : Uwi          - UNIQUE WELL ID
ENTR.         MAX                            : Entered      - ENTERED BY
SRVC.         SCHLUMBERGER                   : Scn          - SERVICE COMPANY
STRT.M        145                            : top_depth    - START DEPTH
STOP.M        330                            : bot_depth    - STOP DEPTH
STEP.M        0.25                           : increment    - STEP LENGTH
 NULL. -999.2500:NULL Value
~CURVE INFORMATION BLOCK
#MNEM UNIT       ERCB CURVE CODE    CURVE DESCRIPTION
#-----------   ------------------   ----------------------------------
DEPT.M        00 001 00 00         : DEPTH        - DEPTH
ILD .OHMM     00 120 00 00         : RESD         - DEEP RESISTIVITY (DIL)
NPHI.V/V      00 330 00 00         : PHIN         - NEUTRON POROSITY (SANDSTONE)
DPHI.V/V      00 890 00 00         : PHID         - DENSITY POROSITY (SANDSTONE)
CALI.MM       00 280 01 00         : CAL          - CALIPER
GR  .API      00 310 00 00         : GR           - GAMMA RAY
~PARAMETER INFORMATION
#MNEM.UNIT           DATA             DESCRIPTION OF MNEMONIC
#---------         -----------     ------------------------------
GL  .M        559.47               : gl           - GROUND LEVEL ELEVATION
EREF.M        562.92               : kb           - ELEVATION OF DEPTH REFERENCE
DATM.M        559.47               : datum        - DATUM ELEVATION
TDD .M        337                  : tdd          - TOTAL DEPTH DRILLER
RUN .         ONE                  : Run          - RUN NUMBER
ENG .         BILL                 : Engineer     - RECORDING ENGINEER
WIT .         JIM                  : Witness      - WITNESSED BY
MUD .         GEL                  : Mud_type     - MUD TYPE
MATR.         SANDSTONE            : Logunit      - NEUTRON MATRIX
TMAX.C        22.2                 : BHT          - MAXIMUM RECORDED TEMPERATURE
BHTD.M        337                  : BHTDEP       - MAXIMUM RECORDED TEMPERATURE
MATR.         1                    : LOGUNIT      - NEUTRON MATRIX
RMT .C        20                   : MDTP         - TEMPERATURE OF MUD
NEUT.         1                    : NEUTRON      - NEUTRON TYPE
RESI.         0                    : RESIST       - RESISTIVITY TYPE
RMC .OHMM     5.06                 : RMC          - RESISTIVITY OF MUD CAKE
RMF .OHMM     3.27                 : RMF          - RESISTIVITY OF MUD FILTRATE
SUFT.C        -10                  : SUFT         - SURFACE TEMPERATURE
~A  DEPTH     RESD     PHIN     PHID      CAL       GR
# ...
  254.500   12.626    0.358    0.204  240.766   85.006
  254.750   13.105    0.350    0.212  238.778   84.113
  255.000   13.728    0.363    0.221  233.801   82.920
  255.250   14.250    0.359    0.203  231.813   82.326
  255.500   14.254    0.347    0.201  233.314   80.236
  255.750   14.392    0.350    0.197  233.320   77.548
  256.000   14.667    0.359    0.201  232.827   78.150
  256.250   14.808    0.369    0.215  233.331   79.948
  256.500   14.953    0.355    0.224  233.337   81.146
  256.750   14.958    0.355    0.218  232.844   82.645
  257.000   14.827    0.353    0.217  232.849   82.648
  257.250   14.564    0.348    0.213  232.856   82.651
  257.500   14.173    0.341    0.213  233.358   82.953
  257.750   13.793    0.352    0.214  234.361   83.555
  258.000   13.300    0.382    0.180  235.862   84.455
  258.250   13.183    0.379    0.173  235.867   82.964
  258.500   12.948    0.366    0.189  230.889   77.884
  258.750   12.834    0.352    0.204  226.910   74.300
  259.000   12.840    0.362    0.187  226.914   74.304
  259.250   12.845    0.375    0.163  226.422   75.502
  259.500   12.970    0.387    0.173  225.430   77.300
  259.750   12.975    0.382    0.178  225.935   80.293
  260.000   12.982    0.384    0.178  231.422   85.678
  260.250   12.517    0.395    0.181  235.413   86.578
  260.500   11.741    0.415    0.196  236.914   84.788
  260.750   11.217    0.402    0.206  234.428   80.904
  261.000   10.917    0.365    0.182  232.441   80.011
  261.250   10.921    0.359    0.191  231.948   82.705
  261.500   10.727    0.408    0.197  231.953   86.595
  261.750   10.154    0.470    0.210  232.457   89.887
  262.000    7.360    0.442    0.232  232.962   87.798
  262.250    5.002    0.418    0.233  233.466   85.111
  262.500    4.319    0.413    0.224  233.472   82.423
  262.750    4.281    0.423    0.213  233.476   80.931
  263.000    4.363    0.437    0.217  233.483   81.532
  263.250    4.612    0.447    0.216  233.488   82.433
  263.500    5.013    0.432    0.211  233.494   83.333
  263.750    5.448    0.417    0.212  233.997   84.532
  264.000    5.760    0.418    0.221  233.504   82.144
  264.250    5.816    0.422    0.219  234.009   81.250
  264.500    5.765    0.422    0.200  234.512   80.955
  264.750    5.662    0.405    0.197  235.017   77.670
  265.000    5.717    0.386    0.175  235.520   77.374
  265.250    5.988    0.368    0.181  235.525   80.068
  265.500    6.449    0.377    0.198  236.029   81.865
  265.750    6.945    0.390    0.175  236.034   81.869
  266.000    7.688    0.406    0.185  236.539   82.769
  266.250    9.418    0.412    0.197  238.040   85.464
  266.500   10.236    0.394    0.211  240.038   86.064
  266.750   10.527    0.382    0.217  241.040   90.552
  267.000   10.532    0.392    0.203  243.039   89.659
  267.250   10.536    0.405    0.206  240.553   86.373
  267.500   10.638    0.376    0.215  237.071   83.088
  267.750   11.042    0.370    0.203  231.096   80.401
  268.000   11.568    0.359    0.206  230.106   78.012
  268.250   12.117    0.352    0.218  226.624   78.315
  268.500   12.347    0.356    0.219  225.134   78.019
  268.750   12.352    0.370    0.189  224.143   75.930
  269.000   12.941    0.382    0.169  224.148   75.036
  269.250   13.431    0.381    0.154  224.154   74.441
  269.500   14.070    0.366    0.157  224.159   69.362
  269.750   14.875    0.342    0.155  226.158   66.974
  270.000   16.316    0.312    0.117  227.161   69.070
  270.250   19.089    0.286    0.109  226.668   69.073
  270.500   21.327    0.314    0.125  226.674   70.871
  270.750   21.735    0.395    0.145  226.679   71.173
  271.000   21.149    0.394    0.184  226.187   76.557
  271.250   18.945    0.402    0.223  225.693   77.756
  271.500   15.912    0.415    0.248  225.700   76.863
  271.750   13.866    0.407    0.242  226.203   75.073
  272.000   13.126    0.399    0.207  226.708   72.386
  272.250   12.658    0.396    0.190  226.713   73.584
  272.500   12.546    0.388    0.204  227.216   75.382
  272.750   12.552    0.382    0.206  228.218   73.292
  273.000   12.908    0.387    0.127  230.218   67.017
  273.250   14.162    0.397    0.105  230.223   68.515
  273.500   15.109    0.399    0.100  228.236   75.096
  273.750   15.539    0.399    0.180  230.235   81.378
  274.000   15.546    0.408    0.187  230.738   82.577
  274.250   15.128    0.402    0.186  229.747   82.281
  274.500   14.059    0.390    0.194  228.258   81.986
  274.750   12.829    0.382    0.210  227.765   81.990
  275.000   12.484    0.387    0.241  227.770   81.992
  275.250   12.375    0.388    0.242  227.278   81.398
  275.500   12.610    0.388    0.224  227.782   80.206
  275.750   12.851    0.397    0.184  228.785   79.611
  276.000   12.976    0.405    0.195  227.296   81.409
  276.250   12.981    0.416    0.219  227.301   81.112
  276.500   13.106    0.417    0.228  227.805   77.528
  276.750   13.604    0.419    0.212  231.298   73.645
  277.000   13.861    0.420    0.203  231.303   71.855
  277.250   14.126    0.414    0.186  231.309   68.270
  277.500   15.074    0.396    0.190  231.315   61.397
  277.750   16.686    0.289    0.149  230.822   59.010
  278.000   19.341    0.225    0.048  228.834   61.105
  278.250   24.581    0.256    0.063  228.342   68.284
  278.500   29.295    0.294    0.100  227.849   72.174
  278.750   27.989    0.330    0.125  227.356   75.166
  279.000   25.303    0.357    0.153  226.865   77.561
  279.250   21.251    0.363    0.175  225.872   79.060
  279.500   18.348    0.363    0.181  224.384   81.157
  279.750   16.136    0.361    0.166  223.393   82.056
  280.000   14.725    0.367    0.155  223.896   80.864
  280.250   14.461    0.397    0.189  224.899   79.672
  280.500   14.204    0.391    0.197  225.901   80.572
  280.750   14.210    0.400    0.190  226.404   82.369
  281.000   14.347    0.406    0.188  226.908   82.073
  281.250   13.586    0.397    0.212  227.412   81.777
  281.500   13.968    0.389    0.183  227.418   82.678
  281.750   13.847    0.392    0.156  227.922   83.877
  282.000   13.726    0.394    0.139  228.427   83.282
  282.250   13.731    0.391    0.163  228.929   84.781
  282.500   13.611    0.379    0.192  229.434   86.877
  282.750   13.617    0.382    0.168  229.938   85.685
  283.000   13.622    0.388    0.172  229.444   84.492
  283.250   13.629    0.396    0.197  230.448   83.897
  283.500   13.635    0.419    0.188  230.950   78.519
  283.750   13.640    0.402    0.200  231.455   75.533
  284.000   13.772    0.388    0.160  231.461   74.341
  284.250   14.034    0.390    0.121  230.967   76.138
  284.500   14.432    0.386    0.086  230.973   78.832
  284.750   14.707    0.385    0.121  230.980   81.824
  285.000   14.578    0.381    0.174  230.486   83.024
  285.250   14.058    0.379    0.177  229.495   83.027
  285.500   13.555    0.382    0.169  229.003   84.526
  285.750   13.192    0.386    0.161  229.008   84.828
  286.000   12.837    0.392    0.181  229.013   86.027
  286.250   12.608    0.399    0.187  229.020   85.732
  286.500   12.384    0.400    0.177  229.024   86.332
  286.750   12.390    0.413    0.169  229.530   88.429
  287.000   12.394    0.374    0.150  229.035   88.432
  287.250   12.514    0.358    0.126  226.550   85.446
  287.500   12.752    0.381    0.133  224.563   84.553
  287.750   12.995    0.390    0.162  224.568   84.257
  288.000   13.120    0.364    0.191  223.578   83.364
  288.250   13.370    0.354    0.212  223.583   82.768
  288.500   13.878    0.351    0.195  224.585   81.876
  288.750   14.141    0.351    0.174  227.581   80.982
  289.000   14.677    0.297    0.157  229.579   79.490
  289.250   15.520    0.271    0.131  231.080   79.793
  289.500   16.865    0.317    0.056  231.584   82.486
  289.750   18.501    0.341    0.143  230.095   88.768
  290.000   18.170    0.388    0.154  230.100   93.555
  290.250   17.520    0.382    0.159  230.106   91.167
  290.500   15.695    0.356    0.160  230.111   90.872
  290.750   14.586    0.355    0.169  230.117   90.874
