~VERSION INFORMATION
 VERS.                 2.0:   CWLS LOG ASCII STANDARD -VERSION 2.0
 WRAP.                  NO:   ONE LINE PER DEPTH STEP
~WELL INFORMATION BLOCK
#MNEM.UNIT           DATA                    DESCRIPTION OF MNEMONIC
#---------    -------------------            -------------------------------
# Generated from Intellog Unique Number	CS_73_76/WELL/2207
WELL.         HOUSTON OILS LIMITED           : Well_name    - WELL
LOC .         00/11-36-074-15W4/0            : Location     - LOCATION
UWI .         00/11-36-074-15W4/0            : Uwi          - UNIQUE WELL ID
ENTR.         SP                             : Entered      - ENTERED BY
SRVC.         SCHLUMBERGER                   : Scn          - SERVICE COMPANY
STRT.M        390.144                        : top_depth    - START DEPTH
STOP.M        606.394                        : bot_depth    - STOP DEPTH
STEP.M        0.25                           : increment    - STEP LENGTH
 NULL. -999.2500:NULL Value
~CURVE INFORMATION BLOCK
#MNEM UNIT       ERCB CURVE CODE    CURVE DESCRIPTION
#-----------   ------------------   ----------------------------------
DEPT.M        00 001 00 00         : DEPTH        - DEPTH
GR  .API      00 310 00 00         : GR           - GAMMA RAY
DPHI.V/V      00 890 00 00         : PHID         - DENSITY POROSITY (SANDSTONE)
NPHI.V/V      00 330 00 00         : PHIN         - NEUTRON POROSITY (SANDSTONE)
ILD .OHMM     00 120 00 00         : RESD         - DEEP RESISTIVITY (DIL)
~PARAMETER INFORMATION
#MNEM.UNIT           DATA             DESCRIPTION OF MNEMONIC
#---------         -----------     ------------------------------
GL  .M        748.589              : gl           - GROUND LEVEL ELEVATION
EREF.M        751.637              : kb           - ELEVATION OF DEPTH REFERENCE
DATM.M        748.589              : datum        - DATUM ELEVATION
TDD .M        608.99               : tdd          - TOTAL DEPTH DRILLER
RUN .         ONE                  : Run          - RUN NUMBER
ENG .         BILL                 : Engineer     - RECORDING ENGINEER
WIT .         JIM                  : Witness      - WITNESSED BY
MUD .         GEL                  : Mud_type     - MUD TYPE
MATR.         SANDSTONE            : Logunit      - NEUTRON MATRIX
TMAX.C        6.66667              : BHT          - MAXIMUM RECORDED TEMPERATURE
BHTD.M        608.99               : BHTDEP       - MAXIMUM RECORDED TEMPERATURE
MATR.         1                    : LOGUNIT      - NEUTRON MATRIX
RMT .C        25                   : MDTP         - TEMPERATURE OF MUD
NEUT.         1                    : NEUTRON      - NEUTRON TYPE
RESI.         0                    : RESIST       - RESISTIVITY TYPE
RMC .OHMM     0.25                 : RMC          - RESISTIVITY OF MUD CAKE
RMF .OHMM     0.25                 : RMF          - RESISTIVITY OF MUD FILTRATE
SUFT.C        15                   : SUFT         - SURFACE TEMPERATURE
~A  DEPTH       GR     PHID     PHIN     RESD
# ...
  520.644   76.447    0.159    0.444    5.561
  520.894   67.026    0.135    0.379    5.458
  521.144   60.022    0.138    0.328    5.025
  521.394   66.257    0.197    0.512    4.740
  521.644   72.086    0.247    0.521    4.299
  521.894   80.075    0.269    0.507    4.143
  522.144   73.339    0.281    0.479    3.897
  522.394   70.591    0.287    0.451    3.722
  522.644   67.050    0.291    0.456    3.692
  522.894   66.529    0.292    0.466    3.762
  523.144   67.511    0.287    0.473    3.757
  523.394   69.640    0.281    0.476    3.757
  523.644   72.451    0.270    0.481    3.755
  523.894   74.783    0.259    0.491    3.753
  524.144   77.001    0.251    0.501    3.748
  524.394   80.595    0.257    0.510    3.812
  524.644   82.339    0.256    0.514    3.818
  524.894   83.173    0.248    0.519    3.828
  525.144   80.643    0.227    0.529    4.164
  525.394   77.718    0.213    0.532    5.213
  525.644   71.092    0.199    0.436    6.546
  525.894   68.785    0.180    0.370    7.746
  526.144   64.474    0.165    0.278    8.484
  526.394   60.072    0.149    0.260    8.061
  526.644   59.116    0.214    0.306    7.428
  526.894   62.792    0.244    0.386    6.515
  527.144   66.430    0.272    0.438    5.521
  527.394   69.539    0.283    0.486    4.700
  527.644   70.087    0.291    0.509    4.096
  527.894   69.681    0.296    0.501    3.809
  528.144   69.257    0.294    0.503    3.684
  528.394   70.420    0.282    0.520    3.653
  528.644   73.013    0.274    0.542    3.650
  528.894   73.699    0.275    0.563    3.648
  529.144   72.640    0.281    0.575    3.646
  529.394   73.279    0.292    0.556    3.646
  529.644   76.571    0.302    0.531    3.662
  529.894   77.460    0.307    0.512    3.708
  530.144   75.236    0.300    0.530    3.706
  530.394   73.615    0.297    0.540    3.704
  530.644   73.823    0.289    0.540    3.702
  530.894   73.368    0.289    0.542    3.700
  531.144   71.439    0.299    0.561    3.699
  531.394   72.008    0.302    0.570    3.696
  531.644   73.021    0.308    0.583    3.694
  531.894   73.280    0.302    0.574    3.693
  532.144   70.758    0.295    0.587    3.691
  532.394   69.466    0.290    0.555    3.689
  532.644   71.016    0.286    0.532    3.687
  532.894   74.854    0.281    0.513    3.685
  533.144   76.723    0.278    0.508    3.683
  533.394   78.132    0.276    0.512    3.682
  533.644   78.531    0.273    0.513    3.680
  533.894   78.981    0.280    0.522    3.678
  534.144   79.044    0.287    0.533    3.676
  534.394   76.166    0.284    0.503    3.674
  534.644   73.429    0.282    0.490    3.673
  534.894   75.191    0.280    0.525    3.670
  535.144   73.933    0.274    0.556    3.669
  535.394   71.613    0.265    0.568    3.666
  535.644   71.025    0.277    0.551    3.665
  535.894   72.278    0.270    0.529    3.664
  536.144   76.973    0.275    0.517    3.660
  536.394   79.889    0.282    0.501    3.733
  536.644   82.752    0.275    0.508    3.727
  536.894   84.260    0.270    0.539    3.719
  537.144   81.898    0.272    0.564    3.795
  537.394   82.699    0.264    0.577    3.778
  537.644   85.236    0.251    0.536    3.720
  537.894   87.449    0.254    0.499    3.622
  538.144   89.758    0.252    0.485    3.442
  538.394   91.872    0.250    0.518    3.338
  538.644   92.524    0.259    0.545    3.330
  538.894   90.794    0.272    0.538    3.261
  539.144   89.142    0.282    0.523    3.307
  539.394   85.048    0.270    0.510    3.360
  539.644   79.194    0.262    0.494    3.629
  539.894   73.270    0.252    0.483    3.931
  540.144   69.798    0.236    0.465    4.335
  540.394   65.406    0.210    0.421    5.083
  540.644   64.604    0.184    0.336    5.443
  540.894   65.424    0.185    0.329    5.400
  541.144   67.352    0.213    0.356    5.011
  541.394   69.981    0.256    0.457    4.565
  541.644   72.567    0.285    0.528    4.252
  541.894   75.133    0.281    0.551    3.914
  542.144   76.057    0.263    0.536    3.628
  542.394   76.037    0.261    0.531    3.423
  542.644   74.987    0.258    0.520    3.350
  542.894   74.652    0.241    0.509    3.435
  543.144   72.577    0.206    0.475    3.591
  543.394   70.136    0.179    0.435    4.055
  543.644   66.382    0.145    0.357    5.045
  543.894   64.055    0.112    0.314    5.841
  544.144   63.777    0.106    0.293    6.259
  544.394   70.887    0.157    0.373    6.214
  544.644   79.851    0.183    0.434    5.823
  544.894   83.748    0.194    0.486    5.360
  545.144   84.477    0.194    0.507    4.902
  545.394   86.168    0.194    0.523    4.677
  545.644   86.540    0.206    0.525    4.437
  545.894   88.028    0.217    0.517    4.388
  546.144   89.425    0.204    0.512    4.467
  546.394   89.875    0.196    0.500    4.555
  546.644   91.539    0.182    0.489    4.619
  546.894   91.651    0.192    0.481    4.760
  547.144   91.793    0.197    0.469    4.909
  547.394   90.341    0.186    0.476    5.295
  547.644   87.200    0.172    0.468    5.864
  547.894   83.822    0.160    0.439    6.829
  548.144   77.651    0.141    0.381    7.620
  548.394   70.023    0.118    0.301    7.902
  548.644   63.136    0.069    0.277    7.995
  548.894   65.426    0.135    0.349    7.536
  549.144   75.802    0.191    0.434    6.945
  549.394   85.962    0.200    0.468    6.439
  549.644   90.583    0.176    0.470    5.932
  549.894   90.462    0.156    0.455    5.601
  550.144   88.251    0.141    0.446    5.441
  550.394   91.845    0.153    0.473    5.269
  550.644   94.950    0.158    0.495    5.225
  550.894   97.523    0.171    0.507    5.211
  551.144   98.882    0.180    0.513    5.318
  551.394   98.253    0.189    0.480    5.414
  551.644   98.167    0.202    0.465    5.595
  551.894  100.915    0.193    0.473    5.497
  552.144  103.060    0.197    0.460    5.406
  552.394  104.190    0.200    0.447    5.239
  552.644  102.777    0.202    0.454    5.056
  552.894  101.424    0.193    0.445    5.009
  553.144   98.954    0.202    0.444    4.733
  553.394   95.721    0.215    0.451    4.469
  553.644   93.293    0.208    0.462    4.331
  553.894   90.540    0.193    0.453    4.284
  554.144   90.729    0.176    0.460    4.230
  554.394   92.097    0.156    0.468    3.819
  554.644   93.961    0.170    0.473    3.124
  554.894   94.267    0.181    0.524    2.534
  555.144   94.538    0.194    0.559    2.139
  555.394   96.095    0.210    0.580    1.854
  555.644   96.756    0.229    0.643    1.698
  555.894   93.073    0.254    0.670    1.597
  556.144   93.112    0.255    0.650    1.505
  556.394   95.799    0.247    0.643    1.485
  556.644   97.158    0.243    0.664    1.482
  556.894   99.972    0.239    0.695    1.515
  557.144  103.436    0.231    0.687    1.562
  557.394  105.846    0.232    0.690    1.631
  557.644  105.034    0.217    0.685    1.753
  557.894  104.471    0.202    0.655    2.008
  558.144  104.732    0.205    0.629    2.378
  558.394  103.940    0.202    0.608    2.954
  558.644  101.310    0.193    0.562    3.658
  558.894   98.165    0.189    0.511    4.303
  559.144   94.621    0.199    0.462    4.826
  559.394   92.784    0.195    0.448    5.345
  559.644   93.355    0.176    0.471    5.656
  559.894   93.862    0.173    0.504    6.018
  560.144   92.565    0.140    0.500    6.041
  560.394   88.857    0.115    0.429    5.908
  560.644   87.539    0.086    0.381    5.372
  560.894   90.350    0.135    0.401    4.955
  561.144   93.284    0.195    0.410    4.024
  561.394   96.364    0.198    0.437    3.541
  561.644   99.494    0.182    0.478    2.976
  561.894  103.221    0.181    0.527    2.746
  562.144  105.582    0.182    0.586    2.551
  562.394  106.454    0.191    0.593    2.543
  562.644  105.987    0.204    0.560    2.760
  562.894  103.484    0.216    0.521    3.138
  563.144   99.296    0.202    0.483    3.910
  563.394   93.791    0.173    0.464    4.607
  563.644   89.940    0.154    0.451    5.224
  563.894   86.733    0.122    0.438    5.367
