~VERSION INFORMATION
 VERS.                 2.0:   CWLS LOG ASCII STANDARD -VERSION 2.0
 WRAP.                  NO:   ONE LINE PER DEPTH STEP
~WELL INFORMATION BLOCK
#MNEM.UNIT           DATA                    DESCRIPTION OF MNEMONIC
#---------    -------------------            -------------------------------
# Generated from Intellog Unique Number	CS_73_76/WELL/2202
WELL.         AMOCO CANADA PETROLEUM         : Well_name    - WELL
LOC .         00/11-22-074-12W4/0            : Location     - LOCATION
UWI .         00/11-22-074-12W4/0            : Uwi          - UNIQUE WELL ID
ENTR.         SP                             : Entered      - ENTERED BY
SRVC.         SCHLUMBERGER                   : Scn          - SERVICE COMPANY
STRT.M        289.56                         : top_depth    - START DEPTH
STOP.M        508.81                         : bot_depth    - STOP DEPTH
STEP.M        0.25                           : increment    - STEP LENGTH
 NULL. -999.2500:NULL Value
~CURVE INFORMATION BLOCK
#MNEM UNIT       ERCB CURVE CODE    CURVE DESCRIPTION
#-----------   ------------------   ----------------------------------
DEPT.M        00 001 00 00         : DEPTH        - DEPTH
GR  .API      00 310 00 00         : GR           - GAMMA RAY
DPHI.V/V      00 890 00 00         : PHID         - DENSITY POROSITY (SANDSTONE)
NPHI.V/V      00 330 00 00         : PHIN         - NEUTRON POROSITY (SANDSTONE)
ILD .OHMM     00 120 00 00         : RESD         - DEEP RESISTIVITY (DIL)
~PARAMETER INFORMATION
#MNEM.UNIT           DATA             DESCRIPTION OF MNEMONIC
#---------         -----------     ------------------------------
GL  .M        10                   : gl           - GROUND LEVEL ELEVATION
EREF.M        656.265              : kb           - ELEVATION OF DEPTH REFERENCE
DATM.M        10                   : datum        - DATUM ELEVATION
TDD .M        511.759              : tdd          - TOTAL DEPTH DRILLER
RUN .         ONE                  : Run          - RUN NUMBER
ENG .         BILL                 : Engineer     - RECORDING ENGINEER
WIT .         JIM                  : Witness      - WITNESSED BY
MUD .         GEL                  : Mud_type     - MUD TYPE
MATR.         SANDSTONE            : Logunit      - NEUTRON MATRIX
TMAX.C        15.5556              : BHT          - MAXIMUM RECORDED TEMPERATURE
BHTD.M        511.759              : BHTDEP       - MAXIMUM RECORDED TEMPERATURE
MATR.         1                    : LOGUNIT      - NEUTRON MATRIX
RMT .C        25                   : MDTP         - TEMPERATURE OF MUD
NEUT.         1                    : NEUTRON      - NEUTRON TYPE
RESI.         0                    : RESIST       - RESISTIVITY TYPE
RMC .OHMM     0.25                 : RMC          - RESISTIVITY OF MUD CAKE
RMF .OHMM     0.25                 : RMF          - RESISTIVITY OF MUD FILTRATE
SUFT.C        15                   : SUFT         - SURFACE TEMPERATURE
~A  DEPTH       GR     PHID     PHIN     RESD
# ...
  420.060   79.226    0.292    0.498    5.787
  420.310   79.227    0.286    0.494    5.805
  420.560   79.251    0.274    0.492    5.809
  420.810   79.318    0.260    0.487    5.815
  421.060   80.385    0.257    0.480    5.723
  421.310   80.228    0.266    0.469    5.725
  421.560   79.254    0.274    0.456    5.605
  421.810   79.301    0.275    0.455    5.613
  422.060   79.411    0.283    0.468    5.579
  422.310   81.765    0.287    0.481    5.520
  422.560   83.954    0.285    0.477    5.532
  422.810   84.755    0.274    0.497    5.413
  423.060   84.718    0.266    0.507    5.428
  423.310   85.319    0.278    0.505    5.430
  423.560   87.122    0.272    0.497    5.433
  423.810   85.538    0.270    0.495    5.434
  424.060   83.060    0.271    0.492    5.386
  424.310   79.067    0.268    0.498    5.341
  424.560   77.221    0.265    0.487    5.439
  424.810   77.730    0.263    0.477    5.379
  425.060   80.096    0.272    0.461    5.449
  425.310   82.067    0.276    0.459    5.453
  425.560   83.895    0.284    0.478    5.453
  425.810   84.821    0.290    0.482    5.459
  426.060   86.757    0.281    0.479    5.488
  426.310   89.612    0.272    0.494    5.560
  426.560   93.776    0.267    0.505    5.568
  426.810   90.698    0.278    0.474    5.523
  427.060   89.407    0.281    0.474    5.353
  427.310   91.438    0.270    0.481    5.193
  427.560   95.210    0.256    0.491    5.007
  427.810   95.764    0.234    0.501    4.717
  428.060   90.740    0.242    0.501    4.791
  428.310   85.777    0.247    0.477    5.160
  428.560   79.232    0.242    0.456    5.487
  428.810   75.282    0.221    0.437    6.165
  429.060   74.155    0.167    0.400    6.476
  429.310   75.191    0.191    0.393    6.445
  429.560   74.927    0.216    0.424    6.763
  429.810   73.193    0.230    0.446    7.124
  430.060   72.311    0.122    0.394    7.811
  430.310   70.564    0.042    0.357    9.105
  430.560   71.190    0.032    0.307    9.846
  430.810   75.709    0.112    0.366    9.421
  431.060   80.132    0.158    0.416    8.415
  431.310   81.557    0.232    0.452    7.699
  431.560   80.029    0.262    0.463    6.719
  431.810   85.582    0.265    0.462    6.099
  432.060   87.573    0.242    0.463    5.675
  432.310   88.465    0.235    0.472    5.863
  432.560   86.298    0.241    0.472    5.892
  432.810   83.911    0.251    0.447    5.783
  433.060   86.220    0.229    0.444    5.669
  433.310   88.245    0.228    0.454    5.452
  433.560   93.799    0.235    0.452    5.298
  433.810   95.951    0.223    0.466    5.076
  434.060   99.570    0.216    0.473    4.980
  434.310  101.028    0.213    0.485    4.828
  434.560  101.086    0.207    0.486    4.812
  434.810  101.091    0.216    0.478    4.912
  435.060  103.118    0.228    0.482    5.160
  435.310  101.977    0.235    0.488    5.346
  435.560  100.500    0.231    0.481    5.470
  435.810   99.868    0.210    0.487    5.573
  436.060   98.886    0.216    0.499    5.703
  436.310   95.888    0.211    0.503    5.881
  436.560   93.188    0.198    0.495    5.935
  436.810   92.057    0.195    0.474    6.129
  437.060   93.095    0.202    0.461    6.212
  437.310   94.180    0.207    0.455    6.346
  437.560   94.452    0.213    0.450    6.335
  437.810   94.891    0.215    0.456    6.242
  438.060   96.070    0.210    0.461    6.187
  438.310   97.416    0.204    0.467    5.992
  438.560   98.692    0.203    0.475    5.892
  438.810  102.748    0.223    0.481    5.775
  439.060  107.950    0.220    0.483    5.680
  439.310  108.996    0.194    0.478    5.677
  439.560  107.892    0.191    0.481    5.671
  439.810  107.405    0.200    0.488    5.763
  440.060  107.063    0.202    0.492    5.951
  440.310  107.458    0.206    0.496    6.006
  440.560  107.789    0.209    0.470    6.110
  440.810  109.520    0.209    0.461    6.102
  441.060  109.747    0.197    0.451    6.097
  441.310  107.940    0.196    0.453    5.799
  441.560  104.770    0.184    0.449    5.600
  441.810  102.039    0.173    0.439    5.471
  442.060   99.830    0.175    0.439    5.255
  442.310   96.286    0.216    0.446    4.949
  442.560   94.312    0.215    0.438    4.585
  442.810   96.113    0.190    0.446    4.062
  443.060   97.778    0.196    0.460    3.685
  443.310   95.562    0.201    0.471    3.218
  443.560   95.496    0.219    0.491    2.727
  443.810   94.735    0.232    0.528    2.424
  444.060   92.735    0.248    0.564    2.200
  444.310   90.612    0.263    0.542    2.094
  444.560   88.284    0.269    0.533    2.078
  444.810   89.902    0.257    0.551    2.118
  445.060   94.287    0.249    0.565    2.116
  445.310   96.537    0.241    0.563    2.115
  445.560   96.871    0.245    0.563    2.111
  445.810   98.052    0.242    0.545    2.156
  446.060  101.045    0.237    0.557    2.189
  446.310  103.667    0.231    0.573    2.277
  446.560  105.437    0.223    0.573    2.369
  446.810  103.910    0.234    0.563    2.559
  447.060  100.924    0.229    0.550    2.854
  447.310   99.327    0.221    0.527    3.433
  447.560   94.558    0.206    0.493    4.127
  447.810   93.057    0.198    0.474    4.715
  448.060   92.902    0.208    0.460    5.084
  448.310   94.957    0.228    0.454    5.244
  448.560   97.175    0.205    0.455    5.272
  448.810   98.733    0.194    0.447    5.276
  449.060   98.243    0.203    0.448    5.333
  449.310   96.413    0.175    0.451    5.387
  449.560   94.882    0.153    0.448    5.468
  449.810   94.923    0.137    0.449    5.597
  450.060   95.921    0.120    0.447    5.339
  450.310   97.495    0.156    0.444    4.933
  450.560   97.504    0.182    0.453    4.729
  450.810   98.163    0.167    0.476    4.307
  451.060   99.922    0.166    0.488    4.021
  451.310  102.132    0.187    0.499    3.592
  451.560  105.752    0.182    0.506    3.232
  451.810  107.808    0.185    0.509    2.835
  452.060  108.302    0.196    0.511    2.591
  452.310  108.260    0.210    0.509    2.297
  452.560  107.016    0.217    0.503    2.074
  452.810  105.052    0.199    0.495    1.919
  453.060  104.521    0.182    0.493    1.895
  453.310  105.241    0.180    0.502    1.899
  453.560  105.196    0.162    0.512    2.088
  453.810  105.773    0.176    0.512    2.289
  454.060  105.695    0.166    0.513    2.373
  454.310  106.320    0.178    0.514    2.448
  454.560  106.235    0.169    0.502    2.452
  454.810  106.951    0.166    0.514    2.394
  455.060  106.881    0.178    0.530    2.279
  455.310  106.883    0.166    0.492    2.229
  455.560  106.914    0.176    0.482    2.189
  455.810  105.849    0.189    0.503    2.153
  456.060  104.740    0.177    0.536    2.287
  456.310  104.419    0.172    0.553    2.546
  456.560  103.835    0.184    0.554    2.474
  456.810  103.866    0.180    0.536    2.248
  457.060  103.869    0.163    0.517    2.074
  457.310  104.410    0.161    0.505    1.953
  457.560  105.081    0.170    0.517    1.848
  457.810  105.006    0.169    0.523    1.795
  458.060  104.997    0.168    0.527    1.794
  458.310  104.988    0.188    0.532    1.845
  458.560  104.983    0.194    0.541    1.923
  458.810  105.024    0.188    0.541    2.078
  459.060  104.273    0.196    0.535    2.308
  459.310  102.839    0.205    0.519    2.552
  459.560  101.013    0.208    0.497    3.059
  459.810   96.996    0.196    0.477    3.778
  460.060   94.220    0.159    0.460    5.027
  460.310   90.518    0.076    0.437    7.197
  460.560   88.293    0.030    0.388   12.731
  460.810   86.627    0.027    0.353   16.799
  461.060   87.644    0.102    0.348   19.032
  461.310   92.244    0.187    0.367   16.488
  461.560   95.583    0.227    0.379   14.621
  461.810   96.642    0.231    0.386   12.974
  462.060   98.636    0.208    0.389   12.067
  462.310  101.378    0.196    0.394   11.440
  462.560  102.585    0.200    0.401   11.382
  462.810  104.612    0.210    0.405   11.763
  463.060  105.643    0.217    0.412   11.328
  463.310  106.622    0.200    0.418   10.543
