~VERSION INFORMATION
 VERS.                 2.0:   CWLS LOG ASCII STANDARD -VERSION 2.0
 WRAP.                  NO:   ONE LINE PER DEPTH STEP
~WELL INFORMATION BLOCK
#MNEM.UNIT           DATA                    DESCRIPTION OF MNEMONIC
#---------    -------------------            -------------------------------
# Generated from Intellog Unique Number	CN_91_93/WELL/3265
WELL.         PARAMOUNT RESOURCES LTD.       : Well_name    - WELL
LOC .         00/14-03-093-19W4/0            : Location     - LOCATION
UWI .         00/14-03-093-19W4/0            : Uwi          - UNIQUE WELL ID
ENTR.         JOETTE                         : Entered      - ENTERED BY
SRVC.         COMPUTALOG                     : Scn          - SERVICE COMPANY
DATE.         04/29/92                       : Date         - LOG DATE
STRT.M        95                             : top_depth    - START DEPTH
STOP.M        260                            : bot_depth    - STOP DEPTH
STEP.M        0.25                           : increment    - STEP LENGTH
 NULL. -999.2500:NULL Value
~CURVE INFORMATION BLOCK
#MNEM UNIT       ERCB CURVE CODE    CURVE DESCRIPTION
#-----------   ------------------   ----------------------------------
DEPT.M        00 001 00 00         : DEPTH        - DEPTH
CALI.MM       00 280 01 00         : CAL          - CALIPER
GR  .API      00 310 00 00         : GR           - GAMMA RAY
NPHI.V/V      00 330 00 00         : PHIN         - NEUTRON POROSITY (SANDSTONE)
DPHI.V/V      00 890 00 00         : PHID         - DENSITY POROSITY (SANDSTONE)
ILD .OHMM     00 120 00 00         : RESD         - DEEP RESISTIVITY (DIL)
~PARAMETER INFORMATION
#MNEM.UNIT           DATA             DESCRIPTION OF MNEMONIC
#---------         -----------     ------------------------------
GL  .M        519.8                : gl           - GROUND LEVEL ELEVATION
EREF.M        523.2                : kb           - ELEVATION OF DEPTH REFERENCE
DATM.M        523.2                : datum        - DATUM ELEVATION
TDD .M        260.5                : tdd          - TOTAL DEPTH DRILLER
RUN .         ONE                  : Run          - RUN NUMBER
ENG .         BILL                 : Engineer     - RECORDING ENGINEER
WIT .         JIM                  : Witness      - WITNESSED BY
MUD .         GEL                  : Mud_type     - MUD TYPE
MATR.         SANDSTONE            : Logunit      - NEUTRON MATRIX
TMAX.C        18                   : BHT          - MAXIMUM RECORDED TEMPERATURE
BHTD.M        260.5                : BHTDEP       - MAXIMUM RECORDED TEMPERATURE
RMT .C        18.9                 : MDTP         - TEMPERATURE OF MUD
MUDD.KG/M     1080                 : MWT          - MUD DENSITY
NEUT.         1                    : NEUTRON      - NEUTRON TYPE
RESI.         0                    : RESIST       - RESISTIVITY TYPE
RM  .OHMM     2.5                  : RM           - RESISTIVITY OF MUD
RMC .OHMM     2.5                  : RMC          - RESISTIVITY OF MUD CAKE
RMF .OHMM     2.5                  : RMF          - RESISTIVITY OF MUD FILTRATE
SUFT.C        4                    : SUFT         - SURFACE TEMPERATURE
~A  DEPTH      CAL       GR     PHIN     PHID     RESD
   95.000  179.653   99.882    0.449    0.245    5.163
   95.250  181.186  102.005    0.469    0.245    5.262
   95.500  179.714  102.925    0.481    0.246    5.463
   95.750  177.236  100.535    0.492    0.246    5.886
   96.000  173.254   87.016    0.445    0.241    6.642
   96.250  170.780   85.830    0.422    0.242    8.534
   96.500  164.287   82.837    0.396    0.250    9.629
   96.750  166.321   77.138    0.388    0.220   10.280
   97.000  165.351   79.263    0.410    0.198   10.003
   97.250  164.875   84.094    0.435    0.222    9.038
   97.500  173.431   87.119    0.430    0.237    7.869
   97.750  176.969   88.643    0.427    0.249    7.379
   98.000  176.500   91.368    0.418    0.253    7.114
   98.250  175.523   95.298    0.423    0.248    6.923
   98.500  175.555   98.020    0.435    0.250    6.861
   98.750  176.085  101.647    0.440    0.250    6.802
   99.000  175.613  107.385    0.448    0.243    6.742
   99.250  175.140  110.410    0.434    0.228    6.745
   99.500  176.175  113.436    0.438    0.231    6.749
   99.750  175.699  113.150    0.443    0.206    6.815
  100.000  175.226  108.053    0.451    0.161    6.881
  100.250  175.255  110.176    0.460    0.167    6.949
  100.500  170.775  114.708    0.456    0.192    7.017
  100.750  173.816  115.628    0.441    0.207    6.955
  101.000  172.838  111.436    0.437    0.209    6.768
  101.250  174.876  110.551    0.432    0.203    6.525
  101.500  178.415  111.167    0.434    0.202    6.408
  101.750  175.432  112.089    0.441    0.207    6.294
  102.000  177.971  115.115    0.454    0.217    6.239
  102.250  180.507  117.238    0.465    0.224    6.299
  102.500  168.005  109.735    0.438    0.234    6.725
  102.750  166.028  101.931    0.421    0.251    7.112
  103.000  164.549   88.110    0.413    0.267    7.734
  103.250  173.606   77.899    0.408    0.277    8.728
  103.500  167.615   85.738    0.395    0.270    9.490
  103.750  170.154   89.064    0.401    0.270   10.514
  104.000  167.680   74.040    0.412    0.280   10.915
  104.250  164.701   57.517    0.393    0.303   10.920
  104.500  164.224   65.654    0.378    0.286   11.028
  104.750  163.752   74.694    0.384    0.273   10.632
  105.000  164.787   83.136    0.395    0.264   10.062
  105.250  171.337   83.154    0.411    0.274    9.347
  105.500  164.848   72.943    0.408    0.292    8.846
  105.750  165.880   64.537    0.417    0.300    8.529
  106.000  166.908   75.685    0.429    0.289    9.448
  106.250  166.435   82.020    0.423    0.279   10.862
  106.500  175.489   74.216    0.416    0.277   11.486
  106.750  165.490   67.314    0.408    0.286   12.262
  107.000  166.525   61.615    0.402    0.302   11.498
  107.250  163.553   68.554    0.405    0.308    8.632
  107.500  163.077   86.320    0.413    0.295    7.728
  107.750  165.107   90.852    0.417    0.275    7.114
  108.000  167.643   95.381    0.420    0.266    6.733
  108.250  172.184  100.813    0.404    0.270    6.254
  108.500  166.702  106.546    0.408    0.268    5.704
  108.750  175.759  110.478    0.427    0.262    5.250
  109.000  178.796  106.282    0.445    0.263    5.253
  109.250  176.819  106.299    0.475    0.271    5.556
  109.500  174.341  108.725    0.487    0.265    5.662
  109.750  174.370  105.131    0.482    0.251    5.717
  110.000  172.895   99.132    0.479    0.257    5.720
  110.250  169.915   96.143    0.486    0.265    5.830
  110.500  167.437   96.158    0.494    0.263    5.833
  110.750  169.973   98.584    0.489    0.257    5.835
  111.000  166.997  102.213    0.482    0.255    6.059
  111.250  170.030  100.125    0.465    0.262    6.408
  111.500  177.591  102.849    0.448    0.267    6.840
  111.750  174.103  103.466    0.446    0.247    6.971
  112.000  174.135   94.461    0.448    0.226    7.040
  112.250  168.645   93.874    0.441    0.180    7.043
  112.500  167.671   96.902    0.447    0.139    6.981
  112.750  176.223  101.432    0.472    0.185    6.856
  113.000  170.236  108.372    0.502    0.229    6.734
  113.250  171.779  108.390    0.504    0.235    6.613
  113.500  174.813  105.998    0.447    0.244    6.435
  113.750  177.345  103.308    0.439    0.245    6.743
  114.000  176.872   99.715    0.431    0.238    7.198
  114.250  174.394   95.822    0.418    0.208    7.474
  114.500  168.908   94.335    0.422    0.195    7.688
  114.750  161.918  100.371    0.429    0.202    7.620
  115.000  177.493  109.117    0.442    0.236    7.554
  115.250  176.017  106.424    0.447    0.247    7.698
  115.500  179.054  102.832    0.436    0.240    7.774
  115.750  177.081  100.142    0.432    0.236    7.565
  116.000  177.110   98.653    0.436    0.218    7.293
  116.250  167.609  100.778    0.437    0.203    7.162
  116.500  166.635  102.297    0.440    0.211    7.034
  116.750  180.706  103.821    0.449    0.224    6.973
  117.000  175.728  101.732    0.455    0.220    6.975
  117.250  176.756   98.440    0.448    0.222    6.979
  117.500  176.280  101.167    0.446    0.232    6.791
  117.750  169.791  102.989    0.454    0.247    6.608
  118.000  165.308  103.911    0.465    0.256    6.312
  118.250  171.858  101.520    0.462    0.244    6.142
  118.500  175.898  101.838    0.458    0.241    6.260
  118.750  177.431   98.245    0.451    0.246    6.745
  119.000  183.480   95.254    0.443    0.244    7.067
  119.250  179.497   95.573    0.449    0.247    7.337
  119.500  181.034   98.899    0.454    0.251    7.409
  119.750  178.054  101.624    0.449    0.251    7.277
  120.000  179.090  100.440    0.446    0.239    6.887
  120.250  179.613   98.351    0.438    0.231    6.518
  120.500  178.646   94.157    0.424    0.230    5.835
  120.750  175.161   89.965    0.423    0.209    5.420
  121.000  169.672   95.997    0.435    0.178    5.036
  121.250  162.183  108.949    0.453    0.232    4.551
  121.500  168.730  114.383    0.477    0.254    4.387
  121.750  169.260  111.092    0.488    0.263    4.430
  122.000  165.779  106.298    0.476    0.263    4.642
  122.250  166.811  109.321    0.480    0.248    4.864
  122.500  165.841  113.851    0.492    0.255    5.003
  122.750  160.351  116.881    0.494    0.263    5.147
  123.000  160.387  117.500    0.486    0.264    5.295
  123.250  162.418  115.413    0.487    0.255    5.397
  123.500  165.960  112.719    0.490    0.235    5.499
  123.750  165.491  107.624    0.487    0.234    5.605
  124.000  166.515  105.837    0.480    0.236    5.556
  124.250  169.556  104.049    0.469    0.224    5.356
  124.500  167.078  102.262    0.461    0.189    4.840
  124.750  166.609  108.897    0.474    0.144    4.497
  125.000  168.643  114.028    0.479    0.202    4.498
  125.250  174.685  110.137    0.481    0.258    4.802
  125.500  174.216  105.941    0.482    0.270    5.270
  125.750  179.756  101.445    0.457    0.270    5.785
  126.000  179.287   99.056    0.450    0.272    6.233
  126.250  179.316   99.073    0.452    0.280    6.294
  126.500  172.325  101.803    0.457    0.266    6.239
  126.750  166.338  103.926    0.461    0.238    6.070
  127.000  170.378  104.547    0.459    0.225    5.852
  127.250  167.398  105.462    0.436    0.222    5.748
  127.500  171.438  111.195    0.424    0.234    5.751
  127.750  176.484  111.816    0.434    0.236    5.861
  128.000  176.011  112.437    0.445    0.234    6.199
  128.250  169.021  110.046    0.437    0.260    6.376
  128.500  164.538  104.951    0.439    0.273    6.321
  128.750  170.081  102.560    0.433    0.247    6.382
  129.000  175.131   98.967    0.421    0.219    6.750
  129.250  170.640   94.773    0.421    0.210    7.074
  129.500  163.654   95.091    0.424    0.229    7.143
  129.750  169.198   98.417    0.423    0.247    7.212
  130.000  174.741   96.030    0.424    0.263    7.351
  130.250  172.765   90.933    0.423    0.236    7.561
  130.500  166.276   84.633    0.407    0.193    7.778
  130.750  165.302   85.553    0.398    0.221    7.499
  131.000  168.847   88.880    0.409    0.259    6.903
  131.250  168.873   93.409    0.428    0.271    6.353
