~VERSION INFORMATION
 VERS.                 2.0:   CWLS LOG ASCII STANDARD -VERSION 2.0
 WRAP.                  NO:   ONE LINE PER DEPTH STEP
~WELL INFORMATION BLOCK
#MNEM.UNIT           DATA                    DESCRIPTION OF MNEMONIC
#---------    -------------------            -------------------------------
# Generated from Intellog Unique Number	CS_73_76/WELL/2203
WELL.         W.W. BECKER OIL & GAS LTD      : Well_name    - WELL
LOC .         00/11-26-074-14W4/0            : Location     - LOCATION
UWI .         00/11-26-074-14W4/0            : Uwi          - UNIQUE WELL ID
ENTR.         SP                             : Entered      - ENTERED BY
SRVC.         SCHLUMBERGER                   : Scn          - SERVICE COMPANY
STRT.M        411.48                         : top_depth    - START DEPTH
STOP.M        630.73                         : bot_depth    - STOP DEPTH
STEP.M        0.25                           : increment    - STEP LENGTH
 NULL. -999.2500:NULL Value
~CURVE INFORMATION BLOCK
#MNEM UNIT       ERCB CURVE CODE    CURVE DESCRIPTION
#-----------   ------------------   ----------------------------------
DEPT.M        00 001 00 00         : DEPTH        - DEPTH
GR  .API      00 310 00 00         : GR           - GAMMA RAY
DPHI.V/V      00 890 00 00         : PHID         - DENSITY POROSITY (SANDSTONE)
NPHI.V/V      00 330 00 00         : PHIN         - NEUTRON POROSITY (SANDSTONE)
ILD .OHMM     00 120 00 00         : RESD         - DEEP RESISTIVITY (DIL)
~PARAMETER INFORMATION
#MNEM.UNIT           DATA             DESCRIPTION OF MNEMONIC
#---------         -----------     ------------------------------
GL  .M        771.296              : gl           - GROUND LEVEL ELEVATION
EREF.M        774.527              : kb           - ELEVATION OF DEPTH REFERENCE
DATM.M        771.296              : datum        - DATUM ELEVATION
TDD .M        634.594              : tdd          - TOTAL DEPTH DRILLER
RUN .         ONE                  : Run          - RUN NUMBER
ENG .         BILL                 : Engineer     - RECORDING ENGINEER
WIT .         JIM                  : Witness      - WITNESSED BY
MUD .         GEL                  : Mud_type     - MUD TYPE
MATR.         SANDSTONE            : Logunit      - NEUTRON MATRIX
TMAX.C        16.6667              : BHT          - MAXIMUM RECORDED TEMPERATURE
BHTD.M        634.594              : BHTDEP       - MAXIMUM RECORDED TEMPERATURE
MATR.         1                    : LOGUNIT      - NEUTRON MATRIX
RMT .C        25                   : MDTP         - TEMPERATURE OF MUD
NEUT.         1                    : NEUTRON      - NEUTRON TYPE
RESI.         0                    : RESIST       - RESISTIVITY TYPE
RMC .OHMM     0.25                 : RMC          - RESISTIVITY OF MUD CAKE
RMF .OHMM     0.25                 : RMF          - RESISTIVITY OF MUD FILTRATE
SUFT.C        15                   : SUFT         - SURFACE TEMPERATURE
~A  DEPTH       GR     PHID     PHIN     RESD
# ...
  541.980   82.283    0.256    0.466    4.508
  542.230   79.913    0.273    0.450    4.426
  542.480   80.285    0.276    0.448    4.376
  542.730   81.796    0.289    0.455    4.332
  542.980   88.587    0.282    0.459    4.186
  543.230   91.649    0.266    0.460    4.145
  543.480   91.458    0.246    0.465    4.105
  543.730   89.950    0.241    0.471    4.042
  543.980   87.534    0.246    0.472    4.030
  544.230   84.806    0.254    0.478    4.028
  544.480   81.969    0.260    0.485    4.092
  544.730   83.456    0.263    0.483    4.292
  544.980   82.532    0.260    0.479    4.419
  545.230   80.098    0.265    0.472    4.525
  545.480   78.498    0.268    0.462    4.602
  545.730   76.533    0.280    0.455    4.677
  545.980   74.823    0.280    0.452    4.631
  546.230   74.681    0.280    0.452    4.592
  546.480   74.658    0.295    0.448    4.525
  546.730   75.862    0.296    0.443    4.411
  546.980   77.215    0.291    0.445    4.415
  547.230   79.382    0.278    0.458    4.335
  547.480   79.760    0.277    0.463    4.366
  547.730   80.852    0.275    0.462    4.419
  547.980   81.838    0.270    0.466    4.560
  548.230   82.636    0.275    0.466    4.705
  548.480   81.547    0.274    0.465    4.760
  548.730   80.246    0.277    0.452    4.859
  548.980   79.102    0.273    0.445    4.841
  549.230   78.682    0.271    0.447    4.687
  549.480   76.741    0.268    0.457    4.548
  549.730   75.650    0.269    0.462    4.416
  549.980   78.380    0.274    0.454    4.362
  550.230   79.303    0.279    0.459    4.257
  550.480   78.601    0.282    0.465    4.175
  550.730   78.960    0.271    0.463    4.170
  550.980   80.720    0.263    0.445    4.264
  551.230   82.258    0.261    0.441    4.256
  551.480   84.856    0.269    0.448    4.299
  551.730   87.453    0.273    0.456    4.442
  551.980   85.594    0.276    0.460    4.502
  552.230   83.267    0.279    0.464    4.493
  552.480   81.968    0.279    0.462    4.592
  552.730   85.566    0.276    0.454    4.592
  552.980   88.856    0.267    0.447    4.492
  553.230   90.382    0.265    0.439    4.502
  553.480   89.296    0.266    0.444    4.435
  553.730   88.353    0.262    0.457    4.390
  553.980   87.372    0.255    0.466    4.335
  554.230   87.409    0.262    0.468    4.248
  554.480   86.277    0.271    0.468    4.254
  554.730   87.901    0.277    0.474    4.254
  554.980   87.654    0.277    0.482    4.208
  555.230   86.546    0.271    0.486    4.177
  555.480   86.674    0.265    0.486    4.175
  555.730   88.022    0.262    0.480    4.175
  555.980   90.114    0.260    0.471    4.175
  556.230   91.662    0.253    0.467    4.182
  556.480   92.568    0.244    0.466    4.089
  556.730   94.939    0.238    0.466    4.097
  556.980   94.783    0.244    0.463    4.098
  557.230   92.033    0.252    0.457    4.098
  557.480   89.500    0.250    0.452    4.096
  557.730   86.847    0.263    0.447    4.233
  557.980   84.803    0.269    0.448    4.266
  558.230   81.797    0.261    0.457    4.407
  558.480   79.055    0.267    0.462    4.535
  558.730   77.892    0.274    0.469    4.779
  558.980   76.922    0.274    0.462    4.993
  559.230   76.157    0.273    0.456    5.271
  559.480   76.225    0.277    0.445    5.551
  559.730   76.228    0.281    0.435    5.811
  559.980   77.545    0.277    0.435    6.131
  560.230   79.323    0.282    0.454    6.183
  560.480   81.140    0.277    0.455    5.935
  560.730   83.404    0.270    0.452    5.435
  560.980   84.250    0.280    0.451    4.950
  561.230   84.561    0.273    0.457    4.746
  561.480   85.593    0.281    0.462    4.566
  561.730   87.138    0.284    0.461    4.426
  561.980   89.063    0.267    0.465    4.324
  562.230   87.837    0.264    0.476    4.323
  562.480   86.409    0.272    0.478    4.248
  562.730   85.292    0.275    0.488    4.251
  562.980   84.979    0.272    0.490    4.251
  563.230   85.413    0.277    0.491    4.251
  563.480   86.605    0.274    0.501    4.251
  563.730   88.657    0.269    0.495    4.251
  563.980   91.308    0.269    0.493    4.254
  564.230   93.126    0.275    0.497    4.270
  564.480   91.878    0.262    0.492    4.330
  564.730   90.887    0.247    0.485    4.501
  564.980   89.971    0.228    0.474    4.793
  565.230   89.468    0.231    0.470    5.004
  565.480   89.141    0.235    0.472    5.438
  565.730   88.805    0.232    0.474    5.647
  565.980   87.606    0.232    0.471    5.940
  566.230   90.520    0.233    0.471    5.947
  566.480   92.522    0.238    0.467    5.950
  566.730   92.472    0.238    0.461    5.668
  566.980   94.527    0.221    0.444    5.414
  567.230   97.359    0.211    0.434    5.229
  567.480   99.716    0.198    0.433    5.178
  567.730  100.526    0.192    0.449    5.024
  567.980  101.475    0.190    0.454    5.028
  568.230  105.104    0.192    0.456    4.977
  568.480  108.714    0.186    0.459    4.918
  568.730  110.717    0.180    0.463    4.680
  568.980  110.859    0.178    0.465    4.543
  569.230  111.620    0.184    0.453    4.408
  569.480  113.620    0.186    0.453    4.468
  569.730  115.256    0.192    0.447    4.611
  569.980  112.829    0.195    0.456    4.753
  570.230  110.071    0.205    0.461    5.050
  570.480  107.713    0.202    0.445    5.333
  570.730  105.630    0.181    0.425    5.323
  570.980  105.035    0.176    0.420    5.214
  571.230  102.950    0.184    0.421    5.075
  571.480  101.030    0.186    0.416    4.692
  571.730   98.565    0.187    0.418    4.443
  571.980   97.687    0.187    0.435    4.308
  572.230   97.172    0.186    0.441    4.233
  572.480   97.336    0.172    0.438    4.172
  572.730   99.079    0.153    0.441    3.930
  572.980  100.439    0.158    0.452    3.433
  573.230  102.411    0.181    0.461    3.039
  573.480  102.180    0.206    0.477    2.669
  573.730  100.507    0.232    0.503    2.412
  573.980   99.438    0.244    0.535    2.137
  574.230   98.524    0.250    0.556    1.880
  574.480   98.811    0.241    0.554    1.730
  574.730  104.589    0.230    0.560    1.595
  574.980  108.004    0.232    0.523    1.543
  575.230  110.182    0.224    0.510    1.542
  575.480  110.068    0.213    0.520    1.575
  575.730  108.617    0.211    0.520    1.597
  575.980  106.049    0.215    0.533    1.611
  576.230  104.156    0.218    0.535    1.666
  576.480  101.797    0.218    0.536    1.761
  576.730   98.637    0.202    0.522    1.899
  576.980   95.787    0.195    0.493    2.147
  577.230   94.041    0.190    0.467    2.798
  577.480   94.843    0.181    0.442    3.193
  577.730   97.477    0.186    0.428    3.749
  577.980   99.267    0.192    0.421    4.097
  578.230  102.635    0.181    0.423    4.253
  578.480   99.620    0.171    0.424    4.454
  578.730   96.633    0.158    0.419    4.600
  578.980   91.453    0.129    0.394    4.846
  579.230   92.147    0.117    0.387    4.724
  579.480   96.984    0.143    0.417    4.436
  579.730  101.914    0.185    0.427    4.172
  579.980  104.713    0.173    0.426    3.931
  580.230  103.996    0.175    0.440    3.615
  580.480  102.068    0.189    0.448    3.400
  580.730  100.866    0.199    0.460    3.394
  580.980   98.973    0.192    0.471    3.391
  581.230   98.583    0.171    0.482    3.390
  581.480   97.639    0.154    0.488    3.367
  581.730  100.582    0.138    0.482    3.258
  581.980  105.436    0.133    0.474    3.055
  582.230  111.804    0.143    0.470    2.939
  582.480  114.327    0.167    0.477    2.758
  582.730  114.098    0.177    0.485    2.628
  582.980  111.693    0.192    0.499    2.497
  583.230  109.641    0.198    0.508    2.379
  583.480  107.789    0.205    0.518    2.352
  583.730  104.429    0.194    0.522    2.331
  583.980  103.121    0.179    0.497    2.366
  584.230  100.130    0.165    0.479    2.533
  584.480   97.890    0.153    0.460    2.783
  584.730   96.429    0.137    0.451    3.199
  584.980   94.746    0.137    0.458    3.605
  585.230   93.834    0.144    0.460    3.949
