~VERSION INFORMATION
 VERS.                 2.0:   CWLS LOG ASCII STANDARD -VERSION 2.0
 WRAP.                  NO:   ONE LINE PER DEPTH STEP
~WELL INFORMATION BLOCK
#MNEM.UNIT           DATA                    DESCRIPTION OF MNEMONIC
#---------    -------------------            -------------------------------
# Generated from Intellog Unique Number	CW_70_72/WELL/1063
NULL.         -999.25                        : NULL_VALUE
WELL.         JOFFRE ET AL CALLW 11-35       : Well_name    - WELL              
LOC .         11-35-072-20W4                 : Location     - LOCATION          
UWI .         00/11-35-072-20W4/0            : Uwi          - UNIQUE WELL ID    
ENTR.         JAYE                           : Entered      - ENTERED BY        
SRVC.         SCHLUMBERGER                   : Scn          - SERVICE COMPANY   
DATE.         5 JAN 79                       : Date         - LOG DATE          
STRT.M        355                            : top_depth    - START DEPTH       
STOP.M        565                            : bot_depth    - STOP DEPTH        
STEP.M        0.25                           : increment    - STEP LENGTH       
~CURVE INFORMATION BLOCK
#MNEM UNIT       ERCB CURVE CODE    CURVE DESCRIPTION
#-----------   ------------------   ----------------------------------
DEPT.M        00 001 00 00         : DEPTH        - DEPTH                       
DPHI.V/V      00 890 00 00         : PHID         - DENSITY POROSITY (SANDSTONE)
NPHI.V/V      00 330 00 00         : PHIN         - NEUTRON POROSITY (SANDSTONE)
GR  .API      00 310 00 00         : GR           - GAMMA RAY                   
CALI.MM       00 280 01 00         : CAL          - CALIPER                     
ILD .OHMM     00 120 00 00         : RESD         - DEEP RESISTIVITY (DIL)      
~PARAMETER INFORMATION       
#MNEM.UNIT           DATA             DESCRIPTION OF MNEMONIC
#---------         -----------     ------------------------------
GL  .M        643.2                : gl           - GROUND LEVEL ELEVATION      
EREF.M        646.5                : kb           - ELEVATION OF DEPTH REFERENCE
DATM.M        643.2                : datum        - DATUM ELEVATION             
TDD .M        605                  : tdd          - TOTAL DEPTH DRILLER         
RUN .         ONE                  : Run          - RUN NUMBER                  
WIT .         O'REILY              : Witness      - WITNESSED BY                
BASE.         LLOYD                : Branch       - HOME BASE OF LOGGING UNIT   
MUD .         GEL CHEM             : Mud_type     - MUD TYPE                    
MATR.         SANDSTONE            : Logunit      - NEUTRON MATRIX              
TMAX.C        0                    : BHT          - MAXIMUM RECORDED TEMPERATURE
BHTD.M        604.5                : BHTDEP       - MAXIMUM RECORDED TEMPERATURE
RMT .C        10                   : MDTP         - TEMPERATURE OF MUD          
MUDD.KG/M     1102                 : MWT          - MUD DENSITY                 
NEUT.         1                    : NEUTRON      - NEUTRON TYPE                
RESI.         0                    : RESIST       - RESISTIVITY TYPE            
RM  .OHMM     5.21                 : RM           - RESISTIVITY OF MUD          
RMC .OHMM     0                    : RMC          - RESISTIVITY OF MUD CAKE     
RMF .OHMM     3.6                  : RMF          - RESISTIVITY OF MUD FILTRATE 
SUFT.C        0                    : SUFT         - SURFACE TEMPERATURE         
~A  DEPTH     PHID     PHIN       GR      CAL     RESD
# ...
  501.000    0.189    0.429  126.282  187.646    3.884
  501.250    0.194    0.437  129.003  190.331    4.157
  501.500    0.202    0.437  129.873  192.297    4.499
  501.750    0.214    0.433  131.484  177.299    5.033
  502.000    0.220    0.425  132.972  185.947    5.498
  502.250    0.198    0.430  132.115  191.613    5.908
  502.500    0.204    0.440  127.682  192.448    6.115
  502.750    0.207    0.445  125.222  188.759    6.307
  503.000    0.214    0.444  126.216  176.536    6.306
  503.250    0.201    0.438  128.874  178.708    6.197
  503.500    0.217    0.429  126.847  186.018    6.049
  503.750    0.240    0.416  123.338  187.983    5.902
  504.000    0.217    0.400  126.244  176.070    5.791
  504.250    0.227    0.395  133.405  174.643    5.726
  504.500    0.215    0.399  138.347  176.710    5.671
  504.750    0.218    0.408  142.425  179.807    5.658
  505.000    0.226    0.419  140.335  183.005    5.656
  505.250    0.210    0.430  132.818  184.971    5.695
  505.500    0.190    0.438  130.789  184.879    5.755
  505.750    0.137    0.409  128.453  179.854    5.816
  506.000    0.184    0.415  126.301  171.744    5.880
  506.250    0.217    0.435  121.435  167.543    5.887
  506.500    0.235    0.430  116.446  165.602    5.886
  506.750    0.205    0.391  113.185  166.332    5.871
  507.000    0.161    0.366  110.046  170.353    5.836
  507.250    0.121    0.334  104.502  173.449    5.822
  507.500    0.094    0.314  102.227  175.003    5.788
  507.750    0.074    0.317  105.873  175.015    5.784
  508.000    0.075    0.319  111.123  174.822    5.814
  508.250    0.103    0.318  114.893  175.244    5.887
  508.500    0.135    0.338  117.861  175.359    6.050
  508.750    0.149    0.359  119.101  175.576    6.511
  509.000    0.141    0.376  119.170  175.279    7.532
  509.250    0.160    0.373  118.685  174.983    8.567
  509.500    0.186    0.391  118.444  173.555    9.857
  509.750    0.188    0.406  119.746  172.231   10.686
  510.000    0.174    0.398  123.270  171.216   10.312
  510.250    0.177    0.413  126.176  169.172    9.557
  510.500    0.178    0.407  129.328  166.510    8.773
  510.750    0.174    0.400  131.925  166.420    7.950
  511.000    0.166    0.394  131.192  166.329    7.100
  511.250    0.154    0.383  126.759  166.238    6.713
  511.500    0.138    0.367  119.734  165.941    6.350
  511.750    0.137    0.384  120.359  165.955    6.207
  512.000    0.164    0.393  126.101  167.198    6.113
  512.250    0.177    0.394  129.131  170.910    6.066
  512.500    0.187    0.388  127.164  173.493    6.097
  512.750    0.179    0.392  127.418  175.149    6.208
  513.000    0.173    0.389  129.276  177.115    6.356
  513.250    0.158    0.377  127.432  178.360    6.471
  513.500    0.138    0.362  126.206  178.989    6.564
  513.750    0.146    0.378  130.715  179.411    6.648
  514.000    0.169    0.400  136.212  179.836    6.695
  514.250    0.186    0.388  137.761  180.669    6.704
  514.500    0.187    0.370  131.847  181.400    6.815
  514.750    0.177    0.354  122.109  173.599    6.847
  515.000    0.139    0.334  115.763  171.761    6.845
  515.250    0.095    0.327  112.132  174.138    6.817
  515.500    0.178    0.351  118.368  175.691    6.728
  515.750    0.178    0.375  124.358  176.423    6.722
  516.000    0.171    0.405  124.427  177.359    6.620
  516.250    0.189    0.423  121.782  178.604    6.485
  516.500    0.204    0.412  121.543  177.795    6.374
  516.750    0.183    0.395  124.818  175.442    6.254
  517.000    0.171    0.377  127.786  174.632    6.218
  517.250    0.196    0.382  130.137  175.569    6.169
  517.500    0.223    0.426  125.765  178.048    6.110
  517.750    0.231    0.488  128.239  180.733    6.072
  518.000    0.218    0.486  132.502  177.968    5.993
  518.250    0.222    0.490  137.012  172.840    5.913
  518.500    0.223    0.502  137.389  171.208    5.685
  518.750    0.210    0.512  134.312  171.117    5.058
  519.000    0.194    0.498  134.874  171.438    4.110
  519.250    0.147    0.425  129.330  171.551    3.485
  519.500    0.114    0.369  122.738  171.770    3.021
  519.750    0.074    0.310  120.463  172.604    2.733
  520.000    0.071    0.342  121.272  173.746    2.575
  520.250    0.123    0.356  123.684  174.991    2.657
  520.500    0.157    0.373  127.393  176.647    2.827
  520.750    0.140    0.374  130.051  178.512    3.152
  521.000    0.151    0.399  133.451  178.420    3.632
  521.250    0.170    0.413  140.859  175.656    4.154
  521.500    0.152    0.386  133.342  174.331    5.389
  521.750    0.116    0.326  121.753  174.653    6.564
  522.000    0.050    0.296  111.953  174.663    6.623
  522.250    0.004    0.262  102.401  174.984    6.058
  522.500    0.061    0.283  107.404  174.995    5.583
  522.750    0.105    0.325  113.147  174.699    5.662
  523.000    0.129    0.344  118.705  174.813    6.477
  523.250    0.150    0.362  128.827  175.545    7.590
  523.500    0.169    0.374  137.038  175.866    8.813
  523.750    0.146    0.357  138.033  175.570    9.859
  524.000    0.140    0.375  136.127  175.580   10.631
  524.250    0.119    0.388  128.424  175.183   10.706
  524.500    0.071    0.366  124.546  176.837    9.650
  524.750    0.055    0.356  122.579  177.777    8.137
  525.000    0.132    0.369  119.317  177.994    6.835
  525.250    0.144    0.364  115.069  178.210    5.982
  525.500    0.130    0.383  119.146  178.531    5.740
  525.750    0.138    0.405  123.718  178.028    5.665
  526.000    0.156    0.396  121.319  177.732    5.704
  526.250    0.143    0.389  116.269  177.436    5.671
  526.500    0.135    0.392  108.690  177.757    5.554
  526.750    0.110    0.400  104.687  177.872    5.459
  527.000    0.132    0.411  105.743  177.884    5.366
  527.250    0.146    0.406  115.681  177.894    5.246
  527.500    0.154    0.401  128.331  177.907    5.139
  527.750    0.153    0.400  137.776  177.919    5.024
  528.000    0.116    0.402  136.796  177.312    4.920
  528.250    0.126    0.410  136.001  176.707    4.847
  528.500    0.135    0.418  134.467  176.102    4.844
  528.750    0.145    0.431  131.760  175.086    4.859
  529.000    0.155    0.437  131.706  174.070    4.822
  529.250    0.149    0.430  132.452  172.849    4.828
  529.500    0.116    0.427  130.980  172.654    4.864
  529.750    0.084    0.424  130.863  174.311    4.933
  530.000    0.168    0.424  134.077  170.828    5.013
  530.250    0.180    0.424  145.988  168.681    5.095
  530.500    0.167    0.429  157.036  169.516    5.206
  530.750    0.161    0.442  156.736  170.454    5.350
  531.000    0.163    0.455  153.905  171.289    5.429
  531.250    0.146    0.440  149.348  171.711    5.445
  531.500    0.129    0.413  146.457  172.236    5.463
  531.750    0.091    0.431  140.912  173.380    5.440
  532.000    0.109    0.421  131.914  174.520    5.398
  532.250    0.139    0.407  119.585  176.384    5.326
  532.500    0.155    0.386  100.842  179.582    5.275
  532.750    0.165    0.360   89.192  180.107    5.381
  533.000    0.174    0.356   79.330  171.793    5.814
  533.250    0.195    0.375   72.553  165.637    6.247
  533.500    0.242    0.378   69.168  164.415    6.649
  533.750    0.302    0.349   78.612  165.969    7.113
  534.000    0.304    0.352   94.779  168.654    8.365
  534.250    0.282    0.373  107.923  169.180   12.815
  534.500    0.255    0.410  116.565  168.473   16.624
  534.750    0.310    0.442  139.887  167.560   21.484
  535.000    0.350    0.465  139.463  168.599   28.387
  535.250    0.328    0.486  134.597  170.872   32.061
  535.500    0.294    0.423  127.450  172.528   31.923
  535.750    0.196    0.348  129.122  174.596   30.412
  536.000    0.210    0.336  106.863  175.534   26.463
  536.250    0.212    0.335  100.271  171.844   15.941
  536.500    0.177    0.350   95.960  171.034   12.278
  536.750    0.175    0.349   95.228  170.223   11.088
  537.000    0.191    0.348   91.718  168.899   10.942
  537.250    0.227    0.351   93.700  166.957   11.160
