~VERSION INFORMATION
 VERS.                 2.0:   CWLS LOG ASCII STANDARD -VERSION 2.0
 WRAP.                  NO:   ONE LINE PER DEPTH STEP
~WELL INFORMATION BLOCK
#MNEM.UNIT           DATA                    DESCRIPTION OF MNEMONIC
#---------    -------------------            -------------------------------
# Generated from Intellog Unique Number	CS_77_79/WELL/1989
WELL.         CAN WORLDWIDE ENR              : Well_name    - WELL
LOC .         00/10-05-079-03W4/0            : Location     - LOCATION
UWI .         00/10-05-079-03W4/0            : Uwi          - UNIQUE WELL ID
ENTR.         TIM                            : Entered      - ENTERED BY
SRVC.         SCHLUMBERGER                   : Scn          - SERVICE COMPANY
STRT.M        150                            : top_depth    - START DEPTH
STOP.M        385                            : bot_depth    - STOP DEPTH
STEP.M        0.25                           : increment    - STEP LENGTH
 NULL. -999.2500:NULL Value
~CURVE INFORMATION BLOCK
#MNEM UNIT       ERCB CURVE CODE    CURVE DESCRIPTION
#-----------   ------------------   ----------------------------------
DEPT.M        00 001 00 00         : DEPTH        - DEPTH
GR  .API      00 310 00 00         : GR           - GAMMA RAY
NPHI.V/V      00 330 00 00         : PHIN         - NEUTRON POROSITY (SANDSTONE)
DPHI.V/V      00 890 00 00         : PHID         - DENSITY POROSITY (SANDSTONE)
ILD .OHMM     00 120 00 00         : RESD         - DEEP RESISTIVITY (DIL)
~PARAMETER INFORMATION
#MNEM.UNIT           DATA             DESCRIPTION OF MNEMONIC
#---------         -----------     ------------------------------
GL  .M        548.88               : gl           - GROUND LEVEL ELEVATION
EREF.M        552.73               : kb           - ELEVATION OF DEPTH REFERENCE
DATM.M        552.73               : datum        - DATUM ELEVATION
TDD .M        396.4                : tdd          - TOTAL DEPTH DRILLER
RUN .         ONE                  : Run          - RUN NUMBER
ENG .         BILL                 : Engineer     - RECORDING ENGINEER
WIT .         JIM                  : Witness      - WITNESSED BY
MUD .         GEL                  : Mud_type     - MUD TYPE
MATR.         SANDSTONE            : Logunit      - NEUTRON MATRIX
TMAX.C        19                   : BHT          - MAXIMUM RECORDED TEMPERATURE
BHTD.M        396.4                : BHTDEP       - MAXIMUM RECORDED TEMPERATURE
MATR.         1                    : LOGUNIT      - NEUTRON MATRIX
RMT .C        16                   : MDTP         - TEMPERATURE OF MUD
NEUT.         1                    : NEUTRON      - NEUTRON TYPE
RESI.         5.3                  : RESIST       - RESISTIVITY TYPE
RMC .OHMM     3                    : RMC          - RESISTIVITY OF MUD CAKE
RMF .OHMM     4.6                  : RMF          - RESISTIVITY OF MUD FILTRATE
SUFT.C        15                   : SUFT         - SURFACE TEMPERATURE
~A  DEPTH       GR     PHIN     PHID     RESD
# ...
  193.500  116.254    0.435    0.299   12.646
  193.750  113.093    0.407    0.307   13.096
  194.000  107.410    0.391    0.313   13.333
  194.250  100.481    0.381    0.305   13.813
  194.500   96.697    0.381    0.295   14.056
  194.750   96.016    0.380    0.285   14.563
  195.000   98.451    0.375    0.281   14.545
  195.250   98.393    0.380    0.281   15.063
  195.500   95.204    0.387    0.281   15.052
  195.750   91.406    0.394    0.281   15.022
  196.000   88.231    0.392    0.285   14.992
  196.250   88.159    0.380    0.297   14.981
  196.500   93.725    0.374    0.313   15.227
  196.750  112.992    0.382    0.324   15.215
  197.000  107.338    0.392    0.323   15.471
  197.250  101.032    0.406    0.322   15.732
  197.500   96.611    0.404    0.318   16.010
  197.750   95.306    0.391    0.313   16.286
  198.000   93.378    0.392    0.310   16.254
  198.250   88.927    0.398    0.308   16.235
  198.500   86.999    0.405    0.308   16.209
  198.750   89.449    0.413    0.308   15.872
  199.000   89.391    0.421    0.306   15.853
  199.250   86.216    0.422    0.300   15.535
  199.500   84.912    0.406    0.279   15.517
  199.750   89.841    0.397    0.264   15.200
  200.000   95.378    0.403    0.254   15.164
  200.250   94.712    0.409    0.255   14.872
  200.500   92.160    0.419    0.257   14.843
  200.750   87.710    0.431    0.262   14.825
  201.000   83.911    0.428    0.264   14.796
  201.250   81.374    0.414    0.263   14.779
  201.500   78.823    0.405    0.265   15.606
  201.750   74.401    0.395    0.275   15.869
  202.000   68.095    0.398    0.286   16.149
  202.250   62.427    0.416    0.305   16.123
  202.500   56.759    0.426    0.307   16.395
  202.750   50.438    0.405    0.305   16.678
  203.000   50.380    0.387    0.311   16.651
  203.250   52.816    0.399    0.318   16.619
  203.500   55.266    0.410    0.325   16.593
  203.750   53.946    0.419    0.331   16.260
  204.000   52.656    0.420    0.332   15.941
  204.250   49.481    0.411    0.323   15.916
  204.500   48.177    0.405    0.318   15.597
  204.750   48.104    0.404    0.322   15.566
  205.000   48.670    0.403    0.330   15.542
  205.250   50.482    0.399    0.339   15.810
  205.500   52.294    0.397    0.332   16.694
  205.750   54.729    0.397    0.323   17.302
  206.000   55.295    0.397    0.320   17.932
  206.250   53.990    0.399    0.323   17.904
  206.500   53.309    0.401    0.327   17.869
  206.750   53.251    0.401    0.326   17.518
  207.000   53.193    0.401    0.319   16.836
  207.250   54.382    0.402    0.319   16.505
  207.500   55.570    0.402    0.325   16.485
  207.750   55.512    0.403    0.328   16.149
  208.000   54.802    0.405    0.330   16.130
  208.250   53.497    0.408    0.323   15.788
  208.500   55.309    0.397    0.318   15.478
  208.750   57.136    0.392    0.312   15.459
  209.000   57.078    0.387    0.306   15.138
  209.250   57.020    0.384    0.309   14.840
  209.500   56.962    0.381    0.308   14.811
  209.750   58.760    0.380    0.299   14.799
  210.000   59.934    0.379    0.291   15.043
  210.250   59.905    0.379    0.296   15.025
  210.500   59.847    0.381    0.299   15.284
  210.750   59.789    0.382    0.304   15.266
  211.000   61.587    0.382    0.309   14.954
  211.250   62.776    0.385    0.304   14.112
  211.500   62.703    0.388    0.292   13.317
  211.750   62.022    0.390    0.281   12.819
  212.000   63.225    0.390    0.269   12.330
  212.250   69.401    0.389    0.254   11.630
  212.500   76.838    0.397    0.232   11.195
  212.750   97.974    0.398    0.220   10.764
  213.000  107.252    0.387    0.212   10.548
  213.250  104.715    0.366    0.216   10.329
  213.500  102.787    0.378    0.219   10.126
  213.750  102.729    0.389    0.220   10.110
  214.000  103.918    0.385    0.218   10.094
  214.250  102.613    0.391    0.215   10.268
  214.500   99.424    0.398    0.210   10.256
  214.750  104.367    0.402    0.210   10.433
  215.000  108.050    0.395    0.210   10.608
  215.250  107.992    0.382    0.211   10.596
  215.500  106.035    0.369    0.211   10.774
  215.750  105.368    0.379    0.216   10.956
  216.000  103.425    0.390    0.218   11.145
  216.250  102.758    0.413    0.217   11.127
  216.500  101.454    0.417    0.215   11.110
  216.750  100.134    0.410    0.214   11.297
  217.000  100.076    0.402    0.216   11.288
  217.250  101.265    0.389    0.225   11.483
  217.500  101.207    0.385    0.243   11.465
  217.750   98.032    0.384    0.251   11.658
  218.000   93.611    0.383    0.237   11.640
  218.250   88.552    0.378    0.235   11.626
  218.500   91.001    0.377    0.236   11.603
  218.750   94.046    0.378    0.244   11.585
  219.000   92.727    0.386    0.257   11.562
  219.250   92.074    0.403    0.260   11.544
  219.500   90.755    0.398    0.259   11.526
  219.750   88.827    0.386    0.261   11.729
  220.000   86.899    0.382    0.268   11.711
  220.250   83.724    0.394    0.272   11.688
  220.500   80.549    0.408    0.274   11.894
  220.750   79.853    0.393    0.273   11.866
  221.000   79.796    0.371    0.273   11.852
  221.250   79.723    0.370    0.274   11.838
  221.500   81.535    0.370    0.267   11.806
  221.750   87.102    0.369    0.252   11.796
  222.000   90.784    0.375    0.254   11.773
  222.250   91.973    0.402    0.271   11.759
  222.500   91.292    0.408    0.278   11.741
  222.750   88.102    0.417    0.276   11.718
  223.000   85.565    0.411    0.264   11.483
  223.250   86.740    0.403    0.236   11.253
  223.500   90.436    0.395    0.234   11.032
  223.750   94.728    0.391    0.228   10.406
  224.000   95.916    0.381    0.230    9.824
  224.250   95.858    0.383    0.254    9.274
  224.500   95.800    0.392    0.259    8.278
  224.750   95.757    0.407    0.267    7.818
  225.000   99.439    0.440    0.267    6.474
  225.250  104.991    0.453    0.258    5.885
  225.500  108.050    0.480    0.259    5.453
  225.750  106.122    0.478    0.286    5.344
  226.000  101.686    0.458    0.293    5.338
  226.250   94.133    0.465    0.315    5.430
  226.500   89.103    0.473    0.326    5.841
  226.750   81.550    0.472    0.330    6.772
  227.000   73.388    0.440    0.327    8.456
  227.250   60.849    0.400    0.326    9.621
  227.500   63.284    0.393    0.326   10.550
  227.750   67.561    0.393    0.327   11.351
  228.000   66.285    0.401    0.327   12.212
  228.250   63.081    0.433    0.327   12.188
  228.500   62.429    0.447    0.325   11.510
  228.750   62.994    0.436    0.314   10.084
  229.000   65.430    0.426    0.297    8.508
  229.250   70.359    0.426    0.261    7.737
  229.500   76.534    0.432    0.260    7.304
  229.750   83.957    0.452    0.259    6.768
  230.000   93.249    0.474    0.256    6.271
  230.250  100.063    0.470    0.254    5.593
  230.500  103.745    0.441    0.249    5.280
  230.750  102.426    0.430    0.247    5.174
  231.000   99.251    0.429    0.244    5.168
  231.250   93.583    0.427    0.243    5.354
  231.500   91.640    0.429    0.243    5.346
  231.750   92.829    0.445    0.244    5.440
  232.000   95.264    0.479    0.247    5.532
  232.250   95.830    0.471    0.249    5.627
  232.500   97.019    0.463    0.250    5.835
  232.750   95.714    0.460    0.256    6.047
  233.000   91.292    0.451    0.269    6.506
  233.250   87.494    0.437    0.276    6.999
  233.500   82.449    0.428    0.289    7.530
  233.750   78.637    0.426    0.294    8.406
  234.000   77.955    0.431    0.297    9.044
  234.250   78.506    0.422    0.300    9.730
  234.500   79.072    0.410    0.302   10.468
  234.750   79.014    0.420    0.305   10.849
  235.000   78.956    0.427    0.308   11.032
  235.250   78.898    0.428    0.310   11.434
  235.500   78.840    0.431    0.310   11.631
  235.750   78.782    0.438    0.310   11.831
  236.000   78.115    0.453    0.309   12.035
  236.250   75.534    0.465    0.308   12.238
  236.500   74.230    0.459    0.305   12.224
  236.750   76.680    0.449    0.303   12.209
