~VERSION INFORMATION
 VERS.                 2.0:   CWLS LOG ASCII STANDARD -VERSION 2.0
 WRAP.                  NO:   ONE LINE PER DEPTH STEP
~WELL INFORMATION BLOCK
#MNEM.UNIT           DATA                    DESCRIPTION OF MNEMONIC
#---------    -------------------            -------------------------------
# Generated from Intellog Unique Number	CW_70_72/WELL/1066
NULL.         -999.25                        : NULL_VALUE
WELL.         LARIO ET AL MITSUE 12-20       : Well_name    - WELL              
LOC .         12-20-071-03W5                 : Location     - LOCATION          
UWI .         00/12-20-071-03W5/0            : Uwi          - UNIQUE WELL ID    
ENTR.         JAYE                           : Entered      - ENTERED BY        
SRVC.         SCHLUMBERGER                   : Scn          - SERVICE COMPANY   
DATE.         9 JAN 82                       : Date         - LOG DATE          
STRT.M        475                            : top_depth    - START DEPTH       
STOP.M        740                            : bot_depth    - STOP DEPTH        
STEP.M        0.25                           : increment    - STEP LENGTH       
~CURVE INFORMATION BLOCK
#MNEM UNIT       ERCB CURVE CODE    CURVE DESCRIPTION
#-----------   ------------------   ----------------------------------
DEPT.M        00 001 00 00         : DEPTH        - DEPTH                       
DPHI.V/V      00 890 00 00         : PHID         - DENSITY POROSITY (SANDSTONE)
NPHI.V/V      00 330 00 00         : PHIN         - NEUTRON POROSITY (SANDSTONE)
GR  .API      00 310 00 00         : GR           - GAMMA RAY                   
CALI.MM       00 280 01 00         : CAL          - CALIPER                     
ILD .OHMM     00 120 00 00         : RESD         - DEEP RESISTIVITY (DIL)      
~PARAMETER INFORMATION       
#MNEM.UNIT           DATA             DESCRIPTION OF MNEMONIC
#---------         -----------     ------------------------------
GL  .M        676                  : gl           - GROUND LEVEL ELEVATION      
EREF.M        679.9                : kb           - ELEVATION OF DEPTH REFERENCE
DATM.M        676                  : datum        - DATUM ELEVATION             
TDD .M        750                  : tdd          - TOTAL DEPTH DRILLER         
RUN .         ONE                  : Run          - RUN NUMBER                  
ENG .         BOHN                 : Engineer     - RECORDING ENGINEER          
WIT .         MYERS                : Witness      - WITNESSED BY                
BASE.         EDSON                : Branch       - HOME BASE OF LOGGING UNIT   
MUD .         GEL CHEM             : Mud_type     - MUD TYPE                    
MATR.         SANDSTONE            : Logunit      - NEUTRON MATRIX              
TMAX.C        31.1                 : BHT          - MAXIMUM RECORDED TEMPERATURE
BHTD.M        749                  : BHTDEP       - MAXIMUM RECORDED TEMPERATURE
RMT .C        30.5                 : MDTP         - TEMPERATURE OF MUD          
MUDD.KG/M     1200                 : MWT          - MUD DENSITY                 
NEUT.         1                    : NEUTRON      - NEUTRON TYPE                
RESI.         0                    : RESIST       - RESISTIVITY TYPE            
RM  .OHMM     3.19                 : RM           - RESISTIVITY OF MUD          
RMC .OHMM     0                    : RMC          - RESISTIVITY OF MUD CAKE     
RMF .OHMM     2.52                 : RMF          - RESISTIVITY OF MUD FILTRATE 
SUFT.C        0                    : SUFT         - SURFACE TEMPERATURE         
~A  DEPTH     PHID     PHIN       GR      CAL     RESD
# ...
  584.500    0.292    0.423   59.902  190.738    2.222
  584.750    0.291    0.417   61.301  190.702    2.168
  585.000    0.286    0.422   61.898  190.657    2.120
  585.250    0.292    0.439   58.825  190.621    2.096
  585.500    0.304    0.448   56.565  190.881    2.095
  585.750    0.304    0.436   56.725  191.040    2.107
  586.000    0.283    0.395   59.247  191.211    2.138
  586.250    0.273    0.402   62.079  191.055    2.194
  586.500    0.265    0.421   65.347  190.708    2.316
  586.750    0.256    0.434   68.740  190.345    2.610
  587.000    0.245    0.421   72.506  190.205    2.903
  587.250    0.227    0.396   68.001  189.951    3.296
  587.500    0.199    0.380   66.921  189.808    3.686
  587.750    0.196    0.367   70.748  190.077    3.913
  588.000    0.209    0.366   76.255  190.451    3.726
  588.250    0.233    0.385   83.935  191.542    3.490
  588.500    0.249    0.411   84.033  195.227    3.305
  588.750    0.244    0.432   77.854  197.253    3.159
  589.000    0.220    0.431   74.596  197.726    3.020
  589.250    0.202    0.439   83.209  197.891    2.898
  589.500    0.220    0.429   99.033  197.854    2.791
  589.750    0.254    0.415  103.668  197.914    2.629
  590.000    0.234    0.408   96.805  197.864    2.522
  590.250    0.218    0.444   89.505  198.127    2.438
  590.500    0.203    0.469   83.575  198.299    2.366
  590.750    0.211    0.465   84.355  198.360    2.300
  591.000    0.208    0.466   85.387  198.520    2.236
  591.250    0.198    0.466   85.360  198.163    2.178
  591.500    0.182    0.465   82.909  197.802    2.110
  591.750    0.178    0.462   77.787  197.558    2.043
  592.000    0.182    0.531   78.132  197.519    1.990
  592.250    0.195    0.553   80.159  197.674    1.928
  592.500    0.208    0.646   84.047  197.422    1.888
  592.750    0.227    0.630   87.627  197.377    1.829
  593.000    0.241    0.609   88.346  197.334    1.781
  593.250    0.250    0.587   85.959  197.295    1.741
  593.500    0.259    0.566   85.806  197.667    1.699
  593.750    0.271    0.548   85.966  198.352    1.674
  594.000    0.290    0.532   87.308  199.749    1.705
  594.250    0.304    0.519   89.831  200.539    1.733
  594.500    0.281    0.506   88.438  198.634    1.806
  594.750    0.221    0.486   83.563  195.275    2.043
  595.000    0.207    0.469   79.683  192.636    2.268
  595.250    0.198    0.456   76.734  191.250    2.522
  595.500    0.192    0.435   76.709  190.886    2.779
  595.750    0.177    0.408   80.286  191.162    3.120
  596.000    0.168    0.400   83.992  191.632    3.311
  596.250    0.188    0.414   81.478  192.307    3.089
  596.500    0.239    0.442   71.568  192.685    2.777
  596.750    0.272    0.450   66.507  193.366    2.449
  597.000    0.292    0.439   59.520  193.828    2.157
  597.250    0.305    0.438   56.510  194.301    2.005
  597.500    0.315    0.449   56.234  194.276    1.902
  597.750    0.323    0.456   56.952  194.538    1.853
  598.000    0.323    0.422   57.919  194.903    1.804
  598.250    0.320    0.403   59.073  194.955    1.774
  598.500    0.319    0.388   59.175  194.914    1.770
  598.750    0.319    0.401   57.965  194.666    1.767
  599.000    0.317    0.408   57.817  194.625    1.766
  599.250    0.317    0.415   55.491  194.792    1.763
  599.500    0.316    0.424   51.982  194.746    1.769
  599.750    0.311    0.428   52.017  194.813    1.782
  600.000    0.312    0.432   52.926  194.655    1.785
  600.250    0.320    0.430   54.390  194.816    1.791
  600.500    0.329    0.421   55.172  194.981    1.794
  600.750    0.328    0.413   55.457  195.148    1.797
  601.000    0.323    0.408   56.798  195.210    1.804
  601.250    0.316    0.407   60.315  195.166    1.804
  601.500    0.316    0.418   57.803  195.119    1.810
  601.750    0.319    0.431   52.866  194.969    1.799
  602.000    0.323    0.430   54.021  194.831    1.796
  602.250    0.327    0.418   59.028  194.785    1.792
  602.500    0.329    0.408   60.183  194.635    1.805
  602.750    0.326    0.402   61.276  194.692    1.849
  603.000    0.320    0.411   63.861  194.753    1.901
  603.250    0.317    0.417   65.016  194.708    1.974
  603.500    0.318    0.416   60.949  194.560    2.060
  603.750    0.321    0.414   58.747  194.319    2.154
  604.000    0.328    0.404   57.850  193.963    2.252
  604.250    0.336    0.409   57.326  193.610    2.303
  604.500    0.338    0.427   58.170  193.145    2.320
  604.750    0.337    0.430   60.319  192.888    2.298
  605.000    0.327    0.434   61.034  192.753    2.259
  605.250    0.315    0.442   61.076  192.706    2.200
  605.500    0.304    0.443   61.857  192.769    2.147
  605.750    0.315    0.446   63.821  192.921    2.111
  606.000    0.322    0.439   68.394  192.993    2.083
  606.250    0.322    0.429   71.661  193.150    2.067
  606.500    0.322    0.424   68.340  193.508    2.059
  606.750    0.323    0.434   62.783  193.675    2.059
  607.000    0.325    0.440   61.946  193.956    2.054
  607.250    0.328    0.429   63.228  194.009    2.039
  607.500    0.331    0.422   63.200  193.966    2.023
  607.750    0.332    0.424   62.302  193.816    2.019
  608.000    0.330    0.429   62.587  193.676    2.019
  608.250    0.328    0.419   64.179  193.525    2.033
  608.500    0.323    0.426   64.153  193.687    2.041
  608.750    0.317    0.419   63.938  193.640    2.040
  609.000    0.310    0.413   64.346  193.700    2.040
  609.250    0.305    0.417   63.453  193.760    2.043
  609.500    0.307    0.432   60.689  193.926    2.047
  609.750    0.316    0.450   58.924  194.398    2.050
  610.000    0.312    0.443   60.761  194.463    2.050
  610.250    0.309    0.418   64.092  194.102    2.049
  610.500    0.309    0.409   63.941  193.751    2.053
  610.750    0.310    0.423   60.620  194.024    2.068
  611.000    0.311    0.437   62.398  194.376    2.083
  611.250    0.311    0.451   64.108  194.655    2.090
  611.500    0.312    0.449   63.089  195.027    2.098
  611.750    0.313    0.427   60.950  195.194    2.062
  612.000    0.313    0.428   60.179  195.344    1.972
  612.250    0.320    0.439   59.592  195.416    1.895
  612.500    0.322    0.414   60.372  195.267    1.839
  612.750    0.320    0.388   59.914  195.429    1.801
  613.000    0.316    0.396   58.396  195.575    1.764
  613.250    0.315    0.421   56.567  195.646    1.741
  613.500    0.321    0.423   54.238  195.816    1.721
  613.750    0.327    0.420   55.706  195.560    1.705
  614.000    0.333    0.428   59.471  195.520    1.692
  614.250    0.337    0.425   59.196  195.480    1.686
  614.500    0.339    0.426   55.937  195.640    1.688
  614.750    0.340    0.430   57.465  196.013    1.688
  615.000    0.337    0.432   57.811  197.109    1.685
  615.250    0.330    0.417   56.976  199.032    1.684
  615.500    0.328    0.403   56.641  200.235    1.684
  615.750    0.330    0.409   56.429  200.398    1.687
  616.000    0.328    0.424   54.350  200.354    1.686
  616.250    0.325    0.431   53.826  200.309    1.680
  616.500    0.323    0.428   56.595  200.368    1.680
  616.750    0.331    0.421   57.312  200.426    1.670
  617.000    0.330    0.436   56.856  200.479    1.660
  617.250    0.326    0.440   56.331  200.654    1.644
  617.500    0.321    0.426   55.493  200.500    1.635
  617.750    0.322    0.412   55.160  200.666    1.613
  618.000    0.321    0.425   54.575  200.513    1.604
  618.250    0.320    0.422   55.915  200.269    1.604
  618.500    0.320    0.404   58.746  200.111    1.609
  618.750    0.320    0.415   60.277  199.871    1.612
  619.000    0.327    0.427   60.186  200.032    1.630
  619.250    0.329    0.446   58.732  199.991    1.645
  619.500    0.327    0.452   57.401  200.151    1.660
  619.750    0.323    0.428   56.004  200.108    1.672
  620.000    0.320    0.436   55.794  199.854    1.685
  620.250    0.326    0.447   57.633  199.708    1.706
  620.500    0.324    0.444   58.911  199.763    1.719
  620.750    0.320    0.433   55.903  199.832    1.738
