~VERSION INFORMATION
 VERS.                 2.0:   CWLS LOG ASCII STANDARD -VERSION 2.0
 WRAP.                  NO:   ONE LINE PER DEPTH STEP
~WELL INFORMATION BLOCK
#MNEM.UNIT           DATA                    DESCRIPTION OF MNEMONIC
#---------    -------------------            -------------------------------
# Generated from Intellog Unique Number	CS_77_79/WELL/945
WELL.         DOME PETROLEUM LIMITED         : Well_name    - WELL
LOC .         00/10-11-077-16W4/0            : Location     - LOCATION
UWI .         00/10-11-077-16W4/0            : Uwi          - UNIQUE WELL ID
ENTR.         SP                             : Entered      - ENTERED BY
SRVC.         SCHLUMBERGER                   : Scn          - SERVICE COMPANY
STRT.M        310                            : top_depth    - START DEPTH
STOP.M        545                            : bot_depth    - STOP DEPTH
STEP.M        0.25                           : increment    - STEP LENGTH
 NULL. -999.2500:NULL Value
~CURVE INFORMATION BLOCK
#MNEM UNIT       ERCB CURVE CODE    CURVE DESCRIPTION
#-----------   ------------------   ----------------------------------
DEPT.M        00 001 00 00         : DEPTH        - DEPTH
DPHI.V/V      00 890 00 00         : PHID         - DENSITY POROSITY (LIMESTONE)
NPHI.V/V      00 330 00 00         : PHIN         - NEUTRON POROSITY (LIMESTONE)
GR  .API      00 310 00 00         : GR           - GAMMA RAY
ILD .OHMM     00 120 00 00         : RESD         - DEEP RESISTIVITY (DIL)
~PARAMETER INFORMATION
#MNEM.UNIT           DATA             DESCRIPTION OF MNEMONIC
#---------         -----------     ------------------------------
GL  .M        703                  : gl           - GROUND LEVEL ELEVATION
EREF.M        706.8                : kb           - ELEVATION OF DEPTH REFERENCE
DATM.M        703                  : datum        - DATUM ELEVATION
TDD .M        552                  : tdd          - TOTAL DEPTH DRILLER
RUN .         ONE                  : Run          - RUN NUMBER
ENG .         BILL                 : Engineer     - RECORDING ENGINEER
WIT .         JIM                  : Witness      - WITNESSED BY
MUD .         GEL                  : Mud_type     - MUD TYPE
MATR.         LIMESTONE            : Logunit      - NEUTRON MATRIX
TMAX.C        26                   : BHT          - MAXIMUM RECORDED TEMPERATURE
BHTD.M        552                  : BHTDEP       - MAXIMUM RECORDED TEMPERATURE
MATR.         1                    : LOGUNIT      - NEUTRON MATRIX
RMT .C        25                   : MDTP         - TEMPERATURE OF MUD
NEUT.         1                    : NEUTRON      - NEUTRON TYPE
RESI.         0                    : RESIST       - RESISTIVITY TYPE
RMC .OHMM     0.25                 : RMC          - RESISTIVITY OF MUD CAKE
RMF .OHMM     0.25                 : RMF          - RESISTIVITY OF MUD FILTRATE
SUFT.C        15                   : SUFT         - SURFACE TEMPERATURE
~A  DEPTH     PHID     PHIN       GR     RESD
# ...
  484.000    0.316    0.386   66.958    4.720
  484.250    0.311    0.395   67.568    4.721
  484.500    0.304    0.404   69.996    4.634
  484.750    0.298    0.425   73.030    4.550
  485.000    0.291    0.436   71.829    4.550
  485.250    0.284    0.439   68.813    4.467
  485.500    0.277    0.439   67.005    4.468
  485.750    0.267    0.436   69.436    4.469
  486.000    0.253    0.432   73.071    4.470
  486.250    0.243    0.422   79.737    4.556
  486.500    0.244    0.417   84.582    4.731
  486.750    0.248    0.406   88.823    4.912
  487.000    0.256    0.399   84.598    5.101
  487.250    0.263    0.402   80.371    5.297
  487.500    0.268    0.398   76.147    5.398
  487.750    0.279    0.394   75.549    5.399
  488.000    0.282    0.391   73.748    5.401
  488.250    0.284    0.383   72.545    5.402
  488.500    0.277    0.375   71.340    5.715
  488.750    0.231    0.320   68.323    6.518
  489.000    0.169    0.306   62.287    6.895
  489.250    0.126    0.287   60.477    7.433
  489.500    0.135    0.297   59.881    7.864
  489.750    0.158    0.306   59.890    7.867
  490.000    0.199    0.326   68.970    7.869
  490.250    0.226    0.363   81.077    7.441
  490.500    0.258    0.383   82.295    7.168
  490.750    0.260    0.398   78.069    6.653
  491.000    0.251    0.405   76.268    6.411
  491.250    0.238    0.405   76.273    6.293
  491.500    0.227    0.404   78.101    6.294
  491.750    0.230    0.409   79.316    6.296
  492.000    0.236    0.412   79.926    6.298
  492.250    0.248    0.421   81.145    6.299
  492.500    0.242    0.421   81.154    6.420
  492.750    0.239    0.402   79.954    6.543
  493.000    0.234    0.385   78.146    6.544
  493.250    0.229    0.371   75.737    6.669
  493.500    0.222    0.367   75.138    6.670
  493.750    0.211    0.370   75.151    6.799
  494.000    0.206    0.373   75.763    6.928
  494.250    0.202    0.378   76.374    7.061
  494.500    0.201    0.383   76.988    7.197
  494.750    0.207    0.388   76.995    7.198
  495.000    0.213    0.395   78.216    7.066
  495.250    0.226    0.407   78.825    6.808
  495.500    0.234    0.417   82.465    6.438
  495.750    0.229    0.419   86.709    6.320
  496.000    0.218    0.418   87.925    6.204
  496.250    0.212    0.411   89.142    6.091
  496.500    0.217    0.395   89.154    5.868
  496.750    0.231    0.389   88.555    5.761
  497.000    0.243    0.388   86.144    5.655
  497.250    0.254    0.392   83.128    5.552
  497.500    0.255    0.401   81.926    5.350
  497.750    0.243    0.406   81.332    5.251
  498.000    0.231    0.409   81.339    4.966
  498.250    0.225    0.413   80.744    4.874
  498.500    0.215    0.418   79.545    4.198
  498.750    0.236    0.424   78.944    3.752
  499.000    0.254    0.430   78.952    3.112
  499.250    0.269    0.432   78.961    2.680
  499.500    0.284    0.448   79.578    2.396
  499.750    0.293    0.465   80.188    2.224
  500.000    0.295    0.479   81.410    2.183
  500.250    0.295    0.483   81.416    2.064
  500.500    0.305    0.475   81.422    1.989
  500.750    0.315    0.468   82.037    1.916
  501.000    0.317    0.472   82.650    1.953
  501.250    0.305    0.471   81.451    1.990
  501.500    0.294    0.459   80.852    2.186
  501.750    0.267    0.450   78.445    2.540
  502.000    0.243    0.433   77.845    2.951
  502.250    0.202    0.414   77.852    3.493
  502.500    0.205    0.398   79.070    4.293
  502.750    0.211    0.388   79.688    4.805
  503.000    0.222    0.393   79.695    5.083
  503.250    0.226    0.397   79.705    5.379
  503.500    0.220    0.394   79.712    5.380
  503.750    0.214    0.375   78.509    5.482
  504.000    0.198    0.347   77.306    6.022
  504.250    0.186    0.334   74.289    6.492
  504.500    0.145    0.329   70.066    6.869
  504.750    0.149    0.331   70.677    7.000
  505.000    0.160    0.340   73.105    7.001
  505.250    0.176    0.348   76.743    6.143
  505.500    0.217    0.377   79.775    5.492
  505.750    0.235    0.403   80.994    4.910
  506.000    0.249    0.414   81.005    4.730
  506.250    0.266    0.426   79.201    4.473
  506.500    0.266    0.432   79.205    4.151
  506.750    0.267    0.441   79.216    3.781
  507.000    0.269    0.446   79.222    3.575
  507.250    0.272    0.441   80.442    3.381
  507.500    0.291    0.435   83.475    3.197
  507.750    0.289    0.429   85.901    3.024
  508.000    0.285    0.432   90.753    3.024
  508.250    0.282    0.439   92.574    2.969
  508.500    0.265    0.442   93.185    2.969
  508.750    0.242    0.450   90.775    2.970
  509.000    0.233    0.442   88.362    2.971
  509.250    0.212    0.436   87.766    3.143
  509.500    0.204    0.429   88.381    3.325
  509.750    0.212    0.422   88.389    3.722
  510.000    0.202    0.428   87.793    4.012
  510.250    0.183    0.430   87.800    4.245
  510.500    0.190    0.427   84.783    4.576
  510.750    0.197    0.418   70.882    4.841
  511.000    0.247    0.399   64.237    5.418
  511.250    0.269    0.371   58.197    6.064
  511.500    0.281    0.353   54.574    6.786
  511.750    0.291    0.354   49.744    7.595
  512.000    0.280    0.368   46.727    7.886
  512.250    0.269    0.388   52.180    6.420
  512.500    0.239    0.411   57.633    5.227
  512.750    0.242    0.409   67.317    4.761
  513.000    0.243    0.383   67.932    4.256
  513.250    0.242    0.355   52.216    4.257
  513.500    0.242    0.344   51.016    4.946
  513.750    0.247    0.345   52.835    8.201
  514.000    0.236    0.349   60.105    8.677
  514.250    0.221    0.355   63.739    7.904
  514.500    0.214    0.364   82.499    7.615
  514.750    0.208    0.372  100.048    6.809
  515.000    0.206    0.386  101.268    6.684
  515.250    0.212    0.393   95.833    6.810
  515.500    0.219    0.373   84.951    9.192
  515.750    0.233    0.351   75.888    9.724
  516.000    0.243    0.345   72.871   10.681
  516.250    0.239    0.352   73.488   12.181
  516.500    0.231    0.356   74.104   12.647
  516.750    0.232    0.355   75.323   12.416
  517.000    0.231    0.347   76.541   11.100
  517.250    0.225    0.344   78.968   10.302
  517.500    0.220    0.344   79.578    9.742
  517.750    0.215    0.348   80.188    9.563
  518.000    0.211    0.348   79.596    9.387
  518.250    0.213    0.345   78.392    9.389
  518.500    0.205    0.334   77.189    9.393
  518.750    0.202    0.319   75.991    9.571
  519.000    0.208    0.306   75.396    9.756
  519.250    0.209    0.305   75.402    9.942
  519.500    0.203    0.305   70.576   10.132
  519.750    0.192    0.306   67.558   10.326
  520.000    0.173    0.307   66.959   10.926
  520.250    0.158    0.311   65.155   11.134
  520.500    0.168    0.314   64.555   11.347
  520.750    0.193    0.318   63.959   12.008
  521.000    0.226    0.335   63.970   11.143
  521.250    0.235    0.338   64.582   11.356
  521.500    0.250    0.340   65.194   11.358
  521.750    0.263    0.340   63.992   11.796
  522.000    0.264    0.337   62.188   12.021
  522.250    0.260    0.329   59.775   12.251
  522.500    0.255    0.315   59.183   12.961
  522.750    0.251    0.307   59.796   13.973
  523.000    0.261    0.306   60.409   14.239
  523.250    0.270    0.306   61.022   14.512
  523.500    0.272    0.307   62.239   14.789
  523.750    0.269    0.312   62.853   15.073
  524.000    0.262    0.319   62.860   15.362
  524.250    0.250    0.331   62.867   15.366
  524.500    0.244    0.342   61.066   15.368
  524.750    0.264    0.344   59.259   14.265
  525.000    0.272    0.360   66.463   13.648
  525.250    0.273    0.371   70.732   12.197
  525.500    0.251    0.379   74.390   11.531
  525.750    0.246    0.383   75.000   11.107
  526.000    0.245    0.376   73.781   10.498
  526.250    0.251    0.366   71.341   10.302
  526.500    0.253    0.351   68.293   10.299
  526.750    0.258    0.337   66.463   10.492
  527.000    0.242    0.333   64.024   11.303
  527.250    0.225    0.330   62.805   12.640
