~VERSION INFORMATION
 VERS.                 2.0:   CWLS LOG ASCII STANDARD -VERSION 2.0
 WRAP.                  NO:   ONE LINE PER DEPTH STEP
~WELL INFORMATION BLOCK
#MNEM.UNIT           DATA                    DESCRIPTION OF MNEMONIC
#---------    -------------------            -------------------------------
# Generated from Intellog Unique Number	CW_79_81/WELL/2474
WELL.         GULF AMOCO HOOLE               : Well_name    - WELL
LOC .         00/10-24-081-25W4/0            : Location     - LOCATION
UWI .         00/10-24-081-25W4/0            : Uwi          - UNIQUE WELL ID
ENTR.         MAX                            : Entered      - ENTERED BY
SRVC.         SCHLUMBERGER                   : Scn          - SERVICE COMPANY
STRT.M        198.12                         : top_depth    - START DEPTH
STOP.M        456.87                         : bot_depth    - STOP DEPTH
STEP.M        0.25                           : increment    - STEP LENGTH
 NULL. -999.2500:NULL Value
~CURVE INFORMATION BLOCK
#MNEM UNIT       ERCB CURVE CODE    CURVE DESCRIPTION
#-----------   ------------------   ----------------------------------
DEPT.M        00 001 00 00         : DEPTH        - DEPTH
ILD .OHMM     00 120 00 00         : RESD         - DEEP RESISTIVITY (DIL)
NPHI.V/V      00 330 00 00         : PHIN         - NEUTRON POROSITY (SANDSTONE)
DPHI.V/V      00 890 00 00         : PHID         - DENSITY POROSITY (SANDSTONE)
GR  .API      00 310 00 00         : GR           - GAMMA RAY
CALI.MM       00 280 01 00         : CAL          - CALIPER
~PARAMETER INFORMATION
#MNEM.UNIT           DATA             DESCRIPTION OF MNEMONIC
#---------         -----------     ------------------------------
GL  .M        586.435              : gl           - GROUND LEVEL ELEVATION
EREF.M        589.788              : kb           - ELEVATION OF DEPTH REFERENCE
DATM.M        586.435              : datum        - DATUM ELEVATION
TDD .M        464.515              : tdd          - TOTAL DEPTH DRILLER
RUN .         ONE                  : Run          - RUN NUMBER
ENG .         BILL                 : Engineer     - RECORDING ENGINEER
WIT .         JIM                  : Witness      - WITNESSED BY
MUD .         GEL                  : Mud_type     - MUD TYPE
MATR.         SANDSTONE            : Logunit      - NEUTRON MATRIX
TMAX.C        80                   : BHT          - MAXIMUM RECORDED TEMPERATURE
BHTD.M        1524                 : BHTDEP       - MAXIMUM RECORDED TEMPERATURE
MATR.         1                    : LOGUNIT      - NEUTRON MATRIX
RMT .C        59                   : MDTP         - TEMPERATURE OF MUD
NEUT.         1                    : NEUTRON      - NEUTRON TYPE
RESI.         0                    : RESIST       - RESISTIVITY TYPE
RMC .OHMM     3.71                 : RMC          - RESISTIVITY OF MUD CAKE
RMF .OHMM     3.71                 : RMF          - RESISTIVITY OF MUD FILTRATE
SUFT.C        20                   : SUFT         - SURFACE TEMPERATURE
~A  DEPTH     RESD     PHIN     PHID       GR      CAL
  198.120    4.817    0.520    0.264   84.923  184.899
  198.370    4.472    0.549    0.279   84.153  169.832
  198.620    4.223    0.561    0.282   84.015  167.448
  198.870    4.064    0.567    0.279   82.896  175.737
  199.120    4.002    0.576    0.275   81.585  185.136
  199.370    4.005    0.594    0.272   83.341  174.169
  199.620    4.007    0.574    0.276   84.420  167.491
  199.870    4.010    0.543    0.284   81.655  169.136
  200.120    4.012    0.519    0.277   80.407  175.614
  200.370    4.014    0.499    0.271   79.792  180.279
  200.620    4.031    0.484    0.268   79.179  180.716
  200.870    4.139    0.479    0.263   77.612  177.737
  201.120    4.397    0.479    0.261   74.723  172.738
  201.370    4.789    0.489    0.269   67.133  171.970
  201.620    5.569    0.455    0.265   54.786  170.897
  201.870    6.926    0.401    0.271   35.905  164.888
  202.120    9.245    0.342    0.284   15.692  155.858
  202.370   13.664    0.287    0.273    6.858  152.441
  202.620   17.306    0.280    0.270    9.523  153.316
  202.870   19.787    0.284    0.276   19.190  155.364
  203.120   19.119    0.297    0.285   27.139  158.622
  203.370   15.543    0.324    0.288   35.150  158.050
  203.620   11.768    0.358    0.280   42.910  154.758
  203.870    8.760    0.389    0.266   48.329  156.013
  204.120    7.303    0.413    0.267   49.934  156.041
  204.370    6.898    0.424    0.275   48.943  156.481
  204.620    6.917    0.410    0.281   45.285  159.637
  204.870    7.243    0.389    0.289   41.120  162.693
  205.120    7.825    0.371    0.297   37.084  164.440
  205.370    8.762    0.365    0.306   32.076  165.448
  205.620    9.667    0.381    0.313   31.044  166.326
  205.870   10.309    0.374    0.314   30.300  165.555
  206.120   10.770    0.366    0.320   27.658  163.874
  206.370   10.777    0.360    0.325   28.187  162.698
  206.620   10.288    0.359    0.326   32.839  162.531
  206.870    9.378    0.367    0.322   39.133  162.891
  207.120    8.716    0.392    0.320   42.593  162.511
  207.370    7.997    0.407    0.318   42.869  161.736
  207.620    7.547    0.389    0.315   42.193  161.570
  207.870    7.341    0.367    0.309   41.959  161.604
  208.120    7.396    0.354    0.299   41.852  160.932
  208.370    7.851    0.351    0.283   38.739  157.989
  208.620    8.216    0.352    0.265   33.214  157.185
  208.870    8.339    0.329    0.273   35.264  156.414
  209.120    8.195    0.324    0.278   39.406  156.246
  209.370    7.910    0.340    0.286   44.501  156.280
  209.620    7.497    0.367    0.299   48.774  156.516
  209.870    6.640    0.379    0.310   49.760  157.449
  210.120    5.615    0.380    0.308   49.520  157.896
  210.370    5.304    0.380    0.304   48.017  156.726
  210.620    5.631    0.384    0.301   46.705  156.154
  210.870    6.330    0.377    0.297   44.316  155.988
  211.120    7.229    0.362    0.290   40.279  156.530
  211.370    8.218    0.361    0.276   34.616  159.255
  211.620    8.730    0.369    0.274   34.110  162.640
  211.870    9.115    0.362    0.271   34.131  161.066
  212.120    9.570    0.360    0.277   33.582  159.490
  212.370    9.963    0.360    0.285   31.955  158.517
  212.620   10.222    0.358    0.295   30.138  158.348
  212.870   10.200    0.355    0.311   31.103  159.377
  213.120    9.410    0.355    0.307   34.560  162.352
  213.370    8.572    0.366    0.300   39.148  167.619
  213.620    7.855    0.390    0.292   43.546  175.306
  213.870    6.909    0.424    0.299   46.486  179.972
  214.120    6.018    0.448    0.315   48.285  179.501
  214.370    5.629    0.424    0.308   50.475  175.114
  214.620    5.935    0.405    0.297   48.648  175.146
  214.870    6.374    0.403    0.309   45.371  170.351
  215.120    6.602    0.403    0.307   44.190  167.063
  215.370    6.582    0.411    0.303   44.846  167.701
  215.620    6.341    0.427    0.304   47.275  171.560
  215.870    5.814    0.448    0.316   52.303  174.904
  216.120    5.209    0.452    0.326   55.761  175.363
  216.370    4.676    0.444    0.316   56.797  175.393
  216.620    4.367    0.432    0.311   57.831  175.127
  216.870    4.127    0.439    0.306   60.010  175.968
  217.120    3.901    0.461    0.299   62.824  178.317
  217.370    3.706    0.485    0.290   64.749  181.664
  217.620    3.790    0.538    0.288   67.942  182.115
  217.870    3.712    0.560    0.291   69.486  178.524
  218.120    3.674    0.553    0.291   68.940  177.048
  218.370    3.650    0.554    0.289   67.440  176.681
  218.620    3.626    0.571    0.289   65.494  176.716
  218.870    3.603    0.581    0.291   62.826  176.918
  219.120    3.605    0.588    0.301   62.053  177.796
  219.370    3.633    0.561    0.298   62.328  181.052
  219.620    3.661    0.546    0.284   62.033  183.709
  219.870    3.703    0.554    0.269   61.421  185.958
  220.120    3.765    0.573    0.264   60.872  188.202
  220.370    3.872    0.556    0.288   60.259  190.391
  220.620    3.991    0.530    0.302   57.110  187.071
  220.870    4.168    0.501    0.294   54.848  185.893
  221.120    4.307    0.476    0.299   54.109  185.626
  221.370    4.372    0.458    0.303   52.991  187.676
  221.620    4.359    0.456    0.306   51.556  193.347
  221.870    4.227    0.487    0.324   52.203  202.518
  222.120    3.900    0.513    0.340   54.072  195.841
  222.370    3.552    0.543    0.342   58.914  194.264
  222.620    3.255    0.567    0.328   63.946  192.684
  222.870    2.921    0.582    0.317   68.662  188.689
  223.120    2.598    0.591    0.312   72.047  183.185
  223.370    2.375    0.596    0.304   72.210  179.652
  223.620    2.395    0.588    0.306   70.382  175.912
  223.870    2.448    0.581    0.294   69.389  175.546
  224.120    2.476    0.573    0.294   69.155  177.592
  224.370    2.495    0.557    0.297   69.557  179.438
  224.620    2.519    0.533    0.300   70.087  179.878
  224.870    2.564    0.512    0.296   69.593  178.945
  225.120    2.604    0.526    0.284   68.296  178.137
  225.370    2.606    0.560    0.279   68.823  178.574
  225.620    2.607    0.581    0.273   68.209  179.011
  225.870    2.599    0.576    0.268   67.723  179.449
  226.120    2.587    0.559    0.270   68.696  179.587
  226.370    2.611    0.572    0.295   72.741  178.321
  226.620    2.733    0.590    0.321   73.818  175.833
  226.870    2.833    0.570    0.320   75.362  174.255
  227.120    2.938    0.547    0.307   74.625  172.983
  227.370    3.036    0.541    0.293   73.506  171.406
  227.620    3.126    0.559    0.281   72.891  170.331
  227.870    3.219    0.588    0.280   71.921  172.576
  228.120    3.221    0.577    0.282   68.244  175.541
  228.370    3.223    0.563    0.280   66.236  175.172
  228.620    3.190    0.548    0.283   66.509  178.430
  228.870    3.158    0.533    0.295   67.418  182.291
  229.120    3.137    0.523    0.310   67.948  184.336
  229.370    3.121    0.531    0.308   67.296  182.263
  229.620    3.147    0.526    0.297   65.209  179.781
  229.870    3.286    0.545    0.294   62.942  178.211
  230.120    3.630    0.543    0.298   59.538  176.930
  230.370    4.221    0.513    0.298   54.612  174.948
  230.620    5.177    0.453    0.292   47.783  172.167
  230.870    7.146    0.365    0.287   37.035  168.462
  231.120    9.559    0.324    0.276   28.865  163.883
  231.370   17.432    0.307    0.245   23.563  157.470
  231.620   24.230    0.303    0.242   22.252  153.777
  231.870   25.102    0.328    0.281   22.144  152.202
  232.120   23.481    0.371    0.341   21.720  151.735
  232.370   22.201    0.395    0.360   20.626  151.054
  232.620   22.214    0.398    0.363   20.122  151.509
  232.870   22.070    0.403    0.356   19.890  151.946
  233.120   21.572    0.403    0.352   20.226  152.383
  233.370   21.052    0.397    0.353   21.897  152.016
  233.620   20.693    0.391    0.355   23.949  151.144
  233.870   20.708    0.396    0.353   23.457  151.011
  234.120   21.511    0.407    0.350   22.158  150.211
  234.370   22.143    0.391    0.350   22.685  149.436
