~VERSION INFORMATION
 VERS.                 2.0:   CWLS LOG ASCII STANDARD -VERSION 2.0
 WRAP.                  NO:   ONE LINE PER DEPTH STEP
~WELL INFORMATION BLOCK
#MNEM.UNIT           DATA                    DESCRIPTION OF MNEMONIC
#---------    -------------------            -------------------------------
# Generated from Intellog Unique Number	CW_73_75/WELL/1049
WELL.         SUNCOR MITSUE 11-34            : Well_name    - WELL
LOC .         00/11-34-074-05W5/0            : Location     - LOCATION
UWI .         00/11-34-074-05W5/0            : Uwi          - UNIQUE WELL ID
ENTR.         JAYE                           : Entered      - ENTERED BY
SRVC.         SCHLUMBERGER                   : Scn          - SERVICE COMPANY
DATE.         18 MAR 80                      : Date         - LOG DATE
STRT.M        725                            : top_depth    - START DEPTH
STOP.M        945                            : bot_depth    - STOP DEPTH
STEP.M        0.25                           : increment    - STEP LENGTH
 NULL. -999.2500:NULL Value
~CURVE INFORMATION BLOCK
#MNEM UNIT       ERCB CURVE CODE    CURVE DESCRIPTION
#-----------   ------------------   ----------------------------------
DEPT.M        00 001 00 00         : DEPTH        - DEPTH
ILD .OHMM     00 120 00 00         : RESD         - DEEP RESISTIVITY (DLL)
NPHI.V/V      00 330 00 00         : PHIN         - NEUTRON POROSITY (SANDSTONE)
DPHI.V/V      00 890 00 00         : PHID         - DENSITY POROSITY (SANDSTONE)
GR  .API      00 310 00 00         : GR           - GAMMA RAY
CALI.MM       00 280 01 00         : CAL          - CALIPER
~PARAMETER INFORMATION
#MNEM.UNIT           DATA             DESCRIPTION OF MNEMONIC
#---------         -----------     ------------------------------
GL  .M        977.2                : gl           - GROUND LEVEL ELEVATION
EREF.M        980.3                : kb           - ELEVATION OF DEPTH REFERENCE
DATM.M        977.2                : datum        - DATUM ELEVATION
TDD .M        958                  : tdd          - TOTAL DEPTH DRILLER
RUN .         ONE                  : Run          - RUN NUMBER
ENG .         HOOK                 : Engineer     - RECORDING ENGINEER
WIT .         KEIR                 : Witness      - WITNESSED BY
BASE.         5270                 : Branch       - HOME BASE OF LOGGING UNIT
MUD .         GEL CHEM             : Mud_type     - MUD TYPE
MATR.         SANDSTONE            : Logunit      - NEUTRON MATRIX
TMAX.C        36                   : BHT          - MAXIMUM RECORDED TEMPERATURE
BHTD.M        957                  : BHTDEP       - MAXIMUM RECORDED TEMPERATURE
RMT .C        25.6                 : MDTP         - TEMPERATURE OF MUD
MUDD.KG/M     1066                 : MWT          - MUD DENSITY
NEUT.         0                    : NEUTRON      - NEUTRON TYPE
RESI.         1                    : RESIST       - RESISTIVITY TYPE
RM  .OHMM     3.83                 : RM           - RESISTIVITY OF MUD
RMC .OHMM     0                    : RMC          - RESISTIVITY OF MUD CAKE
RMF .OHMM     0                    : RMF          - RESISTIVITY OF MUD FILTRATE
SUFT.C        0                    : SUFT         - SURFACE TEMPERATURE
~A  DEPTH     RESD     PHIN     PHID       GR      CAL
# ...
  798.000    4.050    0.429    0.298   57.371  150.965
  798.250    4.135    0.428    0.308   58.557  150.577
  798.500    4.196    0.429    0.318   59.927  150.493
  798.750    4.256    0.431    0.318   58.828  150.306
  799.000    4.295    0.432    0.315   57.360  150.332
  799.250    4.328    0.431    0.311   57.003  150.455
  799.500    4.322    0.429    0.303   58.435  150.888
  799.750    4.325    0.425    0.301   60.423  151.110
  800.000    4.314    0.421    0.297   62.595  151.234
  800.250    4.230    0.419    0.295   65.077  151.466
  800.500    4.105    0.421    0.296   66.695  151.485
  800.750    4.018    0.427    0.302   67.324  151.507
  801.000    4.015    0.431    0.312   67.461  151.524
  801.250    4.100    0.427    0.315   66.919  151.649
  801.500    4.252    0.422    0.313   66.004  151.774
  801.750    4.486    0.419    0.315   65.769  152.000
  802.000    4.628    0.423    0.320   65.165  152.024
  802.250    4.711    0.430    0.326   64.622  152.350
  802.500    4.750    0.437    0.330   63.833  152.473
  802.750    4.776    0.442    0.334   63.289  152.493
  803.000    4.819    0.448    0.334   65.030  152.515
  803.250    4.848    0.450    0.331   67.388  152.536
  803.500    4.876    0.447    0.320   69.129  152.661
  803.750    4.862    0.437    0.298   66.364  153.094
  804.000    4.752    0.430    0.297   62.673  153.217
  804.250    4.684    0.429    0.307   61.142  152.518
  804.500    4.606    0.431    0.312   62.143  153.053
  804.750    4.478    0.436    0.305   64.070  154.723
  805.000    4.280    0.443    0.305   66.118  155.771
  805.250    4.112    0.455    0.312   69.341  155.688
  805.500    3.959    0.459    0.324   70.280  155.091
  805.750    3.803    0.450    0.320   69.798  153.877
  806.000    3.623    0.437    0.317   68.947  153.385
  806.250    3.445    0.432    0.323   68.341  153.198
  806.500    3.299    0.432    0.322   69.095  152.914
  806.750    3.229    0.438    0.323   71.330  153.036
  807.000    3.176    0.445    0.332   72.823  153.470
  807.250    3.131    0.451    0.331   72.404  153.903
  807.500    3.101    0.456    0.320   71.799  154.230
  807.750    3.078    0.460    0.311   70.887  154.357
  808.000    3.059    0.463    0.299   71.396  154.377
  808.250    3.024    0.463    0.303   71.715  154.707
  808.500    2.970    0.459    0.308   72.035  154.929
  808.750    2.939    0.452    0.317   70.443  154.851
  809.000    2.914    0.452    0.324   68.234  154.874
  809.250    2.917    0.456    0.330   69.109  155.198
  809.500    2.914    0.450    0.335   71.407  155.530
  809.750    2.961    0.439    0.338   71.481  155.136
  810.000    3.008    0.433    0.338   70.505  154.544
  810.250    3.084    0.437    0.335   68.851  153.846
  810.500    3.154    0.441    0.334   67.629  153.760
  810.750    3.277    0.445    0.340   66.591  153.786
  811.000    3.415    0.448    0.344   64.382  153.904
  811.250    3.536    0.452    0.343   63.221  154.234
  811.500    3.593    0.456    0.337   62.617  154.976
  811.750    3.493    0.453    0.339   63.186  155.202
  812.000    3.322    0.450    0.346   64.432  155.429
  812.250    3.208    0.450    0.342   65.802  155.554
  812.500    3.094    0.451    0.337   66.556  155.470
  812.750    3.042    0.457    0.332   66.137  155.083
  813.000    3.024    0.463    0.330   66.829  155.000
  813.250    3.068    0.459    0.326   68.692  155.023
  813.500    3.096    0.460    0.319   69.693  155.042
  813.750    3.099    0.466    0.311   70.817  154.754
  814.000    3.048    0.467    0.300   73.545  154.257
  814.250    2.889    0.466    0.288   76.830  154.179
  814.500    2.824    0.463    0.276   79.249  154.199
  814.750    2.754    0.459    0.253   76.423  155.248
  815.000    2.715    0.457    0.250   73.596  157.122
  815.250    2.736    0.452    0.263   72.189  158.271
  815.500    2.760    0.445    0.277   74.177  158.499
  815.750    2.758    0.436    0.290   78.818  157.287
  816.000    2.755    0.429    0.298   82.967  156.897
  816.250    2.752    0.429    0.262   83.905  158.050
  816.500    2.750    0.437    0.249   83.055  159.199
  816.750    2.742    0.446    0.236   85.165  161.589
  817.000    2.702    0.452    0.222   88.821  163.048
  817.250    2.650    0.457    0.208   91.179  164.098
  817.500    2.537    0.463    0.213   91.747  165.044
  817.750    2.437    0.468    0.213   90.833  165.687
  818.000    2.306    0.472    0.207   92.638  165.809
  818.250    2.190    0.477    0.198   93.945  165.521
  818.500    2.085    0.477    0.194   94.390  164.922
  818.750    1.963    0.466    0.207   94.464  163.813
  819.000    1.857    0.453    0.221   94.108  162.600
  819.250    1.754    0.445    0.213   93.563  163.750
  819.500    1.660    0.441    0.194   92.094  165.932
  819.750    1.614    0.445    0.193   88.958  166.266
  820.000    1.711    0.451    0.211   88.538  165.665
  820.250    1.890    0.460    0.221   89.849  164.760
  820.500    2.148    0.465    0.223   91.219  163.653
  820.750    2.404    0.462    0.228   92.281  163.569
  821.000    2.714    0.450    0.211   92.974  164.102
  821.250    3.082    0.445    0.200   92.984  164.742
  821.500    3.263    0.450    0.187   91.948  165.176
  821.750    3.354    0.458    0.186   89.491  165.301
  822.000    3.430    0.451    0.198   87.096  165.112
  822.250    3.468    0.438    0.208   85.379  163.386
  822.500    3.470    0.430    0.199   86.258  161.555
  822.750    3.468    0.442    0.194   88.059  160.340
  823.000    3.457    0.456    0.202   90.480  161.288
  823.250    3.431    0.472    0.212   92.653  161.924
  823.500    3.393    0.479    0.222   93.035  161.431
  823.750    3.395    0.459    0.236   88.665  159.601
  824.000    3.382    0.455    0.250   85.653  157.565
  824.250    3.400    0.466    0.258   86.097  156.349
  824.500    3.449    0.448    0.250   89.875  155.753
  824.750    3.475    0.432    0.227   91.061  156.290
  825.000    3.484    0.415    0.197   89.839  158.573
  825.250    3.492    0.403    0.177   89.728  160.550
  825.500    3.495    0.420    0.185   90.234  161.394
  825.750    3.508    0.432    0.196   90.371  162.035
  826.000    3.541    0.443    0.199   88.963  162.054
  826.250    3.569    0.452    0.203   83.976  162.175
  826.500    3.558    0.459    0.218   81.210  161.685
  826.750    3.542    0.464    0.245   82.457  161.188
  827.000    3.491    0.467    0.255   81.791  160.286
  827.250    3.425    0.457    0.248   78.778  158.864
  827.500    3.443    0.447    0.250   74.779  156.725
  827.750    3.441    0.440    0.269   71.519  155.305
  828.000    3.438    0.444    0.300   67.766  154.300
  828.250    3.410    0.452    0.320   65.247  153.911
  828.500    3.332    0.451    0.331   64.396  153.518
  828.750    3.273    0.448    0.332   64.472  153.023
  829.000    3.149    0.444    0.330   63.865  152.429
  829.250    3.021    0.441    0.328   62.768  152.138
  829.500    2.902    0.439    0.326   62.656  151.955
  829.750    2.774    0.439    0.326   64.952  151.565
  830.000    2.688    0.447    0.323   67.744  151.076
  830.250    2.627    0.459    0.320   69.484  150.678
  830.500    2.585    0.466    0.317   68.879  150.500
  830.750    2.556    0.473    0.323   68.151  150.316
  831.000    2.515    0.470    0.314   68.040  150.439
  831.250    2.491    0.462    0.301   67.929  150.556
  831.500    2.465    0.448    0.294   67.757  150.684
  831.750    2.461    0.445    0.272   67.831  150.804
  832.000    2.517    0.450    0.261   67.968  151.031
  832.250    2.576    0.461    0.305   68.721  150.850
  832.500    2.627    0.459    0.318   70.092  150.768
  832.750    2.646    0.445    0.318   71.956  150.791
  833.000    2.679    0.443    0.317   73.326  150.805
  833.250    2.731    0.449    0.314   71.734  150.623
  833.500    2.775    0.460    0.306   71.561  150.641
  833.750    2.831    0.468    0.295   73.118  150.666
  834.000    2.871    0.470    0.291   74.673  150.584
  834.250    2.928    0.459    0.285   76.166  150.707
