~VERSION INFORMATION
 VERS.                 2.0:   CWLS LOG ASCII STANDARD -VERSION 2.0
 WRAP.                  NO:   ONE LINE PER DEPTH STEP
~WELL INFORMATION BLOCK
#MNEM.UNIT           DATA                    DESCRIPTION OF MNEMONIC
#---------    -------------------            -------------------------------
# Generated from Intellog Unique Number	CS_73_76/WELL/2197
WELL.         BOW VALLEY INDUSTRIES LTD.     : Well_name    - WELL
LOC .         00/11-06-074-13W4/0            : Location     - LOCATION
UWI .         00/11-06-074-13W4/0            : Uwi          - UNIQUE WELL ID
ENTR.         SP                             : Entered      - ENTERED BY
SRVC.         SCHLUMBERGER                   : Scn          - SERVICE COMPANY
STRT.M        340                            : top_depth    - START DEPTH
STOP.M        565                            : bot_depth    - STOP DEPTH
STEP.M        0.25                           : increment    - STEP LENGTH
 NULL. -999.2500:NULL Value
~CURVE INFORMATION BLOCK
#MNEM UNIT       ERCB CURVE CODE    CURVE DESCRIPTION
#-----------   ------------------   ----------------------------------
DEPT.M        00 001 00 00         : DEPTH        - DEPTH
GR  .API      00 310 00 00         : GR           - GAMMA RAY
DPHI.V/V      00 890 00 00         : PHID         - DENSITY POROSITY (LIMESTONE)
NPHI.V/V      00 330 00 00         : PHIN         - NEUTRON POROSITY (LIMESTONE)
ILD .OHMM     00 120 00 00         : RESD         - DEEP RESISTIVITY (DIL)
~PARAMETER INFORMATION
#MNEM.UNIT           DATA             DESCRIPTION OF MNEMONIC
#---------         -----------     ------------------------------
GL  .M        694.49               : gl           - GROUND LEVEL ELEVATION
EREF.M        697.84               : kb           - ELEVATION OF DEPTH REFERENCE
DATM.M        694.49               : datum        - DATUM ELEVATION
TDD .M        571                  : tdd          - TOTAL DEPTH DRILLER
RUN .         ONE                  : Run          - RUN NUMBER
ENG .         BILL                 : Engineer     - RECORDING ENGINEER
WIT .         JIM                  : Witness      - WITNESSED BY
MUD .         GEL                  : Mud_type     - MUD TYPE
MATR.         LIMESTONE            : Logunit      - NEUTRON MATRIX
TMAX.C        24                   : BHT          - MAXIMUM RECORDED TEMPERATURE
BHTD.M        571                  : BHTDEP       - MAXIMUM RECORDED TEMPERATURE
MATR.         1                    : LOGUNIT      - NEUTRON MATRIX
RMT .C        25                   : MDTP         - TEMPERATURE OF MUD
NEUT.         1                    : NEUTRON      - NEUTRON TYPE
RESI.         0                    : RESIST       - RESISTIVITY TYPE
RMC .OHMM     0.25                 : RMC          - RESISTIVITY OF MUD CAKE
RMF .OHMM     0.25                 : RMF          - RESISTIVITY OF MUD FILTRATE
SUFT.C        15                   : SUFT         - SURFACE TEMPERATURE
~A  DEPTH       GR     PHID     PHIN     RESD
# ...
  383.500  111.489    0.232    0.401    7.029
  383.750  113.310    0.216    0.415    6.522
  384.000  115.131    0.207    0.431    6.166
  384.250  121.795    0.195    0.452    5.410
  384.500  128.457    0.205    0.480    5.020
  384.750  132.697    0.215    0.497    4.745
  385.000  135.125    0.229    0.505    4.657
  385.250  131.504    0.223    0.510    4.833
  385.500  126.071    0.237    0.504    4.924
  385.750  123.656    0.247    0.504    5.110
  386.000  120.036    0.250    0.510    5.304
  386.250  118.228    0.266    0.518    5.608
  386.500  118.236    0.268    0.520    5.821
  386.750  117.036    0.245    0.513    5.929
  387.000  114.625    0.266    0.507    6.040
  387.250  112.819    0.255    0.468    6.269
  387.500  111.614    0.275    0.444    6.506
  387.750  110.415    0.250    0.433    6.628
  388.000  109.213    0.235    0.432    6.879
  388.250  108.011    0.249    0.445    7.139
  388.500  105.599    0.241    0.449    7.410
  388.750  103.188    0.256    0.455    7.690
  389.000  100.776    0.272    0.474    8.132
  389.250   98.971    0.224    0.483    8.284
  389.500   97.163    0.182    0.461    8.283
  389.750   92.936    0.165    0.445    7.830
  390.000   97.180    0.180    0.449    7.402
  390.250  103.239    0.254    0.454    7.130
  390.500  106.270    0.244    0.468    6.615
  390.750  109.906    0.248    0.479    6.372
  391.000  113.544    0.242    0.482    6.371
  391.250  115.365    0.239    0.472    6.370
  391.500  111.140    0.251    0.471    6.489
  391.750  106.916    0.257    0.477    6.734
  392.000  105.109    0.269    0.467    6.734
  392.250  102.696    0.263    0.477    7.120
  392.500   99.680    0.279    0.489    7.253
  392.750   94.850    0.298    0.475    7.389
  393.000   89.414    0.302    0.460    7.387
  393.250   86.397    0.299    0.467    7.387
  393.500   88.824    0.297    0.474    7.114
  393.750   93.070    0.287    0.475    6.982
  394.000   94.891    0.282    0.470    6.724
  394.250   96.107    0.271    0.469    6.724
  394.500   97.928    0.279    0.463    6.722
  394.750  100.963    0.292    0.444    6.721
  395.000  100.968    0.294    0.457    6.847
  395.250  100.978    0.288    0.457    7.106
  395.500  102.195    0.266    0.444    7.376
  395.750  102.809    0.303    0.447    7.655
  396.000   99.791    0.320    0.451    8.402
  396.250   91.333    0.331    0.461    8.721
  396.500   86.501    0.348    0.475    9.051
  396.750   79.856    0.462    0.491    9.219
  397.000   71.395    0.509    0.609    9.218
  397.250   59.911    0.327    0.529    9.046
  397.500   59.315    0.315    0.463    8.713
  397.750   59.323    0.323    0.422    8.550
  398.000   60.541    0.329    0.413    8.549
  398.250   61.760    0.326    0.417    8.390
  398.500   62.373    0.334    0.420    8.388
  398.750   62.984    0.340    0.423    8.232
  399.000   62.388    0.339    0.431    8.231
  399.250   60.581    0.337    0.437    8.229
  399.500   62.405    0.327    0.434    8.383
  399.750   63.620    0.341    0.426    8.381
  400.000   65.442    0.337    0.424    8.380
  400.250   66.663    0.338    0.429    8.379
  400.500   67.273    0.353    0.440    8.377
  400.750   68.493    0.353    0.446    8.376
  401.000   70.317    0.344    0.437    8.374
  401.250   71.534    0.344    0.431    8.373
  401.500   71.540    0.345    0.438    8.371
  401.750   70.338    0.347    0.447    8.370
  402.000   69.137    0.345    0.451    8.369
  402.250   69.146    0.341    0.440    8.367
  402.500   68.548    0.355    0.425    8.366
  402.750   66.743    0.363    0.442    8.364
  403.000   66.752    0.376    0.466    8.363
  403.250   67.362    0.387    0.493    8.520
  403.500   67.975    0.376    0.512    8.361
  403.750   67.984    0.357    0.477    8.359
  404.000   67.993    0.350    0.450    8.358
  404.250   68.605    0.348    0.450    8.356
  404.500   69.216    0.350    0.460    8.201
  404.750   69.227    0.344    0.455    8.199
  405.000   68.629    0.352    0.448    8.198
  405.250   67.427    0.356    0.433    8.045
  405.500   69.252    0.360    0.424    8.043
  405.750   72.286    0.363    0.437    8.042
  406.000   74.713    0.367    0.452    7.892
  406.250   76.534    0.367    0.447    7.891
  406.500   79.565    0.364    0.454    7.890
  406.750   85.621    0.353    0.460    7.888
  407.000   90.470    0.357    0.456    7.887
  407.250   91.685    0.341    0.459    7.885
  407.500   91.090    0.325    0.460    7.884
  407.750   90.495    0.341    0.451    7.883
  408.000   89.897    0.345    0.450    8.029
  408.250   90.509    0.345    0.456    8.029
  408.500   86.888    0.343    0.474    8.178
  408.750   80.848    0.344    0.474    8.177
  409.000   77.227    0.343    0.456    8.176
  409.250   73.604    0.341    0.440    8.174
  409.500   71.797    0.337    0.437    8.327
  409.750   68.177    0.335    0.440    8.325
  410.000   65.161    0.332    0.445    8.324
  410.250   62.750    0.331    0.425    8.170
  410.500   60.944    0.330    0.435    8.168
  410.750   59.741    0.331    0.438    8.167
  411.000   57.936    0.338    0.434    8.165
  411.250   55.526    0.333    0.423    8.164
  411.500   54.322    0.322    0.415    8.011
  411.750   53.727    0.331    0.421    8.010
  412.000   55.547    0.339    0.434    8.009
  412.250   59.790    0.341    0.423    7.859
  412.500   62.821    0.339    0.420    7.713
  412.750   65.855    0.344    0.421    7.292
  413.000   71.309    0.327    0.422    7.023
  413.250   77.365    0.296    0.430    6.640
  413.500   84.025    0.268    0.449    6.516
  413.750   93.105    0.259    0.464    6.514
  414.000   97.347    0.264    0.490    6.636
  414.250   90.099    0.271    0.466    6.635
  414.500   84.663    0.282    0.433    6.634
  414.750   81.041    0.283    0.441    6.758
  415.000   78.023    0.299    0.446    6.756
  415.250   77.428    0.286    0.422    6.755
  415.500   76.224    0.271    0.408    6.882
  415.750   76.235    0.257    0.406    6.880
  416.000   77.451    0.260    0.416    7.009
  416.250   78.064    0.275    0.424    7.008
  416.500   76.259    0.289    0.434    7.007
  416.750   74.453    0.294    0.441    7.005
  417.000   73.854    0.278    0.446    7.005
  417.250   74.469    0.277    0.447    7.003
  417.500   76.291    0.275    0.450    7.002
  417.750   76.905    0.293    0.475    6.872
  418.000   76.909    0.311    0.493    6.870
  418.250   78.127    0.331    0.482    6.869
  418.500   75.114    0.340    0.454    6.868
  418.750   71.492    0.345    0.442    6.867
  419.000   68.474    0.338    0.446    6.866
  419.250   65.458    0.331    0.442    6.864
  419.500   66.073    0.335    0.442    6.863
  419.750   66.684    0.337    0.465    6.862
  420.000   66.088    0.332    0.464    6.861
  420.250   67.912    0.338    0.460    6.733
  420.500   69.733    0.334    0.454    6.732
  420.750   71.555    0.321    0.434    6.731
  421.000   70.353    0.312    0.415    6.730
  421.250   66.734    0.309    0.430    6.729
  421.500   63.718    0.306    0.435    6.728
  421.750   61.305    0.307    0.435    6.727
  422.000   59.498    0.316    0.428    6.725
  422.250   63.741    0.307    0.436    6.724
  422.500   68.589    0.311    0.443    6.599
  422.750   72.226    0.307    0.443    6.476
  423.000   74.652    0.308    0.442    6.355
  423.250   72.847    0.308    0.437    6.237
  423.500   72.853    0.306    0.429    6.006
  423.750   74.677    0.306    0.432    6.006
  424.000   76.499    0.304    0.453    5.893
  424.250   77.113    0.297    0.467    5.893
  424.500   75.910    0.294    0.478    5.892
  424.750   74.106    0.296    0.480    5.891
  425.000   74.115    0.297    0.466    5.890
  425.250   74.724    0.299    0.464    5.780
  425.500   77.757    0.301    0.455    5.464
  425.750   81.396    0.306    0.461    5.263
  426.000   83.821    0.311    0.464    4.793
  426.250   86.249    0.282    0.454    4.127
  426.500   90.493    0.263    0.456    3.830
  426.750   95.339    0.246    0.487    3.488
