~VERSION INFORMATION
 VERS.                 2.0:   CWLS LOG ASCII STANDARD -VERSION 2.0
 WRAP.                  NO:   ONE LINE PER DEPTH STEP
~WELL INFORMATION BLOCK
#MNEM.UNIT           DATA                    DESCRIPTION OF MNEMONIC
#---------    -------------------            -------------------------------
# Generated from Intellog Unique Number	CW_70_72/WELL/3030
NULL.         -999.25                        : NULL_VALUE
WELL.         MESA SULPETRO MEYER 11-22      : Well_name    - WELL              
LOC .         11-22-070-24W4                 : Location     - LOCATION          
UWI .         00/11-22-070-24W4/0            : Uwi          - UNIQUE WELL ID    
ENTR.         jj                             : Entered      - ENTERED BY        
SRVC.         SCHLUMBERGER                   : Scn          - SERVICE COMPANY   
DATE.         20 JAN 77                      : Date         - LOG DATE          
STRT.M        411.48                         : top_depth    - START DEPTH       
STOP.M        633.98                         : bot_depth    - STOP DEPTH        
STEP.M        0.25                           : increment    - STEP LENGTH       
~CURVE INFORMATION BLOCK
#MNEM UNIT       ERCB CURVE CODE    CURVE DESCRIPTION
#-----------   ------------------   ----------------------------------
DEPT.M        00 001 00 00         : DEPTH        - DEPTH                       
ILD .OHMM     00 120 00 00         : RESD         - DEEP RESISTIVITY (DIL)      
CALI.MM       00 280 01 00         : CAL          - CALIPER                     
GR  .API      00 310 00 00         : GR           - GAMMA RAY                   
NPHI.V/V      00 330 00 00         : PHIN         - NEUTRON POROSITY (SANDSTONE)
DPHI.V/V      00 890 00 00         : PHID         - DENSITY POROSITY (SANDSTONE)
~PARAMETER INFORMATION       
#MNEM.UNIT           DATA             DESCRIPTION OF MNEMONIC
#---------         -----------     ------------------------------
GL  .M        619.049              : gl           - GROUND LEVEL ELEVATION      
EREF.M        624.23               : kb           - ELEVATION OF DEPTH REFERENCE
DATM.M        619.049              : datum        - DATUM ELEVATION             
TDD .M        649.224              : tdd          - TOTAL DEPTH DRILLER         
RUN .         ONE                  : Run          - RUN NUMBER                  
ENG .         LAGASSE              : Engineer     - RECORDING ENGINEER          
BASE.         EDM                  : Branch       - HOME BASE OF LOGGING UNIT   
MUD .         GEL CHEM             : Mud_type     - MUD TYPE                    
MATR.         SANDSTONE            : Logunit      - NEUTRON MATRIX              
TMAX.C        28.8889              : BHT          - MAXIMUM RECORDED TEMPERATURE
BHTD.M        647.395              : BHTDEP       - MAXIMUM RECORDED TEMPERATURE
RMT .C        13.3333              : MDTP         - TEMPERATURE OF MUD          
MUDD.KG/M     1080                 : MWT          - MUD DENSITY                 
NEUT.         1                    : NEUTRON      - NEUTRON TYPE                
RESI.         0                    : RESIST       - RESISTIVITY TYPE            
RM  .OHMM     1.45                 : RM           - RESISTIVITY OF MUD          
RMC .OHMM     0.25                 : RMC          - RESISTIVITY OF MUD CAKE     
RMF .OHMM     2.11                 : RMF          - RESISTIVITY OF MUD FILTRATE 
SUFT.C        -17.7778             : SUFT         - SURFACE TEMPERATURE         
~A  DEPTH     RESD      CAL       GR     PHIN     PHID
# ...
  593.980    5.397  172.691   94.256    0.339    0.090
  594.230    5.324  173.045  101.597    0.334    0.098
  594.480    5.034  173.399  107.347    0.350    0.109
  594.730    4.425  172.520  111.022    0.382    0.124
  594.980    4.071  171.852  116.290    0.391    0.107
  595.230    3.739  171.790  111.630    0.395    0.124
  595.480    3.485  171.952  109.228    0.395    0.145
  595.730    3.356  172.094  108.821    0.394    0.140
  595.980    3.353  172.764  108.362    0.395    0.140
  596.230    3.474  173.633  108.272    0.404    0.133
  596.480    3.626  175.332  108.238    0.418    0.127
  596.730    3.834  176.300  108.568    0.420    0.101
  596.980    3.966  176.349  110.976    0.414    0.130
  597.230    2.339  175.682  113.924    0.402    0.121
  597.480    1.259  174.391  111.089    0.386    0.111
  597.730    0.655  173.407  104.906    0.362    0.097
  597.980    0.375  172.931  101.222    0.351    0.072
  598.230    0.289  172.675  100.275    0.337    0.073
  598.480    0.264  172.924   95.492    0.308    0.044
  598.730    0.270  173.597   89.552    0.283    0.004
  598.980    0.323  173.854   95.244    0.309    0.034
  599.230    0.463  174.210  104.891    0.342    0.049
  599.480    1.400  174.150  112.596    0.371    0.060
  599.730    2.364  173.994  119.501    0.404    0.090
  599.980    3.307  173.932  125.677    0.425    0.112
  600.230    3.831  174.705  130.332    0.441    0.125
  600.480    4.350  175.158  124.699    0.426    0.117
  600.730    4.745  173.865  118.518    0.409    0.113
  600.980    4.917  172.164  116.476    0.398    0.140
  601.230    4.841  173.137  116.926    0.381    0.127
  601.480    3.847  174.838  119.210    0.381    0.142
  601.730    3.382  176.118  121.245    0.393    0.131
  601.980    3.367  176.266  122.495    0.412    0.130
  602.230    3.546  175.905  117.160    0.415    0.134
  602.480    3.840  175.750  115.606    0.386    0.111
  602.730    4.188  175.482  119.774    0.364    0.085
  602.980    4.567  175.437  124.003    0.378    0.102
  603.230    5.028  174.547  120.200    0.389    0.107
  603.480    5.783  172.943  114.321    0.383    0.107
  603.730    6.518  172.064  111.544    0.378    0.100
  603.980    7.402  172.531  108.711    0.386    0.078
  604.230    8.089  172.159  104.537    0.373    0.058
  604.480    7.962  172.416  108.768    0.308    0.037
  604.730    7.544  174.315  115.984    0.324    0.075
  604.980    6.853  174.469  121.551    0.345    0.097
  605.230    6.328  173.587  121.394    0.353    0.107
  605.480    5.865  173.533  116.004    0.334    0.111
  605.730    5.607  172.547  112.074    0.326    0.102
  605.980    5.430  171.561  114.173    0.326    0.069
  606.230    5.366  169.958  114.934    0.339    0.054
  606.480    5.420  169.180  113.438    0.349    0.069
  606.730    5.505  170.571  110.480    0.339    0.084
  606.980    5.715  176.393  105.944    0.341    0.085
  607.230    5.932  183.967   97.749    0.356    0.091
  607.480    6.542  177.825   87.062    0.384    0.127
  607.730    7.415  171.790   77.168    0.418    0.177
  607.980    9.431  170.914   59.903    0.494    0.233
  608.230   13.073  170.750   40.997    0.557    0.388
  608.480   16.146  169.978   31.040    0.608    0.605
  608.730   17.805  169.401   39.050    0.545    0.324
  608.980   16.964  168.316   42.242    0.413    0.282
  609.230   16.976  165.376   47.687    0.283    0.217
  609.480   18.483  163.462   54.229    0.250    0.147
  609.730   20.986  161.860   63.447    0.236    0.115
  609.980   24.539  161.907   61.833    0.240    0.117
  610.230   26.134  163.307   56.566    0.255    0.157
  610.480   25.590  163.552   54.218    0.274    0.176
  610.730   23.205  163.493   55.831    0.294    0.179
  610.980   19.950  162.822   60.426    0.299    0.176
  611.230   15.013  164.740   65.019    0.294    0.175
  611.480   13.365  166.528   68.882    0.316    0.156
  611.730   11.640  173.890   70.493    0.359    0.163
  611.980   11.231  174.767   57.187    0.333    0.170
  612.230   14.441  168.832   43.578    0.296    0.231
  612.480   16.761  165.989   39.464    0.296    0.247
  612.730   18.217  168.201   46.435    0.305    0.220
  612.980   16.886  162.480   55.229    0.274    0.183
  613.230   13.869  160.977   69.626    0.289    0.160
  613.480   10.627  165.564   93.032    0.331    0.175
  613.730    8.794  169.114  117.352    0.496    0.189
  613.980    7.772  171.119  115.189    0.540    0.223
  614.230    7.085  172.925   94.759    0.580    0.204
  614.480    6.888  173.275   81.334    0.601    0.308
  614.730    7.124  170.130   68.575    0.614    0.483
  614.980    7.546  168.012   47.355    0.626    0.616
  615.230    8.081  167.752   44.703    0.633    0.627
  615.480    8.513  168.932   84.732    0.632    0.590
  615.730    8.614  169.398  107.592    0.618    0.580
  615.980    8.434  169.749  117.120    0.411    0.357
  616.230    7.948  170.732  128.773    0.378    0.150
  616.480    7.501  171.182  143.785    0.375    0.093
  616.730    6.928  172.365  137.663    0.395    0.101
  616.980    6.647  173.441  138.234    0.352    0.098
  617.230    6.298  175.866  155.736    0.290    0.123
  617.480    6.021  177.869  202.340    0.327    0.095
  617.730    5.664  178.430  226.903    0.375    0.093
  617.980    5.385  177.040  241.421    0.403    0.086
  618.230    5.075  174.099  258.985    0.408    0.099
  618.480    4.842  170.021  264.432    0.371    0.075
  618.730    4.546  166.761  265.859    0.372    0.063
  618.980    4.331  166.293  254.684    0.408    0.044
  619.230    4.256  173.357  232.976    0.432    0.055
  619.480    4.362  176.286  185.394    0.438    0.151
  619.730    4.472  176.544  157.356    0.421    0.075
  619.980    4.524  176.488  136.501    0.435    0.051
  620.230    4.446  176.740  131.535    0.428    0.053
  620.480    4.251  177.718  125.295    0.399    0.010
  620.730    3.954  178.381  121.789    0.378   -0.012
  620.980    3.685  178.227  117.920    0.367   -0.004
  621.230    3.485  177.338  112.775    0.366    0.060
  621.480    3.320  174.708  109.758    0.393    0.055
  621.730    3.239  171.453  106.619    0.426    0.059
  621.980    3.159  171.811  103.910    0.424    0.032
  622.230    3.116  173.922  102.717    0.402    0.056
  622.480    3.102  177.893  107.865    0.395    0.027
  622.730    3.082  180.102  112.454    0.379    0.032
  622.980    3.018  179.843  113.518    0.365    0.038
  623.230    2.977  178.865  107.335    0.348    0.084
  623.480    2.957  178.799  110.713    0.338    0.093
  623.730    2.960  178.440  110.010    0.375    0.089
  623.980    2.989  178.170   99.870    0.361    0.074
  624.230    3.003  177.496   90.705    0.317    0.118
  624.480    3.055  177.131   87.629    0.295    0.099
  624.730    3.109  176.251   89.422    0.303    0.092
  624.980    3.094  175.371   90.912    0.297    0.106
  625.230    3.086  180.070   91.974    0.296    0.081
  625.480    3.077  182.889   90.602    0.313    0.060
  625.730    3.063  184.793   86.615    0.319    0.084
  625.980    3.060  183.809   84.692    0.303    0.124
  626.230    3.040  182.004   89.165    0.308    0.127
  626.480    3.026  180.090   98.749    0.323    0.115
  626.730    3.017  177.146  111.016    0.321    0.127
  626.980    3.015  172.863  132.960    0.333    0.146
  627.230    3.034  167.032  167.206    0.410    0.137
  627.480    3.020  162.545  170.827    0.453    0.121
  627.730    3.039  161.156  172.375    0.437    0.103
  627.980    3.052  162.437  168.751    0.420    0.087
  628.230    3.011  167.326  167.683    0.400    0.062
  628.480    2.916  174.178  163.144    0.399    0.061
  628.730    2.818  176.081  151.848    0.402    0.070
  628.980    2.685  176.133  150.171    0.394    0.045
  629.230    2.512  175.147  188.679    0.382    0.036
  629.480    2.375  170.039  255.862    0.396    0.049
  629.730    2.271  172.254  261.429    0.420    0.089
  629.980    2.151  175.915  263.833    0.425    0.081
  630.230    2.072  177.710  257.042    0.413    0.102
