~VERSION INFORMATION
 VERS.                 2.0:   CWLS LOG ASCII STANDARD -VERSION 2.0
 WRAP.                  NO:   ONE LINE PER DEPTH STEP
~WELL INFORMATION BLOCK
#MNEM.UNIT           DATA                    DESCRIPTION OF MNEMONIC
#---------    -------------------            -------------------------------
# Generated from Intellog Unique Number	CS_77_79/WELL/988
WELL.         HOME OIL COMPANY               : Well_name    - WELL
LOC .         00/11-06-077-07W4/0            : Location     - LOCATION
UWI .         00/11-06-077-07W4/0            : Uwi          - UNIQUE WELL ID
ENTR.         SP                             : Entered      - ENTERED BY
SRVC.         SCHLUMBERGER                   : Scn          - SERVICE COMPANY
STRT.M        145                            : top_depth    - START DEPTH
STOP.M        380                            : bot_depth    - STOP DEPTH
STEP.M        0.25                           : increment    - STEP LENGTH
 NULL. -999.2500:NULL Value
~CURVE INFORMATION BLOCK
#MNEM UNIT       ERCB CURVE CODE    CURVE DESCRIPTION
#-----------   ------------------   ----------------------------------
DEPT.M        00 001 00 00         : DEPTH        - DEPTH
ILD .OHMM     00 120 00 00         : RESD         - DEEP RESISTIVITY (DIL)
DPHI.V/V      00 890 00 00         : PHID         - DENSITY POROSITY (LIMESTONE)
NPHI.V/V      00 330 00 00         : PHIN         - NEUTRON POROSITY (LIMESTONE)
GR  .API      00 310 00 00         : GR           - GAMMA RAY
~PARAMETER INFORMATION
#MNEM.UNIT           DATA             DESCRIPTION OF MNEMONIC
#---------         -----------     ------------------------------
GL  .M        571.96               : gl           - GROUND LEVEL ELEVATION
EREF.M        575.65               : kb           - ELEVATION OF DEPTH REFERENCE
DATM.M        571.96               : datum        - DATUM ELEVATION
TDD .M        390.3                : tdd          - TOTAL DEPTH DRILLER
RUN .         ONE                  : Run          - RUN NUMBER
ENG .         BILL                 : Engineer     - RECORDING ENGINEER
WIT .         JIM                  : Witness      - WITNESSED BY
MUD .         GEL                  : Mud_type     - MUD TYPE
MATR.         LIMESTONE            : Logunit      - NEUTRON MATRIX
TMAX.C        28                   : BHT          - MAXIMUM RECORDED TEMPERATURE
BHTD.M        390.3                : BHTDEP       - MAXIMUM RECORDED TEMPERATURE
MATR.         0                    : LOGUNIT      - NEUTRON MATRIX
RMT .C        25                   : MDTP         - TEMPERATURE OF MUD
NEUT.         1                    : NEUTRON      - NEUTRON TYPE
RESI.         0                    : RESIST       - RESISTIVITY TYPE
RMC .OHMM     0.25                 : RMC          - RESISTIVITY OF MUD CAKE
RMF .OHMM     0.25                 : RMF          - RESISTIVITY OF MUD FILTRATE
SUFT.C        15                   : SUFT         - SURFACE TEMPERATURE
~A  DEPTH     RESD     PHID     PHIN       GR
# ...
  275.500    7.282    0.329    0.483   63.842
  275.750    7.284    0.331    0.469   63.837
  276.000    7.152    0.324    0.448   65.645
  276.250    7.288    0.328    0.430   63.825
  276.500    7.023    0.333    0.445   64.425
  276.750    6.895    0.334    0.474   65.026
  277.000    6.770    0.344    0.475   66.835
  277.250    6.899    0.350    0.467   68.644
  277.500    6.901    0.346    0.461   69.848
  277.750    6.904    0.329    0.449   68.029
  278.000    6.905    0.316    0.475   65.603
  278.250    6.906    0.324    0.485   64.389
  278.500    6.781    0.336    0.492   64.384
  278.750    6.783    0.346    0.501   64.984
  279.000    6.786    0.339    0.451   64.374
  279.250    6.787    0.341    0.433   64.369
  279.500    6.663    0.343    0.477   66.782
  279.750    6.665    0.334    0.484   65.569
  280.000    6.793    0.335    0.468   67.378
  280.250    6.794    0.339    0.452   68.582
  280.500    6.796    0.337    0.454   69.787
  280.750    6.798    0.340    0.483   67.360
  281.000    6.800    0.344    0.519   66.752
  281.250    6.801    0.344    0.517   64.932
  281.500    6.804    0.344    0.434   63.113
  281.750    6.680    0.345    0.445   64.922
  282.000    6.681    0.343    0.441   64.917
  282.250    6.809    0.339    0.446   63.703
  282.500    6.811    0.338    0.459   64.907
  282.750    7.072    0.340    0.473   65.506
  283.000    7.206    0.340    0.484   65.501
  283.250    7.482    0.339    0.494   63.077
  283.500    7.483    0.337    0.509   61.257
  283.750    7.348    0.342    0.521   61.857
  284.000    7.349    0.345    0.526   64.271
  284.250    7.216    0.349    0.531   65.476
  284.500    7.218    0.343    0.488   64.865
  284.750    7.087    0.344    0.465   64.860
  285.000    7.088    0.350    0.461   63.646
  285.250    6.960    0.350    0.457   62.431
  285.500    6.961    0.340    0.450   64.844
  285.750    6.964    0.333    0.437   64.235
  286.000    6.965    0.328    0.429   59.996
  286.250    6.967    0.342    0.447   60.596
  286.500    6.969    0.343    0.460   62.406
  286.750    6.843    0.344    0.476   61.189
  287.000    6.719    0.337    0.499   59.976
  287.250    6.596    0.342    0.491   62.994
  287.500    6.722    0.347    0.539   65.409
  287.750    6.850    0.350    0.538   63.589
  288.000    7.111    0.347    0.488   63.583
  288.250    7.664    0.336    0.509   64.184
  288.500    7.666    0.342    0.544   63.574
  288.750    7.669    0.213    0.621   61.149
  289.000    7.671    0.052    0.556   58.725
  289.250    7.532    0.049    0.181   56.301
  289.500    7.394    0.109    0.385   60.528
  289.750    7.259    0.236    0.472   63.548
  290.000    7.127    0.287    0.477   64.752
  290.250    6.742    0.331    0.491   63.538
  290.500    6.744    0.336    0.471   64.138
  290.750    6.745    0.349    0.461   63.527
  291.000    6.747    0.354    0.455   64.127
  291.250    6.749    0.354    0.463   65.936
  291.500    6.751    0.349    0.491   65.327
  291.750    6.753    0.332    0.520   64.716
  292.000    6.755    0.342    0.505   62.897
  292.250    6.758    0.344    0.474   64.102
  292.500    6.634    0.348    0.451   65.911
  292.750    6.635    0.337    0.449   65.906
  293.000    6.515    0.336    0.465   64.691
  293.250    6.517    0.341    0.497   62.871
  293.500    6.398    0.340    0.504   64.074
  293.750    6.400    0.336    0.499   65.279
  294.000    6.168    0.332    0.488   65.880
  294.250    6.056    0.338    0.473   65.270
  294.500    5.946    0.337    0.463   63.450
  294.750    5.947    0.330    0.482   64.050
  295.000    6.060    0.326    0.491   61.626
  295.250    6.176    0.320    0.495   62.224
  295.500    6.295    0.326    0.431   64.034
  295.750    6.414    0.342    0.428   65.844
  296.000    6.416    0.351    0.457   67.047
  296.250    6.539    0.332    0.493   67.042
  296.500    6.540    0.326    0.540   67.643
  296.750    6.541    0.335    0.491   65.821
  297.000    6.544    0.342    0.434   66.423
  297.250    6.545    0.336    0.468   68.837
  297.500    6.426    0.341    0.465   66.412
  297.750    6.428    0.344    0.419   66.407
  298.000    6.551    0.347    0.436   68.216
  298.250    6.552    0.348    0.462   65.791
  298.500    6.803    0.347    0.473   63.368
  298.750    6.805    0.341    0.470   62.153
  299.000    6.806    0.339    0.455   63.963
  299.250    6.560    0.334    0.467   62.143
  299.500    6.440    0.328    0.470   61.533
  299.750    6.092    0.313    0.449   66.971
  300.000    5.871    0.275    0.441   74.829
  300.250    5.764    0.269    0.436   80.871
  300.500    5.766    0.268    0.442   83.285
  300.750    5.767    0.261    0.449   85.094
  301.000    5.877    0.238    0.456   83.880
  301.250    5.989    0.261    0.447   79.036
  301.500    6.335    0.224    0.413   77.821
  301.750    6.336    0.218    0.429   80.840
  302.000    5.883    0.232    0.433   89.302
  302.250    5.463    0.224    0.413   92.925
  302.500    5.265    0.230    0.438   94.735
  302.750    5.266    0.250    0.486   94.730
  303.000    5.468    0.286    0.566   95.935
  303.250    5.571    0.255    0.505   98.348
  303.500    5.784    0.230    0.468   97.135
  303.750    5.786    0.215    0.462   98.338
  304.000    5.788    0.224    0.472   97.124
  304.250    5.789    0.210    0.456   95.910
  304.500    5.580    0.221    0.419   96.508
  304.750    5.581    0.224    0.416   97.108
  305.000    5.379    0.228    0.435   98.918
  305.250    5.379    0.228    0.472   98.307
  305.500    5.382    0.229    0.462  101.326
  305.750    5.383    0.228    0.416  102.531
  306.000    5.485    0.226    0.409  101.317
  306.250    5.590    0.229    0.443   99.497
  306.500    5.591    0.227    0.438  103.119
  306.750    5.593    0.218    0.406  104.930
  307.000    5.491    0.217    0.423  106.134
  307.250    5.391    0.236    0.417  104.315
  307.500    5.100    0.262    0.416   96.447
  307.750    4.735    0.279    0.479   92.209
  308.000    4.563    0.270    0.514   94.016
  308.250    4.316    0.243    0.506   97.037
  308.500    4.008    0.264    0.539   94.007
  308.750    3.791    0.298    0.565   91.583
  309.000    3.391    0.254    0.531   91.578
  309.250    2.923    0.256    0.492   94.597
  309.500    2.664    0.273    0.490   89.753
  309.750    2.473    0.293    0.567   86.723
  310.000    2.339    0.333    0.603   86.719
  310.250    2.213    0.349    0.700   84.899
  310.500    2.213    0.330    0.673   89.128
  310.750    2.256    0.289    0.682   92.751
  311.000    2.299    0.300    0.644   89.117
  311.250    2.299    0.304    0.609   88.507
  311.500    2.300    0.303    0.671   89.107
  311.750    2.301    0.297    0.669   90.311
  312.000    2.345    0.293    0.653   92.726
  312.250    2.389    0.298    0.667   91.511
  312.500    2.435    0.289    0.654   96.344
  312.750    2.575    0.274    0.637   99.363
  313.000    2.775    0.265    0.657   96.937
  313.250    3.104    0.266    0.632   95.119
  313.500    3.538    0.263    0.636   92.695
  313.750    3.741    0.252    0.526   93.900
  314.000    4.185    0.237    0.524   92.684
  314.250    4.594    0.226    0.475   96.912
  314.500    4.951    0.218    0.464   95.094
  314.750    5.237    0.043    0.401   89.040
  315.000    5.046    0.054    0.337   84.197
  315.250    4.864    0.098    0.324   87.820
  315.500    4.516    0.226    0.491   95.678
  315.750    4.352    0.259    0.579  105.954
  316.000    4.194    0.240    0.535  107.159
  316.250    4.041    0.236    0.504  103.524
  316.500    3.824    0.223    0.526   99.285
  316.750    3.754    0.220    0.513   98.675
  317.000    3.617    0.226    0.495  100.485
  317.250    3.486    0.221    0.492  101.690
  317.500    3.423    0.224    0.532  100.475
  317.750    3.361    0.228    0.552  101.679
  318.000    3.361    0.229    0.523  103.489
  318.250    3.426    0.235    0.497  107.112
  318.500    3.427    0.239    0.469  103.478
  318.750    3.427    0.236    0.465  104.077
