~VERSION INFORMATION
 VERS.                 2.0:   CWLS LOG ASCII STANDARD -VERSION 2.0
 WRAP.                  NO:   ONE LINE PER DEPTH STEP
~WELL INFORMATION BLOCK
#MNEM.UNIT           DATA                    DESCRIPTION OF MNEMONIC
#---------    -------------------            -------------------------------
# Generated from Intellog Unique Number	CC_80_83/WELL/2366
NULL.         -999.25                        : NULL_VALUE
WELL.         CHEVRON CAN OXY LGAR           : Well_name    - WELL              
LOC .         10-23-082-16W4                 : Location     - LOCATION          
UWI .         00/10-23-082-16W400            : Uwi          - UNIQUE WELL ID    
ENTR.         RJA                            : Entered      - ENTERED BY        
SRVC.         SCHLUMBERGER                   : Scn          - SERVICE COMPANY   
DATE.         18 FEB 74                      : Date         - LOG DATE
STRT.M        94.488                         : top_depth    - START DEPTH       
STOP.M        286.511                        : bot_depth    - STOP DEPTH        
STEP.M        0.3048                         : increment    - STEP LENGTH       
~CURVE INFORMATION BLOCK
#MNEM UNIT       ERCB CURVE CODE    CURVE DESCRIPTION
#-----------   ------------------   ----------------------------------
DEPT.M        00 001 00 00         : DEPTH        - DEPTH                       
DPHI.V/V      00 890 00 00         : PHID         - DENSITY POROSITY (LIMESTONE)
NPHI.V/V      00 330 00 00         : PHIN         - NEUTRON POROSITY (LIMESTONE)
GR  .API      00 310 00 00         : GR           - GAMMA RAY                   
ILD .OHMM     00 120 00 00         : RESD         - DEEP RESISTIVITY (DIL)      
~PARAMETER INFORMATION       
#MNEM.UNIT           DATA             DESCRIPTION OF MNEMONIC
#---------         -----------     ------------------------------
GL  .M        550.774              : gl           - GROUND LEVEL ELEVATION      
EREF.M        554.126              : kb           - ELEVATION OF DEPTH REFERENCE
DATM.M        554.126              : datum        - DATUM ELEVATION             
TDD .M        287.731              : tdd          - TOTAL DEPTH DRILLER         
RUN .         ONE                  : Run          - RUN NUMBER                  
ENG .         BILL                 : Engineer     - RECORDING ENGINEER          
WIT .         JIM                  : Witness      - WITNESSED BY                
MUD .         GEL                  : Mud_type     - MUD TYPE                    
MATR.         LIMESTONE            : Logunit      - NEUTRON MATRIX              
TMAX.C        18.3333              : BHT          - MAXIMUM RECORDED TEMPERATURE
BHTD.M        287.731              : BHTDEP       - MAXIMUM RECORDED TEMPERATURE
MATR.         1                    : LOGUNIT      - NEUTRON MATRIX              
RMT .C        25                   : MDTP         - TEMPERATURE OF MUD          
NEUT.         1                    : NEUTRON      - NEUTRON TYPE                
RESI.         0                    : RESIST       - RESISTIVITY TYPE            
RMC .OHMM     0.25                 : RMC          - RESISTIVITY OF MUD CAKE     
RMF .OHMM     0.25                 : RMF          - RESISTIVITY OF MUD FILTRATE 
SUFT.C        4                    : SUFT         - SURFACE TEMPERATURE         
~A  DEPTH     PHID     PHIN       GR     RESD
   94.488    0.260    0.660   93.640    2.993
   94.793    0.267    0.700   98.394    3.001
   95.098    0.246    0.676   96.071    3.077
   95.402    0.246    0.662   91.089    3.143
   95.707    0.257    0.666   90.822    3.181
   96.012    0.271    0.681   92.252    3.214
   96.317    0.262    0.657   92.109    3.170
   96.622    0.258    0.618   94.082    3.070
   96.926    0.259    0.621   94.662    2.972
   97.231    0.255    0.634   96.092    2.921
   97.536    0.252    0.646   96.001    2.893
   97.841    0.233    0.651   95.802    2.827
   98.146    0.243    0.638   96.444    2.877
   98.450    0.266    0.609   93.337    3.270
   98.755    0.260    0.566   77.163    3.891
   99.060    0.267    0.551   56.208    4.733
   99.365    0.272    0.538   56.247    4.601
   99.670    0.309    0.513   77.027    3.953
   99.974    0.293    0.583   86.627    3.070
  100.279    0.293    0.642   91.985    2.402
  100.584    0.290    0.676   91.962    2.267
  100.889    0.285    0.716   93.510    2.252
  101.194    0.301    0.688   92.463    2.284
  101.498    0.313    0.659   93.647    2.350
  101.803    0.303    0.659   89.568    2.396
  102.108    0.291    0.697   87.311    2.475
  102.413    0.295    0.714   89.765    2.575
  102.718    0.274    0.700   90.590    2.620
  103.022    0.264    0.678   90.504    2.613
  103.327    0.265    0.670   88.665    2.630
  103.632    0.264    0.678   88.217    2.697
  103.937    0.251    0.647   89.588    2.816
  104.242    0.267    0.616   89.084    2.919
  104.546    0.260    0.631   83.975    2.977
  104.851    0.251    0.633   85.045    3.103
  105.156    0.257    0.612   88.044    3.199
  105.461    0.236    0.599   88.020    3.219
  105.766    0.245    0.622   89.753    3.228
  106.070    0.258    0.637   93.844    3.220
  106.375    0.257    0.655   99.505    3.235
  106.680    0.261    0.688   98.570    3.281
  106.985    0.270    0.647   96.858    3.357
  107.290    0.258    0.599   95.322    3.435
  107.594    0.269    0.629   95.663    3.382
  107.899    0.240    0.630   90.555    3.263
  108.204    0.254    0.617   89.447    3.231
  108.509    0.279    0.597   95.169    3.157
  108.814    0.270    0.616   95.811    3.149
  109.118    0.260    0.644   96.515    3.176
  109.423    0.273    0.663   94.735    3.292
  109.728    0.256    0.641   95.741    3.514
  110.033    0.260    0.662   99.649    3.737
  110.338    0.247    0.703   96.057    3.763
  110.643    0.275    0.673   91.135    3.738
  110.947    0.276    0.607   96.918    3.715
  111.252    0.280    0.572   90.602    3.671
  111.557    0.249    0.564   87.919    3.682
  111.862    0.264    0.614   86.202    3.923
  112.167    0.268    0.629   82.913    4.746
  112.471    0.240    0.570   62.442    6.057
  112.776    0.234    0.552   52.861    8.366
  113.081    0.241    0.392   53.682   16.388
  113.386    0.281    0.349   59.045   22.220
  113.691    0.347    0.361   65.072   17.193
  113.995    0.359    0.452   72.186   13.981
  114.300    0.312    0.466   76.337   12.145
  114.605    0.316    0.483   77.403   10.377
  114.910    0.286    0.479   78.586    9.184
  115.215    0.242    0.514   82.012    8.356
  115.519    0.264    0.498   86.467    7.686
  115.824    0.241    0.486   90.981    7.967
  116.129    0.279    0.497   89.685    9.358
  116.434    0.283    0.497   82.401   10.933
  116.739    0.275    0.473   75.304   11.757
  117.043    0.314    0.514   67.477   12.121
  117.348    0.303    0.514   68.782   12.963
  117.653    0.286    0.465   64.277   13.791
  117.958    0.326    0.431   59.965   14.639
  118.263    0.331    0.450   61.576   14.924
  118.567    0.332    0.423   57.682   14.970
  118.872    0.308    0.452   56.141   14.629
  119.177    0.309    0.451   58.839   13.657
  119.482    0.320    0.443   62.149   11.208
  119.787    0.302    0.516   67.325    6.904
  120.091    0.302    0.496   76.195    4.662
  120.396    0.305    0.633   91.295    3.701
  120.701    0.230    0.681   97.201    3.122
  121.006    0.211    0.675   95.362    2.898
  121.311    0.224    0.685   97.515    2.765
  121.615    0.279    0.682   96.528    2.815
  121.920    0.288    0.671   92.693    3.774
  122.225    0.317    0.538   70.708    4.943
  122.530    0.369    0.444   46.673    7.666
  122.835    0.350    0.402   42.293   12.540
  123.139    0.346    0.426   44.327   18.539
  123.444    0.329    0.468   47.995   17.495
  123.749    0.323    0.446   55.711    8.642
  124.054    0.318    0.439   68.754    5.432
  124.359    0.326    0.594   82.344    4.312
  124.663    0.292    0.666   85.043    3.712
  124.968    0.284    0.687   79.330    3.446
  125.273    0.277    0.679   76.828    4.270
  125.578    0.257    0.580   76.080    5.865
  125.883    0.240    0.460   65.409    7.526
  126.187    0.224    0.465   64.781    9.462
  126.492    0.202    0.481   75.765   10.834
  126.797    0.283    0.520   71.751   12.223
  127.102    0.276    0.468   63.136   12.883
  127.407    0.281    0.456   59.001   14.993
  127.711    0.297    0.509   58.132   16.978
  128.016    0.293    0.494   61.129   15.701
  128.321    0.297    0.455   68.007   13.518
  128.626    0.279    0.444   76.391   10.770
  128.931    0.253    0.498   82.538    8.773
  129.235    0.255    0.530   84.995    7.895
  129.540    0.259    0.558   86.001    8.183
  129.845    0.258    0.471   86.642    9.063
  130.150    0.273    0.458   87.647   10.021
  130.455    0.282    0.531   86.592   12.011
  130.759    0.273    0.430   82.940   13.723
  131.064    0.321    0.408   80.016   14.681
  131.369    0.331    0.439   80.598   16.109
  131.674    0.303    0.476   77.002   16.547
  131.979    0.291    0.486   76.742   15.675
  132.283    0.293    0.501   79.800   14.550
  132.588    0.315    0.510   83.225   14.514
  132.893    0.313    0.494   85.133   14.879
  133.198    0.313    0.536   82.935   15.116
  133.503    0.314    0.496   80.729   14.907
  133.807    0.300    0.515   81.441   15.566
  134.112    0.281    0.518   82.262   16.288
  134.417    0.294    0.404   80.485   16.246
  134.722    0.304    0.355   70.721   13.405
  135.026    0.302    0.384   83.038   10.372
  135.331    0.208    0.448   89.067    9.095
  135.636    0.190    0.476   89.829    9.120
  135.941    0.217    0.478   88.353    9.198
  136.246    0.238    0.451   88.029    8.973
  136.550    0.239    0.473   90.425    7.390
  136.855    0.214    0.545  102.375    6.020
  137.160    0.218    0.547  109.008    5.328
  137.465    0.215    0.622  108.737    4.829
  137.770    0.167    0.569  111.142    4.684
  138.074    0.148    0.577  121.157    4.839
  138.379    0.199    0.581  120.530    5.053
  138.684    0.207    0.631  114.820    5.227
  138.989    0.173    0.639  108.690    5.100
  139.294    0.161    0.638  103.765    4.415
  139.598    0.199    0.645  107.915    3.623
  139.903    0.175    0.677  114.849    3.515
  140.208    0.220    0.645  113.919    3.837
  140.513    0.272    0.572  105.426    4.754
  140.818    0.280    0.433   93.909    6.737
  141.122    0.281    0.433   90.438    9.886
  141.427    0.280    0.479   92.594   10.850
  141.732    0.277    0.506   94.201    9.925
  142.037    0.265    0.508   97.748    8.864
  142.342    0.247    0.514  105.526    8.443
  142.646    0.242    0.503  107.438    8.310
  142.951    0.245    0.508  101.970    8.287
  143.256    0.264    0.523   97.894    8.437
  143.561    0.318    0.460   94.121   10.320
  143.866    0.318    0.437   92.887   11.970
  144.170    0.314    0.436   91.537   13.703
  144.475    0.307    0.482   88.671   14.652
  144.780    0.318    0.499   86.346   13.984
  145.085    0.313    0.456   83.602   13.794
  145.389    0.296    0.416   86.181   14.836
  145.694    0.329    0.354   67.342   17.077
  145.999    0.391    0.303   65.144   18.266
  146.304    0.363    0.335   63.486   19.111
  146.609    0.309    0.451   60.560   17.741
  146.913    0.301    0.461   59.564   14.937
  147.218    0.303    0.486   62.201   12.696
