~VERSION INFORMATION
 VERS.                 2.0:   CWLS LOG ASCII STANDARD -VERSION 2.0
 WRAP.                  NO:   ONE LINE PER DEPTH STEP
~WELL INFORMATION BLOCK
#MNEM.UNIT           DATA                    DESCRIPTION OF MNEMONIC
#---------    -------------------            -------------------------------
# Generated from Intellog Unique Number	CW_76_78/WELL/2576
WELL.         10-19-078-24W4                 : Well_name    - WELL
LOC .         00/10-19-078-24W4/0            : Location     - LOCATION
UWI .         00/10-19-078-24W4/0            : Uwi          - UNIQUE WELL ID
ENTR.         MAX                            : Entered      - ENTERED BY
SRVC.         SCHLUMBERGER                   : Scn          - SERVICE COMPANY
STRT.M        274.32                         : top_depth    - START DEPTH
STOP.M        518.07                         : bot_depth    - STOP DEPTH
STEP.M        0.25                           : increment    - STEP LENGTH
 NULL. -999.2500:NULL Value
~CURVE INFORMATION BLOCK
#MNEM UNIT       ERCB CURVE CODE    CURVE DESCRIPTION
#-----------   ------------------   ----------------------------------
DEPT.M        00 001 00 00         : DEPTH        - DEPTH
ILD .OHMM     00 120 00 00         : RESD         - DEEP RESISTIVITY (DIL)
NPHI.V/V      00 330 00 00         : PHIN         - NEUTRON POROSITY (SANDSTONE)
DPHI.V/V      00 890 00 00         : PHID         - DENSITY POROSITY (SANDSTONE)
CALI.MM       00 280 01 00         : CAL          - CALIPER
GR  .API      00 310 00 00         : GR           - GAMMA RAY
~PARAMETER INFORMATION
#MNEM.UNIT           DATA             DESCRIPTION OF MNEMONIC
#---------         -----------     ------------------------------
GL  .M        592.531              : gl           - GROUND LEVEL ELEVATION
EREF.M        596.494              : kb           - ELEVATION OF DEPTH REFERENCE
DATM.M        592.531              : datum        - DATUM ELEVATION
TDD .M        537.667              : tdd          - TOTAL DEPTH DRILLER
RUN .         ONE                  : Run          - RUN NUMBER
ENG .         BILL                 : Engineer     - RECORDING ENGINEER
WIT .         JIM                  : Witness      - WITNESSED BY
MUD .         GEL                  : Mud_type     - MUD TYPE
MATR.         SANDSTONE            : Logunit      - NEUTRON MATRIX
TMAX.C        25.5556              : BHT          - MAXIMUM RECORDED TEMPERATURE
BHTD.M        537.667              : BHTDEP       - MAXIMUM RECORDED TEMPERATURE
RMT .C        14.4444              : MDTP         - TEMPERATURE OF MUD
MUDD.KG/M     9800                 : MWT          - MUD DENSITY
NEUT.         1                    : NEUTRON      - NEUTRON TYPE
RESI.         0                    : RESIST       - RESISTIVITY TYPE
RM  .OHMM     6.42                 : RM           - RESISTIVITY OF MUD
RMC .OHMM     6.05                 : RMC          - RESISTIVITY OF MUD CAKE
RMF .OHMM     7.72                 : RMF          - RESISTIVITY OF MUD FILTRATE
SUFT.C        -6.66667             : SUFT         - SURFACE TEMPERATURE
~A  DEPTH     RESD     PHIN     PHID      CAL       GR
# ...
  310.820    6.932    0.464    0.278  206.776   86.017
  311.070    9.390    0.445    0.261  205.837   86.933
  311.320   11.633    0.430    0.238  204.906   87.261
  311.570   11.948    0.414    0.217  206.465   87.588
  311.820   11.123    0.413    0.197  207.507   89.972
  312.070    9.139    0.434    0.183  208.062   91.757
  312.320    7.509    0.459    0.200  207.625   90.626
  312.570    6.006    0.484    0.245  209.178   87.732
  312.820    5.300    0.512    0.256  210.242   83.672
  313.070    6.005    0.523    0.272  209.791   74.936
  313.320    6.450    0.489    0.279  209.369   68.240
  313.570    7.506    0.446    0.270  209.924   60.967
  313.820    9.552    0.395    0.261  210.478   60.709
  314.070   11.833    0.405    0.236  210.544   59.871
  314.320   14.791    0.451    0.286  206.641   58.435
  314.570   16.910    0.494    0.312  203.728   57.893
  314.820   19.505    0.500    0.315  203.787   59.102
  315.070   20.948    0.501    0.313  205.332   59.129
  315.320   19.502    0.517    0.311  206.877   57.701
  315.570   16.459    0.574    0.303  208.437   56.278
  315.820   14.524    0.613    0.292  208.503   56.020
  316.070   11.933    0.667    0.284  209.057   54.300
  316.320   11.411    0.673    0.293  209.611   51.707
  316.570   12.365    0.635    0.300  210.654   50.576
  316.820   16.749    0.506    0.313  211.215   49.441
  317.070   23.936    0.500    0.325  210.779   49.192
  317.320   32.424    0.482    0.322  209.847   49.214
  317.570   41.630    0.485    0.314  209.418   49.253
  317.820   44.310    0.495    0.289  208.487   49.585
  318.070   41.624    0.482    0.273  206.572   49.908
  318.320   36.404    0.467    0.273  204.643   49.942
  318.570   36.401    0.464    0.284  204.206   49.698
  318.820   37.722    0.493    0.306  205.263   49.728
  319.070   39.795    0.502    0.318  203.356   49.471
  319.320   42.358    0.506    0.311  202.402   49.213
  319.570   44.687    0.494    0.298  200.983   48.370
  319.820   46.308    0.476    0.310  201.042   47.825
  320.070   45.081    0.475    0.316  203.082   47.859
  320.320   45.081    0.520    0.320  205.625   48.479
  320.570   43.492    0.527    0.331  209.158   49.099
  320.820   41.222    0.506    0.337  213.674   50.304
  321.070   39.419    0.487    0.336  215.714   52.395
  321.320   37.029    0.470    0.332  216.771   54.477
  321.570   33.864    0.462    0.331  217.821   55.979
  321.820   30.694    0.512    0.331  217.887   56.018
  322.070   26.844    0.561    0.327  217.451   55.752
  322.320   25.442    0.560    0.318  216.512   55.498
  322.570   25.215    0.539    0.322  215.093   55.533
  322.820   25.667    0.517    0.327  211.204   55.572
  323.070   26.837    0.512    0.327  210.258   55.904
  323.320   29.080    0.512    0.326  210.317   57.406
  323.570   29.340    0.478    0.325  209.881   58.309
  323.820   29.340    0.455    0.326  208.461   58.636
  324.070   29.074    0.452    0.326  207.042   59.261
  324.320   28.558    0.461    0.326  205.615   59.295
  324.570   27.801    0.469    0.326  204.188   58.160
  324.820   27.552    0.462    0.325  203.752   56.152
  325.070   27.305    0.456    0.320  203.811   55.895
  325.320   26.820    0.476    0.318  203.870   56.807
  325.570   26.820    0.482    0.318  203.943   57.138
  325.820   26.578    0.468    0.323  203.500   56.300
  326.070   26.106    0.452    0.323  203.559   54.292
  326.320   26.338    0.454    0.322  203.618   52.856
  326.570   26.573    0.473    0.323  203.684   51.140
  326.820   26.809    0.467    0.323  204.246   50.882
  327.070   27.047    0.449    0.321  205.798   52.969
  327.320   27.288    0.458    0.317  206.840   52.707
  327.570   27.531    0.475    0.315  207.402   51.869
  327.820   27.776    0.478    0.311  206.958   52.488
  328.070   27.776    0.483    0.308  206.537   52.816
  328.320   27.772    0.508    0.316  208.081   52.851
  328.570   27.772    0.507    0.318  208.628   54.348
  328.820   27.521    0.489    0.318  208.199   55.269
  329.070   26.792    0.492    0.321  206.773   55.016
  329.320   26.316    0.496    0.323  206.846   55.334
  329.570   25.849    0.494    0.324  206.410   55.666
  329.820   25.849    0.481    0.320  204.976   54.828
  330.070   25.161    0.479    0.320  204.539   55.443
  330.320   24.936    0.474    0.309  205.101   54.609
  330.570   24.713    0.452    0.295  205.648   51.427
  330.820   24.933    0.432    0.270  207.200   51.173
  331.070   25.608    0.406    0.242  209.743   51.204
  331.320   25.836    0.299    0.180  210.290   50.942
  331.570   25.151    0.311    0.238  210.356   50.400
  331.820   24.052    0.413    0.275  210.415   50.138
  332.070   22.593    0.454    0.298  210.474   49.885
  332.320   21.605    0.474    0.305  210.038   50.505
  332.570   20.114    0.507    0.320  206.157   52.295
  332.820   18.895    0.525    0.332  206.208   53.792
  333.070   18.559    0.523    0.337  208.256   53.844
  333.320   18.229    0.509    0.328  211.782   54.158
  333.570   18.228    0.488    0.329  212.343   55.656
  333.820   19.229    0.469    0.325  209.919   58.620
  334.070   20.468    0.468    0.304  207.509   61.584
  334.320   20.467    0.476    0.300  206.577   64.548
  334.570   19.747    0.504    0.302  206.636   65.163
  334.820   18.550    0.519    0.303  207.190   63.744
  335.070   16.964    0.505    0.311  207.249   62.020
  335.320   14.574    0.469    0.317  207.316   60.894
  335.570   13.569    0.464    0.311  207.367   60.627
  335.820   13.328    0.494    0.297  208.432   60.077
  336.070   13.328    0.492    0.302  208.483   59.527
  336.320   13.089    0.501    0.313  207.552   60.452
  336.570   12.973    0.557    0.317  203.663   61.063
  336.820   12.742    0.565    0.310  200.743   60.522
  337.070   12.628    0.668    0.303  199.812   59.671
  337.320   12.515    0.682    0.307  199.871   59.129
  337.570   12.514    0.683    0.315  201.430   60.046
  337.820   12.625    0.680    0.322  202.472   60.657
  338.070   12.967    0.657    0.328  204.025   62.455
  338.320   13.318    0.558    0.329  204.579   61.905
  338.570   13.557    0.493    0.333  204.645   61.058
  338.820   13.800    0.468    0.335  205.695   61.390
  339.070   13.677    0.453    0.328  206.256   62.019
  339.320   13.676    0.444    0.319  206.308   60.591
  339.570   13.433    0.449    0.318  207.868   57.692
  339.820   13.312    0.474    0.325  209.893   51.000
  340.070   13.551    0.492    0.328  211.452   47.525
  340.320   14.043    0.494    0.327  211.519   44.050
  340.570   15.082    0.488    0.330  211.075   41.758
  340.820   16.053    0.480    0.332  210.144   42.373
  341.070   17.087    0.480    0.326  209.219   43.281
  341.320   18.188    0.508    0.324  208.790   44.198
  341.570   18.848    0.509    0.330  207.859   43.072
  341.820   18.848    0.497    0.335  206.927   41.932
  342.070   19.357    0.476    0.334  205.501   41.378
  342.320   19.881    0.472    0.333  204.569   39.671
  342.570   19.881    0.468    0.329  204.133   40.282
  342.820   20.056    0.474    0.327  205.190   43.241
  343.070   20.055    0.498    0.329  205.736   46.210
  343.320   19.350    0.506    0.333  205.795   46.537
  343.570   18.838    0.493    0.330  204.871   46.568
  343.820   18.175    0.478    0.324  203.940   46.314
  344.070   17.381    0.505    0.321  203.016   46.057
  344.320   16.621    0.510    0.322  203.075   46.100
  344.570   16.037    0.490    0.314  203.126   45.838
  344.820   15.199    0.466    0.299  203.193   44.123
  345.070   14.665    0.452    0.296  204.745   41.817
  345.320   13.899    0.450    0.288  206.777   41.263
  345.570   13.173    0.455    0.284  204.382   41.306
  345.820   12.374    0.465    0.286  202.445   41.634
  346.070   11.624    0.469    0.290  201.018   40.206
  346.320   10.822    0.452    0.292  201.077   38.198
  346.570   10.256    0.412    0.267  202.134   37.639
  346.820   10.820    0.347    0.228  204.684   37.971
  347.070   13.050    0.335    0.210  206.222   39.184
