~VERSION INFORMATION
 VERS.                 2.0:   CWLS LOG ASCII STANDARD -VERSION 2.0
 WRAP.                  NO:   ONE LINE PER DEPTH STEP
~WELL INFORMATION BLOCK
#MNEM.UNIT           DATA                    DESCRIPTION OF MNEMONIC
#---------    -------------------            -------------------------------
# Generated from Intellog Unique Number	CS_73_76/WELL/2203
WELL.         W.W. BECKER OIL & GAS LTD      : Well_name    - WELL
LOC .         00/11-26-074-14W4/0            : Location     - LOCATION
UWI .         00/11-26-074-14W4/0            : Uwi          - UNIQUE WELL ID
ENTR.         SP                             : Entered      - ENTERED BY
SRVC.         SCHLUMBERGER                   : Scn          - SERVICE COMPANY
STRT.M        411.48                         : top_depth    - START DEPTH
STOP.M        630.73                         : bot_depth    - STOP DEPTH
STEP.M        0.25                           : increment    - STEP LENGTH
 NULL. -999.2500:NULL Value
~CURVE INFORMATION BLOCK
#MNEM UNIT       ERCB CURVE CODE    CURVE DESCRIPTION
#-----------   ------------------   ----------------------------------
DEPT.M        00 001 00 00         : DEPTH        - DEPTH
GR  .API      00 310 00 00         : GR           - GAMMA RAY
DPHI.V/V      00 890 00 00         : PHID         - DENSITY POROSITY (SANDSTONE)
NPHI.V/V      00 330 00 00         : PHIN         - NEUTRON POROSITY (SANDSTONE)
ILD .OHMM     00 120 00 00         : RESD         - DEEP RESISTIVITY (DIL)
~PARAMETER INFORMATION
#MNEM.UNIT           DATA             DESCRIPTION OF MNEMONIC
#---------         -----------     ------------------------------
GL  .M        771.296              : gl           - GROUND LEVEL ELEVATION
EREF.M        774.527              : kb           - ELEVATION OF DEPTH REFERENCE
DATM.M        771.296              : datum        - DATUM ELEVATION
TDD .M        634.594              : tdd          - TOTAL DEPTH DRILLER
RUN .         ONE                  : Run          - RUN NUMBER
ENG .         BILL                 : Engineer     - RECORDING ENGINEER
WIT .         JIM                  : Witness      - WITNESSED BY
MUD .         GEL                  : Mud_type     - MUD TYPE
MATR.         SANDSTONE            : Logunit      - NEUTRON MATRIX
TMAX.C        16.6667              : BHT          - MAXIMUM RECORDED TEMPERATURE
BHTD.M        634.594              : BHTDEP       - MAXIMUM RECORDED TEMPERATURE
MATR.         1                    : LOGUNIT      - NEUTRON MATRIX
RMT .C        25                   : MDTP         - TEMPERATURE OF MUD
NEUT.         1                    : NEUTRON      - NEUTRON TYPE
RESI.         0                    : RESIST       - RESISTIVITY TYPE
RMC .OHMM     0.25                 : RMC          - RESISTIVITY OF MUD CAKE
RMF .OHMM     0.25                 : RMF          - RESISTIVITY OF MUD FILTRATE
SUFT.C        15                   : SUFT         - SURFACE TEMPERATURE
~A  DEPTH       GR     PHID     PHIN     RESD
  411.480  118.447    0.210    0.519    2.154
  411.730  118.157    0.209    0.524    2.256
  411.980  116.405    0.205    0.528    2.283
  412.230  116.012    0.191    0.530    2.403
  412.480  117.905    0.195    0.519    2.573
  412.730  115.683    0.184    0.514    2.888
  412.980  110.039    0.166    0.523    3.171
  413.230  105.808    0.139    0.483    3.290
  413.480  104.151    0.117    0.468    3.248
  413.730  106.725    0.156    0.491    3.207
  413.980  110.571    0.173    0.519    3.085
  414.230  113.860    0.192    0.538    2.957
  414.480  116.118    0.205    0.538    2.817
  414.730  115.934    0.202    0.520    2.674
  414.980  113.873    0.205    0.510    2.599
  415.230  110.823    0.212    0.523    2.547
  415.480  109.611    0.213    0.534    2.559
  415.730  109.110    0.201    0.548    2.597
  415.980  108.413    0.203    0.557    2.699
  416.230  108.554    0.204    0.565    2.799
  416.480  111.171    0.212    0.538    2.848
  416.730  112.860    0.215    0.513    2.797
  416.980  112.075    0.204    0.496    2.744
  417.230  109.545    0.208    0.507    2.743
  417.480  108.354    0.218    0.509    2.815
  417.730  107.340    0.209    0.494    2.961
  417.980  105.399    0.203    0.485    3.062
  418.230   99.817    0.201    0.475    2.997
  418.480   97.653    0.206    0.460    2.908
  418.730   99.856    0.206    0.470    2.786
  418.980  103.478    0.211    0.486    2.749
  419.230  103.368    0.227    0.502    2.742
  419.480  100.218    0.244    0.512    3.117
  419.730   96.210    0.256    0.519    3.916
  419.980   90.885    0.278    0.544    4.716
  420.230   92.543    0.298    0.561    5.435
  420.480   95.507    0.245    0.586    5.815
  420.730   99.579    0.227    0.512    5.909
  420.980  102.663    0.222    0.465    6.047
  421.230  106.324    0.216    0.435    5.919
  421.480  109.230    0.216    0.434    5.730
  421.730  106.933    0.224    0.437    5.695
  421.980  104.167    0.226    0.444    5.795
  422.230  100.294    0.225    0.452    6.086
  422.480   96.491    0.235    0.460    6.521
  422.730   93.653    0.244    0.447    6.725
  422.980   93.803    0.248    0.429    6.687
  423.230  100.857    0.232    0.421    6.467
  423.480  108.497    0.221    0.432    5.979
  423.730  115.241    0.207    0.449    5.543
  423.980  114.449    0.204    0.461    5.182
  424.230  114.225    0.210    0.467    5.010
  424.480  112.335    0.203    0.469    4.812
  424.730  109.813    0.197    0.458    5.072
  424.980  104.856    0.223    0.455    5.547
  425.230   99.785    0.229    0.456    6.155
  425.480   91.256    0.243    0.458    7.072
  425.730   80.390    0.285    0.447    7.464
  425.980   72.627    0.327    0.433    7.862
  426.230   65.023    0.327    0.423    8.092
  426.480   69.499    0.316    0.429    8.310
  426.730   72.877    0.316    0.438    8.126
  426.980   75.716    0.312    0.446    7.996
  427.230   77.959    0.305    0.449    7.710
  427.480   81.273    0.298    0.455    7.129
  427.730   86.094    0.293    0.447    7.081
  427.980   91.851    0.284    0.437    6.979
  428.230   97.682    0.277    0.429    6.998
  428.480   99.438    0.276    0.433    7.011
  428.730   99.589    0.263    0.437    6.856
  428.980   97.566    0.251    0.439    6.868
  429.230   92.676    0.244    0.434    6.867
  429.480   84.457    0.242    0.427    6.867
  429.730   75.089    0.239    0.416    6.856
  429.980   70.486    0.230    0.411    7.047
  430.230   66.276    0.212    0.412    7.264
  430.480   62.014    0.201    0.403    7.352
  430.730   59.248    0.192    0.392    7.357
  430.980   56.148    0.229    0.413    7.261
  431.230   54.310    0.282    0.426    7.261
  431.480   50.951    0.287    0.437    7.262
  431.730   47.702    0.293    0.426    7.262
  431.980   50.930    0.301    0.419    7.266
  432.230   51.959    0.300    0.415    7.282
  432.480   53.995    0.305    0.414    7.291
  432.730   56.541    0.312    0.406    7.263
  432.980   59.952    0.306    0.398    7.254
  433.230   64.278    0.290    0.391    7.125
  433.480   68.349    0.268    0.389    6.898
  433.730   72.646    0.249    0.391    6.613
  433.980   75.500    0.231    0.399    6.374
  434.230   80.079    0.224    0.404    6.088
  434.480   84.616    0.223    0.406    5.916
  434.730   88.766    0.224    0.408    5.974
  434.980   90.343    0.227    0.420    6.018
  435.230   88.190    0.231    0.443    6.019
  435.480   88.440    0.241    0.455    5.985
  435.730   91.238    0.238    0.452    5.666
  435.980   94.639    0.230    0.448    5.266
  436.230   99.692    0.235    0.449    4.687
  436.480  106.422    0.242    0.451    4.372
  436.730  112.308    0.235    0.449    3.924
  436.980  120.245    0.229    0.453    3.640
  437.230  130.418    0.209    0.482    3.076
  437.480  134.525    0.190    0.508    2.888
  437.730  134.627    0.187    0.541    2.669
  437.980  130.447    0.194    0.553    2.583
  438.230  126.015    0.202    0.546    2.834
  438.480  124.100    0.188    0.537    3.134
  438.730  127.668    0.170    0.513    3.781
  438.980  124.765    0.181    0.499    4.676
  439.230  120.224    0.222    0.486    5.976
  439.480  118.630    0.227    0.474    7.137
  439.730  119.978    0.228    0.456    7.846
  439.980  119.873    0.231    0.449    8.273
  440.230  118.534    0.234    0.439    8.102
  440.480  118.270    0.236    0.434    8.082
  440.730  115.812    0.230    0.440    7.844
  440.980  112.282    0.220    0.451    7.301
  441.230  107.852    0.227    0.452    6.935
  441.480  104.381    0.216    0.462    6.426
  441.730  106.482    0.227    0.462    5.893
  441.980  111.204    0.213    0.461    5.679
  442.230  114.689    0.184    0.468    5.411
  442.480  117.994    0.151    0.472    5.338
  442.730  119.510    0.141    0.462    5.385
  442.980  118.202    0.155    0.448    6.213
  443.230  116.807    0.198    0.434    7.514
  443.480  114.098    0.222    0.425    8.260
  443.730  113.700    0.224    0.424    9.083
  443.980  114.268    0.232    0.413    9.440
  444.230  111.171    0.234    0.421    9.284
  444.480  109.141    0.238    0.430    8.810
  444.730  108.804    0.243    0.431    8.562
  444.980  111.413    0.237    0.432    8.165
  445.230  113.489    0.222    0.428    7.825
  445.480  115.497    0.214    0.437    7.775
  445.730  118.524    0.218    0.448    7.983
  445.980  120.050    0.226    0.459    7.719
  446.230  122.161    0.236    0.459    7.249
  446.480  123.868    0.225    0.454    6.885
  446.730  122.796    0.219    0.470    6.881
  446.980  119.253    0.212    0.468    7.228
  447.230  113.181    0.211    0.468    7.844
  447.480  107.640    0.208    0.480    8.305
  447.730   98.906    0.214    0.471    8.699
  447.980   88.340    0.226    0.454    8.902
  448.230   79.610    0.243    0.425    9.089
  448.480   81.571    0.267    0.404    9.073
  448.730   82.595    0.273    0.394    9.025
  448.980   85.997    0.269    0.400    8.742
  449.230   88.756    0.251    0.399    8.627
  449.480   92.886    0.239    0.399    8.576
  449.730   95.645    0.232    0.410    8.589
  449.980   97.675    0.228    0.414    7.674
  450.230   99.750    0.220    0.415    6.806
  450.480  103.369    0.214    0.421    6.156
  450.730  107.607    0.208    0.429    5.557
  450.980  113.388    0.212    0.445    5.132
  451.230  117.365    0.203    0.474    4.839
  451.480  120.622    0.195    0.488    4.587
  451.730  115.519    0.207    0.495    4.360
  451.980  111.761    0.234    0.498    4.266
  452.230  112.232    0.244    0.482    4.585
  452.480  117.788    0.227    0.463    4.805
  452.730  121.524    0.226    0.485    4.844
  452.980  121.510    0.238    0.510    4.713
  453.230  119.664    0.245    0.499    5.067
  453.480  118.546    0.248    0.481    5.289
  453.730  114.516    0.240    0.483    5.511
  453.980  109.673    0.239    0.462    5.861
  454.230  104.443    0.243    0.443    6.358
  454.480  100.036    0.251    0.435    6.903
  454.730  101.069    0.241    0.433    7.133
