~VERSION INFORMATION
 VERS.                 2.0:   CWLS LOG ASCII STANDARD -VERSION 2.0
 WRAP.                  NO:   ONE LINE PER DEPTH STEP
~WELL INFORMATION BLOCK
#MNEM.UNIT           DATA                    DESCRIPTION OF MNEMONIC
#---------    -------------------            -------------------------------
# Generated from Intellog Unique Number	CS_69_70/WELL/897
NULL.         -999.25                        : NULL_VALUE
WELL.         SULPETRO BRENDA IPIATIK        : Well_name    - WELL              
LOC .         00/11-28-070-09W4/0            : Location     - LOCATION          
UWI .         00/11-28-070-09W4/0            : Uwi          - UNIQUE WELL ID    
ENTR.         SP                             : Entered      - ENTERED BY        
SRVC.         SCHLUMBERGER                   : Scn          - SERVICE COMPANY   
STRT.M        260                            : top_depth    - START DEPTH       
STOP.M        470                            : bot_depth    - STOP DEPTH        
STEP.M        0.25                           : increment    - STEP LENGTH       
~CURVE INFORMATION BLOCK
#MNEM UNIT       ERCB CURVE CODE    CURVE DESCRIPTION
#-----------   ------------------   ----------------------------------
DEPT.M        00 001 00 00         : DEPTH        - DEPTH                       
ILD .OHMM     00 120 00 00         : RESD         - DEEP RESISTIVITY (DIL)      
DPHI.V/V      00 890 00 00         : PHID         - DENSITY POROSITY (LIMESTONE)
NPHI.V/V      00 330 00 00         : PHIN         - NEUTRON POROSITY (LIMESTONE)
GR  .API      00 310 00 00         : GR           - GAMMA RAY                   
~PARAMETER INFORMATION       
#MNEM.UNIT           DATA             DESCRIPTION OF MNEMONIC
#---------         -----------     ------------------------------
GL  .M        605.03               : gl           - GROUND LEVEL ELEVATION      
EREF.M        609.53               : kb           - ELEVATION OF DEPTH REFERENCE
DATM.M        605.03               : datum        - DATUM ELEVATION             
TDD .M        480                  : tdd          - TOTAL DEPTH DRILLER         
RUN .         ONE                  : Run          - RUN NUMBER                  
ENG .         BILL                 : Engineer     - RECORDING ENGINEER          
WIT .         JIM                  : Witness      - WITNESSED BY                
MUD .         GEL                  : Mud_type     - MUD TYPE                    
MATR.         LIMESTONE            : Logunit      - NEUTRON MATRIX              
TMAX.C        20                   : BHT          - MAXIMUM RECORDED TEMPERATURE
BHTD.M        480                  : BHTDEP       - MAXIMUM RECORDED TEMPERATURE
MATR.         1                    : LOGUNIT      - NEUTRON MATRIX              
RMT .C        25                   : MDTP         - TEMPERATURE OF MUD          
NEUT.         1                    : NEUTRON      - NEUTRON TYPE                
RESI.         0                    : RESIST       - RESISTIVITY TYPE            
RMC .OHMM     0.25                 : RMC          - RESISTIVITY OF MUD CAKE     
RMF .OHMM     0.25                 : RMF          - RESISTIVITY OF MUD FILTRATE 
SUFT.C        15                   : SUFT         - SURFACE TEMPERATURE         
~A  DEPTH     RESD     PHID     PHIN       GR
# ...
  434.000   68.205    0.295    0.351   41.375
  434.250   74.396    0.296    0.355   37.755
  434.500   79.654    0.298    0.357   34.976
  434.750   82.331    0.305    0.361   33.462
  435.000   82.759    0.301    0.361   32.004
  435.250   81.661    0.307    0.356   31.512
  435.500   78.510    0.311    0.354   31.016
  435.750   74.501    0.296    0.352   30.160
  436.000   71.225    0.298    0.354   28.823
  436.250   68.736    0.314    0.360   26.587
  436.500   65.098    0.327    0.355   24.590
  436.750   63.529    0.323    0.351   25.115
  437.000   61.996    0.307    0.351   26.062
  437.250   59.490    0.319    0.357   27.426
  437.500   57.302    0.330    0.361   27.713
  437.750   52.691    0.320    0.362   27.517
  438.000   45.151    0.308    0.355   26.723
  438.250   35.588    0.307    0.351   24.066
  438.500   25.995    0.317    0.347   22.430
  438.750   16.644    0.320    0.341   24.514
  439.000   10.598    0.314    0.337   25.824
  439.250    8.573    0.307    0.334   26.890
  439.500    6.463    0.301    0.339   27.896
  439.750    4.765    0.299    0.345   28.420
  440.000    4.083    0.297    0.347   28.046
  440.250    3.551    0.300    0.345   25.389
  440.500    3.199    0.308    0.345   22.191
  440.750    2.980    0.316    0.345   20.072
  441.000    3.103    0.317    0.344   18.977
  441.250    3.034    0.312    0.345   18.240
  441.500    2.815    0.307    0.349   17.867
  441.750    2.804    0.308    0.354   17.851
  442.000    2.777    0.310    0.352   17.837
  442.250    2.771    0.309    0.348   18.423
  442.500    2.739    0.304    0.343   19.309
  442.750    2.863    0.298    0.336   20.135
  443.000    2.857    0.306    0.331   21.262
  443.250    2.840    0.320    0.327   22.688
  443.500    2.833    0.324    0.321   23.814
  443.750    2.822    0.320    0.316   25.963
  444.000    2.821    0.331    0.312   28.711
  444.250    2.814    0.349    0.337   30.018
  444.500    2.803    0.362    0.365   27.661
  444.750    2.786    0.368    0.405   26.925
  445.000    2.764    0.343    0.375   27.932
  445.250    2.748    0.322    0.357   29.057
  445.500    2.742    0.345    0.424   31.144
  445.750    2.741    0.364    0.407   32.871
  446.000    2.735    0.378    0.380   35.439
  446.250    2.734    0.358    0.360   37.947
  446.500    2.738    0.332    0.347   39.917
  446.750    2.732    0.320    0.343   40.323
  447.000    2.716    0.324    0.347   40.247
  447.250    2.705    0.323    0.355   41.791
  447.500    2.679    0.316    0.361   43.700
  447.750    2.658    0.324    0.364   45.488
  448.000    2.637    0.329    0.351   46.614
  448.250    2.622    0.334    0.340   46.060
  448.500    2.601    0.343    0.357   32.228
  448.750    2.571    0.341    0.367   23.386
  449.000    2.551    0.331    0.351   21.267
  449.250    2.536    0.323    0.333   21.972
  449.500    2.512    0.320    0.324   22.560
  449.750    2.478    0.334    0.332   23.687
  450.000    2.454    0.344    0.341   24.930
  450.250    2.449    0.340    0.344   26.118
  450.500    2.439    0.326    0.348   27.307
  450.750    2.447    0.341    0.334   28.732
  451.000    2.460    0.357    0.313   32.023
  451.250    2.538    0.341    0.306   39.576
  451.500    2.732    0.350    0.314   54.337
  451.750    2.937    0.292    0.319   71.021
  452.000    3.300    0.262    0.321   84.041
  452.250    3.701    0.185    0.318   95.320
  452.500    4.340    0.141    0.326   99.931
  452.750    5.262    0.164    0.327   93.248
  453.000    6.333    0.188    0.318   89.028
  453.250    7.182    0.176    0.311   90.816
  453.500    7.563    0.150    0.318   96.567
  453.750    7.759    0.137    0.323  101.717
  454.000    7.798    0.124    0.320  103.866
  454.250    7.780    0.118    0.329  105.893
  454.500    7.750    0.134    0.330  107.621
  454.750    7.647    0.167    0.322  104.782
  455.000    7.407    0.188    0.310   95.217
  455.250    6.938    0.205    0.302   87.874
  455.500    6.733    0.223    0.297   88.339
  455.750    6.437    0.204    0.311   88.866
  456.000    6.258    0.186    0.323   85.007
  456.250    6.016    0.210    0.324   77.241
  456.500    5.914    0.231    0.318   73.685
  456.750    5.814    0.224    0.321   74.628
  457.000    5.812    0.195    0.323   77.800
  457.250    5.919    0.164    0.326   84.512
  457.500    6.419    0.143    0.319   92.067
  457.750    6.587    0.157    0.312   95.414
  458.000    7.000    0.166    0.315   96.302
  458.250    7.425    0.162    0.323   94.785
  458.500    7.934    0.148    0.325   96.510
  458.750    8.096    0.139    0.329  100.040
  459.000    8.229    0.142    0.332  103.931
  459.250    8.241    0.140    0.332  108.120
  459.500    8.239    0.140    0.333  111.410
  459.750    8.024    0.139    0.335  112.537
  460.000    7.859    0.139    0.343  111.140
  460.250    7.626    0.150    0.353  108.423
  460.500    7.414    0.160    0.354  102.100
  460.750    7.141    0.173    0.340   96.259
  461.000    6.994    0.181    0.333   93.782
  461.250    6.952    0.188    0.329   92.744
  461.500    6.988    0.186    0.327   92.370
  461.750    7.183    0.174    0.328   91.634
  462.000    7.734    0.165    0.328   90.479
  462.250    7.408    0.161    0.340   87.160
  462.500    7.043    0.176    0.355   78.135
  462.750    6.809    0.185    0.360   69.471
  463.000    7.538    0.158    0.319   60.566
  463.250    8.376    0.125    0.228   50.640
  463.500   10.156    0.105    0.192   39.753
  463.750   12.088    0.084    0.178   13.669
  464.000   15.611    0.072    0.169    9.209
  464.250   19.176    0.072    0.168   10.694
  464.500   22.280    0.064    0.172   12.183
  464.750   24.167    0.077    0.174   13.429
  465.000   24.886    0.081    0.173   13.716
  465.250   24.830    0.069    0.170   12.799
  465.500   24.006    0.057    0.167   11.943
  465.750   23.078    0.059    0.165   10.603
  466.000   22.815    0.066    0.167   10.532
  466.250   23.668    0.080    0.177   11.477
  466.500   25.246    0.091    0.188   13.145
  466.750   26.340    0.098    0.196   14.273
  467.000   27.580    0.087    0.203   13.957
  467.250   28.189    0.084    0.224   13.341
  467.500   28.128    0.084    0.246   13.085
  467.750   28.327    0.081    0.199   13.732
  468.000   29.550    0.074    0.177   14.257
  468.250   31.172    0.067    0.176   14.779
  468.500   32.703    0.059    0.181   15.187
  468.750   34.818    0.056    0.183   15.410
  469.000   36.461    0.055    0.181   15.158
  469.250   38.821    0.049    0.174   15.382
  469.500   41.563    0.039    0.168   15.612
  469.750   44.168    0.041    0.173   16.912
  470.000   45.405    0.037    0.181   17.624
