~VERSION INFORMATION
 VERS.                 2.0:   CWLS LOG ASCII STANDARD -VERSION 2.0
 WRAP.                  NO:   ONE LINE PER DEPTH STEP
~WELL INFORMATION BLOCK
#MNEM.UNIT           DATA                    DESCRIPTION OF MNEMONIC
#---------    -------------------            -------------------------------
# Generated from Intellog Unique Number	CS_67_68/WELL/856
WELL.         CHIEFTIAN DEVELOPMENT CO.      : Well_name    - WELL
LOC .         00/14-30-068-11W4/0            : Location     - LOCATION
UWI .         00/14-30-068-11W4/0            : Uwi          - UNIQUE WELL ID
ENTR.         SP                             : Entered      - ENTERED BY
SRVC.         SCHLUMBERGER                   : Scn          - SERVICE COMPANY
STRT.M        280                            : top_depth    - START DEPTH
STOP.M        480                            : bot_depth    - STOP DEPTH
STEP.M        0.25                           : increment    - STEP LENGTH
 NULL. -999.2500:NULL Value
~CURVE INFORMATION BLOCK
#MNEM UNIT       ERCB CURVE CODE    CURVE DESCRIPTION
#-----------   ------------------   ----------------------------------
DEPT.M        00 001 00 00         : DEPTH        - DEPTH
ILD .OHMM     00 120 00 00         : RESD         - DEEP RESISTIVITY (DIL)
DPHI.V/V      00 890 00 00         : PHID         - DENSITY POROSITY (LIMESTONE)
NPHI.V/V      00 330 00 00         : PHIN         - NEUTRON POROSITY (LIMESTONE)
GR  .API      00 310 00 00         : GR           - GAMMA RAY
~PARAMETER INFORMATION
#MNEM.UNIT           DATA             DESCRIPTION OF MNEMONIC
#---------         -----------     ------------------------------
GL  .M        592.5                : gl           - GROUND LEVEL ELEVATION
EREF.M        599.5                : kb           - ELEVATION OF DEPTH REFERENCE
DATM.M        592.5                : datum        - DATUM ELEVATION
TDD .M        486                  : tdd          - TOTAL DEPTH DRILLER
RUN .         ONE                  : Run          - RUN NUMBER
ENG .         BILL                 : Engineer     - RECORDING ENGINEER
WIT .         JIM                  : Witness      - WITNESSED BY
MUD .         GEL                  : Mud_type     - MUD TYPE
MATR.         LIMESTONE            : Logunit      - NEUTRON MATRIX
TMAX.C        22                   : BHT          - MAXIMUM RECORDED TEMPERATURE
BHTD.M        486                  : BHTDEP       - MAXIMUM RECORDED TEMPERATURE
MATR.         1                    : LOGUNIT      - NEUTRON MATRIX
RMT .C        25                   : MDTP         - TEMPERATURE OF MUD
NEUT.         1                    : NEUTRON      - NEUTRON TYPE
RESI.         0                    : RESIST       - RESISTIVITY TYPE
RMC .OHMM     0.25                 : RMC          - RESISTIVITY OF MUD CAKE
RMF .OHMM     0.25                 : RMF          - RESISTIVITY OF MUD FILTRATE
SUFT.C        15                   : SUFT         - SURFACE TEMPERATURE
~A  DEPTH     RESD     PHID     PHIN       GR
  280.000    2.298    0.037    0.519   88.654
  280.250    2.315    0.130    0.484   87.580
  280.500    2.316    0.174    0.478   93.648
  280.750    2.316    0.217    0.487   98.744
  281.000    2.325    0.205    0.494  103.781
  281.250    2.300    0.197    0.494  105.249
  281.500    2.335    0.185    0.490  105.628
  281.750    2.348    0.180    0.476  105.460
  282.000    2.393    0.181    0.462  104.144
  282.250    2.444    0.191    0.454  102.827
  282.500    2.514    0.205    0.449  101.273
  282.750    2.581    0.214    0.445  100.075
  283.000    2.660    0.213    0.441   98.154
  283.250    2.670    0.221    0.440   95.686
  283.500    2.631    0.231    0.441   90.617
  283.750    2.671   -0.002    0.421   82.159
  284.000    2.692   -0.009    0.406   71.825
  284.250    2.603    0.050    0.395   79.648
  284.500    2.443    0.123    0.414   87.589
  284.750    2.306    0.195    0.469   95.895
  285.000    2.264    0.177    0.482   97.847
  285.250    2.256    0.163    0.482   96.469
  285.500    2.235    0.161    0.479   96.605
  285.750    2.248    0.178    0.471   98.315
  286.000    2.326    0.203    0.467   99.240
  286.250    2.388    0.216    0.465   99.374
  286.500    2.442    0.230    0.465   99.147
  286.750    2.429    0.183    0.448   98.799
  287.000    2.421    0.165    0.442   98.327
  287.250    2.435    0.159    0.437   97.496
  287.500    2.449    0.173    0.437   96.662
  287.750    2.440    0.204    0.439   95.589
  288.000    2.422    0.213    0.442   95.966
  288.250    2.383    0.210    0.444   97.130
  288.500    2.352    0.205    0.444   96.297
  288.750    2.344    0.249    0.441   92.381
  289.000    2.362    0.270    0.426   88.222
  289.250    2.420    0.176    0.411   85.752
  289.500    2.532    0.114    0.399   85.464
  289.750    2.729    0.070    0.386   92.682
  290.000    2.936    0.120    0.361   98.142
  290.250    3.188    0.158    0.362  102.211
  290.500    3.488    0.183    0.380  103.921
  290.750    3.656    0.165    0.395  104.237
  291.000    3.782    0.177    0.400  104.256
  291.250    3.840    0.184    0.404  103.783
  291.500    3.804    0.178    0.403  102.770
  291.750    3.721    0.175    0.397  100.790
  292.000    3.632    0.203    0.397   96.808
  292.250    3.552    0.240    0.393   90.892
  292.500    3.507    0.262    0.384   85.279
  292.750    3.341    0.280    0.375   78.880
  293.000    3.015    0.299    0.368   75.081
  293.250    2.788    0.280    0.364   72.798
  293.500    2.636    0.282    0.367   73.658
  293.750    2.516    0.294    0.369   74.702
  294.000    2.336    0.298    0.365   73.022
  294.250    2.234    0.290    0.364   67.652
  294.500    2.164    0.285    0.358   62.282
  294.750    2.136    0.295    0.353   56.246
  295.000    2.133    0.312    0.349   52.085
  295.250    2.149    0.325    0.347   53.188
  295.500    2.174    0.280    0.348   61.494
  295.750    2.236    0.242    0.364   69.918
  296.000    2.322    0.233    0.371   78.708
  296.250    2.507    0.230    0.373   86.591
  296.500    2.713    0.218    0.375   91.990
  296.750    2.907    0.026    0.381   91.702
  297.000    3.024    0.010    0.397   94.017
  297.250    2.898    0.110    0.415  100.930
  297.500    2.557    0.144    0.431  105.363
  297.750    2.190    0.175    0.446  107.556
  298.000    1.987    0.199    0.432  108.115
  298.250    1.845    0.227    0.415  103.713
  298.500    1.761    0.254    0.389   97.557
  298.750    1.798    0.279    0.359   92.124
  299.000    2.084    0.292    0.316   86.633
  299.250    2.504    0.299    0.295   81.383
  299.500    2.796    0.307    0.284   78.433
  299.750    3.135    0.325    0.275   76.570
  300.000    3.475    0.335    0.292   75.557
  300.250    3.541    0.284    0.283   76.237
  300.500    3.399    0.268    0.267   77.220
  300.750    3.220    0.290    0.274   76.689
  301.000    3.006    0.325    0.327   74.102
  301.250    2.826    0.342    0.351   71.091
  301.500    2.628    0.354    0.359   68.444
  301.750    2.513    0.337    0.368   65.798
  302.000    2.298    0.320    0.375   63.814
  302.250    2.066    0.298    0.381   61.654
  302.500    1.936    0.285    0.385   60.938
  302.750    1.865    0.295    0.388   60.166
  303.000    1.834    0.305    0.390   59.579
  303.250    1.848    0.310    0.393   59.469
  303.500    1.870    0.306    0.388   59.303
  303.750    1.877    0.296    0.386   59.077
  304.000    1.867    0.294    0.393   59.155
  304.250    1.853    0.304    0.391   59.407
  304.500    1.829    0.306    0.395   59.853
  304.750    1.820    0.303    0.399   60.042
  305.000    1.837    0.303    0.393   60.543
  305.250    1.883    0.314    0.390   60.922
  305.500    1.929    0.324    0.387   60.995
  305.750    1.985    0.330    0.387   61.072
  306.000    2.026    0.323    0.382   61.026
  306.250    2.069    0.300    0.379   60.616
  306.500    2.168    0.262    0.375   58.756
  306.750    2.306    0.164    0.369   56.288
  307.000    2.495    0.247    0.361   55.697
  307.250    2.576    0.289    0.369   59.223
  307.500    2.577    0.315    0.410   62.204
  307.750    2.460    0.333    0.423   63.490
  308.000    2.228    0.338    0.425   63.321
  308.250    2.064    0.338    0.424   62.189
  308.500    1.974    0.327    0.408   61.838
  308.750    1.895    0.321    0.392   63.548
  309.000    1.867    0.322    0.377   65.261
  309.250    1.968    0.330    0.368   65.696
  309.500    2.066    0.319    0.360   65.771
  309.750    2.239    0.078    0.344   65.242
  310.000    2.520    0.058    0.336   64.108
  310.250    2.851    0.068    0.337   63.517
  310.500    3.220    0.113    0.352   63.290
  310.750    3.478    0.235    0.381   63.424
  311.000    3.672    0.279    0.397   64.472
  311.250    3.357    0.302    0.402   65.454
  311.500    2.812    0.311    0.406   66.315
  311.750    2.368    0.313    0.408   66.999
  312.000    2.198    0.313    0.409   67.437
  312.250    2.044    0.313    0.401   67.450
  312.500    1.918    0.311    0.397   67.220
  312.750    1.824    0.309    0.397   66.991
  313.000    1.771    0.312    0.405   68.397
  313.250    1.781    0.314    0.414   73.677
  313.500    1.842    0.310    0.416   78.775
  313.750    1.909    0.304    0.410   84.721
  314.000    1.971    0.296    0.405   88.366
  314.250    2.047    0.294    0.404   90.135
  314.500    2.125    0.306    0.411   89.787
  314.750    2.198    0.316    0.417   87.203
  315.000    2.321    0.311    0.418   86.065
  315.250    2.415    0.297    0.415   85.841
  315.500    2.540    0.283    0.407   86.641
  315.750    2.758    0.273    0.407   87.744
  316.000    2.907    0.261    0.419   88.726
  316.250    2.924    0.271    0.424   89.712
  316.500    2.860    0.294    0.428   90.391
  316.750    2.674    0.309    0.423   90.889
  317.000    2.548    0.322    0.416   91.692
  317.250    2.478    0.332    0.400   92.553
  317.500    2.428    0.296    0.393   93.960
  317.750    2.401    0.256    0.389   95.126
  318.000    2.366    0.229    0.389   95.561
  318.250    2.336    0.213    0.388   95.576
  318.500    2.310    0.254    0.386   94.865
  318.750    2.289    0.279    0.387   95.064
  319.000    2.264    0.295    0.401   96.287
  319.250    2.248    0.304    0.409   97.453
  319.500    2.202    0.290    0.417   97.835
  319.750    2.158    0.274    0.424   97.847
  320.000    2.114    0.253    0.417   97.859
  320.250    2.179    0.238    0.413   97.814
  320.500    2.246    0.232    0.415   97.889
  320.750    2.340    0.235    0.426   98.206
  321.000    2.407    0.237    0.433   99.492
  321.250    2.467    0.227    0.435  101.446
  321.500    2.533    0.215    0.435  102.183
  321.750    2.572    0.218    0.438  102.623
  322.000    2.596    0.234    0.440  102.515
  322.250    2.597    0.246    0.442  101.380
  322.500    2.573    0.255    0.438  100.850
  322.750    2.569    0.232    0.431  102.621
  323.000    2.545    0.202    0.424  103.968
  323.250    2.555    0.187    0.416  103.678
