~VERSION INFORMATION
 VERS.                 2.0:   CWLS LOG ASCII STANDARD -VERSION 2.0
 WRAP.                  NO:   ONE LINE PER DEPTH STEP
~WELL INFORMATION BLOCK
#MNEM.UNIT           DATA                    DESCRIPTION OF MNEMONIC
#---------    -------------------            -------------------------------
# Generated from Intellog Unique Number	CS_71_72/WELL/3326
WELL.         ALBERTA ENERGY CO.LTD.         : Well_name    - WELL
LOC .         00/10-32-072-03W4/0            : Location     - LOCATION
UWI .         00/10-33-067-11W4/0            : Uwi          - UNIQUE WELL ID
ENTR.         JOETTE                         : Entered      - ENTERED BY
SRVC.         SCHLUMBERGER                   : Scn          - SERVICE COMPANY
DATE.         05/13/92                       : Date         - LOG DATE
STRT.M        325                            : top_depth    - START DEPTH
STOP.M        560                            : bot_depth    - STOP DEPTH
STEP.M        0.25                           : increment    - STEP LENGTH
 NULL. -999.2500:NULL Value
~CURVE INFORMATION BLOCK
#MNEM UNIT       ERCB CURVE CODE    CURVE DESCRIPTION
#-----------   ------------------   ----------------------------------
DEPT.M        00 001 00 00         : DEPTH        - DEPTH
CALI.MM       00 280 01 00         : CAL          - CALIPER
GR  .API      00 310 00 00         : GR           - GAMMA RAY
NPHI.V/V      00 330 00 00         : PHIN         - NEUTRON POROSITY (SANDSTONE)
DPHI.V/V      00 890 00 00         : PHID         - DENSITY POROSITY (SANDSTONE)
ILD .OHMM     00 120 00 00         : RESD         - DEEP RESISTIVITY (DIL)
~PARAMETER INFORMATION
#MNEM.UNIT           DATA             DESCRIPTION OF MNEMONIC
#---------         -----------     ------------------------------
GL  .M        695.31               : gl           - GROUND LEVEL ELEVATION
EREF.M        698.91               : kb           - ELEVATION OF DEPTH REFERENCE
DATM.M        698.91               : datum        - DATUM ELEVATION
TDD .M        566                  : tdd          - TOTAL DEPTH DRILLER
RUN .         ONE                  : Run          - RUN NUMBER
ENG .         BILL                 : Engineer     - RECORDING ENGINEER
WIT .         JIM                  : Witness      - WITNESSED BY
MUD .         GEL                  : Mud_type     - MUD TYPE
MATR.         SANDSTONE            : Logunit      - NEUTRON MATRIX
TMAX.C        32                   : BHT          - MAXIMUM RECORDED TEMPERATURE
BHTD.M        566                  : BHTDEP       - MAXIMUM RECORDED TEMPERATURE
MATR.         1                    : LOGUNIT      - NEUTRON MATRIX
RMT .C        12                   : MDTP         - TEMPERATURE OF MUD
NEUT.         1                    : NEUTRON      - NEUTRON TYPE
RESI.         0                    : RESIST       - RESISTIVITY TYPE
RMC .OHMM     2.5                  : RMC          - RESISTIVITY OF MUD CAKE
RMF .OHMM     2.3                  : RMF          - RESISTIVITY OF MUD FILTRATE
SUFT.C        4                    : SUFT         - SURFACE TEMPERATURE
~A  DEPTH      CAL       GR     PHIN     PHID     RESD
# ...
  471.000  155.766   89.886    0.491    0.257    6.162
  471.250  155.837   89.339    0.492    0.269    6.054
  471.500  155.107   83.388    0.484    0.267    5.843
  471.750  154.396   82.240    0.478    0.264    5.741
  472.000  154.467   84.095    0.471    0.275    5.538
  472.250  154.538   76.943    0.456    0.289    5.442
  472.500  154.626   76.996    0.470    0.282    5.447
  472.750  154.680   81.853    0.461    0.267    5.772
  473.000  155.551   81.906    0.454    0.277    5.997
  473.250  156.458   75.955    0.471    0.294    6.116
  473.500  157.312   69.403    0.488    0.300    6.361
  473.750  157.366   68.856    0.496    0.298    6.251
  474.000  156.672   69.523    0.502    0.298    6.146
  474.250  155.942   69.563    0.496    0.303    6.036
  474.500  155.995   70.817    0.495    0.304    5.609
  474.750  155.266   69.670    0.499    0.296    4.748
  475.000  155.337   73.339    0.522    0.274    3.870
  475.250  155.426   76.995    0.563    0.266    3.215
  475.500  155.461   80.064    0.590    0.277    2.825
  475.750  155.585   78.302    0.591    0.284    2.577
  476.000  155.621   77.155    0.584    0.278    2.532
  476.250  155.710   83.813    0.583    0.271    2.584
  476.500  156.599   87.482    0.582    0.265    2.637
  476.750  156.635   86.921    0.576    0.257    2.739
  477.000  157.506   85.774    0.586    0.255    3.012
  477.250  158.378   86.441    0.574    0.253    3.436
  477.500  158.449   87.695    0.557    0.251    3.921
  477.750  158.538   87.748    0.537    0.251    4.733
  478.000  158.591   81.797    0.518    0.238    5.105
  478.250  157.078   78.848    0.501    0.229    5.508
  478.500  157.132   82.517    0.481    0.231    5.728
  478.750  156.438   81.957    0.468    0.220    5.526
  479.000  156.491   82.010    0.473    0.217    5.233
  479.250  156.544   84.465    0.484    0.217    5.044
  479.500  156.651   85.733    0.479    0.219    4.959
  479.750  156.722   83.971    0.479    0.222    4.964
  480.000  156.811   81.036    0.490    0.224    5.460
  480.250  156.846   81.089    0.502    0.229    5.566
  480.500  156.935   79.942    0.506    0.240    6.471
  480.750  157.006   73.977    0.452    0.200    7.386
  481.000  157.095   61.421    0.429    0.132    7.677
  481.250  157.130   69.881    0.426    0.163    7.684
  481.500  156.401   77.753    0.440    0.179    7.275
  481.750  155.671   83.223    0.454    0.206    6.394
  482.000  155.742   85.678    0.445    0.226    5.728
  482.250  155.013   88.133    0.443    0.218    5.521
  482.500  155.084   90.588    0.448    0.212    5.226
  482.750  155.155   92.430    0.460    0.210    4.859
  483.000  154.443   94.284    0.479    0.209    4.772
  483.250  154.532   95.552    0.501    0.214    4.522
  483.500  154.567   93.804    0.530    0.215    4.361
  483.750  154.656   92.056    0.532    0.212    4.204
  484.000  155.563   93.310    0.542    0.209    3.763
  484.250  156.417   94.564    0.566    0.206    3.497
  484.500  156.470   95.231    0.568    0.209    3.373
  484.750  156.559   94.670    0.561    0.216    3.573
  485.000  156.612   93.549    0.552    0.215    3.930
  485.250  156.683   92.976    0.537    0.212    4.160
  485.500  155.972   92.428    0.486    0.216    4.404
  485.750  155.242   90.680    0.448    0.229    4.933
  486.000  155.295   86.531    0.407    0.241    5.524
  486.250  154.583   77.564    0.358    0.267    7.742
  486.500  153.872   62.606    0.307    0.295    9.343
  486.750  153.907   56.055    0.297    0.303   10.464
  487.000  154.014   56.709    0.314    0.299   11.506
  487.250  154.067   61.566    0.327    0.290   11.962
  487.500  153.355   66.436    0.327    0.284   11.749
  487.750  153.408   68.317    0.327    0.278   11.127
  488.000  153.515   66.542    0.324    0.276   10.531
  488.250  153.568   64.194    0.310    0.283    9.973
  488.500  152.821   64.260    0.294    0.294   10.174
  488.750  152.928   64.914    0.288    0.309   10.571
  489.000  152.981   64.954    0.317    0.312   13.496
  489.250  152.233   66.221    0.317    0.317   15.399
  489.500  152.322   66.275    0.314    0.317   12.794
  489.750  151.575   64.513    0.307    0.317   11.453
  490.000  151.664   60.977    0.278    0.126   13.068
  490.250  151.717   62.832    0.269    0.223   16.370
  490.500  151.806   68.289    0.278    0.290   20.139
  490.750  151.859   70.757    0.260    0.305   19.061
  491.000  151.147   69.583    0.218    0.314   18.732
  491.250  151.201   65.447    0.191    0.367   21.374
  491.500  151.272   61.884    0.179    0.386   32.877
  491.750  151.343   57.748    0.190    0.368   36.151
  492.000  151.414   56.587    0.299    0.351   40.487
  492.250  152.303   54.238    0.408    0.334   38.331
  492.500  152.374   52.503    0.425    0.325   36.278
  492.750  152.463   56.760    0.428    0.320   25.959
  493.000  153.334   62.817    0.422    0.315   16.607
  493.250  153.405   69.475    0.408    0.313   13.291
  493.500  154.277   75.533    0.410    0.302   10.641
  493.750  154.348   84.006    0.411    0.289    9.526
  494.000  155.202   82.258    0.402    0.274    8.688
  494.250  155.273   78.722    0.381    0.253    8.073
  494.500  155.397   79.375    0.373    0.248    7.785
  494.750  155.415   82.418    0.381    0.239    7.370
  495.000  155.504   87.875    0.388    0.219    7.243
  495.250  155.557   91.544    0.397    0.214    7.253
  495.500  155.646   93.986    0.397    0.209    7.262
  495.750  155.752   94.639    0.401    0.209    7.408
  496.000  155.788   91.690    0.410    0.235    7.700
  496.250  155.894   86.940    0.407    0.242    7.855
  496.500  155.948   80.389    0.378    0.251    8.169
  496.750  156.037   67.232    0.333    0.263    8.331
  497.000  156.090   61.295    0.319    0.267    8.496
  497.250  156.179   62.549    0.323    0.268    8.673
  497.500  156.214   63.790    0.322    0.250    8.845
  497.750  156.303   65.657    0.315    0.245    9.023
  498.000  156.356   63.296    0.317    0.252    9.032
  498.250  157.246   60.347    0.323    0.255    9.049
  498.500  157.334   59.800    0.331    0.244    8.896
  498.750  157.388   61.067    0.339    0.245    8.905
  499.000  157.476   59.319    0.345    0.253    8.589
  499.250  157.512   57.571    0.348    0.257    8.285
  499.500  157.601   57.024    0.353    0.259    7.994
  499.750  157.672   58.878    0.364    0.267    7.854
  500.000  158.561   58.331    0.370    0.268    7.576
  500.250  158.632   55.369    0.345    0.265    7.445
  500.500  158.685   54.822    0.345    0.261    7.051
  500.750  158.756   60.279    0.350    0.262    6.927
  501.000  159.646   60.959    0.354    0.264    6.806
  501.250  159.699   62.801    0.362    0.267    6.693
  501.500  159.699   66.470    0.370    0.267    6.697
  501.750  156.674   65.923    0.374    0.264    6.708
  502.000  158.311   64.775    0.362    0.255    6.841
  502.250  158.382   66.630    0.356    0.252    6.978
  502.500  158.471   70.286    0.359    0.245    7.255
  502.750  158.542   70.926    0.365    0.242    7.399
  503.000  158.613   64.374    0.368    0.245    7.411
  503.250  158.666   58.437    0.370    0.257    7.420
  503.500  157.954   58.490    0.370    0.256    7.430
  503.750  158.043   56.742    0.371    0.261    6.911
  504.000  158.132   50.778    0.378    0.276    6.664
  504.250  158.167   45.427    0.376    0.281    6.426
  504.500  158.256   51.498    0.372    0.270    6.196
  504.750  158.327   56.942    0.363    0.264    6.090
  505.000  158.398   59.423    0.361    0.269    5.876
  505.250  157.669   60.664    0.359    0.267    5.876
  505.500  157.740   66.121    0.356    0.260    6.230
  505.750  157.793   70.991    0.346    0.256    6.238
  506.000  157.864   65.627    0.349    0.264    6.246
  506.250  157.953   62.091    0.353    0.272    6.370
  506.500  158.024   63.933    0.347    0.267    6.380
  506.750  158.077   63.386    0.348    0.265    6.390
  507.000  158.148   61.037    0.362    0.271    6.394
  507.250  158.219   56.901    0.378    0.277    6.405
