~VERSION INFORMATION
 VERS.                 2.0:   CWLS LOG ASCII STANDARD -VERSION 2.0
 WRAP.                  NO:   ONE LINE PER DEPTH STEP
~WELL INFORMATION BLOCK
#MNEM.UNIT           DATA                    DESCRIPTION OF MNEMONIC
#---------    -------------------            -------------------------------
# Generated from Intellog Unique Number	CW_79_81/WELL/222
WELL.         MEGA ET AL MISTAHAE 10-06      : Well_name    - WELL
LOC .         00/10-06-080-01W5/0            : Location     - LOCATION
UWI .         00/10-06-080-01W5/0            : Uwi          - UNIQUE WELL ID
ENTR.         JJ                             : Entered      - ENTERED BY
SRVC.         COMPUTALOG                     : Scn          - SERVICE COMPANY
DATE.         3 MAR 89                       : Date         - LOG DATE
STRT.M        285                            : top_depth    - START DEPTH
STOP.M        535                            : bot_depth    - STOP DEPTH
STEP.M        0.25                           : increment    - STEP LENGTH
 NULL. -999.2500:NULL Value
~CURVE INFORMATION BLOCK
#MNEM UNIT       ERCB CURVE CODE    CURVE DESCRIPTION
#-----------   ------------------   ----------------------------------
DEPT.M        00 001 00 00         : DEPTH        - DEPTH
DPHI.V/V      00 890 00 00         : PHID         - DENSITY POROSITY (SANDSTONE)
NPHI.V/V      00 330 00 00         : PHIN         - NEUTRON POROSITY (SANDSTONE)
GR  .API      00 310 00 00         : GR           - GAMMA RAY
CALI.MM       00 280 01 00         : CAL          - CALIPER
ILD .OHMM     00 120 00 00         : RESD         - DEEP RESISTIVITY (DIL)
~PARAMETER INFORMATION
#MNEM.UNIT           DATA             DESCRIPTION OF MNEMONIC
#---------         -----------     ------------------------------
GL  .M        605                  : gl           - GROUND LEVEL ELEVATION
EREF.M        608.64               : kb           - ELEVATION OF DEPTH REFERENCE
DATM.M        608.64               : datum        - DATUM ELEVATION
TDD .M        555                  : tdd          - TOTAL DEPTH DRILLER
RUN .         ONE                  : Run          - RUN NUMBER
ENG .         GAIR                 : Engineer     - RECORDING ENGINEER
WIT .         STRONG               : Witness      - WITNESSED BY
BASE.         RED DEER             : Branch       - HOME BASE OF LOGGING UNIT
MUD .         GEL CHEM             : Mud_type     - MUD TYPE
MATR.         SANDSTONE            : Logunit      - NEUTRON MATRIX
TMAX.C        37                   : BHT          - MAXIMUM RECORDED TEMPERATURE
BHTD.M        554.9                : BHTDEP       - MAXIMUM RECORDED TEMPERATURE
RMT .C        19                   : MDTP         - TEMPERATURE OF MUD
MUDD.KG/M     1140                 : MWT          - MUD DENSITY
NEUT.         1                    : NEUTRON      - NEUTRON TYPE
RESI.         0                    : RESIST       - RESISTIVITY TYPE
RM  .OHMM     4.1                  : RM           - RESISTIVITY OF MUD
RMC .OHMM     2.8                  : RMC          - RESISTIVITY OF MUD CAKE
RMF .OHMM     4.3                  : RMF          - RESISTIVITY OF MUD FILTRATE
SUFT.C        5                    : SUFT         - SURFACE TEMPERATURE
~A  DEPTH     PHID     PHIN       GR      CAL     RESD
  285.000    0.242    0.504   97.125  170.608    2.219
  285.250    0.250    0.504   97.912  171.295    2.254
  285.500    0.249    0.495   95.771  173.854    2.318
  285.750    0.251    0.483   95.061  175.484    2.393
  286.000    0.248    0.491   97.032  177.214    2.442
  286.250    0.242    0.508   96.951  175.515    2.559
  286.500    0.242    0.513   95.121  170.383    2.732
  286.750    0.236    0.543   97.091  167.645    2.856
  287.000    0.223    0.532  101.057  168.025    2.889
  287.250    0.214    0.480  103.096  169.027    2.842
  287.500    0.227    0.470  100.640  170.751    2.832
  287.750    0.229    0.497  103.048  172.797    2.817
  288.000    0.225    0.524  105.706  175.560    2.790
  288.250    0.226    0.518  105.933  176.671    2.775
  288.500    0.230    0.500  102.111  177.663    2.759
  288.750    0.230    0.477   97.283  177.638    2.750
  289.000    0.231    0.489   95.209  177.694    2.728
  289.250    0.232    0.505   96.929  177.759    2.675
  289.500    0.235    0.497   99.153  177.412    2.611
  289.750    0.237    0.488   96.763  176.752    2.558
  290.000    0.240    0.493   97.050  175.682    2.622
  290.250    0.246    0.484   99.959  173.359    2.846
  290.500    0.259    0.480   68.952  168.751    3.134
  290.750    0.286    0.476   58.458  163.312    3.994
  291.000    0.338    0.456   46.341  158.701    6.791
  291.250    0.346    0.441   48.312  156.792    8.946
  291.500    0.332    0.429   51.971  156.861   12.038
  291.750    0.323    0.418   52.818  157.337   14.071
  292.000    0.322    0.417   52.112  158.449   18.609
  292.250    0.325    0.436   52.401  160.693   23.578
  292.500    0.328    0.440   51.129  162.832   25.884
  292.750    0.322    0.433   53.604  162.275   27.324
  293.000    0.319    0.419   50.525  159.441   28.261
  293.250    0.317    0.409   52.996  155.769   28.207
  293.500    0.313    0.408   57.899  153.857   27.751
  293.750    0.307    0.422   57.192  154.135   27.235
  294.000    0.300    0.426   48.753  155.853   27.288
  294.250    0.305    0.417   45.303  156.657   27.238
  294.500    0.315    0.409   47.275  158.282   26.888
  294.750    0.316    0.404   50.557  158.559   26.213
  295.000    0.310    0.411   52.093  156.860   26.010
  295.250    0.312    0.412   51.198  154.225   26.409
  295.500    0.322    0.407   53.483  153.355   26.853
  295.750    0.332    0.415   54.645  153.731   26.859
  296.000    0.337    0.419   52.248  154.213   26.460
  296.250    0.345    0.417   51.042  155.108   26.172
  296.500    0.345    0.412   50.148  155.390   26.573
  296.750    0.341    0.400   48.197  155.662   26.919
  297.000    0.336    0.391   45.801  155.829   27.478
  297.250    0.330    0.386   47.529  155.795   28.001
  297.500    0.331    0.398   48.377  155.750   28.476
  297.750    0.341    0.399   47.856  155.826   29.076
  298.000    0.342    0.389   50.017  156.099   29.629
  298.250    0.337    0.387   53.607  156.059   30.076
  298.500    0.335    0.389   54.647  156.336   30.407
  298.750    0.340    0.384   50.633  157.125   30.472
  299.000    0.353    0.375   51.918  157.814   30.029
  299.250    0.359    0.374   52.335  158.609   29.634
  299.500    0.354    0.394   51.441  159.514   29.477
  299.750    0.347    0.405   49.237  160.308   29.699
  300.000    0.341    0.407   47.155  159.647   30.325
  300.250    0.335    0.413   45.139  159.610   31.303
  300.500    0.347    0.410   44.183  160.712   32.861
  300.750    0.344    0.382   46.153  162.440   34.233
  301.000    0.327    0.361   42.702  161.264   34.946
  301.250    0.290    0.335   41.370  159.145   35.075
  301.500    0.292    0.324   49.578  156.612   33.676
  301.750    0.312    0.345   58.720  154.078   32.323
  302.000    0.319    0.367   66.921  153.111   31.267
  302.250    0.309    0.388   71.015  151.414   30.574
  302.500    0.285    0.383   75.922  151.066   29.791
  302.750    0.267    0.377   81.696  151.227   27.915
  303.000    0.258    0.396   78.371  152.022   26.162
  303.250    0.249    0.391   79.470  153.448   26.161
  303.500    0.239    0.383   85.370  156.729   27.361
  303.750    0.226    0.378   99.063  160.021   29.079
  304.000    0.223    0.377  133.888  163.097   31.761
  304.250    0.215    0.383  182.866  164.724   37.843
  304.500    0.190    0.409  174.241  165.513   54.217
  304.750    0.156    0.419  157.885  164.752  100.099
  305.000    0.169    0.428  118.337  163.785  110.064
  305.250    0.187    0.436  115.262  161.873   32.742
  305.500    0.204    0.441   95.728  160.177   31.088
  305.750    0.235    0.441   71.765  158.581   31.086
  306.000    0.270    0.441   55.097  157.494   30.406
  306.250    0.303    0.433   47.659  157.257   30.642
  306.500    0.323    0.417   47.510  157.523   31.982
  306.750    0.320    0.402   51.789  158.116   35.902
  307.000    0.319    0.397   52.826  158.915   38.820
  307.250    0.318    0.390   48.002  159.497   40.525
  307.500    0.310    0.386   45.175  159.148   41.755
  307.750    0.306    0.393   45.903  158.276   41.938
  308.000    0.305    0.392   47.498  158.034   41.787
  308.250    0.305    0.383   47.729  157.368   41.614
  308.500    0.307    0.376   47.207  156.920   41.544
  308.750    0.317    0.378   48.055  156.367   41.329
  309.000    0.318    0.400   49.467  155.182   41.170
  309.250    0.314    0.410   50.380  154.839   41.417
  309.500    0.313    0.408   50.542  154.280   41.414
  309.750    0.319    0.402   50.649  154.035   41.415
  310.000    0.320    0.392   53.369  154.305   41.506
  310.250    0.311    0.382   54.718  154.378   41.582
  310.500    0.305    0.396   51.766  154.960   41.663
  310.750    0.302    0.397   52.180  155.650   41.754
  311.000    0.298    0.386   53.963  156.135   42.301
  311.250    0.275    0.367   49.951  157.344   42.460
  311.500    0.246    0.357   47.188  158.235   42.165
  311.750    0.263    0.377   47.850  157.788   41.922
  312.000    0.297    0.412   50.195  156.607   41.694
  312.250    0.315    0.432   50.174  155.632   41.548
  312.500    0.318    0.437   48.654  155.495   41.252
  312.750    0.316    0.422   48.132  155.556   40.939
  313.000    0.312    0.406   49.294  156.040   40.571
  313.250    0.312    0.415   50.395  156.317   39.612
  313.500    0.315    0.422   50.309  157.107   39.100
  313.750    0.318    0.437   49.917  157.805   38.671
  314.000    0.321    0.441   48.143  157.350   38.032
  314.250    0.322    0.431   46.880  157.622   37.270
  314.500    0.322    0.416   45.235  156.754   36.848
  314.750    0.320    0.410   44.528  155.768   36.443
  315.000    0.314    0.415   46.812  155.326   35.916
  315.250    0.312    0.412   50.590  155.700   35.520
  315.500    0.316    0.404   52.688  156.606   35.459
  315.750    0.307    0.395   50.732  158.124   35.319
  316.000    0.300    0.412   50.212  158.603   35.066
  316.250    0.297    0.415   52.310  158.876   34.880
  316.500    0.297    0.412   54.904  158.844   34.626
  316.750    0.295    0.411   56.689  158.588   34.564
  317.000    0.293    0.419   56.604  158.772   34.623
  317.250    0.287    0.421   58.143  159.040   34.821
  317.500    0.289    0.447   62.984  159.317   34.896
  317.750    0.289    0.462   70.377  159.385   34.771
  318.000    0.288    0.455   72.976  159.248   35.038
  318.250    0.289    0.444   71.147  159.001   35.365
  318.500    0.291    0.433   69.372  158.230   35.844
  318.750    0.292    0.446   68.733  157.785   35.972
  319.000    0.291    0.458   67.645  156.700   35.579
  319.250    0.295    0.447   65.691  155.939   35.049
  319.500    0.303    0.436   63.490  154.448   34.551
  319.750    0.311    0.421   59.916  152.857   34.170
  320.000    0.318    0.430   63.629  151.770   33.727
  320.250    0.325    0.437   67.222  151.847   33.478
  320.500    0.329    0.439   68.698  153.047   33.665
  320.750    0.322    0.442   68.739  154.572   34.621
  321.000    0.316    0.423   67.095  156.099   36.210
  321.250    0.306    0.363   60.838  158.243   39.028
