~VERSION INFORMATION
 VERS.                 2.0:   CWLS LOG ASCII STANDARD -VERSION 2.0
 WRAP.                  NO:   ONE LINE PER DEPTH STEP
~WELL INFORMATION BLOCK
#MNEM.UNIT           DATA                    DESCRIPTION OF MNEMONIC
#---------    -------------------            -------------------------------
# Generated from Intellog Unique Number	CW_70_72/WELL/3026
NULL.         -999.25                        : NULL_VALUE
WELL.         SULPETRO OTAUWAU 11-05         : Well_name    - WELL              
LOC .         11-05-070-05W5                 : Location     - LOCATION          
UWI .         00/11-05-070-05W5/0            : Uwi          - UNIQUE WELL ID    
ENTR.         JAYE                           : Entered      - ENTERED BY        
SRVC.         SCHLUMBERGER                   : Scn          - SERVICE COMPANY   
DATE.         19 FEB 77                      : Date         - LOG DATE          
STRT.M        701.04                         : top_depth    - START DEPTH       
STOP.M        960.04                         : bot_depth    - STOP DEPTH        
STEP.M        0.25                           : increment    - STEP LENGTH       
~CURVE INFORMATION BLOCK
#MNEM UNIT       ERCB CURVE CODE    CURVE DESCRIPTION
#-----------   ------------------   ----------------------------------
DEPT.M        00 001 00 00         : DEPTH        - DEPTH                       
ILD .OHMM     00 120 00 00         : RESD         - DEEP RESISTIVITY (DIL)      
NPHI.V/V      00 330 00 00         : PHIN         - NEUTRON POROSITY (SANDSTONE)
DPHI.V/V      00 890 00 00         : PHID         - DENSITY POROSITY (SANDSTONE)
GR  .API      00 310 00 00         : GR           - GAMMA RAY                   
CALI.MM       00 280 01 00         : CAL          - CALIPER                     
~PARAMETER INFORMATION       
#MNEM.UNIT           DATA             DESCRIPTION OF MNEMONIC
#---------         -----------     ------------------------------
GL  .M        796.595              : gl           - GROUND LEVEL ELEVATION      
EREF.M        800.557              : kb           - ELEVATION OF DEPTH REFERENCE
DATM.M        796.595              : datum        - DATUM ELEVATION             
TDD .M        975.36               : tdd          - TOTAL DEPTH DRILLER         
RUN .         ONE                  : Run          - RUN NUMBER                  
ENG .         FIGGURES             : Engineer     - RECORDING ENGINEER          
WIT .         BROCK                : Witness      - WITNESSED BY                
MUD .         GEL                  : Mud_type     - MUD TYPE                    
MATR.         SANDSTONE            : Logunit      - NEUTRON MATRIX              
TMAX.C        -17.7778             : BHT          - MAXIMUM RECORDED TEMPERATURE
BHTD.M        975.665              : BHTDEP       - MAXIMUM RECORDED TEMPERATURE
RMT .C        15.5556              : MDTP         - TEMPERATURE OF MUD          
MUDD.KG/M     1152                 : MWT          - MUD DENSITY                 
NEUT.         1                    : NEUTRON      - NEUTRON TYPE                
RESI.         0                    : RESIST       - RESISTIVITY TYPE            
RM  .OHMM     4.25                 : RM           - RESISTIVITY OF MUD          
RMC .OHMM     0.25                 : RMC          - RESISTIVITY OF MUD CAKE     
RMF .OHMM     3.66                 : RMF          - RESISTIVITY OF MUD FILTRATE 
SUFT.C        -20                  : SUFT         - SURFACE TEMPERATURE         
~A  DEPTH     RESD     PHIN     PHID       GR      CAL
# ...
  737.540    2.151    0.414    0.198   76.614  163.154
  737.790    1.981    0.404    0.221   65.582  162.750
  738.040    1.837    0.376    0.245   59.855  162.137
  738.290    1.717    0.348    0.265   58.321  160.897
  738.540    1.754    0.345    0.255   57.466  158.303
  738.790    2.002    0.333    0.221   55.871  157.272
  739.040    2.226    0.269    0.174   52.611  158.646
  739.290    2.476    0.192    0.086   50.460  159.910
  739.540    2.664    0.228    0.079   53.306  162.118
  739.790    2.711    0.256    0.112   57.263  162.866
  740.040    2.614    0.302    0.167   58.874  162.776
  740.290    2.447    0.345    0.197   56.107  162.370
  740.540    2.481    0.319    0.213   53.032  160.922
  740.790    2.760    0.249    0.163   56.864  159.579
  741.040    3.162    0.275    0.131   60.018  158.759
  741.290    4.240    0.256    0.155   58.300  159.192
  741.540    5.154    0.203    0.098   53.067  160.043
  741.790    5.054    0.202    0.053   53.259  160.577
  742.040    3.917    0.251    0.067   56.413  160.696
  742.290    3.013    0.279    0.163   61.233  160.398
  742.540    2.267    0.330    0.212   63.585  160.308
  742.790    1.889    0.360    0.254   62.299  160.010
  743.040    1.730    0.369    0.230   60.765  159.918
  743.290    1.643    0.370    0.196   62.007  159.515
  743.540    1.633    0.365    0.215   66.333  158.904
  743.790    1.658    0.382    0.238   72.016  159.021
  744.040    1.768    0.390    0.246   77.699  159.351
  744.290    1.930    0.385    0.226   83.444  159.467
  744.540    2.076    0.385    0.210   87.708  159.589
  744.790    2.168    0.397    0.195   93.144  159.707
  745.040    2.190    0.408    0.199   97.532  159.406
  745.290    2.112    0.418    0.214   98.528  159.004
  745.540    1.996    0.431    0.195   93.293  158.812
  745.790    1.875    0.429    0.214   86.949  158.928
  746.040    1.792    0.412    0.249   82.701  159.046
  746.290    1.741    0.401    0.224   82.648  159.480
  746.540    1.726    0.406    0.216   84.014  160.328
  746.790    1.760    0.418    0.214   86.859  162.536
  747.040    1.801    0.429    0.195   94.147  164.224
  747.290    1.843    0.446    0.195   94.710  164.445
  747.540    1.861    0.466    0.229   90.832  163.415
  747.790    1.863    0.424    0.242   79.368  161.549
  748.040    1.899    0.403    0.260   77.095  160.518
  748.290    1.925    0.427    0.230   81.359  158.653
  748.540    1.981    0.434    0.215   85.315  158.461
  748.790    2.035    0.426    0.191   90.691  160.771
  749.040    2.059    0.433    0.189   94.091  163.293
  749.290    2.046    0.449    0.209   97.060  164.874
  749.540    2.021    0.473    0.210   96.760  169.170
  749.790    1.974    0.479    0.198   91.094  169.916
  750.040    1.900    0.462    0.242   86.230  165.856
  750.290    1.850    0.437    0.240   84.881  162.320
  750.540    1.797    0.431    0.212   89.146  160.558
  750.790    1.746    0.454    0.228   89.956  159.635
  751.040    1.672    0.442    0.237   83.550  159.231
  751.290    1.639    0.431    0.237   77.515  159.349
  751.540    1.619    0.422    0.246   72.464  159.468
  751.790    1.585    0.412    0.246   72.535  159.273
  752.040    1.560    0.425    0.249   75.196  159.079
  752.290    1.518    0.421    0.252   76.439  158.571
  752.540    1.492    0.396    0.259   75.027  157.959
  752.790    1.468    0.398    0.270   70.966  157.763
  753.040    1.453    0.413    0.280   71.282  157.987
  753.290    1.443    0.425    0.268   71.230  158.006
  753.540    1.444    0.424    0.253   71.052  157.708
  753.790    1.448    0.423    0.265   72.295  157.721
  754.040    1.471    0.403    0.271   75.572  157.735
  754.290    1.525    0.406    0.247   81.378  157.746
  754.540    1.578    0.424    0.219   83.731  158.178
  754.790    1.669    0.437    0.216   81.273  158.506
  755.040    1.759    0.428    0.232   81.034  158.418
  755.290    1.837    0.412    0.245   85.483  158.536
  755.540    1.933    0.407    0.233   91.536  158.759
  755.790    2.111    0.411    0.251   98.391  159.399
  756.040    2.317    0.435    0.254  106.110  161.711
  756.290    2.611    0.459    0.265  106.241  164.858
  756.540    3.019    0.507    0.286  101.439  167.484
  756.790    3.563    0.526    0.180   98.610  169.378
  757.040    4.015    0.432    0.160  100.161  170.542
  757.290    4.162    0.441    0.155  103.439  171.601
  757.540    4.188    0.457    0.182   99.068  171.614
  757.790    4.024    0.342    0.162   94.203  168.810
  758.040    3.719    0.370    0.163   91.498  165.379
  758.290    3.324    0.389    0.203   92.308  163.197
  758.540    3.078    0.378    0.218   89.109  160.602
  758.790    2.892    0.364    0.209   85.726  158.318
  759.040    2.779    0.359    0.218   81.972  156.871
  759.290    2.700    0.362    0.207   79.204  156.678
  759.540    2.677    0.387    0.236   75.142  156.481
  759.790    2.669    0.403    0.227   74.843  156.707
  760.040    2.651    0.406    0.230   77.442  156.512
  760.290    2.591    0.391    0.243   85.715  156.632
  760.540    2.545    0.383    0.235   90.349  156.956
  760.790    2.509    0.390    0.228   93.072  157.180
  761.040    2.535    0.409    0.206   94.314  157.298
  761.290    2.575    0.409    0.192   95.618  157.626
  761.540    2.639    0.409    0.177   97.785  157.745
  761.790    2.726    0.415    0.155  102.420  157.968
  762.040    2.847    0.415    0.163  104.649  158.400
  762.290    2.956    0.406    0.175  103.794  159.253
  762.540    3.134    0.397    0.186  101.212  161.145
  762.790    3.544    0.415    0.212   96.409  165.443
  763.040    4.075    0.438    0.250   89.263  169.634
  763.290    4.609    0.498    0.306   77.614  167.143
  763.540    5.033    0.554    0.480   50.668  161.099
  763.790    5.178    0.605    0.588   42.535  157.457
  764.040    4.298    0.625    0.610   60.986  157.159
  764.290    3.641    0.426    0.477   67.470  157.486
  764.540    3.072    0.373    0.240   70.193  158.756
  764.790    2.593    0.372    0.245   72.608  155.218
  765.040    2.305    0.366    0.254   74.651  156.067
  765.290    2.072    0.361    0.263   76.571  159.841
  765.540    2.024    0.356    0.255   77.998  155.678
  765.790    1.989    0.365    0.233   79.118  154.753
  766.040    2.050    0.360    0.229   80.359  155.811
  766.290    2.125    0.359    0.225   84.870  155.825
  766.540    2.211    0.355    0.218   87.716  155.109
  766.790    2.318    0.350    0.214   89.020  155.123
  767.040    2.461    0.346    0.234   91.681  155.034
  767.290    2.624    0.341    0.214   94.096  155.154
  767.540    2.740    0.337    0.225   96.139  154.854
  767.790    2.925    0.336    0.218   99.293  154.660
  768.040    3.147    0.346    0.206  103.434  154.152
  768.290    3.462    0.369    0.195  107.945  154.374
  768.540    3.628    0.385    0.188  112.210  156.999
  768.790    3.706    0.405    0.180  116.413  161.923
  769.040    3.648    0.429    0.192  109.390  166.742
  769.290    3.492    0.445    0.193  102.736  169.472
  769.540    3.263    0.456    0.194   96.454  168.650
  769.790    3.129    0.427    0.224   92.884  164.382
  770.040    3.052    0.408    0.224   95.422  162.414
  770.290    3.059    0.399    0.194   97.960  162.323
  770.540    3.160    0.389    0.177   97.659  162.757
  770.790    3.221    0.397    0.174  100.505  163.501
  771.040    3.200    0.392    0.176  106.559  164.978
  771.290    3.002    0.394    0.180  110.145  166.872
  771.540    2.713    0.407    0.155  110.338  168.349
  771.790    2.381    0.422    0.166  109.915  169.199
  772.040    2.104    0.436    0.185  111.404  169.734
  772.290    1.923    0.443    0.177  109.747  169.018
  772.540    1.742    0.437    0.158  109.261  167.675
  772.790    1.673    0.393    0.182  109.517  167.585
  773.040    1.703    0.393    0.150  110.575  168.958
  773.290    1.746    0.409    0.149  111.631  168.972
  773.540    1.826    0.427    0.134  113.182  168.777
  773.790    1.922    0.443    0.140  115.842  167.852
