~VERSION INFORMATION
 VERS.                 2.0:   CWLS LOG ASCII STANDARD -VERSION 2.0
 WRAP.                  NO:   ONE LINE PER DEPTH STEP
~WELL INFORMATION BLOCK
#MNEM.UNIT           DATA                    DESCRIPTION OF MNEMONIC
#---------    -------------------            -------------------------------
# Generated from Intellog Unique Number	CS_73_76/WELL/1968
WELL.         AMOCO                          : Well_name    - WELL
LOC .         00/10-18-073-04W4/0            : Location     - LOCATION
UWI .         00/10-18-073-04W4/0            : Uwi          - UNIQUE WELL ID
ENTR.         T                              : Entered      - ENTERED BY
SRVC.         SCHLUMBERGER                   : Scn          - SERVICE COMPANY
STRT.M        300                            : top_depth    - START DEPTH
STOP.M        515                            : bot_depth    - STOP DEPTH
STEP.M        0.25                           : increment    - STEP LENGTH
 NULL. -999.2500:NULL Value
~CURVE INFORMATION BLOCK
#MNEM UNIT       ERCB CURVE CODE    CURVE DESCRIPTION
#-----------   ------------------   ----------------------------------
DEPT.M        00 001 00 00         : DEPTH        - DEPTH
GR  .API      00 310 00 00         : GR           - GAMMA RAY
NPHI.V/V      00 330 00 00         : PHIN         - NEUTRON POROSITY (SANDSTONE)
DPHI.V/V      00 890 00 00         : PHID         - DENSITY POROSITY (SANDSTONE)
ILD .OHMM     00 120 00 00         : RESD         - DEEP RESISTIVITY (DIL)
~PARAMETER INFORMATION
#MNEM.UNIT           DATA             DESCRIPTION OF MNEMONIC
#---------         -----------     ------------------------------
GL  .M        695.3                : gl           - GROUND LEVEL ELEVATION
EREF.M        699.1                : kb           - ELEVATION OF DEPTH REFERENCE
DATM.M        699.1                : datum        - DATUM ELEVATION
TDD .M        530                  : tdd          - TOTAL DEPTH DRILLER
RUN .         ONE                  : Run          - RUN NUMBER
ENG .         BILL                 : Engineer     - RECORDING ENGINEER
WIT .         JIM                  : Witness      - WITNESSED BY
MUD .         GEL                  : Mud_type     - MUD TYPE
MATR.         SANDSTONE            : Logunit      - NEUTRON MATRIX
TMAX.C        23.8                 : BHT          - MAXIMUM RECORDED TEMPERATURE
BHTD.M        530                  : BHTDEP       - MAXIMUM RECORDED TEMPERATURE
MATR.         1                    : LOGUNIT      - NEUTRON MATRIX
RMT .C        25                   : MDTP         - TEMPERATURE OF MUD
NEUT.         1                    : NEUTRON      - NEUTRON TYPE
RESI.         0                    : RESIST       - RESISTIVITY TYPE
RMC .OHMM     5.7                  : RMC          - RESISTIVITY OF MUD CAKE
RMF .OHMM     6.6                  : RMF          - RESISTIVITY OF MUD FILTRATE
SUFT.C        15                   : SUFT         - SURFACE TEMPERATURE
~A  DEPTH       GR     PHIN     PHID     RESD
# ...
  387.000   56.490    0.446    0.340    1.360
  387.250   57.067    0.446    0.336    1.357
  387.500   58.262    0.444    0.333    1.357
  387.750   58.838    0.444    0.333    1.380
  388.000   59.394    0.445    0.329    1.405
  388.250   58.744    0.446    0.325    1.430
  388.500   58.095    0.448    0.326    1.428
  388.750   57.414    0.451    0.330    1.481
  389.000   56.743    0.454    0.333    1.508
  389.250   56.723    0.457    0.335    1.535
  389.500   59.752    0.464    0.336    1.592
  389.750   62.194    0.475    0.334    1.651
  390.000   64.625    0.486    0.330    1.680
  390.250   65.841    0.497    0.324    1.775
  390.500   63.913    0.506    0.325    1.807
  390.750   63.892    0.508    0.327    1.873
  391.000   66.932    0.485    0.322    1.907
  391.250   69.363    0.465    0.319    1.941
  391.500   72.424    0.462    0.324    1.940
  391.750   76.710    0.469    0.327    1.974
  392.000   79.142    0.512    0.326    2.009
  392.250   80.337    0.520    0.314    2.045
  392.500   80.914    0.529    0.303    2.081
  392.750   82.109    0.536    0.291    2.119
  393.000   83.922    0.530    0.282    2.116
  393.250   84.509    0.502    0.285    2.153
  393.500   85.075    0.485    0.287    2.152
  393.750   85.023    0.477    0.286    2.190
  394.000   84.373    0.478    0.288    2.229
  394.250   83.713    0.481    0.294    2.227
  394.500   82.414    0.487    0.298    2.266
  394.750   81.764    0.488    0.297    2.306
  395.000   80.476    0.493    0.294    2.392
  395.250   79.837    0.498    0.288    2.480
  395.500   77.940    0.496    0.287    2.573
  395.750   76.661    0.493    0.289    2.619
  396.000   77.238    0.487    0.291    2.715
  396.250   80.278    0.480    0.295    2.712
  396.500   83.328    0.471    0.299    2.761
  396.750   85.770    0.460    0.297    2.809
  397.000   88.191    0.460    0.290    2.807
  397.250   88.778    0.471    0.288    2.804
  397.500   88.726    0.496    0.290    2.800
  397.750   88.694    0.526    0.321    2.796
  398.000   86.169    0.544    0.328    2.795
  398.250   83.654    0.543    0.294    2.791
  398.500   81.757    0.474    0.274    2.787
  398.750   82.334    0.449    0.242    2.784
  399.000   84.766    0.474    0.257    2.729
  399.250   86.579    0.479    0.285    2.676
  399.500   87.166    0.486    0.290    2.624
  399.750   88.340    0.492    0.262    2.720
  400.000   88.309    0.524    0.262    2.820
  400.250   89.504    0.532    0.268    2.927
  400.500   90.070    0.542    0.277    3.036
  400.750   90.049    0.551    0.284    3.147
  401.000   89.368    0.548    0.289    3.263
  401.250   89.347    0.534    0.294    3.323
  401.500   88.058    0.524    0.298    3.319
  401.750   86.162    0.518    0.304    3.314
  402.000   85.502    0.543    0.310    3.312
  402.250   86.686    0.551    0.311    3.308
  402.500   87.892    0.571    0.310    3.305
  402.750   89.097    0.559    0.283    3.299
  403.000   90.889    0.536    0.271    3.296
  403.250   91.476    0.524    0.262    3.291
  403.500   92.053    0.492    0.259    3.288
  403.750   92.630    0.475    0.257    3.285
  404.000   93.196    0.474    0.256    3.220
  404.250   93.772    0.472    0.250    3.156
  404.500   93.741    0.471    0.248    3.036
  404.750   94.297    0.470    0.245    2.977
  405.000   94.255    0.471    0.239    2.864
  405.250   94.224    0.478    0.233    2.754
  405.500   94.182    0.482    0.231    2.701
  405.750   94.141    0.487    0.252    2.647
  406.000   94.728    0.494    0.280    2.644
  406.250   94.675    0.500    0.294    2.592
  406.500   95.263    0.503    0.303    2.791
  406.750   95.829    0.504    0.292    2.895
  407.000   95.797    0.507    0.271    2.947
  407.250   96.364    0.513    0.263    2.944
  407.500   97.559    0.549    0.275    2.996
  407.750   97.517    0.556    0.280    2.992
  408.000   98.094    0.548    0.252    2.989
  408.250   98.062    0.546    0.246    2.985
  408.500   98.629    0.548    0.245    2.982
  408.750   98.597    0.551    0.246    2.979
  409.000   99.792    0.553    0.248    2.976
  409.250  100.358    0.548    0.247    2.972
  409.500   99.080    0.539    0.254    2.914
  409.750   97.183    0.532    0.278    2.910
  410.000   94.040    0.526    0.284    2.852
  410.250   92.772    0.549    0.293    2.850
  410.500   90.246    0.555    0.298    2.794
  410.750   88.349    0.560    0.271    2.789
  411.000   85.206    0.510    0.265    2.735
  411.250   83.948    0.454    0.239    2.680
  411.500   81.433    0.465    0.244    2.679
  411.750   82.628    0.474    0.272    2.575
  412.000   85.060    0.474    0.275    2.573
  412.250   86.862    0.469    0.252    2.475
  412.500   86.810    0.465    0.252    2.426
  412.750   86.790    0.467    0.262    2.424
  413.000   85.490    0.494    0.268    2.376
  413.250   84.841    0.525    0.274    2.374
  413.500   83.562    0.535    0.281    2.415
  413.750   81.666    0.527    0.286    2.458
  414.000   80.377    0.501    0.289    2.503
  414.250   79.727    0.498    0.286    2.644
  414.500   79.696    0.497    0.283    2.692
  414.750   79.025    0.496    0.286    2.791
  415.000   77.757    0.493    0.290    2.841
  415.250   73.995    0.484    0.295    2.786
  415.500   68.389    0.474    0.296    2.730
  415.750   64.019    0.463    0.291    2.676
  416.000   58.412    0.458    0.256    2.575
  416.250   57.752    0.451    0.168    2.477
  416.500   71.303    0.440    0.140    2.339
  416.750   74.971    0.423    0.166    2.249
  417.000   79.258    0.402    0.191    2.124
  417.250   81.071    0.396    0.220    2.004
  417.500   80.422    0.438    0.278    1.966
  417.750   79.741    0.450    0.306    1.856
  418.000   78.473    0.464    0.283    1.819
  418.250   77.823    0.470    0.276    1.783
  418.500   75.916    0.479    0.280    1.747
  418.750   73.401    0.479    0.291    1.747
  419.000   72.123    0.475    0.297    1.880
  419.250   70.216    0.474    0.309    2.024
  419.500   68.319    0.473    0.322    2.100
  419.750   69.514    0.470    0.320    2.220
  420.000   70.111    0.466    0.315    2.389
  420.250   71.306    0.462    0.317    2.478
  420.500   73.109    0.460    0.319    2.523
  420.750   74.922    0.466    0.319    2.520
  421.000   76.746    0.472    0.313    2.516
  421.250   80.394    0.466    0.308    2.467
  421.500   81.609    0.454    0.295    2.419
  421.750   85.267    0.454    0.276    2.328
  422.000   87.699    0.457    0.265    2.282
  422.250   88.894    0.458    0.261    2.194
  422.500   86.987    0.451    0.254    2.111
  422.750   86.337    0.453    0.256    2.108
  423.000   85.048    0.453    0.256    2.067
  423.250   85.017    0.482    0.256    2.064
  423.500   84.975    0.514    0.262    2.062
  423.750   84.934    0.520    0.267    2.060
  424.000   84.892    0.535    0.274    2.096
  424.250   84.850    0.548    0.286    2.095
  424.500   84.798    0.558    0.300    2.131
  424.750   85.385    0.569    0.313    2.170
  425.000   85.972    0.577    0.312    2.250
  425.250   86.549    0.576    0.288    2.291
  425.500   87.115    0.569    0.284    2.467
  425.750   88.289    0.559    0.278    2.656
  426.000   88.876    0.549    0.282    2.914
  426.250   88.206    0.548    0.286    3.080
  426.500   87.556    0.551    0.293    3.315
  426.750   85.659    0.554    0.297    3.503
  427.000   84.391    0.551    0.304    3.501
  427.250   81.248    0.549    0.310    3.497
  427.500   79.361    0.542    0.314    3.365
  427.750   77.465    0.539    0.318    3.177
  428.000   74.939    0.538    0.327    2.835
  428.250   73.661    0.529    0.341    2.390
  428.500   73.001    0.495    0.360    2.054
  428.750   72.351    0.436    0.377    1.868
  429.000   71.052    0.379    0.397    1.605
  429.250   70.402    0.341    0.409    1.487
  429.500   69.114    0.328    0.427    1.458
  429.750   68.464    0.336    0.438    1.376
  430.000   67.186    0.351    0.427    1.324
  430.250   65.897    0.372    0.414    1.298
