~VERSION INFORMATION
 VERS.                 2.0:   CWLS LOG ASCII STANDARD -VERSION 2.0
 WRAP.                  NO:   ONE LINE PER DEPTH STEP
~WELL INFORMATION BLOCK
#MNEM.UNIT           DATA                    DESCRIPTION OF MNEMONIC
#---------    -------------------            -------------------------------
# Generated from Intellog Unique Number	CC_80_83/WELL/2329
NULL.         -999.25                        : NULL_VALUE
WELL.         HOMESTEAD ET AL COWPAR         : Well_name    - WELL
LOC .         10-02-082-05W4                 : Location     - LOCATION          
UWI .         00/10-02-082-05W4/0            : Uwi          - UNIQUE WELL ID    
ENTR.         DW                             : Entered      - ENTERED BY        
DATE.         18 FEB 75                      : Date         - LOG DATE
SRVC.         SCHLUMBERGER                   : Scn          - SERVICE COMPANY   
STRT.M        60.96                          : top_depth    - START DEPTH       
STOP.M        268.222                        : bot_depth    - STOP DEPTH        
STEP.M        0.3048                         : increment    - STEP LENGTH       
~CURVE INFORMATION BLOCK
#MNEM UNIT       ERCB CURVE CODE    CURVE DESCRIPTION
#-----------   ------------------   ----------------------------------
DEPT.M        00 001 00 00         : DEPTH        - DEPTH                       
DPHI.V/V      00 890 00 00         : PHID         - DENSITY POROSITY (LIMESTONE)
NPHI.V/V      00 330 00 00         : PHIN         - NEUTRON POROSITY (LIMESTONE)
GR  .API      00 310 00 00         : GR           - GAMMA RAY                   
ILD .OHMM     00 120 00 00         : RESD         - DEEP RESISTIVITY (DIL)      
~PARAMETER INFORMATION       
#MNEM.UNIT           DATA             DESCRIPTION OF MNEMONIC
#---------         -----------     ------------------------------
GL  .M        455.981              : gl           - GROUND LEVEL ELEVATION      
EREF.M        459.638              : kb           - ELEVATION OF DEPTH REFERENCE
DATM.M        459.638              : datum        - DATUM ELEVATION             
TDD .M        282.55               : tdd          - TOTAL DEPTH DRILLER         
RUN .         ONE                  : Run          - RUN NUMBER                  
ENG .         BILL                 : Engineer     - RECORDING ENGINEER          
WIT .         JIM                  : Witness      - WITNESSED BY                
MUD .         GEL                  : Mud_type     - MUD TYPE                    
MATR.         LIMESTONE            : Logunit      - NEUTRON MATRIX              
TMAX.C        19.4444              : BHT          - MAXIMUM RECORDED TEMPERATURE
BHTD.M        282.55               : BHTDEP       - MAXIMUM RECORDED TEMPERATURE
MATR.         1                    : LOGUNIT      - NEUTRON MATRIX              
RMT .C        25                   : MDTP         - TEMPERATURE OF MUD          
NEUT.         1                    : NEUTRON      - NEUTRON TYPE                
RESI.         0                    : RESIST       - RESISTIVITY TYPE            
RMC .OHMM     0.25                 : RMC          - RESISTIVITY OF MUD CAKE     
RMF .OHMM     0.25                 : RMF          - RESISTIVITY OF MUD FILTRATE 
SUFT.C        15                   : SUFT         - SURFACE TEMPERATURE         
~A  DEPTH     PHID     PHIN       GR     RESD
# ...
  220.064    0.227    0.349   92.979    3.822
  220.369    0.188    0.367   86.180    4.701
  220.674    0.232    0.386   83.704    5.068
  220.979    0.305    0.436   85.550    5.068
  221.283    0.226    0.441   92.952    4.881
  221.588    0.187    0.405   94.800    4.700
  221.893    0.161    0.412   93.557    4.527
  222.198    0.183    0.441   92.316    4.527
  222.503    0.172    0.441   92.310    4.612
  222.807    0.173    0.444   86.746    3.821
  223.112    0.213    0.435   82.418    3.106
  223.417    0.212    0.373   87.351    2.936
  223.722    0.173    0.407   90.433    3.106
  224.027    0.245    0.435   97.836    3.477
  224.331    0.205    0.449  101.532    4.119
  224.636    0.168    0.417  100.291    4.526
  224.941    0.157    0.403   98.433    4.699
  225.246    0.173    0.414   95.956    4.699
  225.551    0.152    0.430   92.863    4.525
  225.855    0.148    0.417   85.449    3.477
  226.160    0.181    0.449   71.242    2.014
  226.465    0.224    0.447   40.365    1.700
  226.770    0.272    0.369   49.000    1.490
  227.075    0.270    0.364   50.848    1.382
  227.379    0.277    0.389   35.406    1.282
  227.684    0.314    0.417   31.077    1.258
  227.989    0.307    0.401   32.922    1.211
  228.294    0.294    0.397   34.152    1.189
  228.599    0.288    0.381   34.146    1.189
  228.903    0.289    0.401   34.138    1.167
  229.208    0.313    0.425   35.985    1.145
  229.513    0.323    0.413   33.507    1.167
  229.818    0.313    0.410   33.502    1.234
  230.122    0.310    0.405   40.287    1.382
  230.427    0.303    0.390   46.455    1.547
  230.732    0.287    0.379   47.683    1.547
  231.037    0.252    0.418   45.825    1.435
  231.342    0.305    0.453   41.496    1.331
  231.646    0.312    0.418   37.786    1.281
  231.951    0.317    0.418   33.457    1.234
  232.256    0.331    0.394   31.599    1.188
  232.561    0.320    0.371   29.740    1.188
  232.866    0.315    0.387   33.438    1.211
  233.170    0.313    0.424   39.607    1.211
  233.475    0.315    0.442   46.391    1.211
  233.780    0.333    0.468   46.384    1.188
  234.085    0.329    0.426   37.118    1.166
  234.390    0.334    0.409   29.084    1.144
  234.694    0.335    0.391   30.310    1.144
  234.999    0.311    0.393   31.541    1.144
  235.304    0.295    0.394   32.769    1.144
  235.609    0.281    0.382   31.528    1.144
  235.914    0.297    0.380   34.610    1.144
  236.218    0.309    0.386   40.160    1.166
  236.523    0.311    0.393   41.386    1.211
  236.828    0.308    0.401   40.144    1.281
  237.133    0.311    0.419   40.140    1.330
  237.438    0.300    0.426   41.368    1.330
  237.742    0.313    0.431   40.127    1.305
  238.047    0.322    0.419   35.799    1.281
  238.352    0.314    0.401   38.262    1.233
  238.657    0.297    0.392   41.960    1.210
  238.962    0.292    0.383   43.188    1.210
  239.266    0.292    0.407   40.095    1.233
  239.571    0.293    0.403   39.472    1.257
  239.876    0.293    0.380   45.023    1.330
  240.181    0.291    0.374   54.277    1.575
  240.485    0.281    0.367   64.150    1.797
  240.790    0.232    0.383   68.466    1.937
  241.095    0.227    0.424   66.607    1.901
  241.400    0.276    0.404   57.339    1.763
  241.705    0.274    0.411   43.132    1.545
  242.009    0.328    0.396   38.185    1.380
  242.314    0.308    0.403   38.797    1.233
  242.619    0.302    0.404   36.938    1.187
  242.924    0.310    0.396   37.550    1.165
  243.229    0.313    0.411   41.247    1.165
  243.533    0.310    0.420   40.622    1.187
  243.838    0.297    0.433   38.764    1.187
  244.143    0.292    0.441   35.053    1.187
  244.448    0.329    0.424   31.960    1.165
  244.753    0.335    0.402   33.189    1.165
  245.057    0.322    0.391   36.887    1.187
  245.362    0.310    0.395   36.880    1.187
  245.667    0.294    0.408   35.020    1.210
  245.972    0.276    0.403   33.161    1.187
  246.277    0.307    0.411   31.303    1.165
  246.581    0.332    0.423   28.828    1.143
  246.886    0.311    0.427   25.116    1.101
  247.191    0.307    0.401   23.259    1.080
  247.496    0.307    0.389   22.019    1.060
  247.801    0.304    0.392   31.890    1.122
  248.105    0.294    0.402   38.676    1.187
  248.410    0.312    0.429   39.904    1.280
  248.715    0.350    0.490   31.253    1.304
  249.020    0.327    0.461   26.926    1.232
  249.325    0.311    0.411   32.475    1.187
  249.629    0.321    0.421   29.999    1.164
  249.934    0.317    0.387   28.756    1.209
  250.239    0.261    0.378   29.370    1.232
  250.544    0.273    0.415   33.068    1.279
  250.848    0.295    0.426   35.531    1.279
  251.153    0.322    0.442   33.671    1.279
  251.458    0.327    0.466   32.431    1.232
  251.763    0.326    0.432   29.956    1.186
  252.068    0.314    0.395   29.947    1.164
  252.372    0.304    0.423   31.175    1.142
  252.677    0.299    0.416   30.552    1.121
  252.982    0.298    0.411   32.398    1.080
  253.287    0.315    0.412   31.157    1.080
  253.592    0.340    0.418   29.916    1.080
  253.896    0.326    0.431   34.233    1.080
  254.201    0.311    0.429   30.521    1.100
  254.506    0.328    0.401   34.837    1.100
  254.811    0.290    0.401   42.239    1.142
  255.116    0.279    0.417   36.057    1.142
  255.420    0.320    0.438   34.815    1.142
  255.725    0.331    0.446   36.043    1.121
  256.030    0.327    0.434   37.891    1.100
  256.335    0.315    0.451   39.120    1.059
  256.640    0.308    0.414   37.260    1.039
  256.944    0.310    0.406   36.021    1.020
  257.249    0.303    0.412   34.778    1.020
  257.554    0.303    0.421   36.007    1.020
  257.859    0.322    0.412   37.854    1.020
  258.164    0.317    0.384   42.168    1.020
  258.468    0.303    0.389   48.337    1.039
  258.773    0.308    0.401   59.444    1.163
  259.078    0.292    0.364   83.517    1.404
  259.383    0.236    0.378  125.494    1.633
  259.688    0.223    0.504  131.044    2.248
  259.993    0.226    0.541  136.596    2.926
  260.297    0.161    0.510  137.823    3.954
  260.602    0.170    0.527  133.493    4.184
  260.907    0.149    0.511  127.932    4.344
  261.212    0.156    0.496  119.282    4.596
  261.517    0.120    0.459  113.718    4.955
  261.821    0.088    0.409  120.503    5.049
  262.126    0.166    0.384  113.707    5.145
  262.431    0.202    0.491  103.821    5.342
  262.736    0.336    0.495   92.084    5.243
  263.041    0.346    0.404   65.529    3.598
  263.345    0.222    0.369   50.705    2.164
  263.650    0.261    0.356   49.463    1.862
  263.955    0.244    0.344   59.335    1.827
  264.260    0.186    0.330   72.912    2.124
  264.565    0.135    0.303   91.428    2.564
  264.869    0.090    0.280  101.300    3.597
  265.174    0.080    0.276  107.469    5.048
  265.479    0.095    0.336  117.958    6.093
  265.784    0.081    0.430  131.535    5.868
  266.089    0.084    0.455  145.729    5.546
  266.394    0.094    0.455  143.870    5.442
  266.698    0.062    0.489  128.429    5.442
  267.003    0.000    0.383   77.794    6.092
  267.308    0.000    0.319   67.291    7.494
  267.613    0.000    0.266   63.580    9.392
  267.918    0.000    0.223   65.425   12.934
  268.222    0.000    0.218   67.273   14.480
