~VERSION INFORMATION
 VERS.                 2.0:   CWLS LOG ASCII STANDARD -VERSION 2.0
 WRAP.                  NO:   ONE LINE PER DEPTH STEP
~WELL INFORMATION BLOCK
#MNEM.UNIT           DATA                    DESCRIPTION OF MNEMONIC
#---------    -------------------            -------------------------------
# Generated from Intellog Unique Number	CW_73_75/WELL/994
LOC .         00/10-27-075-01W5/0            : Location     - LOCATION
UWI .         00/10-27-075-01W5/0            : Uwi          - UNIQUE WELL ID
ENTR.         JAYE                           : Entered      - ENTERED BY
SRVC.         SCHLUMBERGER                   : Scn          - SERVICE COMPANY
DATE.         5 JAN 76                       : Date         - LOG DATE
STRT.M        548.64                         : top_depth    - START DEPTH
STOP.M        749.89                         : bot_depth    - STOP DEPTH
STEP.M        0.25                           : increment    - STEP LENGTH
 NULL. -999.2500:NULL Value
~CURVE INFORMATION BLOCK
#MNEM UNIT       ERCB CURVE CODE    CURVE DESCRIPTION
#-----------   ------------------   ----------------------------------
DEPT.M        00 001 00 00         : DEPTH        - DEPTH
ILD .OHMM     00 120 00 00         : RESD         - DEEP RESISTIVITY (DIL)
NPHI.V/V      00 330 00 00         : PHIN         - NEUTRON POROSITY (SANDSTONE)
DPHI.V/V      00 890 00 00         : PHID         - DENSITY POROSITY (SANDSTONE)
GR  .API      00 310 00 00         : GR           - GAMMA RAY
CALI.MM       00 280 01 00         : CAL          - CALIPER
~PARAMETER INFORMATION
#MNEM.UNIT           DATA             DESCRIPTION OF MNEMONIC
#---------         -----------     ------------------------------
GL  .M        826.465              : gl           - GROUND LEVEL ELEVATION
EREF.M        830.58               : kb           - ELEVATION OF DEPTH REFERENCE
DATM.M        826.465              : datum        - DATUM ELEVATION
TDD .M        0                    : tdd          - TOTAL DEPTH DRILLER
RUN .         ONE                  : Run          - RUN NUMBER
MATR.         SANDSTONE            : Logunit      - NEUTRON MATRIX
TMAX.C        -17.7778             : BHT          - MAXIMUM RECORDED TEMPERATURE
BHTD.M        0                    : BHTDEP       - MAXIMUM RECORDED TEMPERATURE
RMT .C        -17.7778             : MDTP         - TEMPERATURE OF MUD
MUDD.KG/M     0                    : MWT          - MUD DENSITY
NEUT.         1                    : NEUTRON      - NEUTRON TYPE
RESI.         0                    : RESIST       - RESISTIVITY TYPE
RM  .OHMM     0                    : RM           - RESISTIVITY OF MUD
RMC .OHMM     0                    : RMC          - RESISTIVITY OF MUD CAKE
RMF .OHMM     0                    : RMF          - RESISTIVITY OF MUD FILTRATE
SUFT.C        -17.7778             : SUFT         - SURFACE TEMPERATURE
~A  DEPTH     RESD     PHIN     PHID       GR      CAL
# ...
  585.140    5.896    0.450    0.153   76.834  221.774
  585.390    6.436    0.414    0.145   67.736  218.834
  585.640    7.077    0.379    0.172   56.937  214.971
  585.890    7.314    0.393    0.192   55.572  213.780
  586.140    7.189    0.401    0.192   54.809  213.327
  586.390    6.901    0.392    0.186   55.080  213.053
  586.640    5.945    0.403    0.204   56.812  212.899
  586.890    5.363    0.425    0.212   59.820  212.129
  587.140    5.441    0.428    0.219   62.283  211.451
  587.390    5.589    0.426    0.214   61.764  210.470
  587.640    5.882    0.410    0.208   56.928  210.214
  587.890    6.143    0.407    0.198   57.994  214.485
  588.140    6.487    0.425    0.189   61.792  217.625
  588.390    7.005    0.428    0.194   61.883  217.265
  588.640    7.369    0.396    0.183   62.034  217.319
  588.890    7.572    0.377    0.191   60.358  217.260
  589.140    7.060    0.374    0.206   59.961  217.411
  589.390    6.320    0.420    0.204   64.005  217.465
  589.640    5.806    0.445    0.208   68.232  217.922
  589.890    5.554    0.468    0.234   67.167  217.556
  590.140    5.481    0.487    0.289   62.693  216.896
  590.390    5.580    0.514    0.344   57.494  216.735
  590.640    5.786    0.538    0.409   53.142  215.850
  590.890    6.133    0.499    0.386   49.154  214.355
  591.140    6.683    0.473    0.332   49.183  215.542
  591.390    7.201    0.461    0.354   45.258  217.547
  591.640    7.690    0.450    0.297   42.854  220.173
  591.890    8.091    0.461    0.281   45.199  221.457
  592.140    8.177    0.454    0.305   46.379  222.536
  592.390    7.070    0.440    0.293   46.776  222.174
  592.640    5.937    0.421    0.269   46.015  221.296
  592.890    5.190    0.413    0.261   48.414  221.035
  593.140    4.622    0.408    0.277   48.504  220.670
  593.390    4.123    0.420    0.289   47.620  220.724
  593.640    3.760    0.460    0.286   46.919  221.289
  593.890    3.935    0.467    0.309   47.983  221.951
  594.140    4.240    0.427    0.296   48.317  222.520
  594.390    4.672    0.405    0.284   45.976  223.083
  594.640    4.889    0.396    0.268   44.483  223.342
  594.890    4.923    0.384    0.253   44.451  223.385
  595.140    4.885    0.383    0.235   42.593  223.751
  595.390    4.811    0.382    0.244   41.101  223.795
  595.640    4.792    0.382    0.259   42.043  223.533
  595.890    4.853    0.387    0.265   43.533  223.279
  596.140    4.913    0.399    0.261   43.687  223.119
  596.390    4.964    0.387    0.265   43.287  223.273
  596.640    5.081    0.379    0.257   43.863  223.731
  596.890    5.241    0.395    0.259   45.049  224.093
  597.140    5.404    0.407    0.257   46.172  224.146
  597.390    5.543    0.425    0.244   45.653  224.195
  597.640    5.684    0.426    0.239   44.223  224.240
  597.890    5.882    0.409    0.230   42.186  224.294
  598.140    6.134    0.395    0.221   40.571  224.340
  598.390    6.221    0.390    0.218   40.233  223.973
  598.640    6.006    0.394    0.212   41.298  224.438
  598.890    5.579    0.402    0.224   43.394  224.900
  599.140    5.202    0.402    0.221   47.136  225.362
  599.390    4.974    0.401    0.235   51.667  225.409
  599.640    4.749    0.419    0.219   57.291  225.455
  599.890    4.662    0.428    0.237   63.100  225.609
  600.140    4.719    0.414    0.236   63.799  224.835
  600.390    4.814    0.425    0.213   63.584  220.044
  600.640    4.920    0.441    0.186   63.857  213.188
  600.890    5.044    0.463    0.171   63.950  214.375
  601.140    5.230    0.488    0.198   64.837  216.896
  601.390    5.414    0.496    0.268   65.953  219.311
  601.640    5.542    0.425    0.253   69.630  215.552
  601.890    5.641    0.396    0.223   69.482  214.364
  602.140    5.722    0.405    0.211   68.964  216.884
  602.390    5.925    0.424    0.206   68.626  219.303
  602.640    6.086    0.437    0.197   68.898  220.794
  602.890    6.219    0.449    0.197   70.142  219.817
  603.140    6.273    0.438    0.167   68.955  218.008
  603.390    6.202    0.430    0.140   66.674  217.544
  603.640    6.187    0.447    0.131   67.253  218.005
  603.890    6.334    0.420    0.149   67.947  218.260
  604.140    6.788    0.408    0.172   68.528  217.079
  604.390    7.409    0.405    0.176   67.458  217.025
  604.640    8.328    0.393    0.173   62.864  217.175
  604.890    9.946    0.351    0.138   57.663  216.918
  605.140   11.577    0.323    0.094   54.528  216.858
  605.390   11.807    0.322    0.079   52.978  216.916
  605.640   11.463    0.354    0.102   55.133  217.060
  605.890   10.784    0.378    0.140   62.036  217.935
  606.140    9.393    0.359    0.166   58.233  218.192
  606.390    8.242    0.331    0.141   53.699  218.238
  606.640    7.572    0.347    0.132   54.944  217.980
  606.890    7.203    0.417    0.195   60.874  218.854
  607.140    6.954    0.509    0.297   63.340  218.900
  607.390    7.634    0.545    0.327   59.291  217.514
  607.640    8.547    0.390    0.353   54.090  217.558
  607.890    9.643    0.365    0.251   50.162  218.744
  608.140   10.507    0.344    0.253   47.395  220.440
  608.390   11.407    0.366    0.265   48.700  222.243
  608.640   12.316    0.386    0.262   49.460  223.423
  608.890   13.320    0.395    0.275   47.968  223.887
  609.140   14.145    0.386    0.261   49.761  223.832
  609.390   14.721    0.380    0.256   49.243  223.985
  609.640   15.044    0.392    0.257   46.838  224.031
  609.890   14.953    0.401    0.257   48.453  224.086
  610.140   14.383    0.397    0.255   50.181  223.826
  610.390   13.212    0.417    0.262   52.644  223.667
  610.640   10.871    0.417    0.263   56.083  224.024
  610.890    9.230    0.490    0.280   60.246  225.207
  611.140    8.129    0.455    0.278   65.996  227.421
  611.390    7.454    0.444    0.264   70.037  227.780
  611.640    7.844    0.434    0.231   68.668  226.695
  611.890    8.673    0.422    0.178   64.986  226.027
  612.140    9.803    0.403    0.183   60.391  224.943
  612.390   11.368    0.372    0.154   58.110  224.163
  612.640   13.161    0.362    0.126   57.894  223.595
  612.890   14.684    0.361    0.123   56.524  223.332
  613.140   16.356    0.353    0.115   54.913  223.282
  613.390   15.333    0.339    0.105   52.325  223.541
  613.640   13.331    0.323    0.098   56.675  223.377
  613.890   10.811    0.367    0.094   60.778  223.433
  614.140    9.228    0.399    0.131   66.041  223.686
  614.390    8.247    0.424    0.168   68.870  224.044
  614.640    8.229    0.426    0.163   68.044  224.609
  614.890    8.472    0.400    0.147   64.302  225.479
  615.140    8.607    0.374    0.108   61.475  226.768
  615.390    8.510    0.370    0.123   65.336  227.643
  615.640    8.156    0.367    0.138   69.560  228.102
  615.890    7.871    0.368    0.112   76.221  228.666
  616.140    7.434    0.391    0.114   79.047  229.335
  616.390    7.020    0.422    0.130   78.712  230.310
  616.640    6.764    0.407    0.122   78.680  230.255
  616.890    6.601    0.404    0.125   79.808  227.419
  617.140    6.503    0.409    0.124   82.024  224.687
  617.390    6.464    0.400    0.129   83.697  225.972
  617.640    6.461    0.416    0.124   83.907  227.674
  617.890    6.555    0.410    0.149   76.819  228.441
  618.140    6.660    0.395    0.138   74.659  228.703
  618.390    6.818    0.403    0.130   73.898  228.642
  618.640    7.005    0.410    0.115   74.533  228.489
  618.890    7.171    0.385    0.118   76.266  228.122
  619.140    7.207    0.359    0.097   76.053  227.455
  619.390    6.958    0.335    0.087   77.176  228.221
  619.640    6.716    0.368    0.077   79.760  233.217
  619.890    6.495    0.382    0.101   79.791  236.565
  620.140    6.444    0.382    0.138   79.029  237.437
  620.390    6.418    0.387    0.132   79.119  231.305
  620.640    6.427    0.398    0.131   78.539  228.264
  620.890    6.483    0.397    0.122   77.107  226.560
  621.140    6.552    0.391    0.115   73.790  224.552
  621.390    6.549    0.389    0.119   74.370  224.298
