~VERSION INFORMATION
 VERS.                 2.0:   CWLS LOG ASCII STANDARD -VERSION 2.0
 WRAP.                  NO:   ONE LINE PER DEPTH STEP
~WELL INFORMATION BLOCK
#MNEM.UNIT           DATA                    DESCRIPTION OF MNEMONIC
#---------    -------------------            -------------------------------
# Generated from Intellog Unique Number	CW_76_78/WELL/913
WELL.         PCP MARTEN HILLS 10-28-076     : Well_name    - WELL
LOC .         00/10-28-076-04W5/0            : Location     - LOCATION
UWI .         00/10-28-076-04W5/0            : Uwi          - UNIQUE WELL ID
ENTR.         JAYE                           : Entered      - ENTERED BY
SRVC.         SCHLUMBERGER                   : Scn          - SERVICE COMPANY
DATE.         18 FEB 74                      : Date         - LOG DATE
STRT.M        463.296                        : top_depth    - START DEPTH
STOP.M        704.046                        : bot_depth    - STOP DEPTH
STEP.M        0.25                           : increment    - STEP LENGTH
 NULL. -999.2500:NULL Value
~CURVE INFORMATION BLOCK
#MNEM UNIT       ERCB CURVE CODE    CURVE DESCRIPTION
#-----------   ------------------   ----------------------------------
DEPT.M        00 001 00 00         : DEPTH        - DEPTH
ILD .OHMM     00 120 00 00         : RESD         - DEEP RESISTIVITY (DIL)
NPHI.V/V      00 330 00 00         : PHIN         - NEUTRON POROSITY (SANDSTONE)
DPHI.V/V      00 890 00 00         : PHID         - DENSITY POROSITY (SANDSTONE)
GR  .API      00 310 00 00         : GR           - GAMMA RAY
CALI.MM       00 280 01 00         : CAL          - CALIPER
~PARAMETER INFORMATION
#MNEM.UNIT           DATA             DESCRIPTION OF MNEMONIC
#---------         -----------     ------------------------------
GL  .M        771.754              : gl           - GROUND LEVEL ELEVATION
EREF.M        775.716              : kb           - ELEVATION OF DEPTH REFERENCE
DATM.M        771.754              : datum        - DATUM ELEVATION
TDD .M        717.804              : tdd          - TOTAL DEPTH DRILLER
RUN .         ONE                  : Run          - RUN NUMBER
MATR.         SANDSTONE            : Logunit      - NEUTRON MATRIX
TMAX.C        31.6667              : BHT          - MAXIMUM RECORDED TEMPERATURE
BHTD.M        717.499              : BHTDEP       - MAXIMUM RECORDED TEMPERATURE
RMT .C        20                   : MDTP         - TEMPERATURE OF MUD
MUDD.KG/M     0                    : MWT          - MUD DENSITY
NEUT.         1                    : NEUTRON      - NEUTRON TYPE
RESI.         0                    : RESIST       - RESISTIVITY TYPE
RM  .OHMM     2.52                 : RM           - RESISTIVITY OF MUD
RMC .OHMM     0                    : RMC          - RESISTIVITY OF MUD CAKE
RMF .OHMM     2.67                 : RMF          - RESISTIVITY OF MUD FILTRATE
SUFT.C        -17.7778             : SUFT         - SURFACE TEMPERATURE
~A  DEPTH     RESD     PHIN     PHID       GR      CAL
# ...
  572.796    5.622    0.478    0.302   44.728  199.844
  573.046    5.781    0.471    0.307   44.456  200.234
  573.296    5.857    0.458    0.297   44.506  200.407
  573.546    5.902    0.480    0.300   45.123  200.383
  573.796    5.926    0.482    0.315   44.284  200.045
  574.046    5.927    0.461    0.316   43.200  200.218
  574.296    5.918    0.483    0.303   41.632  201.111
  574.546    5.877    0.498    0.309   42.331  202.325
  574.796    5.646    0.496    0.312   43.677  203.126
  575.046    5.355    0.495    0.323   45.268  203.627
  575.296    4.807    0.518    0.333   46.737  204.006
  575.546    4.291    0.535    0.343   47.436  204.177
  575.796    3.937    0.529    0.350   45.461  204.569
  576.046    3.667    0.514    0.359   45.107  204.641
  576.296    3.575    0.532    0.338   45.684  204.823
  576.546    3.550    0.529    0.333   46.627  205.097
  576.796    3.564    0.521    0.346   48.379  205.069
  577.046    3.578    0.524    0.338   50.333  205.351
  577.296    3.599    0.504    0.316   52.166  204.905
  577.546    3.626    0.499    0.283   54.201  197.971
  577.796    3.640    0.529    0.244   55.427  198.661
  578.046    3.569    0.564    0.216   56.248  205.135
  578.296    3.467    0.592    0.212   57.473  210.778
  578.546    3.386    0.591    0.223   59.306  212.304
  578.796    3.277    0.540    0.239   61.058  212.792
  579.046    3.206    0.525    0.239   58.477  213.179
  579.296    3.219    0.517    0.226   56.668  213.665
  579.546    3.299    0.511    0.227   56.834  216.816
  579.796    3.368    0.498    0.237   56.635  217.661
  580.046    3.407    0.475    0.236   57.247  217.884
  580.296    3.517    0.469    0.236   58.143  217.593
  580.546    3.658    0.512    0.201   58.957  217.302
  580.796    3.783    0.533    0.177   59.853  216.596
  581.046    3.862    0.522    0.233   59.979  215.889
  581.296    3.965    0.508    0.239   59.861  213.118
  581.546    4.085    0.497    0.236   58.892  211.796
  581.796    4.179    0.487    0.240   56.666  212.119
  582.046    4.242    0.464    0.248   55.981  212.965
  582.296    4.291    0.450    0.230   57.688  214.223
  582.546    4.333    0.460    0.221   58.988  214.861
  582.796    4.375    0.493    0.233   59.722  214.052
  583.046    4.385    0.529    0.243   60.415  212.208
  583.296    4.386    0.526    0.254   59.162  208.506
  583.546    4.380    0.507    0.268   56.856  207.594
  583.796    4.390    0.520    0.249   55.198  207.510
  584.046    4.424    0.514    0.249   53.580  208.146
  584.296    4.516    0.509    0.264   51.193  206.305
  584.546    4.714    0.528    0.300   48.035  203.841
  584.796    4.867    0.525    0.285   45.931  201.587
  585.046    4.932    0.529    0.278   46.786  201.398
  585.296    4.952    0.514    0.267   50.884  202.554
  585.546    4.890    0.499    0.247   53.239  203.810
  585.796    4.750    0.509    0.246   53.851  204.966
  586.046    4.752    0.508    0.252   54.706  205.189
  586.296    5.006    0.498    0.223   58.925  204.483
  586.546    5.197    0.478    0.227   62.294  203.676
  586.796    5.414    0.495    0.271   61.082  202.662
  587.046    5.610    0.493    0.282   58.208  202.265
  587.296    5.965    0.471    0.278   56.306  201.869
  587.546    6.330    0.461    0.275   55.175  201.578
  587.796    6.793    0.483    0.279   53.477  201.184
  588.046    7.170    0.487    0.284   50.846  200.991
  588.296    7.498    0.477    0.301   48.012  200.699
  588.546    7.769    0.491    0.318   46.760  200.617
  588.796    7.729    0.486    0.311   46.358  200.529
  589.046    7.590    0.478    0.293   47.294  200.757
  589.296    7.359    0.466    0.300   49.163  201.185
  589.546    7.029    0.450    0.297   51.356  201.306
  589.796    6.617    0.460    0.287   53.021  201.530
  590.046    6.297    0.459    0.282   53.309  200.928
  590.296    5.993    0.455    0.269   54.124  199.188
  590.546    5.853    0.451    0.267   55.911  197.760
  590.796    5.706    0.444    0.272   55.631  196.953
  591.046    5.646    0.473    0.279   52.717  196.968
  591.296    5.596    0.494    0.286   50.896  197.402
  591.546    5.495    0.492    0.298   50.009  198.140
  591.796    5.407    0.479    0.290   49.323  198.988
  592.046    5.291    0.475    0.299   48.314  199.313
  592.296    5.148    0.511    0.307   46.210  199.331
  592.546    5.019    0.498    0.300   45.808  199.454
  592.796    4.848    0.474    0.307   47.718  199.367
  593.046    4.700    0.471    0.299   45.249  199.076
  593.296    4.539    0.431    0.305   44.928  198.678
  593.546    4.401    0.436    0.310   46.027  198.490
  593.796    4.298    0.473    0.308   47.003  198.612
  594.046    4.237    0.490    0.295   48.669  198.526
  594.296    4.230    0.470    0.291   49.889  198.336
  594.546    4.295    0.446    0.290   52.001  197.840
  594.796    4.337    0.430    0.284   54.721  197.548
  595.046    4.371    0.437    0.293   57.603  197.875
  595.296    4.388    0.486    0.297   56.431  198.925
  595.546    4.390    0.485    0.291   51.409  200.597
  595.796    4.344    0.437    0.271   47.481  202.165
  596.046    4.353    0.419    0.284   44.971  203.734
  596.296    4.883    0.387    0.241   42.219  204.576
  596.546    5.622    0.249    0.174   39.426  205.112
  596.796    6.929    0.156    0.058   35.539  205.648
  597.046    9.144    0.130    0.003   32.786  205.972
  597.296   12.479    0.130   -0.016   33.560  206.611
  597.546   14.204    0.131   -0.017   33.929  207.248
  597.796   17.476    0.136   -0.016   33.892  207.783
  598.046   14.348    0.154   -0.002   32.883  207.804
  598.296   10.800    0.225    0.080   36.657  207.407
  598.546    7.091    0.273    0.124   39.863  206.702
  598.796    5.704    0.301    0.185   42.825  204.858
  599.046    4.806    0.456    0.291   46.721  200.847
  599.296    4.132    0.477    0.297   48.427  199.213
  599.546    3.847    0.478    0.306   49.039  199.126
  599.796    3.695    0.474    0.316   50.583  200.176
  600.046    3.649    0.495    0.315   52.046  201.745
  600.296    3.677    0.492    0.308   52.212  202.589
  600.546    3.775    0.485    0.306   52.824  203.128
  600.796    3.883    0.497    0.324   50.721  203.248
  601.046    4.016    0.498    0.331   48.617  203.263
  601.296    4.168    0.500    0.328   48.094  203.279
  601.546    4.343    0.512    0.326   48.543  203.299
  601.796    4.508    0.530    0.333   47.331  203.319
  602.046    5.095    0.517    0.333   47.011  203.333
  602.296    5.367    0.509    0.328   47.420  203.558
  602.546    5.146    0.499    0.331   48.235  203.988
  602.796    4.934    0.492    0.323   48.806  204.422
  603.046    4.661    0.498    0.304   49.053  204.542
  603.296    4.412    0.492    0.297   48.165  204.559
  603.546    4.137    0.469    0.311   48.818  202.820
  603.796    3.981    0.470    0.286   51.335  201.081
  604.046    3.896    0.503    0.292   50.812  204.302
  604.296    3.919    0.489    0.305   49.843  205.871
  604.546    3.971    0.474    0.298   49.644  206.406
  604.796    4.077    0.476    0.280   50.215  206.628
  605.046    4.255    0.436    0.263   51.111  208.095
  605.296    4.458    0.429    0.249   52.047  209.764
  605.546    4.645    0.450    0.225   52.537  210.092
  605.796    4.734    0.461    0.243   52.258  209.284
  606.046    4.762    0.447    0.269   51.086  208.270
  606.296    4.634    0.432    0.294   48.901  207.665
  606.546    4.459    0.417    0.280   48.297  207.373
  606.796    4.268    0.438    0.281   49.071  207.394
  607.046    4.099    0.475    0.267   50.129  207.307
  607.296    3.930    0.480    0.285   51.632  206.912
  607.546    3.768    0.482    0.299   50.299  206.514
  607.796    3.673    0.474    0.317   49.735  206.122
  608.046    3.608    0.451    0.289   51.401  206.347
  608.296    3.676    0.447    0.249   55.864  206.775
  608.546    3.760    0.469    0.248   55.705  207.415
  608.796    3.867    0.467    0.270   52.710  207.845
  609.046    3.978    0.459    0.275   51.173  208.279
