~VERSION INFORMATION
 VERS.                 2.0:   CWLS LOG ASCII STANDARD -VERSION 2.0
 WRAP.                  NO:   ONE LINE PER DEPTH STEP
~WELL INFORMATION BLOCK
#MNEM.UNIT           DATA                    DESCRIPTION OF MNEMONIC
#---------    -------------------            -------------------------------
# Generated from Intellog Unique Number	cxy/WELL/1154
WELL.         HB MISTEMAE                    : Well_name    - WELL
LOC .         00/10-27-079-01W5/0            : Location     - LOCATION
UWI .         00/10-27-079-01W5/0            : Uwi          - UNIQUE WELL ID
ENTR.         T                              : Entered      - ENTERED BY
SRVC.         SCHLUMBERGER                   : Scn          - SERVICE COMPANY
STRT.F        950                            : top_depth    - START DEPTH
STOP.F        1799.74                        : bot_depth    - STOP DEPTH
STEP.F        0.82                           : increment    - STEP LENGTH
 NULL. -999.2500:NULL Value
~CURVE INFORMATION BLOCK
#MNEM UNIT       ERCB CURVE CODE    CURVE DESCRIPTION
#-----------   ------------------   ----------------------------------
DEPT.F        00 001 00 00         : DEPTH        - DEPTH
CALI.IN       00 280 01 00         : CAL          - CALIPER
GR  .API      00 310 00 00         : GR           - GAMMA RAY
NPHI.V/V      00 330 00 00         : PHIN         - NEUTRON POROSITY (SANDSTONE)
ILD .OHMM     00 120 00 00         : RESD         - DEEP RESISTIVITY (DIL)
DPHI.V/V      00 890 00 00         : PHID         - DENSITY POROSITY (SANDSTONE)
~PARAMETER INFORMATION
#MNEM.UNIT           DATA             DESCRIPTION OF MNEMONIC
#---------         -----------     ------------------------------
GL  .F        1965                 : gl           - GROUND LEVEL ELEVATION
EREF.F        1978                 : kb           - ELEVATION OF DEPTH REFERENCE
DATM.F        1978                 : datum        - DATUM ELEVATION
TDD .F        1810                 : tdd          - TOTAL DEPTH DRILLER
RUN .         ONE                  : Run          - RUN NUMBER
ENG .         BILL                 : Engineer     - RECORDING ENGINEER
WIT .         JIM                  : Witness      - WITNESSED BY
MUD .         GEL                  : Mud_type     - MUD TYPE
MATR.         SANDSTONE            : Logunit      - NEUTRON MATRIX
TMAX.F        78                   : BHT          - MAXIMUM RECORDED TEMPERATURE
BHTD.F        1810                 : BHTDEP       - MAXIMUM RECORDED TEMPERATURE
MATR.         1                    : LOGUNIT      - NEUTRON MATRIX
RMT .F        77                   : MDTP         - TEMPERATURE OF MUD
NEUT.         1                    : NEUTRON      - NEUTRON TYPE
RESI.         5.67                 : RESIST       - RESISTIVITY TYPE
RMC .OHMM     5.67                 : RMC          - RESISTIVITY OF MUD CAKE
RMF .OHMM     5.67                 : RMF          - RESISTIVITY OF MUD FILTRATE
SUFT.F        4                    : SUFT         - SURFACE TEMPERATURE
~A  DEPTH      CAL       GR     PHIN     RESD     PHID
# ...
 1429.000    8.189   91.140    0.485   11.300    0.207
 1429.820    8.189   91.738    0.493   10.896    0.204
 1430.640    8.190   92.335    0.499   10.701    0.198
 1431.460    8.190   92.346    0.483   10.509    0.198
 1432.280    8.151   92.944    0.474   10.320    0.201
 1433.100    8.152   93.541    0.467   10.323    0.208
 1433.920    8.152   94.139    0.462   10.325    0.208
 1434.740    8.113   92.374    0.461   10.328    0.198
 1435.560    8.113   90.019    0.459   10.332    0.194
 1436.380    8.114   87.075    0.454   10.525    0.194
 1437.200    8.114   85.901    0.487   10.724    0.191
 1438.020    8.075   86.498    0.472   10.924    0.187
 1438.850    8.076   86.507    0.448   11.335    0.181
 1439.670    8.076   86.511    0.454   11.980    0.170
 1440.490    8.076   91.246    0.462   12.431    0.155
 1441.310    8.077   92.434    0.473   11.986    0.173
 1442.130    8.077   93.032    0.481   11.348    0.175
 1442.950    8.078   94.220    0.478   10.941    0.175
 1443.770    8.078   95.408    0.445   10.358    0.174
 1444.590    8.078   95.415    0.443    9.987    0.171
 1445.410    8.079   98.966    0.443    9.454    0.177
 1446.230    8.040   98.382    0.443    8.951    0.182
 1447.050    8.001   97.799    0.442    8.953    0.175
 1447.870    8.001   97.806    0.442    9.120    0.167
 1448.690    8.041   98.996    0.438    9.639    0.168
 1449.510    8.081   99.594    0.437    9.820    0.168
 1450.330    8.200   99.603    0.439    9.128    0.163
 1451.150    8.320   98.428    0.447    8.641    0.151
 1451.970    8.320   96.073    0.454    8.031    0.155
 1452.790    8.281   93.716    0.461    7.603    0.164
 1453.610    8.202   91.953    0.460    8.184    0.160
 1454.430    8.123   91.370    0.435    9.308    0.124
 1455.250    8.005   88.424    0.374   10.983    0.103
 1456.070    7.966   74.848    0.328   12.491    0.087
 1456.890    7.887   71.903    0.271   14.470    0.062
 1457.710    7.848   70.139    0.230   16.457    0.027
 1458.530    7.849   70.146    0.232   20.516    0.016
 1459.350    7.809   73.697    0.274   27.526    0.040
 1460.170    7.770   78.430    0.317   39.740    0.067
 1460.990    7.771   80.799    0.377   39.750    0.097
 1461.810    7.771   79.035    0.405   35.615    0.117
 1462.630    7.811   76.089    0.431   31.912    0.136
 1463.450    7.851   73.143    0.445   29.659    0.154
 1464.270    7.891   69.016    0.433   26.575    0.135
 1465.090    7.892   69.615    0.423   24.251    0.123
 1465.910    7.892   71.394    0.449   22.540    0.172
 1466.730    7.892   73.173    0.452   21.733    0.182
 1467.550    7.893   73.771    0.457   22.141    0.196
 1468.370    7.893   76.142    0.458   23.401    0.172
 1469.190    7.894   76.738    0.449   22.982    0.159
 1470.010    7.855   76.747    0.438   20.219    0.149
 1470.830    7.855   76.754    0.440   19.138    0.136
 1471.650    7.698   77.351    0.444   17.465    0.123
 1472.470    7.698   74.998    0.447   15.648    0.107
 1473.290    7.738   75.594    0.427   14.544    0.092
 1474.110    7.778   84.459    0.370   13.273    0.083
 1474.930    7.778   89.784    0.360   12.337    0.084
 1475.750    7.818   89.204    0.346   11.680    0.105
 1476.570    7.858   88.618    0.418   11.469    0.127
 1477.400    7.859   87.442    0.440   11.059    0.151
 1478.220    7.899   86.268    0.453   11.062    0.158
 1479.040    7.899   85.096    0.477   11.480    0.177
 1479.860    7.900   83.331    0.476   11.694    0.182
 1480.680    7.900   82.157    0.470   12.135    0.178
 1481.500    7.901   85.119    0.468   12.362    0.174
 1482.320    7.901   86.307    0.466   12.595    0.178
 1483.140    7.901   89.265    0.469   13.069    0.177
 1483.960    7.862   91.638    0.472   12.835    0.170
 1484.780    7.863   91.055    0.477   12.151    0.170
 1485.600    7.863   89.881    0.483   11.715    0.167
 1486.420    7.943   88.705    0.489   11.505    0.166
 1487.240    8.062   88.121    0.491   11.093    0.164
 1488.060    8.102   88.132    0.481   10.502    0.162
 1488.880    8.142   88.730    0.461   10.313    0.160
 1489.700    8.182   89.918    0.452   10.130    0.158
 1490.520    8.222   89.923    0.451   10.131    0.154
 1491.340    8.262   90.521    0.450   10.134    0.153
 1492.160    8.302   93.483    0.451   10.136    0.150
 1492.980    8.342   94.080    0.459    9.954    0.153
 1493.800    8.382   94.087    0.471    9.775    0.159
 1494.620    8.422   92.913    0.479    9.602    0.168
 1495.440    8.462   90.558    0.480    9.428    0.174
 1496.260    8.502   89.384    0.466    9.260    0.174
 1497.080    8.503   89.985    0.465    9.262    0.163
 1497.900    8.503   90.584    0.472    9.264    0.159
 1498.720    8.504   90.588    0.474    9.266    0.165
 1499.540    8.504   90.004    0.478    9.269    0.168
 1500.360    8.505   88.834    0.466    9.272    0.161
 1501.180    8.465   88.841    0.460    9.446    0.153
 1502.000    8.466   88.846    0.454    9.448    0.162
 1502.820    8.387   89.444    0.449    9.625    0.172
 1503.640    8.348   89.451    0.449    9.987    0.169
 1504.460    8.269   88.869    0.443   10.555    0.162
 1505.280    8.230   87.695    0.434   11.574    0.168
 1506.100    8.151   85.930    0.433   12.458    0.174
 1506.920    8.112   83.577    0.436   13.912    0.181
 1507.740    8.113   82.401    0.437   14.701    0.187
 1508.560    8.074   80.046    0.443   17.346    0.193
 1509.380    8.074   77.100    0.448   20.094    0.200
 1510.200    8.035   73.565    0.453   20.850    0.204
 1511.020    7.996   69.438    0.456   20.855    0.206
 1511.840    7.996   67.083    0.448   22.041    0.205
 1512.660    7.957   64.728    0.424   23.294    0.179
 1513.480    7.918   61.782    0.393   25.077    0.156
 1514.300    7.918   60.017    0.357   27.494    0.092
 1515.120    7.919   62.981    0.328   29.055    0.045
 1515.940    7.919   64.760    0.314   34.283    0.030
 1516.770    7.920   69.490    0.291   38.283    0.020
 1517.590    7.960   73.631    0.344   43.543    0.030
 1518.410    8.000   77.772    0.388   45.179    0.058
 1519.230    8.000   82.505    0.413   37.614    0.089
 1520.050    8.001   85.465    0.430   29.639    0.143
 1520.870    8.001   87.835    0.439   25.133    0.177
 1521.690    8.002   91.978    0.450   21.312    0.184
 1522.510    8.002   93.760    0.456   18.408    0.187
 1523.330    8.002   93.765    0.457   16.193    0.183
 1524.150    8.003   93.182    0.456   14.245    0.174
 1524.970    8.003   92.009    0.456   13.735    0.169
 1525.790    7.964   90.832    0.458   13.003    0.165
 1526.610    7.965   89.069    0.460   12.309    0.162
 1527.430    7.926   89.078    0.460   11.653    0.160
 1528.250    7.926   89.085    0.463   11.235    0.158
 1529.070    7.926   89.090    0.467   10.068    0.162
 1529.890    7.927   89.097    0.474    9.707    0.165
 1530.710    7.967   92.059    0.444    9.189    0.160
 1531.530    8.007   93.247    0.435    8.700    0.153
 1532.350    8.047   95.618    0.435    8.388    0.147
 1533.170    8.008   96.216    0.440    8.238    0.146
 1533.990    8.008   97.406    0.444    8.240    0.146
 1534.810    8.009   98.000    0.454    8.092    0.151
 1535.630    8.049  100.964    0.452    8.094    0.150
 1536.450    8.049  102.741    0.443    7.948    0.148
 1537.270    8.050  102.157    0.432    7.951    0.148
 1538.090    8.050   99.802    0.423    7.809    0.154
 1538.910    8.051   96.267    0.407    7.811    0.126
 1539.730    8.051   93.912    0.389    7.957    0.117
 1540.550    8.051   92.738    0.382    8.256    0.097
 1541.370    8.052   96.288    0.383    8.887    0.073
 1542.190    8.052  104.565    0.389    9.567    0.072
 1543.010    8.053  106.346    0.396    9.927    0.115
 1543.830    8.053  107.531    0.395   10.301    0.129
 1544.650    8.053  108.722    0.395   10.495    0.136
 1545.470    8.014  109.318    0.397   10.497    0.118
 1546.290    8.015  110.507    0.403   10.499    0.110
 1547.110    8.015  111.106    0.427   10.311    0.122
 1547.930    8.016  111.704    0.435    9.761    0.130
