~VERSION INFORMATION
 VERS.                 2.0:   CWLS LOG ASCII STANDARD -VERSION 2.0
 WRAP.                  NO:   ONE LINE PER DEPTH STEP
~WELL INFORMATION BLOCK
#MNEM.UNIT           DATA                    DESCRIPTION OF MNEMONIC
#---------    -------------------            -------------------------------
# Generated from Intellog Unique Number	CS_67_68/WELL/2192
WELL.         10-07-067-04W4                 : Well_name    - WELL
LOC .         00/10-07-067-04W4/0            : Location     - LOCATION
UWI .         00/10-07-067-04W4/0            : Uwi          - UNIQUE WELL ID
ENTR.         SP                             : Entered      - ENTERED BY
SRVC.         SCHLUMBERGER                   : Scn          - SERVICE COMPANY
STRT.M        355                            : top_depth    - START DEPTH
STOP.M        570                            : bot_depth    - STOP DEPTH
STEP.M        0.25                           : increment    - STEP LENGTH
 NULL. -999.2500:NULL Value
~CURVE INFORMATION BLOCK
#MNEM UNIT       ERCB CURVE CODE    CURVE DESCRIPTION
#-----------   ------------------   ----------------------------------
DEPT.M        00 001 00 00         : DEPTH        - DEPTH
ILD .OHMM     00 120 00 00         : RESD         - DEEP RESISTIVITY (DIL)
DPHI.V/V      00 890 00 00         : PHID         - DENSITY POROSITY (LIMESTONE)
NPHI.V/V      00 330 00 00         : PHIN         - NEUTRON POROSITY (LIMESTONE)
GR  .API      00 310 00 00         : GR           - GAMMA RAY
CALI.MM       00 280 01 00         : CAL          - CALIPER
~PARAMETER INFORMATION
#MNEM.UNIT           DATA             DESCRIPTION OF MNEMONIC
#---------         -----------     ------------------------------
GL  .M        682.01               : gl           - GROUND LEVEL ELEVATION
EREF.M        686.28               : kb           - ELEVATION OF DEPTH REFERENCE
DATM.M        686.8                : datum        - DATUM ELEVATION
TDD .M        580                  : tdd          - TOTAL DEPTH DRILLER
RUN .         ONE                  : Run          - RUN NUMBER
ENG .         BILL                 : Engineer     - RECORDING ENGINEER
WIT .         JIM                  : Witness      - WITNESSED BY
MUD .         GEL                  : Mud_type     - MUD TYPE
MATR.         LIMESTONE            : Logunit      - NEUTRON MATRIX
TMAX.C        22                   : BHT          - MAXIMUM RECORDED TEMPERATURE
BHTD.M        578.2                : BHTDEP       - MAXIMUM RECORDED TEMPERATURE
MATR.         1                    : LOGUNIT      - NEUTRON MATRIX
RMT .C        25                   : MDTP         - TEMPERATURE OF MUD
NEUT.         1                    : NEUTRON      - NEUTRON TYPE
RESI.         0                    : RESIST       - RESISTIVITY TYPE
RMC .OHMM     0.25                 : RMC          - RESISTIVITY OF MUD CAKE
RMF .OHMM     0.25                 : RMF          - RESISTIVITY OF MUD FILTRATE
SUFT.C        15                   : SUFT         - SURFACE TEMPERATURE
~A  DEPTH     RESD     PHID     PHIN       GR      CAL
# ...
  537.500    8.360    0.174    0.429   83.315  248.640
  537.750    8.770    0.191    0.417   77.752  248.361
  538.000    9.285    0.280    0.406   69.372  248.278
  538.250   10.134    0.319    0.396   62.275  248.299
  538.500   10.997    0.336    0.404   50.279  248.422
  538.750   12.162    0.347    0.397   40.856  249.568
  539.000   13.400    0.349    0.389   35.598  250.305
  539.250   14.432    0.328    0.383   33.529  250.735
  539.500   14.770    0.314    0.395   36.361  250.859
  539.750   14.200    0.329    0.394   36.190  249.758
  540.000   13.603    0.346    0.376   36.020  247.636
  540.250   13.103    0.324    0.354   39.403  245.921
  540.500   12.338    0.289    0.363   41.499  244.822
  540.750   11.145    0.283    0.381   40.287  244.331
  541.000   10.317    0.289    0.374   33.743  244.455
  541.250    9.533    0.275    0.361   38.292  245.500
  541.500    8.775    0.265    0.344   43.942  247.054
  541.750    7.972    0.257    0.371   50.940  248.812
  542.000    7.394    0.264    0.381   56.223  249.855
  542.250    6.716    0.275    0.373   57.340  249.978
  542.500    6.136    0.288    0.373   53.002  249.287
  542.750    5.680    0.303    0.360   49.400  248.797
  543.000    5.170    0.314    0.345   46.043  248.820
  543.250    4.914    0.310    0.356   45.445  248.841
  543.500    4.654    0.297    0.396   48.891  248.660
  543.750    4.424    0.314    0.393   50.923  248.477
  544.000    4.254    0.339    0.373   37.027  248.089
  544.250    4.144    0.346    0.352   29.626  248.425
  544.500    3.977    0.351    0.354   28.170  248.445
  544.750    3.795    0.364    0.356   27.814  248.062
  545.000    3.663    0.373    0.380   29.298  247.979
  545.250    3.595    0.366    0.402   29.924  247.895
  545.500    3.577    0.359    0.421   27.302  248.018
  545.750    3.585    0.355    0.380   24.987  248.252
  546.000    3.627    0.351    0.362   24.387  248.271
  546.250    3.629    0.348    0.388   24.710  248.392
  546.500    3.617    0.354    0.404   24.843  248.617
  546.750    3.605    0.364    0.395   24.856  248.745
  547.000    3.586    0.371    0.381   24.870  248.865
  547.250    3.587    0.378    0.389   24.944  248.889
  547.500    3.589    0.384    0.402   24.162  249.217
  547.750    3.591    0.371    0.394   22.827  249.750
  548.000    3.592    0.352    0.380   22.288  250.184
  548.250    3.587    0.341    0.369   23.895  250.516
  548.500    3.595    0.340    0.361   25.685  250.745
  548.750    3.652    0.339    0.359   26.616  250.768
  549.000    3.737    0.336    0.358   26.446  250.580
  549.250    3.868    0.329    0.360   26.705  250.396
  549.500    4.019    0.323    0.364   27.514  249.908
  549.750    4.097    0.320    0.359   28.385  249.517
  550.000    4.115    0.328    0.351   28.399  249.131
  550.250    4.101    0.329    0.345   26.635  248.437
  550.500    4.079    0.325    0.346   25.484  247.340
  550.750    4.027    0.323    0.354   26.170  247.052
  551.000    3.969    0.329    0.357   27.717  246.257
  551.250    3.940    0.327    0.351   29.813  245.257
  551.500    3.927    0.315    0.359   32.584  244.462
  551.750    3.966    0.307    0.364   34.863  244.076
  552.000    3.998    0.301    0.358   34.450  245.324
  552.250    4.069    0.321    0.373   31.888  247.185
  552.500    4.040    0.341    0.390   29.450  249.149
  552.750    3.966    0.351    0.402   27.747  251.212
  553.000    3.871    0.351    0.407   26.903  252.255
  553.250    3.800    0.349    0.404   29.981  252.788
  553.500    3.745    0.356    0.417   33.057  252.304
  553.750    3.746    0.364    0.433   35.460  252.117
  554.000    3.748    0.358    0.425   31.674  251.634
  554.250    3.749    0.350    0.364   28.747  251.651
  554.500    3.751    0.345    0.364   28.759  251.370
  554.750    3.788    0.346    0.368   30.059  250.982
  555.000    3.826    0.348    0.378   29.644  250.594
  555.250    3.828    0.345    0.373   28.556  250.107
  555.500    3.837    0.343    0.371   28.445  249.717
  555.750    3.867    0.340    0.384   28.641  249.433
  556.000    3.928    0.332    0.385   28.103  249.356
  556.250    3.990    0.327    0.367   27.074  249.275
  556.500    4.045    0.338    0.354   27.210  249.294
  556.750    4.115    0.348    0.350   28.390  249.320
  557.000    4.228    0.354    0.353   29.689  249.544
  557.250    4.352    0.303    0.355   32.091  249.873
  557.500    4.538    0.289    0.371   36.087  249.690
  557.750    4.689    0.303    0.360   32.425  249.715
  558.000    4.816    0.319    0.328   29.802  249.939
  558.250    4.883    0.304    0.338   30.673  250.574
  558.500    4.857    0.286    0.358   33.444  251.310
  558.750    4.787    0.291    0.380   36.276  251.639
  559.000    4.690    0.311    0.389   37.760  251.762
  559.250    4.604    0.323    0.383   37.469  246.372
  559.500    4.503    0.327    0.378   36.255  246.904
  559.750    4.403    0.334    0.377   32.531  247.438
  560.000    4.298    0.341    0.383   29.112  247.254
  560.250    4.220    0.350    0.385   26.428  248.308
  560.500    4.174    0.359    0.370   23.439  248.831
  560.750    4.176    0.330    0.336   31.480  249.579
  561.000    4.249    0.300    0.337   37.989  249.489
  561.250    4.390    0.288    0.353   43.026  248.800
  561.500    4.527    0.312    0.363   40.711  248.512
  561.750    4.641    0.340    0.368   37.109  247.414
  562.000    4.661    0.355    0.393   33.323  246.819
  562.250    4.628    0.366    0.418   32.539  246.331
  562.500    4.586    0.341    0.401   38.132  246.151
  562.750    4.485    0.304    0.362   43.230  247.191
  563.000    4.394    0.300    0.372   44.528  248.643
  563.250    4.347    0.338    0.358   35.535  249.891
  563.500    4.365    0.364    0.402   30.522  249.912
  563.750    4.375    0.385    0.435   27.104  250.042
  564.000    4.402    0.391    0.461   27.117  250.366
  564.250    4.429    0.380    0.438   26.211  249.876
  564.500    4.490    0.365    0.394   24.572  249.493
  564.750    4.569    0.321    0.366   23.602  249.619
  565.000    4.650    0.304    0.332   24.412  249.330
  565.250    4.696    0.317    0.330   28.226  247.820
  565.500    4.761    0.318    0.356   32.956  246.720
  565.750    4.781    0.299    0.346   34.564  245.106
  566.000    4.738    0.291    0.334   34.270  243.906
  566.250    4.722    0.293    0.345   38.573  243.212
  566.500    4.679    0.251    0.339   54.088  243.233
  566.750    4.844    0.244    0.344   73.281  243.561
  567.000    5.187    0.230    0.367   83.038  243.992
  567.250    5.726    0.218    0.376   87.217  241.869
  567.500    6.332    0.204    0.363   89.130  240.463
  567.750    6.846    0.195    0.375   90.001  239.464
  568.000    7.402    0.190    0.391   89.831  239.586
  568.250    8.154    0.196    0.396   41.558  240.120
  568.500   10.160    0.165    0.377   24.659  240.855
  568.750   12.540    0.140    0.217   18.361  243.329
  569.000   20.518    0.041    0.117   17.945  246.006
  569.250   30.025    0.026    0.105   18.020  248.684
  569.500   42.949    0.037    0.105   18.279  250.343
  569.750   55.054    0.027    0.110   18.353  250.056
  570.000   59.521    0.020    0.114   18.000  248.443
