~VERSION INFORMATION
 VERS.                 2.0:   CWLS LOG ASCII STANDARD -VERSION 2.0
 WRAP.                  NO:   ONE LINE PER DEPTH STEP
~WELL INFORMATION BLOCK
#MNEM.UNIT           DATA                    DESCRIPTION OF MNEMONIC
#---------    -------------------            -------------------------------
# Generated from Intellog Unique Number	CS_73_76/WELL/3274
WELL.         BOW VALLEY EXPLORATION         : Well_name    - WELL
LOC .         00/12-34-075-14W4/0            : Location     - LOCATION
UWI .         00/12-34-075-14W4/0            : Uwi          - UNIQUE WELL ID
ENTR.         SP                             : Entered      - ENTERED BY
SRVC.         SCHLUMBERGER                   : Scn          - SERVICE COMPANY
STRT.M        345                            : top_depth    - START DEPTH
STOP.M        585                            : bot_depth    - STOP DEPTH
STEP.M        0.25                           : increment    - STEP LENGTH
 NULL. -999.2500:NULL Value
~CURVE INFORMATION BLOCK
#MNEM UNIT       ERCB CURVE CODE    CURVE DESCRIPTION
#-----------   ------------------   ----------------------------------
DEPT.M        00 001 00 00         : DEPTH        - DEPTH
ILD .OHMM     00 120 00 00         : RESD         - DEEP RESISTIVITY (DIL)
NPHI.V/V      00 330 00 00         : PHIN         - NEUTRON POROSITY (LIMESTONE)
DPHI.V/V      00 890 00 00         : PHID         - DENSITY POROSITY (LIMESTONE)
GR  .API      00 310 00 00         : GR           - GAMMA RAY
~PARAMETER INFORMATION
#MNEM.UNIT           DATA             DESCRIPTION OF MNEMONIC
#---------         -----------     ------------------------------
GL  .M        720.2                : gl           - GROUND LEVEL ELEVATION
EREF.M        723.4                : kb           - ELEVATION OF DEPTH REFERENCE
DATM.M        720.2                : datum        - DATUM ELEVATION
TDD .M        595                  : tdd          - TOTAL DEPTH DRILLER
RUN .         ONE                  : Run          - RUN NUMBER
ENG .         BILL                 : Engineer     - RECORDING ENGINEER
WIT .         JIM                  : Witness      - WITNESSED BY
MUD .         GEL                  : Mud_type     - MUD TYPE
MATR.         LIMESTONE            : Logunit      - NEUTRON MATRIX
TMAX.C        17                   : BHT          - MAXIMUM RECORDED TEMPERATURE
BHTD.M        595                  : BHTDEP       - MAXIMUM RECORDED TEMPERATURE
MATR.         1                    : LOGUNIT      - NEUTRON MATRIX
RMT .C        25                   : MDTP         - TEMPERATURE OF MUD
NEUT.         1                    : NEUTRON      - NEUTRON TYPE
RESI.         0                    : RESIST       - RESISTIVITY TYPE
RMC .OHMM     0.25                 : RMC          - RESISTIVITY OF MUD CAKE
RMF .OHMM     0.25                 : RMF          - RESISTIVITY OF MUD FILTRATE
SUFT.C        15                   : SUFT         - SURFACE TEMPERATURE
~A  DEPTH     RESD     PHIN     PHID       GR
# ...
  519.000    4.120    0.475    0.179  113.278
  519.250    4.520    0.429    0.178  114.508
  519.500    5.051    0.448    0.176  114.533
  519.750    5.339    0.468    0.156  114.556
  520.000    5.749    0.468    0.130  113.365
  520.250    5.338    0.413    0.119  107.341
  520.500    4.519    0.404    0.166  112.816
  520.750    3.685    0.411    0.201  114.644
  521.000    3.359    0.426    0.186  118.907
  521.250    3.237    0.462    0.195  120.135
  521.500    3.237    0.478    0.179  119.554
  521.750    3.485    0.496    0.174  110.501
  522.000    3.684    0.486    0.167  103.267
  522.250    4.272    0.444    0.151   99.055
  522.500    4.954    0.440    0.135  100.295
  522.750    5.434    0.434    0.153   99.101
  523.000    6.186    0.371    0.162   91.867
  523.250    6.419    0.321    0.107   85.840
  523.500    6.419    0.389    0.098   96.145
  523.750    6.301    0.433    0.147  104.636
  524.000    6.071    0.466    0.182  110.708
  524.250    5.742    0.461    0.171  114.360
  524.500    5.533    0.453    0.161  112.568
  524.750    5.431    0.444    0.145  110.777
  525.000    5.431    0.455    0.167  111.408
  525.250    5.532    0.455    0.185  113.245
  525.500    5.635    0.445    0.181  115.693
  525.750    5.740    0.440    0.165  116.921
  526.000    5.740    0.429    0.145  118.758
  526.250    5.740    0.434    0.159  121.204
  526.500    5.739    0.432    0.171  122.428
  526.750    5.739    0.445    0.171  121.241
  527.000    5.633    0.452    0.152  114.611
  527.250    5.633    0.433    0.119  102.538
  527.500    5.954    0.412    0.133   98.929
  527.750    6.411    0.423    0.147  103.191
  528.000    6.904    0.414    0.165  105.630
  528.250    7.033    0.423    0.176  109.286
  528.500    7.297    0.435    0.171  111.729
  528.750    7.433    0.445    0.170  111.147
  529.000    7.572    0.449    0.181  108.751
  529.250    7.857    0.440    0.183  105.745
  529.500    8.305    0.431    0.172  105.164
  529.750    8.460    0.435    0.160  107.611
  530.000    8.778    0.438    0.171  107.629
  530.250    8.778    0.441    0.177  109.471
  530.500    8.777    0.451    0.169  109.485
  530.750    8.616    0.452    0.182  109.515
  531.000    7.709    0.443    0.177  109.531
  531.250    7.027    0.444    0.184  111.368
  531.500    6.646    0.455    0.189  114.417
  531.750    7.026    0.467    0.191  115.044
  532.000    8.774    0.470    0.208  110.228
  532.250   11.161    0.442    0.218   95.733
  532.500   10.557    0.420    0.187   95.151
  532.750    9.103    0.430    0.137  107.273
  533.000    8.145    0.431    0.171  121.816
  533.250    7.424    0.421    0.180  130.908
  533.500    7.022    0.415    0.170  133.349
  533.750    7.153    0.419    0.167  131.564
  534.000    8.933    0.427    0.174  129.774
  534.250   11.793    0.444    0.186  126.161
  534.500   15.282    0.451    0.179  112.272
  534.750   19.440    0.440    0.200   96.568
  535.000   23.393    0.408    0.226   89.332
  535.250   25.191    0.421    0.238   85.725
  535.500   25.189    0.426    0.260   88.168
  535.750   22.959    0.436    0.285   96.067
  536.000   21.319    0.426    0.264   99.713
  536.250   19.076    0.408    0.254  103.361
  536.500   17.713    0.399    0.235  105.200
  536.750   16.754    0.403    0.212  102.195
  537.000   15.847    0.381    0.213   99.199
  537.250   15.556    0.362    0.232   97.407
  537.500   15.846    0.356    0.213  102.271
  537.750   16.442    0.365    0.199  104.710
  538.000   17.061    0.369    0.208  101.103
  538.250   17.379    0.374    0.221   95.072
  538.500   17.703    0.386    0.232   92.070
  538.750   17.702    0.389    0.236   92.699
  539.000   17.057    0.389    0.216   95.141
  539.250   16.134    0.380    0.207   97.582
  539.500   15.546    0.361    0.213  102.445
  539.750   15.836    0.349    0.217  104.886
  540.000   18.026    0.337    0.220   99.470
  540.250   20.144    0.324    0.249   91.625
  540.500   21.691    0.313    0.275   81.972
  540.750   22.929    0.344    0.263   81.993
  541.000   24.237    0.375    0.226   83.834
  541.250   25.150    0.388    0.240   85.668
  541.500   26.097    0.395    0.254   83.275
  541.750   26.583    0.388    0.270   79.665
  542.000   24.230    0.381    0.279   74.848
  542.250   23.784    0.379    0.260   78.507
  542.500   26.577    0.370    0.232   79.127
  542.750   28.094    0.354    0.136   75.527
  543.000   24.224    0.319    0.118   73.729
  543.250   14.966    0.403    0.192   81.013
  543.500    8.428    0.425    0.233   97.369
  543.750    6.875    0.442    0.211  114.933
  544.000    5.819    0.494    0.171  127.655
  544.250    6.624    0.521    0.172  128.287
  544.500    8.271    0.469    0.211  116.814
  544.750    9.243    0.437    0.246  100.509
  545.000   13.636    0.426    0.275   89.034
  545.250   17.671    0.424    0.287   78.171
  545.500   22.067    0.424    0.293   81.224
  545.750   25.589    0.412    0.298   78.219
  546.000   27.049    0.398    0.286   75.213
  546.250   26.551    0.379    0.269   74.026
  546.500   23.321    0.397    0.276   81.308
  546.750   21.257    0.404    0.289   90.407
  547.000   19.020    0.424    0.265   94.055
  547.250   18.328    0.416    0.259   90.450
  547.500   19.018    0.404    0.236   92.891
  547.750   19.372    0.405    0.208   91.105
  548.000   17.016    0.398    0.183   91.728
  548.250   13.374    0.373    0.161   97.199
  548.500   11.112    0.390    0.144  107.504
  548.750    9.405    0.407    0.184  112.367
  549.000    8.734    0.405    0.185  116.619
  549.250    7.961    0.398    0.171  123.911
  549.500    7.530    0.396    0.161  125.738
  549.750    7.391    0.398    0.154  128.784
  550.000    8.840    0.421    0.180  126.777
  550.250    9.341    0.412    0.170  125.529
  550.500    9.690    0.400    0.162  123.665
  550.750    9.869    0.400    0.169  123.635
  551.000   10.425    0.383    0.192  125.418
  551.250   10.617    0.372    0.218  127.223
  551.500   10.615    0.386    0.207  128.405
  551.750   10.614    0.383    0.210  125.934
  552.000   10.611    0.389    0.213  117.357
  552.250   11.007    0.391    0.226  112.455
  552.500   11.419    0.395    0.228  104.495
  552.750   11.845    0.410    0.244   96.538
  553.000   12.516    0.431    0.265   87.359
  553.250   12.985    0.426    0.278   78.794
  553.500   14.502    0.400    0.194   71.446
  553.750   16.196    0.393    0.171   77.503
  554.000   17.435    0.405    0.137   83.568
  554.250   18.424    0.340    0.140   79.263
  554.500   15.889    0.322    0.193   85.330
  554.750   13.452    0.348    0.188   98.094
  555.000   11.601    0.365    0.166  118.173
  555.250   10.005    0.370    0.156  124.847
  555.500    8.789    0.372    0.160  127.862
  555.750    8.314    0.378    0.168  131.480
  556.000    8.311    0.384    0.174  133.276
  556.250    8.464    0.389    0.163  127.143
  556.500    8.780    0.392    0.180  119.181
  556.750    8.941    0.371    0.192  111.837
  557.000    9.276    0.355    0.187  105.099
  557.250    9.447    0.347    0.172  113.594
  557.500    9.799    0.347    0.165  111.736
  557.750    9.980    0.366    0.161  103.778
  558.000   10.163    0.376    0.177   96.424
  558.250   10.349    0.385    0.194   90.909
  558.500   10.540    0.378    0.179   92.085
  558.750   10.733    0.375    0.178   94.501
  559.000   10.731    0.401    0.199   98.734
  559.250   10.531    0.414    0.214   90.145
  559.500   10.336    0.413    0.224   85.853
  559.750    9.776    0.403    0.248   80.948
  560.000    9.595    0.398    0.271   77.262
  560.250    9.245    0.397    0.287   74.788
  560.500    8.907    0.396    0.283   80.225
  560.750    8.742    0.395    0.268   80.814
  561.000    8.423    0.394    0.258   78.345
  561.250    8.114    0.400    0.250   83.176
  561.500    7.965    0.398    0.256   90.455
  561.750    7.961    0.398    0.259   98.343
  562.000    8.108    0.399    0.257  103.197
  562.250    8.257    0.383    0.233  114.127
