~VERSION INFORMATION
 VERS.                 2.0:   CWLS LOG ASCII STANDARD -VERSION 2.0
 WRAP.                  NO:   ONE LINE PER DEPTH STEP
~WELL INFORMATION BLOCK
#MNEM.UNIT           DATA                    DESCRIPTION OF MNEMONIC
#---------    -------------------            -------------------------------
# Generated from Intellog Unique Number	CW_76_78/WELL/2821
WELL.         TENN AMOCO A1 MCMULLEN 11-35   : Well_name    - WELL
LOC .         00/11-35-077-01W5/0            : Location     - LOCATION
UWI .         00/11-35-077-01W5/0            : Uwi          - UNIQUE WELL ID
ENTR.         JJ                             : Entered      - ENTERED BY
SRVC.         SCHLUMBERGER                   : Scn          - SERVICE COMPANY
DATE.         13 FEB 71                      : Date         - LOG DATE
STRT.M        445.008                        : top_depth    - START DEPTH
STOP.M        573.008                        : bot_depth    - STOP DEPTH
STEP.M        0.25                           : increment    - STEP LENGTH
 NULL. -999.2500:NULL Value
~CURVE INFORMATION BLOCK
#MNEM UNIT       ERCB CURVE CODE    CURVE DESCRIPTION
#-----------   ------------------   ----------------------------------
DEPT.M        00 001 00 00         : DEPTH        - DEPTH
DELT.US/F     00 520 00 00         : DELT         - SONIC TRAVEL TIME
GR  .API      00 310 00 00         : GR           - GAMMA RAY
CALI.MM       00 280 01 00         : CAL          - CALIPER
ILD .OHMM     00 120 00 00         : RESD         - DEEP RESISTIVITY (DIL)
~PARAMETER INFORMATION
#MNEM.UNIT           DATA             DESCRIPTION OF MNEMONIC
#---------         -----------     ------------------------------
GL  .M        624.23               : gl           - GROUND LEVEL ELEVATION
EREF.M        628.543              : kb           - ELEVATION OF DEPTH REFERENCE
DATM.M        624.23               : datum        - DATUM ELEVATION
TDD .M        585.216              : tdd          - TOTAL DEPTH DRILLER
RUN .         ONE                  : Run          - RUN NUMBER
ENG .         BUETON               : Engineer     - RECORDING ENGINEER
BASE.         EDM                  : Branch       - HOME BASE OF LOGGING UNIT
MUD .         FRESH GEL            : Mud_type     - MUD TYPE
MATR.         SANDSTONE            : Logunit      - NEUTRON MATRIX
TMAX.C        30                   : BHT          - MAXIMUM RECORDED TEMPERATURE
BHTD.M        585.521              : BHTDEP       - MAXIMUM RECORDED TEMPERATURE
RMT .C        12.7778              : MDTP         - TEMPERATURE OF MUD
MUDD.KG/M     1140                 : MWT          - MUD DENSITY
NEUT.         1                    : NEUTRON      - NEUTRON TYPE
RESI.         0                    : RESIST       - RESISTIVITY TYPE
RM  .OHMM     4.9                  : RM           - RESISTIVITY OF MUD
RMC .OHMM     4.56                 : RMC          - RESISTIVITY OF MUD CAKE
RMF .OHMM     5.4                  : RMF          - RESISTIVITY OF MUD FILTRATE
SUFT.C        5                    : SUFT         - SURFACE TEMPERATURE
~A  DEPTH     DELT       GR      CAL     RESD
# ...
  532.008  334.705   40.905  220.075    4.130
  532.258  309.718   40.026  219.928    4.920
  532.508  279.347   38.472  219.885    5.462
  532.758  256.320   39.732  220.153    4.831
  533.008  310.593   43.369  220.102    3.742
  533.258  335.970   48.478  220.052    3.176
  533.508  347.075   48.143  220.120    2.693
  533.758  357.185   48.186  219.767    2.603
  534.008  363.504   50.480  220.650    2.718
  534.258  367.342   53.331  222.152    3.047
  534.508  361.996   54.216  225.006    3.521
  534.758  332.876   55.841  222.402    3.747
  535.008  317.511   58.927  222.956    3.609
  535.258  301.029   65.130  222.911    3.069
  535.508  322.417   70.977  222.657    2.608
  535.758  367.061   75.406  223.451    2.045
  536.008  387.853   82.834  225.262    1.810
  536.258  411.795   91.002  229.045    1.865
  536.508  403.901   94.516  231.273    2.067
  536.758  398.689   84.472  237.644    2.365
  537.008  390.979   92.271  235.437    2.637
  537.258  380.927   92.852  234.662    3.024
  537.508  363.925   85.313  231.516    3.549
  537.758  332.444   77.830  224.431    4.050
  538.008  314.584   72.243  222.320    4.347
  538.258  298.373   71.357  225.691    4.428
  538.508  323.223   73.415  227.200    4.361
  538.758  337.731   76.017  227.992    4.078
  539.008  352.238   78.306  235.904    3.805
  539.258  362.425   81.834  239.794    3.875
  539.508  358.849   83.148  236.340    4.116
  539.758  352.726   80.186  231.647    4.270
  540.008  343.977   71.605  226.325    3.923
  540.258  334.115   65.902  221.826    3.454
  540.508  308.005   60.495  218.467    3.187
  540.758  347.211   60.589  218.114    2.987
  541.008  366.174   67.473  220.450    3.074
  541.258  331.810   69.523  224.765    3.702
  541.508  315.330   69.863  227.711    5.677
  541.758  362.594   66.657  229.627    7.863
  542.008  331.638   55.511  224.933    8.944
  542.258  274.408   43.634  220.332    9.186
  542.508  257.406   28.820  219.675    9.047
  542.758  294.383   32.397  219.730    7.885
  543.008  315.377   52.473  219.685    5.466
  543.258  310.358   52.631  219.440    4.570
  543.508  319.301   54.627  219.913    4.239
  543.758  331.187   64.436  221.629    3.981
  544.008  345.497   74.859  224.790    3.560
  544.258  357.322   76.123  227.433    3.173
  544.508  369.340   71.262  229.041    3.092
  544.758  385.748   63.657  229.308    3.505
  545.008  408.902   50.920  225.338    3.794
  545.258  399.892   40.569  221.473    4.009
  545.508  345.547   39.443  223.692    4.228
  545.758  349.833   51.521  226.771    4.147
  546.008  368.140   61.450  228.266    3.879
  546.258  394.899   70.957  230.312    3.185
  546.508  427.616   75.575  231.293    2.742
  546.758  437.014   75.367  231.962    2.566
  547.008  419.029   70.457  232.554    2.506
  547.258  379.686   68.228  232.604    2.425
  547.508  381.354   73.516  232.361    2.331
  547.758  396.839   76.246  231.271    2.265
  548.008  408.732   79.024  230.607    2.207
  548.258  417.862   84.436  229.322    2.158
  548.508  419.996   86.308  226.167    2.140
  548.758  401.943   95.692  223.333    2.253
  549.008  351.720   90.778  221.331    2.487
  549.258  335.962   82.384  219.945    2.816
  549.508  320.664   71.116  220.618    3.332
  549.758  341.524   61.122  221.810    3.445
  550.008  376.275   69.284  233.981    3.243
  550.258  391.310   89.000  231.456    2.952
  550.508  404.306   94.712  226.643    2.694
  550.758  398.117   97.259  228.256    2.612
  551.008  374.364   91.914  230.280    2.654
  551.258  366.009   88.773  230.031    2.782
  551.508  353.917   90.211  226.377    2.950
  551.758  333.047   84.504  223.319    3.280
  552.008  324.238   74.279  220.395    3.537
  552.258  352.895   75.111  219.635    3.708
  552.508  378.471   78.682  219.799    3.770
  552.758  373.326   81.104  219.962    3.713
  553.008  345.973   77.534  220.330    3.712
  553.258  326.279   74.328  221.098    4.116
  553.508  333.514   73.698  222.405    5.494
  553.758  356.015   72.752  223.593    7.397
  554.008  327.879   70.215  224.804    8.389
  554.258  225.778   61.393  224.347    9.365
  554.508  209.362   50.248  224.094    9.920
  554.758  255.641   46.182  224.056    8.670
  555.008  279.454   57.584  223.896    6.411
  555.258  306.921   64.650  223.139    5.145
  555.508  316.974   68.102  222.569    4.289
  555.758  333.194   73.643  222.929    3.853
  556.008  348.353   79.115  227.452    3.635
  556.258  366.274   86.542  230.289    3.627
  556.508  359.228   97.026  229.732    3.773
  556.758  341.892   91.935  227.109    4.013
  557.008  322.011   85.242  225.087    4.246
  557.258  325.701   73.185  221.635    4.303
  557.508  330.511   66.553  220.246    4.132
  557.758  334.809   57.788  219.900    3.907
  558.008  345.252   58.137  219.954    3.696
  558.258  351.763   62.573  220.645    3.494
  558.508  355.992   66.575  221.324    3.340
  558.758  355.034   69.969  221.788    3.187
  559.008  342.359   73.917  222.271    3.009
  559.258  335.708   78.416  222.632    2.878
  559.508  332.659   82.968  221.868    2.725
  559.758  334.522   75.794  220.488    2.612
  560.008  339.462   70.263  219.808    2.466
  560.258  341.197   65.116  219.550    2.331
  560.508  339.712   63.249  220.544    2.368
  560.758  338.896   65.665  222.579    2.457
  561.008  339.319   69.671  224.301    2.520
  561.258  340.463   74.110  225.694    2.489
  561.508  343.570   79.031  227.405    2.399
  561.758  348.971   84.812  221.675    2.254
  562.008  349.781   79.959  219.867    2.180
  562.258  362.790   78.220  224.789    2.188
  562.508  389.943   84.794  239.125    2.276
  562.758  360.359   91.550  230.085    2.454
  563.008  333.917   98.306  226.413    2.557
  563.258  335.516  103.049  225.764    2.653
  563.508  337.910   95.572  226.854    2.664
  563.758  338.595   90.161  227.867    2.670
  564.008  334.558   85.069  228.109    2.620
  564.258  326.069   83.214  228.290    2.522
  564.508  320.729   82.392  228.223    2.563
  564.758  318.337   82.727  228.394    2.701
  565.008  323.080   83.193  228.033    3.023
  565.258  332.416   82.981  227.266    3.368
  565.508  335.589   79.050  226.296    3.529
  565.758  325.466   78.894  226.149    3.407
  566.008  330.147   80.641  226.726    2.996
  566.258  354.218   82.205  228.536    2.689
  566.508  366.110   82.973  234.194    2.276
  566.758  377.998   84.358  237.046    1.769
  567.008  371.540   85.854  239.578    1.414
  567.258  368.360   89.067  233.120    1.251
  567.508  377.823   90.752  237.937    1.131
  567.758  366.910   84.436  237.169    1.177
  568.008  361.898   75.792  235.685    1.225
  568.258  372.539   76.988  246.397    1.322
  568.508  381.020   83.319  249.980    1.426
  568.758  373.382   88.730  250.134    1.692
  569.008  359.197   89.922  246.985    1.886
  569.258  343.373   93.626  237.228    2.103
  569.508  328.857   89.384  229.834    2.376
  569.758  308.320   74.569  223.368    2.763
  570.008  274.743   63.483  222.817    3.189
  570.258  213.713   41.765  222.869    4.205
  570.508  194.149   19.683  223.551    7.939
  570.758  186.059   12.024  224.233   12.931
  571.008  194.280   12.297  225.023   17.310
  571.258  203.675   13.677  225.488   15.963
  571.508  213.197   13.650  225.875   15.351
  571.758  219.718   15.213  225.935   14.962
  572.008  230.103   16.112  225.888   14.445
  572.258  227.377   14.614  225.935   13.735
  572.508  227.148   14.646  226.019   13.534
  572.758  230.054   15.354  225.767   13.871
  573.008  232.901   14.723  225.818   14.919
