~VERSION INFORMATION
 VERS.                 2.0:   CWLS LOG ASCII STANDARD -VERSION 2.0
 WRAP.                  NO:   ONE LINE PER DEPTH STEP
~WELL INFORMATION BLOCK
#MNEM.UNIT           DATA                    DESCRIPTION OF MNEMONIC
#---------    -------------------            -------------------------------
# Generated from Intellog Unique Number	CW_73_75/WELL/2745
WELL.         SEA-JOR ET AL BLANCHE 11-14    : Well_name    - WELL
LOC .         00/11-14-073-02W5/0            : Location     - LOCATION
UWI .         00/11-14-073-02W5/0            : Uwi          - UNIQUE WELL ID
ENTR.         JAYE                           : Entered      - ENTERED BY
SRVC.         SCHLUMBERGER                   : Scn          - SERVICE COMPANY
DATE.         2 FEB 80                       : Date         - LOG DATE
STRT.M        385                            : top_depth    - START DEPTH
STOP.M        625                            : bot_depth    - STOP DEPTH
STEP.M        0.25                           : increment    - STEP LENGTH
 NULL. -999.2500:NULL Value
~CURVE INFORMATION BLOCK
#MNEM UNIT       ERCB CURVE CODE    CURVE DESCRIPTION
#-----------   ------------------   ----------------------------------
DEPT.M        00 001 00 00         : DEPTH        - DEPTH
DPHI.V/V      00 890 00 00         : PHID         - DENSITY POROSITY (SANDSTONE)
NPHI.V/V      00 330 00 00         : PHIN         - NEUTRON POROSITY (SANDSTONE)
GR  .API      00 310 00 00         : GR           - GAMMA RAY
CALI.MM       00 280 01 00         : CAL          - CALIPER
ILD .OHMM     00 120 00 00         : RESD         - DEEP RESISTIVITY (DIL)
~PARAMETER INFORMATION
#MNEM.UNIT           DATA             DESCRIPTION OF MNEMONIC
#---------         -----------     ------------------------------
GL  .M        602                  : gl           - GROUND LEVEL ELEVATION
EREF.M        605.2                : kb           - ELEVATION OF DEPTH REFERENCE
DATM.M        602                  : datum        - DATUM ELEVATION
TDD .M        629                  : tdd          - TOTAL DEPTH DRILLER
RUN .         ONE                  : Run          - RUN NUMBER
BASE.         EDM                  : Branch       - HOME BASE OF LOGGING UNIT
MUD .         GEL                  : Mud_type     - MUD TYPE
MATR.         SANDSTONE            : Logunit      - NEUTRON MATRIX
TMAX.C        25                   : BHT          - MAXIMUM RECORDED TEMPERATURE
BHTD.M        630                  : BHTDEP       - MAXIMUM RECORDED TEMPERATURE
RMT .C        13.3                 : MDTP         - TEMPERATURE OF MUD
MUDD.KG/M     1170                 : MWT          - MUD DENSITY
NEUT.         1                    : NEUTRON      - NEUTRON TYPE
RESI.         0                    : RESIST       - RESISTIVITY TYPE
RM  .OHMM     4.9                  : RM           - RESISTIVITY OF MUD
RMC .OHMM     0                    : RMC          - RESISTIVITY OF MUD CAKE
RMF .OHMM     5.12                 : RMF          - RESISTIVITY OF MUD FILTRATE
SUFT.C        0                    : SUFT         - SURFACE TEMPERATURE
~A  DEPTH     PHID     PHIN       GR      CAL     RESD
# ...
  494.500    0.262    0.409   66.714  157.426    4.683
  494.750    0.274    0.404   69.089  157.059    4.587
  495.000    0.253    0.404   66.697  156.778    4.544
  495.250    0.259    0.412   64.860  156.507    4.450
  495.500    0.265    0.420   63.828  156.126    4.309
  495.750    0.258    0.422   62.053  155.336    4.188
  496.000    0.273    0.414   62.074  154.341    4.189
  496.250    0.286    0.407   61.294  153.964    4.222
  496.500    0.290    0.401   61.377  153.381    4.272
  496.750    0.278    0.392   61.398  152.694    4.347
  497.000    0.278    0.396   60.674  153.248    4.441
  497.250    0.284    0.399   62.369  154.522    4.510
  497.500    0.297    0.400   60.655  156.623    4.512
  497.750    0.308    0.390   60.740  158.203    4.435
  498.000    0.310    0.390   62.002  159.066    4.327
  498.250    0.301    0.392   61.835  159.101    4.222
  498.500    0.291    0.399   61.361  159.138    4.175
  498.750    0.274    0.404   60.952  159.178    4.176
  499.000    0.267    0.402   60.290  159.214    4.177
  499.250    0.282    0.396   59.880  159.247    4.146
  499.500    0.292    0.404   59.715  159.292    4.060
  499.750    0.294    0.414   59.922  159.111    4.000
  500.000    0.300    0.406   63.494  158.944    3.970
  500.250    0.296    0.401   63.192    0.000    3.831
  500.500    0.299    0.396   62.968    0.000    3.832
  500.750    0.304    0.396   62.868    0.000    3.848
  501.000    0.311    0.402   63.003    0.000    3.872
  501.250    0.303    0.408   63.896    0.000    3.888
  501.500    0.308    0.411   55.775    0.000    3.972
  501.750    0.301    0.417   57.534    0.000    4.057
  502.000    0.294    0.410   58.175    0.000    4.153
  502.250    0.299    0.409   58.754    0.000    4.170
  502.500    0.305    0.411   58.401    0.000    4.179
  502.750    0.303    0.414   57.799    0.000    4.165
  503.000    0.299    0.415   58.131    0.000    4.127
  503.250    0.294    0.425   58.709    0.000    4.129
  503.500    0.273    0.437   59.225    0.000    4.107
  503.750    0.298    0.434   58.624    0.000    4.085
  504.000    0.304    0.424   60.570    0.000    4.047
  504.250    0.286    0.421   60.839    0.000    3.980
  504.500    0.281    0.417   58.933    0.000    3.906
  504.750    0.280    0.401   57.088    0.000    3.871
  505.000    0.279    0.387   56.362    0.000    3.850
  505.250    0.284    0.393   54.705    0.000    3.829
  505.500    0.299    0.411   54.663    0.000    3.823
  505.750    0.300    0.415   55.677    0.000    3.817
  506.000    0.292    0.413   58.490    0.000    3.819
  506.250    0.290    0.410   60.624    0.000    3.806
  506.500    0.284    0.412   58.904    0.000    3.757
  506.750    0.284    0.413   58.116    0.000    3.680
  507.000    0.297    0.404   59.066    0.000    3.550
  507.250    0.285    0.400   62.752    0.000    3.386
  507.500    0.290    0.402   66.187    0.000    3.200
  507.750    0.285    0.407   68.754    0.000    3.023
  508.000    0.285    0.413   67.593    0.000    2.906
  508.250    0.276    0.424   65.380    0.000    2.857
  508.500    0.271    0.433   64.279    0.000    2.908
  508.750    0.265    0.425   63.181    0.000    3.022
  509.000    0.260    0.420   62.891    0.000    3.152
  509.250    0.271    0.411   62.972    0.000    3.326
  509.500    0.250    0.397   63.488    0.000    3.618
  509.750    0.216    0.375   64.377    0.000    4.027
  510.000    0.182    0.336   65.267    0.000    4.447
  510.250    0.145    0.275   63.361    0.000    5.341
  510.500    0.070    0.235   57.482    0.000    6.639
  510.750    0.043    0.192   54.083    0.000    8.605
  511.000    0.024    0.164   51.308    0.000   10.634
  511.250    0.004    0.150   48.967    0.000   12.272
  511.500    0.007    0.146   47.122    0.000   13.299
  511.750    0.010    0.144   47.205    0.000   13.767
  512.000    0.004    0.147   49.709    0.000   13.877
  512.250    0.012    0.156   53.952    0.000   12.694
  512.500    0.029    0.174   58.010    0.000    9.671
  512.750    0.056    0.196   62.316    0.000    6.985
  513.000    0.095    0.231   64.325    0.000    5.383
  513.250    0.171    0.273   60.368    0.000    4.606
  513.500    0.269    0.366   61.692    0.000    3.979
  513.750    0.300    0.431   64.881    0.000    3.724
  514.000    0.274    0.422   66.700    0.000    3.804
  514.250    0.252    0.403   67.590    0.000    3.953
  514.500    0.230    0.391   68.543    0.000    4.085
  514.750    0.247    0.399   68.811    0.000    4.094
  515.000    0.234    0.393   68.830    0.000    4.057
  515.250    0.234    0.397   68.725    0.000    4.051
  515.500    0.243    0.411   68.932    0.000    4.130
  515.750    0.237    0.401   72.491    0.000    4.300
  516.000    0.237    0.388   73.257    0.000    4.486
  516.250    0.194    0.375   71.475    0.000    4.697
  516.500    0.166    0.359   69.133    0.000    4.826
  516.750    0.120    0.335   66.421    0.000    4.791
  517.000    0.120    0.299   67.560    0.000    4.614
  517.250    0.181    0.362   71.119    0.000    4.367
  517.500    0.208    0.393   75.735    0.000    4.025
  517.750    0.239    0.419   81.097    0.000    3.803
  518.000    0.210    0.414   82.979    0.000    3.662
  518.250    0.192    0.410   82.317    0.000    3.762
  518.500    0.201    0.418   80.038    0.000    3.851
  518.750    0.210    0.420   82.606    0.000    3.897
  519.000    0.200    0.419   85.047    0.000    3.928
  519.250    0.180    0.413   85.005    0.000    3.929
  519.500    0.198    0.410   84.278    0.000    3.976
  519.750    0.218    0.414   82.497    0.000    4.046
  520.000    0.207    0.416   82.890    0.000    4.141
  520.250    0.207    0.433   83.904    0.000    4.214
  520.500    0.210    0.443   84.047    0.000    4.240
  520.750    0.202    0.439   83.073    0.000    4.274
  521.000    0.189    0.427   83.775    0.000    4.275
  521.250    0.202    0.410   84.976    0.000    4.285
  521.500    0.185    0.399   85.244    0.000    4.278
  521.750    0.174    0.398   84.829    0.000    4.304
  522.000    0.174    0.401   83.606    0.000    4.306
  522.250    0.186    0.410   82.446    0.000    4.315
  522.500    0.209    0.422   81.720    0.000    4.358
  522.750    0.216    0.427   81.804    0.000    4.385
  523.000    0.223    0.428   81.264    0.000    4.386
  523.250    0.220    0.425   80.228    0.000    4.396
  523.500    0.209    0.417   80.184    0.000    4.381
  523.750    0.204    0.412   84.552    0.000    4.400
  524.000    0.206    0.416   88.485    0.000    4.443
  524.250    0.207    0.406   84.529    0.000    4.715
  524.500    0.201    0.406   80.635    0.000    4.966
  524.750    0.188    0.403   77.363    0.000    5.121
  525.000    0.173    0.378   78.687    0.000    5.133
  525.250    0.161    0.358   84.236    0.000    5.096
  525.500    0.169    0.382   84.814    0.000    5.011
  525.750    0.183    0.413   85.145    0.000    4.956
  526.000    0.202    0.422   85.600    0.000    4.883
  526.250    0.211    0.427   86.178    0.000    4.801
  526.500    0.205    0.428   86.695    0.000    4.758
  526.750    0.207    0.414   86.528    0.000    4.741
  527.000    0.198    0.399   85.616    0.000    4.761
  527.250    0.191    0.388   84.145    0.000    4.826
  527.500    0.185    0.388   84.104    0.000    4.875
  527.750    0.191    0.410   86.668    0.000    4.913
  528.000    0.191    0.410   86.315    0.000    4.925
  528.250    0.176    0.406   83.230    0.000    5.040
  528.500    0.180    0.409   80.268    0.000    5.359
  528.750    0.206    0.413   79.419    0.000    5.601
  529.000    0.196    0.409   83.600    0.000    5.518
  529.250    0.187    0.400   87.222    0.000    5.304
  529.500    0.189    0.396   91.220    0.000    5.069
  529.750    0.188    0.397   92.605    0.000    4.743
  530.000    0.183    0.405   90.573    0.000    4.481
  530.250    0.175    0.414   87.302    0.000    4.324
  530.500    0.188    0.425   84.713    0.000    4.219
  530.750    0.193    0.433   80.819    0.000    4.213
