~VERSION INFORMATION
 VERS.                 2.0:   CWLS LOG ASCII STANDARD -VERSION 2.0
 WRAP.                  NO:   ONE LINE PER DEPTH STEP
~WELL INFORMATION BLOCK
#MNEM.UNIT           DATA                    DESCRIPTION OF MNEMONIC
#---------    -------------------            -------------------------------
# Generated from Intellog Unique Number	CS_73_76/WELL/3258
WELL.         11-08-075-05W4                 : Well_name    - WELL
LOC .         00/11-08-075-05W4/0            : Location     - LOCATION
UWI .         00/11-08-075-05W4/0            : Uwi          - UNIQUE WELL ID
ENTR.         SP                             : Entered      - ENTERED BY
SRVC.         SCHLUMBERGER                   : Scn          - SERVICE COMPANY
STRT.M        240                            : top_depth    - START DEPTH
STOP.M        480                            : bot_depth    - STOP DEPTH
STEP.M        0.25                           : increment    - STEP LENGTH
 NULL. -999.2500:NULL Value
~CURVE INFORMATION BLOCK
#MNEM UNIT       ERCB CURVE CODE    CURVE DESCRIPTION
#-----------   ------------------   ----------------------------------
DEPT.M        00 001 00 00         : DEPTH        - DEPTH
ILD .OHMM     00 120 00 00         : RESD         - DEEP RESISTIVITY (DIL)
DPHI.V/V      00 890 00 00         : PHID         - DENSITY POROSITY (LIMESTONE)
NPHI.V/V      00 330 00 00         : PHIN         - NEUTRON POROSITY (LIMESTONE)
GR  .API      00 310 00 00         : GR           - GAMMA RAY
~PARAMETER INFORMATION
#MNEM.UNIT           DATA             DESCRIPTION OF MNEMONIC
#---------         -----------     ------------------------------
GL  .M        636.15               : gl           - GROUND LEVEL ELEVATION
EREF.M        639.43               : kb           - ELEVATION OF DEPTH REFERENCE
DATM.M        636.15               : datum        - DATUM ELEVATION
TDD .M        483.5                : tdd          - TOTAL DEPTH DRILLER
RUN .         ONE                  : Run          - RUN NUMBER
ENG .         BILL                 : Engineer     - RECORDING ENGINEER
WIT .         JIM                  : Witness      - WITNESSED BY
MUD .         GEL                  : Mud_type     - MUD TYPE
MATR.         LIMESTONE            : Logunit      - NEUTRON MATRIX
TMAX.C        25                   : BHT          - MAXIMUM RECORDED TEMPERATURE
BHTD.M        483.5                : BHTDEP       - MAXIMUM RECORDED TEMPERATURE
MATR.         1                    : LOGUNIT      - NEUTRON MATRIX
RMT .C        25                   : MDTP         - TEMPERATURE OF MUD
NEUT.         1                    : NEUTRON      - NEUTRON TYPE
RESI.         0                    : RESIST       - RESISTIVITY TYPE
RMC .OHMM     0.25                 : RMC          - RESISTIVITY OF MUD CAKE
RMF .OHMM     0.25                 : RMF          - RESISTIVITY OF MUD FILTRATE
SUFT.C        15                   : SUFT         - SURFACE TEMPERATURE
~A  DEPTH     RESD     PHID     PHIN       GR
# ...
  283.500    9.151    0.209    0.389  102.266
  283.750    9.152    0.224    0.386   98.008
  284.000    9.156    0.251    0.381   97.407
  284.250    9.157    0.269    0.378   97.416
  284.500    9.160    0.253    0.378   96.817
  284.750    9.161    0.240    0.379   98.046
  285.000    8.992    0.237    0.373   99.274
  285.250    8.826    0.223    0.375   99.894
  285.500    8.502    0.190    0.371   99.293
  285.750    8.503    0.185    0.382   98.087
  286.000    8.347    0.183    0.408   97.484
  286.250    8.193    0.178    0.423   94.444
  286.500    8.194    0.176    0.435   89.576
  286.750    8.043    0.176    0.423   85.316
  287.000    8.045    0.211    0.413   81.059
  287.250    8.046    0.316    0.411   73.752
  287.500    8.048    0.334    0.408   65.833
  287.750    8.051    0.328    0.403   61.574
  288.000    8.052    0.312    0.402   68.294
  288.250    8.207    0.272    0.399   72.569
  288.500    8.210    0.287    0.390   76.845
  288.750    8.369    0.295    0.374   76.855
  289.000    8.370    0.283    0.361   77.478
  289.250    8.532    0.264    0.368   79.317
  289.500    8.696    0.275    0.371   79.933
  289.750    8.698    0.281    0.366   81.163
  290.000    8.866    0.263    0.372   81.173
  290.250    8.868    0.246    0.371   81.180
  290.500    8.870    0.231    0.370   84.850
  290.750    8.707    0.223    0.363   86.077
  291.000    8.708    0.199    0.367   85.478
  291.250    8.548    0.192    0.376   87.318
  291.500    8.390    0.182    0.391   87.935
  291.750    8.393    0.190    0.397   87.336
  292.000    8.395    0.203    0.389   83.077
  292.250    8.396    0.228    0.375   75.769
  292.500    8.398    0.244    0.361   67.854
  292.750    8.400    0.247    0.358   64.204
  293.000    8.402    0.258    0.353   63.604
  293.250    8.093    0.232    0.353   66.053
  293.500    7.795    0.216    0.354   70.332
  293.750    7.651    0.212    0.361   73.388
  294.000    7.510    0.238    0.362   75.837
  294.250    7.234    0.260    0.367   77.067
  294.500    7.235    0.249    0.368   77.685
  294.750    7.102    0.235    0.354   77.694
  295.000    7.103    0.287    0.348   78.314
  295.250    7.105    0.309    0.361   77.714
  295.500    7.106    0.288    0.360   78.332
  295.750    6.975    0.251    0.354   78.952
  296.000    6.977    0.223    0.349   79.571
  296.250    6.979    0.232    0.346   78.970
  296.500    6.722    0.240    0.354   74.714
  296.750    6.723    0.265    0.365   68.015
  297.000    6.476    0.271    0.360   63.145
  297.250    6.356    0.297    0.358   61.935
  297.500    6.239    0.319    0.358   59.508
  297.750    6.124    0.324    0.356   57.078
  298.000    6.011    0.310    0.356   58.308
  298.250    6.012    0.310    0.361   58.925
  298.500    5.902    0.303    0.368   58.937
  298.750    5.902    0.305    0.362   58.338
  299.000    5.794    0.314    0.355   58.344
  299.250    5.795    0.321    0.355   58.355
  299.500    5.797    0.322    0.356   58.362
  299.750    5.798    0.309    0.371   58.984
  300.000    5.691    0.292    0.380   58.997
  300.250    5.692    0.287    0.386   59.001
  300.500    5.694    0.294    0.385   59.013
  300.750    5.588    0.301    0.382   58.410
  301.000    5.590    0.303    0.378   57.202
  301.250    5.487    0.301    0.377   57.211
  301.500    5.488    0.301    0.384   57.828
  301.750    5.387    0.301    0.388   60.282
  302.000    5.388    0.300    0.383   62.119
  302.250    5.389    0.309    0.386   63.344
  302.500    5.493    0.307    0.384   63.964
  302.750    5.599    0.296    0.375   63.363
  303.000    5.707    0.288    0.362   62.766
  303.250    5.817    0.284    0.364   63.383
  303.500    6.042    0.275    0.388   65.222
  303.750    6.159    0.283    0.395   67.062
  304.000    6.160    0.293    0.397   68.905
  304.250    6.161    0.262    0.402   69.520
  304.500    6.281    0.268    0.396   69.529
  304.750    6.164    0.274    0.398   69.539
  305.000    6.166    0.275    0.406   70.767
  305.250    6.167    0.256    0.386   74.439
  305.500    6.054    0.259    0.392   75.663
  305.750    5.942    0.262    0.395   76.893
  306.000    5.943    0.268    0.393   76.292
  306.250    5.834    0.279    0.387   72.645
  306.500    5.726    0.279    0.369   69.605
  306.750    5.728    0.275    0.349   64.128
  307.000    5.838    0.284    0.339   59.867
  307.250    5.839    0.285    0.337   54.388
  307.500    5.840    0.282    0.342   50.741
  307.750    5.842    0.293    0.344   48.310
  308.000    5.843    0.307    0.341   48.321
  308.250    5.845    0.317    0.344   48.330
  308.500    5.846    0.303    0.348   48.342
  308.750    5.848    0.293    0.343   48.354
  309.000    5.849    0.282    0.339   48.969
  309.250    5.850    0.280    0.355   48.979
  309.500    5.851    0.290    0.356   49.598
  309.750    5.853    0.279    0.352   50.215
  310.000    5.854    0.291    0.359   52.664
  310.250    5.747    0.307    0.376   52.675
  310.500    5.747    0.302    0.374   51.466
  310.750    5.642    0.301    0.376   50.865
  311.000    5.642    0.290    0.374   52.094
  311.250    5.538    0.281    0.380   52.102
  311.500    5.437    0.288    0.377   50.285
  311.750    5.336    0.296    0.372   49.073
  312.000    5.238    0.310    0.367   49.083
  312.250    5.045    0.288    0.383   50.922
  312.500    5.046    0.267    0.391   52.759
  312.750    4.860    0.260    0.409   55.818
  313.000    4.770    0.278    0.398   59.487
  313.250    4.682    0.280    0.393   61.937
  313.500    4.684    0.280    0.404   63.163
  313.750    4.597    0.297    0.399   63.173
  314.000    4.512    0.311    0.398   59.525
  314.250    4.429    0.311    0.398   56.485
  314.500    4.430    0.311    0.393   55.274
  314.750    4.431    0.313    0.394   53.460
  315.000    4.349    0.311    0.402   52.856
  315.250    4.269    0.299    0.425   52.257
  315.500    4.270    0.298    0.444   52.267
  315.750    4.271    0.293    0.446   52.888
  316.000    4.193    0.289    0.415   52.895
  316.250    4.193    0.290    0.404   54.126
  316.500    4.194    0.300    0.397   54.740
  316.750    4.195    0.300    0.405   57.190
  317.000    4.118    0.310    0.397   61.469
  317.250    4.119    0.295    0.410   63.917
  317.500    4.120    0.305    0.417   65.144
  317.750    4.121    0.299    0.405   63.325
  318.000    4.122    0.290    0.399   65.165
  318.250    4.123    0.295    0.401   67.003
  318.500    4.124    0.285    0.395   63.355
  318.750    4.125    0.276    0.391   63.363
  319.000    4.126    0.290    0.383   63.375
  319.250    4.126    0.298    0.374   61.555
  319.500    4.128    0.291    0.380   62.781
  319.750    4.129    0.285    0.399   65.232
  320.000    4.129    0.277    0.415   65.853
  320.250    4.053    0.293    0.417   65.863
  320.500    4.054    0.301    0.398   66.479
  320.750    4.055    0.309    0.391   66.490
  321.000    4.056    0.297    0.410   67.717
  321.250    3.981    0.293    0.397   72.607
  321.500    3.763    0.257    0.390   75.664
  321.750    3.557    0.243    0.401   77.501
  322.000    3.237    0.252    0.393   81.782
  322.250    2.892    0.246    0.408   85.449
  322.500    2.535    0.229    0.418   89.725
  322.750    2.351    0.225    0.433   96.442
  323.000    2.222    0.232    0.442  103.161
  323.250    2.352    0.235    0.446  105.608
  323.500    2.685    0.237    0.453  105.007
  323.750    3.007    0.224    0.441  103.187
  324.000    3.305    0.214    0.437   95.881
  324.250    3.498    0.216    0.422   90.402
  324.500    3.500    0.210    0.405   86.754
  324.750    3.371    0.198    0.389   88.594
  325.000    3.127    0.198    0.387   90.430
  325.250    2.955    0.220    0.408   90.440
  325.500    2.793    0.244    0.417   88.013
  325.750    2.591    0.273    0.417   85.582
  326.000    2.449    0.266    0.411   82.543
  326.250    2.229    0.233    0.397   86.822
  326.500    2.107    0.203    0.403   91.710
  326.750    1.991    0.196    0.418   94.156
