~VERSION INFORMATION
 VERS.                 2.0:   CWLS LOG ASCII STANDARD -VERSION 2.0
 WRAP.                  NO:   ONE LINE PER DEPTH STEP
~WELL INFORMATION BLOCK
#MNEM.UNIT           DATA                    DESCRIPTION OF MNEMONIC
#---------    -------------------            -------------------------------
# Generated from Intellog Unique Number	CS_73_76/WELL/843
WELL.         MAYNARD ENERGY INC             : Well_name    - WELL
LOC .         00/11-04-073-13W4/0            : Location     - LOCATION
UWI .         00/11-04-073-13W4/0            : Uwi          - UNIQUE WELL ID
ENTR.         SP                             : Entered      - ENTERED BY
SRVC.         SCHLUMBERGER                   : Scn          - SERVICE COMPANY
STRT.M        320                            : top_depth    - START DEPTH
STOP.M        540                            : bot_depth    - STOP DEPTH
STEP.M        0.25                           : increment    - STEP LENGTH
 NULL. -999.2500:NULL Value
~CURVE INFORMATION BLOCK
#MNEM UNIT       ERCB CURVE CODE    CURVE DESCRIPTION
#-----------   ------------------   ----------------------------------
DEPT.M        00 001 00 00         : DEPTH        - DEPTH
ILD .OHMM     00 120 00 00         : RESD         - DEEP RESISTIVITY (DIL)
DPHI.V/V      00 890 00 00         : PHID         - DENSITY POROSITY (LIMESTONE)
NPHI.V/V      00 330 00 00         : PHIN         - NEUTRON POROSITY (LIMESTONE)
GR  .API      00 310 00 00         : GR           - GAMMA RAY
~PARAMETER INFORMATION
#MNEM.UNIT           DATA             DESCRIPTION OF MNEMONIC
#---------         -----------     ------------------------------
GL  .M        667.89               : gl           - GROUND LEVEL ELEVATION
EREF.M        664.44               : kb           - ELEVATION OF DEPTH REFERENCE
DATM.M        667.89               : datum        - DATUM ELEVATION
TDD .M        551                  : tdd          - TOTAL DEPTH DRILLER
RUN .         ONE                  : Run          - RUN NUMBER
ENG .         BILL                 : Engineer     - RECORDING ENGINEER
WIT .         JIM                  : Witness      - WITNESSED BY
MUD .         GEL                  : Mud_type     - MUD TYPE
MATR.         LIMESTONE            : Logunit      - NEUTRON MATRIX
TMAX.C        20                   : BHT          - MAXIMUM RECORDED TEMPERATURE
BHTD.M        551                  : BHTDEP       - MAXIMUM RECORDED TEMPERATURE
MATR.         1                    : LOGUNIT      - NEUTRON MATRIX
RMT .C        25                   : MDTP         - TEMPERATURE OF MUD
NEUT.         1                    : NEUTRON      - NEUTRON TYPE
RESI.         0                    : RESIST       - RESISTIVITY TYPE
RMC .OHMM     0.25                 : RMC          - RESISTIVITY OF MUD CAKE
RMF .OHMM     0.25                 : RMF          - RESISTIVITY OF MUD FILTRATE
SUFT.C        15                   : SUFT         - SURFACE TEMPERATURE
~A  DEPTH     RESD     PHID     PHIN       GR
# ...
  363.500    7.656    0.238    0.426  114.559
  363.750    7.088    0.230    0.428  115.805
  364.000    6.439    0.238    0.434  114.594
  364.250    6.277    0.229    0.439  113.991
  364.500    6.848    0.231    0.449  114.010
  364.750    7.499    0.229    0.453  114.637
  365.000    8.313    0.243    0.464  114.655
  365.250    8.720    0.254    0.435  108.520
  365.500    9.128    0.232    0.417  100.541
  365.750    9.210    0.213    0.412   93.184
  366.000    8.561    0.196    0.410   90.122
  366.250    8.074    0.205    0.416   88.292
  366.500    7.344    0.226    0.427   99.377
  366.750    6.938    0.244    0.438  106.151
  367.000    6.614    0.254    0.450  112.321
  367.250    7.103    0.271    0.462  114.793
  367.500    7.510    0.284    0.481  116.651
  367.750    7.755    0.302    0.492  116.049
  368.000    7.919    0.312    0.477  110.531
  368.250    8.001    0.296    0.459  107.477
  368.500    7.921    0.285    0.447  108.108
  368.750    7.840    0.269    0.439  109.971
  369.000    7.841    0.254    0.435  110.597
  369.250    7.924    0.263    0.428  111.222
  369.500    8.006    0.268    0.423  110.624
  369.750    8.007    0.263    0.423  113.100
  370.000    7.846    0.247    0.426  115.572
  370.250    7.765    0.229    0.437  116.203
  370.500    7.685    0.216    0.447  113.760
  370.750    7.686    0.199    0.451  107.629
  371.000    7.606    0.196    0.451  104.571
  371.250    7.607    0.210    0.451  104.584
  371.500    7.527    0.218    0.453  105.829
  371.750    7.528    0.224    0.458  110.764
  372.000    7.610    0.213    0.464  114.466
  372.250    7.692    0.235    0.467  116.325
  372.500    8.019    0.252    0.467  117.570
  372.750    8.264    0.278    0.461  116.356
  373.000    8.427    0.277    0.455  113.914
  373.250    8.591    0.271    0.447  110.239
  373.500    8.673    0.273    0.439  102.879
  373.750    8.755    0.272    0.437   98.592
  374.000    8.675    0.271    0.443   96.761
  374.250    8.513    0.276    0.451   97.394
  374.500    8.270    0.278    0.460   98.022
  374.750    7.865    0.285    0.465   98.036
  375.000    7.622    0.289    0.465   98.669
  375.250    7.542    0.279    0.463  101.758
  375.500    7.949    0.268    0.456  104.232
  375.750    8.194    0.265    0.447  105.475
  376.000    8.683    0.267    0.439  103.646
  376.250    8.928    0.269    0.433   98.744
  376.500    9.091    0.271    0.425   93.844
  376.750    9.255    0.263    0.423   95.090
  377.000    9.337    0.257    0.417   98.180
  377.250    9.338    0.253    0.414   98.805
  377.500    9.421    0.251    0.418   99.437
  377.750    9.422    0.245    0.424   98.834
  378.000    9.585    0.254    0.435   93.933
  378.250    9.586    0.273    0.439   90.874
  378.500    9.588    0.290    0.431   90.891
  378.750    9.426    0.293    0.423   93.368
  379.000    9.346    0.267    0.418   94.609
  379.250    9.266    0.246    0.415   94.625
  379.500    9.185    0.223    0.421   94.639
  379.750    9.186    0.236    0.434   94.044
  380.000    9.269    0.275    0.438   93.443
  380.250    9.350    0.296    0.446   88.538
  380.500    9.433    0.310    0.453   83.634
  380.750    9.434    0.320    0.450   80.576
  381.000    9.354    0.325    0.430   81.210
  381.250    9.274    0.317    0.421   83.686
  381.500    9.193    0.283    0.406   84.313
  381.750    9.113    0.267    0.400   82.489
  382.000    9.195    0.267    0.408   81.882
  382.250    9.277    0.276    0.423   81.286
  382.500    9.360    0.304    0.437   83.758
  382.750    9.280    0.344    0.455   84.389
  383.000    9.280    0.357    0.443   83.174
  383.250    9.200    0.343    0.418   74.583
  383.500    8.958    0.321    0.404   71.524
  383.750    8.796    0.301    0.394   70.314
  384.000    8.797    0.322    0.391   70.329
  384.250    8.635    0.341    0.396   69.725
  384.500    8.555    0.344    0.406   73.434
  384.750    8.475    0.349    0.416   77.754
  385.000    8.476    0.354    0.422   80.225
  385.250    8.395    0.369    0.444   80.237
  385.500    8.396    0.385    0.453   74.721
  385.750    8.479    0.371    0.452   75.355
  386.000    8.480    0.358    0.447   76.603
  386.250    8.562    0.340    0.438   77.230
  386.500    8.563    0.324    0.427   77.242
  386.750    8.646    0.322    0.417   76.035
  387.000    8.728    0.350    0.409   76.041
  387.250    8.729    0.365    0.404   78.526
  387.500    8.811    0.374    0.401   80.384
  387.750    8.731    0.363    0.401   81.008
  388.000    8.732    0.347    0.402   82.869
  388.250    8.651    0.336    0.406   82.885
  388.500    8.571    0.329    0.412   81.670
  388.750    8.491    0.326    0.426   82.918
  389.000    8.329    0.343    0.440   84.157
  389.250    8.167    0.347    0.447   87.869
  389.500    7.925    0.355    0.448   89.108
  389.750    7.682    0.321    0.448   92.200
  390.000    7.358    0.291    0.447   94.058
  390.250    7.196    0.280    0.443   94.071
  390.500    6.953    0.281    0.439   91.630
  390.750    6.954    0.288    0.437   93.491
  391.000    7.118    0.272    0.433   95.344
  391.250    7.363    0.259    0.431   99.663
  391.500    7.526    0.242    0.438  105.219
  391.750    7.771    0.248    0.438  104.614
  392.000    8.016    0.279    0.429   93.563
  392.250    8.099    0.306    0.421   82.512
  392.500    8.263    0.326    0.414   72.692
  392.750    8.263    0.332    0.412   64.716
  393.000    8.264    0.328    0.445   66.575
  393.250    7.940    0.329    0.460   75.197
  393.500    7.372    0.322    0.468   83.202
  393.750    6.885    0.318    0.472   89.985
  394.000    6.479    0.319    0.472   93.689
  394.250    6.155    0.318    0.465   96.776
  394.500    5.912    0.317    0.457   90.647
  394.750    5.751    0.321    0.442   85.126
  395.000    5.833    0.335    0.439   77.151
  395.250    6.078    0.346    0.431   72.859
  395.500    6.649    0.359    0.427   69.802
  395.750    7.056    0.351    0.422   74.737
  396.000    7.545    0.346    0.429   77.828
  396.250    7.952    0.346    0.436   79.070
  396.500    8.116    0.354    0.442   79.096
  396.750    8.198    0.359    0.436   78.495
  397.000    8.200    0.353    0.432   78.504
  397.250    8.200    0.348    0.430   78.519
  397.500    8.120    0.336    0.432   82.226
  397.750    7.796    0.314    0.443   86.542
  398.000    7.634    0.288    0.448   90.859
  398.250    7.229    0.280    0.458   93.332
  398.500    6.823    0.287    0.465   93.963
  398.750    6.580    0.290    0.464   92.748
  399.000    6.418    0.291    0.461   90.918
  399.250    6.338    0.266    0.463   94.012
  399.500    6.258    0.248    0.469   95.871
  399.750    6.178    0.247    0.466   98.343
  400.000    6.098    0.252    0.461   98.974
  400.250    6.018    0.259    0.459   92.225
  400.500    6.019    0.251    0.456   88.555
  400.750    6.019    0.243    0.458   89.797
  401.000    5.939    0.243    0.461   95.964
  401.250    5.940    0.256    0.461   97.207
  401.500    6.022    0.270    0.453   97.220
  401.750    6.105    0.293    0.429   86.785
  402.000    6.268    0.306    0.418   79.421
  402.250    6.595    0.320    0.407   72.676
  402.500    6.758    0.322    0.405   68.389
  402.750    7.084    0.319    0.411   65.332
  403.000    7.248    0.323    0.422   65.347
  403.250    7.411    0.327    0.426   68.434
  403.500    7.575    0.321    0.430   75.833
  403.750    7.332    0.314    0.433   78.919
  404.000    7.171    0.310    0.434   82.012
  404.250    7.009    0.299    0.431   83.248
  404.500    6.929    0.291    0.435   83.883
  404.750    6.848    0.281    0.441   83.279
  405.000    6.768    0.294    0.444   82.065
  405.250    6.769    0.283    0.441   80.239
  405.500    6.851    0.278    0.436   77.796
  405.750    7.015    0.281    0.429   75.965
  406.000    7.504    0.295    0.425   73.526
  406.250    7.749    0.310    0.421   71.694
  406.500    8.319    0.319    0.415   69.868
  406.750    8.727    0.307    0.412   69.263
