~VERSION INFORMATION
 VERS.                 2.0:   CWLS LOG ASCII STANDARD -VERSION 2.0
 WRAP.                  NO:   ONE LINE PER DEPTH STEP
~WELL INFORMATION BLOCK
#MNEM.UNIT           DATA                    DESCRIPTION OF MNEMONIC
#---------    -------------------            -------------------------------
# Generated from Intellog Unique Number	CW_73_75/WELL/1036
WELL.         ICGR FRANCIS 11-10             : Well_name    - WELL
LOC .         00/11-10-074-22W4/0            : Location     - LOCATION
UWI .         00/11-10-074-22W4/0            : Uwi          - UNIQUE WELL ID
ENTR.         JAYE                           : Entered      - ENTERED BY
SRVC.         SCHLUMBERGER                   : Scn          - SERVICE COMPANY
DATE.         27 MAR 82                      : Date         - LOG DATE
STRT.M        350                            : top_depth    - START DEPTH
STOP.M        555                            : bot_depth    - STOP DEPTH
STEP.M        0.25                           : increment    - STEP LENGTH
 NULL. -999.2500:NULL Value
~CURVE INFORMATION BLOCK
#MNEM UNIT       ERCB CURVE CODE    CURVE DESCRIPTION
#-----------   ------------------   ----------------------------------
DEPT.M        00 001 00 00         : DEPTH        - DEPTH
NPHI.V/V      00 330 00 00         : PHIN         - NEUTRON POROSITY (SANDSTONE)
DPHI.V/V      00 890 00 00         : PHID         - DENSITY POROSITY (SANDSTONE)
GR  .API      00 310 00 00         : GR           - GAMMA RAY
CALI.MM       00 280 01 00         : CAL          - CALIPER
ILD .OHMM     00 120 00 00         : RESD         - DEEP RESISTIVITY (DLL)
~PARAMETER INFORMATION
#MNEM.UNIT           DATA             DESCRIPTION OF MNEMONIC
#---------         -----------     ------------------------------
GL  .M        646.2                : gl           - GROUND LEVEL ELEVATION
EREF.M        648.7                : kb           - ELEVATION OF DEPTH REFERENCE
DATM.M        646.2                : datum        - DATUM ELEVATION
TDD .M        600                  : tdd          - TOTAL DEPTH DRILLER
RUN .         ONE                  : Run          - RUN NUMBER
ENG .         HOLDE                : Engineer     - RECORDING ENGINEER
WIT .         COOK                 : Witness      - WITNESSED BY
BASE.         EDMONTON             : Branch       - HOME BASE OF LOGGING UNIT
MUD .         GEL CHEM             : Mud_type     - MUD TYPE
MATR.         SANDSTONE            : Logunit      - NEUTRON MATRIX
TMAX.C        25                   : BHT          - MAXIMUM RECORDED TEMPERATURE
BHTD.M        600.5                : BHTDEP       - MAXIMUM RECORDED TEMPERATURE
RMT .C        20                   : MDTP         - TEMPERATURE OF MUD
MUDD.KG/M     9.5                  : MWT          - MUD DENSITY
NEUT.         1                    : NEUTRON      - NEUTRON TYPE
RESI.         1                    : RESIST       - RESISTIVITY TYPE
RM  .OHMM     5.105                : RM           - RESISTIVITY OF MUD
RMC .OHMM     2.13                 : RMC          - RESISTIVITY OF MUD CAKE
RMF .OHMM     7.23                 : RMF          - RESISTIVITY OF MUD FILTRATE
SUFT.C        0                    : SUFT         - SURFACE TEMPERATURE
~A  DEPTH     PHIN     PHID       GR      CAL     RESD
# ...
  386.500    0.385    0.236  108.077  164.543    5.472
  386.750    0.414    0.229   95.319  164.729    5.490
  387.000    0.426    0.241   83.231  162.806    5.530
  387.250    0.424    0.262   76.328  157.856    5.568
  387.500    0.417    0.283   70.036  153.706    5.545
  387.750    0.418    0.297   69.062  150.270    5.400
  388.000    0.461    0.300   73.584  149.652    5.328
  388.250    0.471    0.290   70.794  151.947    5.356
  388.500    0.453    0.300   68.006  154.957    5.344
  388.750    0.418    0.300   79.717  157.557    5.391
  389.000    0.394    0.267   90.160  157.545    5.522
  389.250    0.395    0.223   97.284  157.327    5.676
  389.500    0.426    0.211   90.629  162.647    5.581
  389.750    0.438    0.255   80.947  155.295    5.444
  390.000    0.439    0.320   69.884  151.236    5.361
  390.250    0.443    0.354   63.648  149.508    5.419
  390.500    0.451    0.353   59.471  151.613    5.612
  390.750    0.441    0.348   61.881  154.017    5.770
  391.000    0.462    0.343   67.131  156.213    5.843
  391.250    0.459    0.339   73.402  155.895    5.884
  391.500    0.445    0.334   78.347  155.883    5.903
  391.750    0.442    0.319   77.373  157.176    5.912
  392.000    0.464    0.305   74.582  155.243    5.921
  392.250    0.459    0.310   74.877  152.310    5.897
  392.500    0.450    0.299   75.841  151.185    5.906
  392.750    0.442    0.287   77.337  150.869    5.947
  393.000    0.440    0.291   79.323  151.157    5.967
  393.250    0.429    0.305   80.697  151.441    5.976
  393.500    0.433    0.298   82.201  152.731    6.007
  393.750    0.444    0.288   83.398  156.346    6.072
  394.000    0.441    0.284   84.301  158.242    6.047
  394.250    0.434    0.297   84.298  157.121    6.011
  394.500    0.445    0.308   83.734  156.602    5.886
  394.750    0.441    0.308   79.193  157.391    5.689
  395.000    0.421    0.307   76.947  159.392    5.529
  395.250    0.409    0.297   79.777  161.390    5.364
  395.500    0.429    0.276   84.301  163.389    5.263
  395.750    0.448    0.254   83.991  165.189    5.242
  396.000    0.440    0.248   85.981  163.755    5.279
  396.250    0.469    0.246   88.079  160.927    5.376
  396.500    0.465    0.246   86.742  155.773    5.695
  396.750    0.453    0.248   81.898  152.735    5.821
  397.000    0.442    0.283   76.088  150.002    5.775
  397.250    0.447    0.303   73.421  150.285    5.572
  397.500    0.446    0.284   75.408  156.016    5.355
  397.750    0.430    0.271   78.055  159.317    5.215
  398.000    0.437    0.270   81.309  161.518    5.126
  398.250    0.442    0.284   89.455  162.920    5.104
  398.500    0.446    0.253   95.731  163.805    5.150
  398.750    0.447    0.232   98.259  164.700    5.266
  399.000    0.444    0.216   94.022  163.981    5.343
  399.250    0.436    0.208   89.361  164.168    5.420
  399.500    0.426    0.201   90.195  163.842    5.459
  399.750    0.428    0.201   93.814  162.627    5.457
  400.000    0.484    0.212   93.502  161.797    5.464
  400.250    0.499    0.217   82.857  160.980    5.463
  400.500    0.481    0.231   66.291  158.141    5.379
  400.750    0.463    0.293   46.099  156.223    5.317
  401.000    0.442    0.331   38.599  155.899    5.324
  401.250    0.420    0.331   35.690  156.497    5.382
  401.500    0.414    0.328   36.102  155.166    5.482
  401.750    0.422    0.328   46.308  153.032    5.677
  402.000    0.410    0.323   48.233  151.710    5.913
  402.250    0.396    0.313   49.066  151.799    6.216
  402.500    0.388    0.300   53.591  152.083    6.462
  402.750    0.409    0.310   59.743  153.776    6.569
  403.000    0.433    0.318   71.153  156.880    6.518
  403.250    0.476    0.303   79.303  158.978    6.288
  403.500    0.470    0.284   83.339  160.778    5.987
  403.750    0.481    0.279   88.049  160.964    5.712
  404.000    0.514    0.301   83.987  158.840    5.450
  404.250    0.512    0.325   68.934  155.909    5.287
  404.500    0.483    0.334   58.227  153.362    5.265
  404.750    0.403    0.342   58.037  149.321    5.382
  405.000    0.401    0.352   61.349  146.487    5.574
  405.250    0.440    0.369   62.489  147.375    5.916
  405.500    0.484    0.398   57.834  150.584    6.241
  405.750    0.473    0.378   54.556  153.097    6.735
  406.000    0.454    0.341   54.488  153.876    7.269
  406.250    0.411    0.324   55.325  153.462    7.513
  406.500    0.414    0.317   55.856  152.743    7.331
  406.750    0.421    0.308   56.277  153.832    7.059
  407.000    0.422    0.310   54.994  155.530    6.672
  407.250    0.411    0.338   53.895  155.614    6.259
  407.500    0.401    0.350   53.830  153.279    5.937
  407.750    0.401    0.356   54.360  151.860    5.686
  408.000    0.416    0.351   48.552  151.240    5.695
  408.250    0.411    0.339   41.472  150.526    5.842
  408.500    0.407    0.326   44.913  149.799    6.062
  408.750    0.414    0.322   47.742  148.975    6.196
  409.000    0.416    0.322   50.087  148.855    6.347
  409.250    0.398    0.325   51.412  148.849    6.476
  409.500    0.413    0.330   51.278  148.827    6.608
  409.750    0.410    0.322   52.357  149.423    6.755
  410.000    0.411    0.309   57.059  149.703    6.866
  410.250    0.426    0.299   66.534  150.396    6.941
  410.500    0.428    0.292   77.160  152.697    6.924
  410.750    0.430    0.293   70.624  155.196    6.718
  411.000    0.435    0.299   61.009  156.285    6.421
  411.250    0.443    0.337   51.817  155.975    6.195
  411.500    0.453    0.349   46.184  155.152    6.033
  411.750    0.452    0.345   48.663  154.639    5.896
  412.000    0.446    0.342   47.136  154.317    5.797
  412.250    0.435    0.334   47.066  153.290    5.761
  412.500    0.426    0.344   52.615  151.359    5.845
  412.750    0.420    0.348   53.813  149.938    6.216
  413.000    0.425    0.343   48.487  149.014    6.510
  413.250    0.435    0.337   50.050  148.704    6.690
  413.500    0.434    0.335   54.511  148.483    6.528
  413.750    0.433    0.339   58.495  147.972    6.079
  414.000    0.438    0.351   61.198  148.055    5.788
  414.250    0.483    0.365   64.091  148.238    5.563
  414.500    0.493    0.345   62.695  148.920    6.255
  414.750    0.465    0.198   43.044  151.018    7.678
  415.000    0.272    0.095   33.128  152.317   10.327
  415.250    0.137   -0.015   32.270  153.006   17.841
  415.500    0.131   -0.021   36.977  154.506   35.856
  415.750    0.137   -0.018   42.523  155.599   47.340
  416.000    0.138   -0.016   48.435  154.684   42.542
  416.250    0.160   -0.003   58.640  153.552   33.359
  416.500    0.200    0.262   68.721  150.206   16.279
  416.750    0.237    0.288   74.452  148.699    9.829
  417.000    0.357    0.284   81.212  148.563    7.152
  417.250    0.484    0.285   82.051  150.781    6.464
  417.500    0.444    0.284   81.552  152.166    5.830
  417.750    0.424    0.278   82.937  152.246    5.657
  418.000    0.434    0.266   84.799  151.739    5.686
  418.250    0.455    0.261   84.727  151.711    5.790
  418.500    0.470    0.278   81.759  151.391    5.810
  418.750    0.472    0.312   90.814  151.278    5.862
  419.000    0.464    0.323   97.448  152.070    5.937
  419.250    0.452    0.325   88.499  153.769    5.946
  419.500    0.435    0.332   70.968  154.458    5.932
  419.750    0.423    0.336   62.255  154.652    5.875
  420.000    0.436    0.329   59.109  153.727    5.873
  420.250    0.453    0.321   58.976  153.005    5.837
  420.500    0.468    0.324   57.574  152.183    5.781
  420.750    0.458    0.324   52.974  151.358    5.746
  421.000    0.453    0.325   49.038  150.943    5.722
  421.250    0.450    0.323   51.692  150.330    5.688
  421.500    0.451    0.318   54.949  150.308    5.696
  421.750    0.461    0.314   57.773  150.896    5.672
  422.000    0.478    0.313   58.970  150.989    5.452
  422.250    0.468    0.316   49.533  151.078    5.461
  422.500    0.459    0.324   43.360  151.049    5.459
  422.750    0.443    0.323   40.696  151.639    5.436
