~VERSION INFORMATION
 VERS.                 2.0:   CWLS LOG ASCII STANDARD -VERSION 2.0
 WRAP.                  NO:   ONE LINE PER DEPTH STEP
~WELL INFORMATION BLOCK
#MNEM.UNIT           DATA                    DESCRIPTION OF MNEMONIC
#---------    -------------------            -------------------------------
# Generated from Intellog Unique Number	CW_73_75/WELL/913
WELL.         GULF POC DROWNED 10-15         : Well_name    - WELL
LOC .         00/10-15-075-20W4/0            : Location     - LOCATION
UWI .         00/10-15-075-20W4/0            : Uwi          - UNIQUE WELL ID
ENTR.         JAYE                           : Entered      - ENTERED BY
SRVC.         SCHLUMBERGER                   : Scn          - SERVICE COMPANY
DATE.         18 JAN 77                      : Date         - LOG DATE
STRT.M        292.608                        : top_depth    - START DEPTH
STOP.M        478.608                        : bot_depth    - STOP DEPTH
STEP.M        0.25                           : increment    - STEP LENGTH
 NULL. -999.2500:NULL Value
~CURVE INFORMATION BLOCK
#MNEM UNIT       ERCB CURVE CODE    CURVE DESCRIPTION
#-----------   ------------------   ----------------------------------
DEPT.M        00 001 00 00         : DEPTH        - DEPTH
ILD .OHMM     00 120 00 00         : RESD         - DEEP RESISTIVITY (DIL)
CALI.MM       00 280 01 00         : CAL          - CALIPER
GR  .API      00 310 00 00         : GR           - GAMMA RAY
NPHI.V/V      00 330 00 00         : PHIN         - NEUTRON POROSITY (SANDSTONE)
DPHI.V/V      00 890 00 00         : PHID         - DENSITY POROSITY (SANDSTONE)
~PARAMETER INFORMATION
#MNEM.UNIT           DATA             DESCRIPTION OF MNEMONIC
#---------         -----------     ------------------------------
GL  .M        609.6                : gl           - GROUND LEVEL ELEVATION
EREF.M        613.867              : kb           - ELEVATION OF DEPTH REFERENCE
DATM.M        609.6                : datum        - DATUM ELEVATION
TDD .M        504.444              : tdd          - TOTAL DEPTH DRILLER
RUN .         ONE                  : Run          - RUN NUMBER
MATR.         SANDSTONE            : Logunit      - NEUTRON MATRIX
TMAX.C        13.0556              : BHT          - MAXIMUM RECORDED TEMPERATURE
BHTD.M        504.139              : BHTDEP       - MAXIMUM RECORDED TEMPERATURE
RMT .C        13.3333              : MDTP         - TEMPERATURE OF MUD
MUDD.KG/M     0                    : MWT          - MUD DENSITY
NEUT.         1                    : NEUTRON      - NEUTRON TYPE
RESI.         0                    : RESIST       - RESISTIVITY TYPE
RM  .OHMM     2.61                 : RM           - RESISTIVITY OF MUD
RMC .OHMM     0                    : RMC          - RESISTIVITY OF MUD CAKE
RMF .OHMM     5.13                 : RMF          - RESISTIVITY OF MUD FILTRATE
SUFT.C        -17.7778             : SUFT         - SURFACE TEMPERATURE
~A  DEPTH     RESD      CAL       GR     PHIN     PHID
  292.608    2.802  198.981  110.912    0.525    0.263
  292.858    2.849  201.471  108.962    0.536    0.244
  293.108    2.923  203.029  108.234    0.547    0.267
  293.358    2.890  204.174  106.772    0.540    0.272
  293.608    2.796  204.595  109.158    0.541    0.266
  293.858    2.719  205.119  106.781    0.567    0.279
  294.108    2.645  202.955  110.572    0.565    0.306
  294.358    2.620  200.067  112.164    0.548    0.310
  294.608    2.659  199.247  111.436    0.533    0.291
  294.858    2.753  199.048  109.669    0.536    0.285
  295.108    2.903  199.158  105.337    0.536    0.285
  295.358    3.017  199.579  105.463    0.531    0.273
  295.608    3.095  200.104  107.361    0.524    0.270
  295.858    3.112  199.904  106.022    0.528    0.285
  296.108    3.135  198.774  103.155    0.522    0.277
  296.358    3.198  197.436   99.313    0.507    0.282
  296.608    3.429  199.926   96.324    0.507    0.263
  296.858    4.062  203.243   87.411    0.515    0.266
  297.108    4.828  196.425   73.246    0.487    0.275
  297.358    5.749  188.882   63.967    0.459    0.264
  297.608    7.208  173.480   67.758    0.368    0.178
  297.858    8.443  168.316   70.389    0.395    0.216
  298.108    9.638  166.876   68.195    0.400    0.305
  298.358   10.624  165.643   65.451    0.406    0.360
  298.608   11.906  164.512   62.767    0.419    0.369
  298.858   13.027  163.795   60.329    0.440    0.375
  299.108   14.150  164.321   58.929    0.449    0.389
  299.358   14.491  165.051   58.749    0.456    0.396
  299.608   12.075  166.197   60.647    0.467    0.373
  299.858   10.383  166.514   65.843    0.464    0.361
  300.108    8.278  166.831   71.100    0.452    0.352
  300.358    7.053  168.908   80.143    0.436    0.345
  300.608    5.975  172.431   87.843    0.433    0.333
  300.858    5.185  179.781   93.100    0.454    0.305
  301.108    4.668  188.166   96.646    0.445    0.277
  301.358    4.693  196.757   93.353    0.448    0.295
  301.608    4.798  193.455   88.349    0.458    0.302
  301.858    4.958  180.328   83.956    0.443    0.322
  302.108    4.717  171.751   82.678    0.428    0.328
  302.358    4.496  173.620   94.042    0.433    0.299
  302.608    4.537  178.798  101.864    0.468    0.322
  302.858    4.785  191.526  108.892    0.494    0.328
  303.108    5.188  204.978  110.851    0.483    0.350
  303.358    5.573  194.643  105.603    0.454    0.374
  303.608    6.098  200.340   99.011    0.458    0.325
  303.858    6.432  194.038   92.114    0.456    0.343
  304.108    6.550  172.534   85.339    0.442    0.362
  304.358    6.466  168.404   84.488    0.433    0.321
  304.608    6.335  166.964   91.455    0.431    0.325
  304.858    6.060  168.006   98.850    0.415    0.329
  305.108    5.884  170.391  103.129    0.411    0.301
  305.358    5.557  177.018  106.493    0.431    0.288
  305.608    5.133  189.849  109.001    0.455    0.275
  305.858    4.777  187.891  106.196    0.478    0.296
  306.108    4.421  182.521  106.322    0.503    0.262
  306.358    4.348  196.180  108.525    0.538    0.240
  306.608    4.502  207.564  107.981    0.539    0.284
  306.858    4.935  210.260  105.358    0.522    0.294
  307.108    5.521  198.891   99.743    0.469    0.322
  307.358    6.030  181.834   92.358    0.418    0.279
  307.608    6.634  170.465   86.499    0.392    0.272
  307.858    7.503  168.921   82.656    0.373    0.262
  308.108    7.812  168.619   82.660    0.354    0.231
  308.358    7.669  168.936   84.191    0.337    0.169
  308.608    6.497  170.495   88.593    0.383    0.174
  308.858    5.690  174.122   98.797    0.417    0.250
  309.108    5.247  178.576  107.901    0.475    0.321
  309.358    5.122  183.755  108.333    0.490    0.322
  309.608    5.122  188.106  102.963    0.496    0.334
  309.858    5.245  187.906   95.822    0.485    0.338
  310.108    5.431  180.261   93.383    0.466    0.351
  310.358    5.654  172.614  100.472    0.452    0.328
  310.608    5.963  172.312  102.675    0.429    0.346
  310.858    6.243  168.079  105.001    0.415    0.305
  311.108    6.524  167.259  107.082    0.406    0.288
  311.358    6.780  172.023  109.040    0.405    0.274
  311.608    7.085  175.754  109.716    0.417    0.260
  311.858    7.404  172.452  104.346    0.431    0.240
  312.108    7.794  168.323   98.426    0.420    0.257
  312.358    8.220  166.882   93.239    0.401    0.267
  312.608    8.863  166.271   85.303    0.406    0.270
  312.858   10.439  166.278   74.009    0.417    0.275
  313.108   12.686  166.077   64.302    0.433    0.298
  313.358   15.731  165.464   57.711    0.447    0.331
  313.608   17.629  164.333   58.754    0.430    0.362
  313.858   18.627  163.617   58.880    0.422    0.352
  314.108   17.018  163.210   56.319    0.424    0.350
  314.358   14.714  163.115   56.323    0.424    0.357
  314.608   11.667  163.226   61.580    0.402    0.344
  314.858    9.286  163.233   67.265    0.384    0.349
  315.108    8.102  163.240   69.651    0.394    0.356
  315.358    7.188  163.041   72.159    0.409    0.340
  315.608    6.436  162.738   76.011    0.417    0.340
  315.858    6.078  162.332   80.779    0.410    0.329
  316.108    5.868  162.028   82.250    0.408    0.304
  316.358    5.933  161.830   83.292    0.411    0.287
  316.608    6.020  161.941   84.640    0.403    0.295
  316.858    6.210  162.257   88.431    0.397    0.292
  317.108    6.360  162.989   94.909    0.395    0.263
  317.358    6.289  163.927   98.029    0.396    0.268
  317.608    5.928  165.175  100.354    0.400    0.261
  317.858    5.107  166.527  102.129    0.406    0.245
  318.108    4.383  170.568  103.600    0.413    0.231
  318.358    3.768  170.575  104.276    0.418    0.232
  318.608    3.258  169.031  105.929    0.439    0.280
  318.858    2.859  178.139  111.552    0.564    0.261
  319.108    2.531  186.421  118.763    0.602    0.274
  319.358    2.458  184.463  124.509    0.592    0.277
  319.608    2.439  189.124  127.811    0.573    0.301
  319.858    2.489  199.267  127.571    0.564    0.313
  320.108    2.539  196.999  126.110    0.577    0.306
  320.358    2.591  193.490  127.214    0.569    0.288
  320.608    2.653  197.945  124.958    0.578    0.284
  320.858    2.840  195.263  123.191    0.575    0.321
  321.108    3.206  204.061  123.623    0.567    0.348
  321.358    3.825  200.345  120.452    0.539    0.344
  321.608    4.447  187.218  115.082    0.486    0.317
  321.858    5.067  177.504  110.078    0.485    0.297
  322.108    5.504  186.716  106.967    0.510    0.276
  322.358    5.794  197.272  103.979    0.511    0.276
  322.608    5.944  197.796   99.647    0.490    0.277
  322.858    6.339  187.151   93.788    0.465    0.260
  323.108    6.885  174.232   84.509    0.418    0.276
  323.358    7.301  168.861   79.444    0.383    0.306
  323.608    7.354  166.593   80.915    0.382    0.294
  323.858    7.101  166.807   84.828    0.404    0.293
  324.108    7.126  166.815   90.329    0.440    0.292
  324.358    7.557  166.099   94.670    0.466    0.305
  324.608    7.825  165.485   95.284    0.483    0.294
  324.858    8.222  165.079   85.822    0.479    0.319
  325.108    8.592  165.397   80.024    0.475    0.343
  325.358    8.880  165.715   80.823    0.459    0.345
  325.608    8.961  165.721   82.904    0.456    0.343
  325.858    8.910  166.039   82.175    0.461    0.347
  326.108    8.307  166.667   79.858    0.457    0.349
  326.358    7.618  167.502   81.879    0.429    0.348
  326.608    6.871  168.440   85.975    0.404    0.332
  326.858    6.266  169.998   92.942    0.413    0.310
  327.108    6.017  176.418   96.549    0.447    0.304
  327.358    5.863  183.975   99.668    0.477    0.298
  327.608    5.734  177.984  103.032    0.511    0.313
  327.858    5.608  170.235   96.074    0.478    0.348
  328.108    5.566  166.415   94.063    0.467    0.350
  328.358    5.464  166.527   96.510    0.462    0.356
  328.608    5.433  167.672  103.721    0.464    0.354
  328.858    5.594  168.817  110.505    0.465    0.322
