~VERSION INFORMATION
 VERS.                 2.0:   CWLS LOG ASCII STANDARD -VERSION 2.0
 WRAP.                  NO:   ONE LINE PER DEPTH STEP
~WELL INFORMATION BLOCK
#MNEM.UNIT           DATA                    DESCRIPTION OF MNEMONIC
#---------    -------------------            -------------------------------
# Generated from Intellog Unique Number	CS_73_76/WELL/3254
WELL.         10-34-075-09W4                 : Well_name    - WELL
LOC .         00/10-34-075-09W4/0            : Location     - LOCATION
UWI .         00/10-34-075-09W4/0            : Uwi          - UNIQUE WELL ID
ENTR.         SP                             : Entered      - ENTERED BY
SRVC.         SCHLUMBERGER                   : Scn          - SERVICE COMPANY
STRT.M        270                            : top_depth    - START DEPTH
STOP.M        500                            : bot_depth    - STOP DEPTH
STEP.M        0.25                           : increment    - STEP LENGTH
 NULL. -999.2500:NULL Value
~CURVE INFORMATION BLOCK
#MNEM UNIT       ERCB CURVE CODE    CURVE DESCRIPTION
#-----------   ------------------   ----------------------------------
DEPT.M        00 001 00 00         : DEPTH        - DEPTH
ILD .OHMM     00 120 00 00         : RESD         - DEEP RESISTIVITY (DIL)
DPHI.V/V      00 890 00 00         : PHID         - DENSITY POROSITY (LIMESTONE)
NPHI.V/V      00 330 00 00         : PHIN         - NEUTRON POROSITY (LIMESTONE)
GR  .API      00 310 00 00         : GR           - GAMMA RAY
~PARAMETER INFORMATION
#MNEM.UNIT           DATA             DESCRIPTION OF MNEMONIC
#---------         -----------     ------------------------------
GL  .M        673.46               : gl           - GROUND LEVEL ELEVATION
EREF.M        676.81               : kb           - ELEVATION OF DEPTH REFERENCE
DATM.M        673.46               : datum        - DATUM ELEVATION
TDD .M        515                  : tdd          - TOTAL DEPTH DRILLER
RUN .         ONE                  : Run          - RUN NUMBER
ENG .         BILL                 : Engineer     - RECORDING ENGINEER
WIT .         JIM                  : Witness      - WITNESSED BY
MUD .         GEL                  : Mud_type     - MUD TYPE
MATR.         LIMESTONE            : Logunit      - NEUTRON MATRIX
TMAX.C        17.4                 : BHT          - MAXIMUM RECORDED TEMPERATURE
BHTD.M        515                  : BHTDEP       - MAXIMUM RECORDED TEMPERATURE
MATR.         1                    : LOGUNIT      - NEUTRON MATRIX
RMT .C        25                   : MDTP         - TEMPERATURE OF MUD
NEUT.         1                    : NEUTRON      - NEUTRON TYPE
RESI.         0                    : RESIST       - RESISTIVITY TYPE
RMC .OHMM     0.25                 : RMC          - RESISTIVITY OF MUD CAKE
RMF .OHMM     0.25                 : RMF          - RESISTIVITY OF MUD FILTRATE
SUFT.C        15                   : SUFT         - SURFACE TEMPERATURE
~A  DEPTH     RESD     PHID     PHIN       GR
# ...
  313.500    7.075    0.234    0.388   98.228
  313.750    6.443    0.230    0.384  102.490
  314.000    6.090    0.237    0.385  110.404
  314.250    6.442    0.224    0.390  115.881
  314.500    6.942    0.239    0.408  118.310
  314.750    8.064    0.236    0.433  120.132
  315.000    9.723    0.261    0.449  115.852
  315.250   10.479    0.270    0.460  107.303
  315.500   11.506    0.288    0.468  104.247
  315.750   11.506    0.310    0.477   99.360
  316.000   10.092    0.281    0.460   95.081
  316.250    9.363    0.246    0.454   93.242
  316.500    9.363    0.236    0.448   96.276
  316.750    9.720    0.250    0.443   98.706
  317.000   10.090    0.260    0.438  101.745
  317.250   10.474    0.263    0.432  104.784
  317.500   10.672    0.274    0.423  106.605
  317.750   10.473    0.278    0.420  103.544
  318.000   10.473    0.276    0.415   99.266
  318.250   10.278    0.273    0.417   96.817
  318.500    9.536    0.269    0.414   96.200
  318.750    9.185    0.268    0.408   96.797
  319.000    8.364    0.279    0.405   97.399
  319.250    7.760    0.268    0.403   98.608
  319.500    7.474    0.252    0.415  101.037
  319.750    7.759    0.229    0.430  102.856
  320.000    8.845    0.251    0.448   99.794
  320.250   10.274    0.245    0.471   98.567
  320.500   11.933    0.272    0.482   94.288
  320.750   13.603    0.294    0.488   84.523
  321.000   14.937    0.388    0.513   75.365
  321.250   16.401    0.420    0.544   68.650
  321.500   17.676    0.484    0.561   61.323
  321.750   18.696    0.558    0.575   49.117
  322.000   19.408    0.482    0.535   55.814
  322.250   20.916    0.255    0.477   60.681
  322.500   21.713    0.261    0.395   60.664
  322.750   22.966    0.269    0.375   60.044
  323.000   23.399    0.281    0.376   59.427
  323.250   24.290    0.288    0.385   58.812
  323.500   24.748    0.303    0.397   56.361
  323.750   25.690    0.319    0.406   54.520
  324.000   25.689    0.325    0.396   53.901
  324.250   25.688    0.317    0.392   54.504
  324.500   26.172    0.320    0.403   56.932
  324.750   26.171    0.320    0.408   59.965
  325.000   26.169    0.315    0.408   59.961
  325.250   26.662    0.331    0.407   56.898
  325.500   26.661    0.326    0.405   56.282
  325.750   26.660    0.333    0.400   54.439
  326.000   26.659    0.342    0.398   56.260
  326.250   26.657    0.337    0.405   62.954
  326.500   27.160    0.331    0.407   65.386
  326.750   27.671    0.321    0.408   67.817
  327.000   27.670    0.319    0.411   61.092
  327.250   27.669    0.337    0.419   58.643
  327.500   28.190    0.340    0.434   55.584
  327.750   28.188    0.342    0.433   53.749
  328.000   28.186    0.349    0.424   51.910
  328.250   28.185    0.353    0.414   52.513
  328.500   28.184    0.337    0.408   54.331
  328.750   28.183    0.343    0.406   57.365
  329.000   28.181    0.347    0.412   57.360
  329.250   28.180    0.328    0.419   57.959
  329.500   27.655    0.330    0.421   59.168
  329.750   27.141    0.331    0.415   60.378
  330.000   27.140    0.340    0.406   61.580
  330.250   26.140    0.346    0.421   62.180
  330.500   26.139    0.337    0.428   62.174
  330.750   25.653    0.334    0.434   61.556
  331.000   25.652    0.329    0.437   59.714
  331.250   25.175    0.345    0.426   59.705
  331.500   24.707    0.344    0.418   59.697
  331.750   24.706    0.344    0.410   60.297
  332.000   24.246    0.340    0.407   60.284
  332.250   23.795    0.334    0.410   59.662
  332.500   23.794    0.344    0.414   59.654
  332.750   23.352    0.344    0.422   60.251
  333.000   23.350    0.335    0.425   60.242
  333.250   22.916    0.339    0.428   60.844
  333.500   22.915    0.347    0.414   60.835
  333.750   22.488    0.347    0.412   60.824
  334.000   22.487    0.347    0.425   61.424
  334.250   22.486    0.346    0.430   62.634
  334.500   22.485    0.343    0.424   63.233
  334.750   22.909    0.338    0.419   62.002
  335.000   22.907    0.335    0.408   61.382
  335.250   23.340    0.344    0.403   61.373
  335.500   24.229    0.344    0.404   61.364
  335.750   24.685    0.341    0.402   61.350
  336.000   25.151    0.354    0.396   61.340
  336.250   25.624    0.338    0.391   61.334
  336.500   24.224    0.315    0.390   62.541
  336.750   21.649    0.272    0.372   63.751
  337.000   20.852    0.228    0.331   66.791
  337.250   19.347    0.172    0.292   70.436
  337.500   19.346    0.244    0.314   73.474
  337.750   19.711    0.292    0.354   74.686
  338.000   20.847    0.339    0.414   72.848
  338.250   21.240    0.355    0.440   69.178
  338.500   21.641    0.362    0.438   66.119
  338.750   21.640    0.348    0.431   68.546
  339.000   21.638    0.341    0.426   71.587
  339.250   21.638    0.334    0.426   75.842
  339.500   21.636    0.332    0.439   77.666
  339.750   21.635    0.345    0.445   80.094
  340.000   22.043    0.341    0.451   70.323
  340.250   22.042    0.337    0.444   67.270
  340.500   22.041    0.348    0.440   61.771
  340.750   22.456    0.356    0.441   60.542
  341.000   22.879    0.364    0.442   62.965
  341.250   22.878    0.357    0.444   64.178
  341.500   23.309    0.352    0.445   63.557
  341.750   23.308    0.355    0.436   61.720
  342.000   22.875    0.361    0.425   61.100
  342.250   22.873    0.346    0.421   61.091
  342.500   22.448    0.341    0.419   61.074
  342.750   22.030    0.333    0.425   60.454
  343.000   21.220    0.336    0.428   60.448
  343.250   20.825    0.338    0.425   58.609
  343.500   20.824    0.343    0.428   57.381
  343.750   20.437    0.353    0.429   55.540
  344.000   20.436    0.342    0.421   55.529
  344.250   20.056    0.347    0.432   56.741
  344.500   20.054    0.353    0.438   59.169
  344.750   20.053    0.359    0.438   61.594
  345.000   20.053    0.363    0.432   61.586
  345.250   20.052    0.350    0.429   60.967
  345.500   20.050    0.350    0.431   61.568
  345.750   20.049    0.359    0.426   61.557
  346.000   20.049    0.358    0.422   60.938
  346.250   20.047    0.362    0.421   58.489
  346.500   20.047    0.358    0.432   57.868
  346.750   19.673    0.353    0.439   59.686
  347.000   19.672    0.344    0.449   61.505
  347.250   19.672    0.340    0.455   63.929
  347.500   19.670    0.337    0.451   65.138
  347.750   20.041    0.345    0.450   65.129
  348.000   20.418    0.333    0.442   65.124
  348.250   20.418    0.320    0.439   62.676
  348.500   20.802    0.331    0.441   60.225
  348.750   20.802    0.357    0.441   58.994
  349.000   21.193    0.350    0.441   58.987
  349.250   21.192    0.353    0.437   58.365
  349.500   21.191    0.344    0.433   58.357
  349.750   21.190    0.350    0.430   58.342
  350.000   21.189    0.351    0.433   58.330
  350.250   21.188    0.356    0.437   58.323
  350.500   21.187    0.361    0.438   58.315
  350.750   21.186    0.362    0.432   58.914
  351.000   20.792    0.354    0.429   60.736
  351.250   20.405    0.345    0.425   63.164
  351.500   20.790    0.345    0.426   64.374
  351.750   20.788    0.345    0.438   63.752
  352.000   21.180    0.348    0.448   63.130
  352.250   21.179    0.354    0.453   62.513
  352.500   18.928    0.349    0.445   61.278
  352.750   16.916    0.348    0.435   61.269
  353.000   15.695    0.350    0.432   61.261
  353.250   15.117    0.350    0.429   61.252
  353.500   15.694    0.345    0.423   61.244
  353.750   16.291    0.336    0.419   61.232
  354.000   15.400    0.342    0.414   61.830
  354.250   15.114    0.326    0.417   61.824
  354.500   14.558    0.320    0.421   62.422
  354.750   15.113    0.334    0.425   61.801
  355.000   15.688    0.339    0.424   61.181
  355.250   16.286    0.349    0.437   61.171
  355.500   16.906    0.356    0.442   61.161
  355.750   16.906    0.342    0.415   61.762
  356.000   16.905    0.338    0.391   61.752
  356.250   16.283    0.332    0.401   61.742
  356.500   16.282    0.331    0.408   60.511
  356.750   16.902    0.332    0.417   59.282
