~VERSION INFORMATION
 VERS.                 2.0:   CWLS LOG ASCII STANDARD -VERSION 2.0
 WRAP.                  NO:   ONE LINE PER DEPTH STEP
~WELL INFORMATION BLOCK
#MNEM.UNIT           DATA                    DESCRIPTION OF MNEMONIC
#---------    -------------------            -------------------------------
# Generated from Intellog Unique Number	CW_79_81/WELL/3696
WELL.         EAGLE RESOURCES LTD.           : Well_name    - WELL
LOC .         00/15-23-079-22W4/0            : Location     - LOCATION
UWI .         00/15-23-079-22W4/0            : Uwi          - UNIQUE WELL ID
ENTR.         JOETTE                         : Entered      - ENTERED BY
SRVC.         COMPUTALOG                     : Scn          - SERVICE COMPANY
DATE.         08-26-92                       : Date         - LOG DATE
STRT.M        175                            : top_depth    - START DEPTH
STOP.M        450                            : bot_depth    - STOP DEPTH
STEP.M        0.25                           : increment    - STEP LENGTH
 NULL. -999.2500:NULL Value
~CURVE INFORMATION BLOCK
#MNEM UNIT       ERCB CURVE CODE    CURVE DESCRIPTION
#-----------   ------------------   ----------------------------------
DEPT.M        00 001 00 00         : DEPTH        - DEPTH
NPHI.V/V      00 330 00 00         : PHIN         - NEUTRON POROSITY (SANDSTONE)
GR  .API      00 310 00 00         : GR           - GAMMA RAY
DPHI.V/V      00 890 00 00         : PHID         - DENSITY POROSITY (SANDSTONE)
ILD .OHMM     00 120 00 00         : RESD         - DEEP RESISTIVITY (DIL)
~PARAMETER INFORMATION
#MNEM.UNIT           DATA             DESCRIPTION OF MNEMONIC
#---------         -----------     ------------------------------
GL  .M        575.8                : gl           - GROUND LEVEL ELEVATION
EREF.M        579.42               : kb           - ELEVATION OF DEPTH REFERENCE
DATM.M        579.42               : datum        - DATUM ELEVATION
TDD .M        449                  : tdd          - TOTAL DEPTH DRILLER
RUN .         ONE                  : Run          - RUN NUMBER
ENG .         BILL                 : Engineer     - RECORDING ENGINEER
WIT .         JIM                  : Witness      - WITNESSED BY
MUD .         GEL                  : Mud_type     - MUD TYPE
MATR.         SANDSTONE            : Logunit      - NEUTRON MATRIX
TMAX.C        22                   : BHT          - MAXIMUM RECORDED TEMPERATURE
BHTD.M        449                  : BHTDEP       - MAXIMUM RECORDED TEMPERATURE
MATR.         1                    : LOGUNIT      - NEUTRON MATRIX
RMT .C        20                   : MDTP         - TEMPERATURE OF MUD
NEUT.         1                    : NEUTRON      - NEUTRON TYPE
RESI.         0                    : RESIST       - RESISTIVITY TYPE
RMC .OHMM     3.1                  : RMC          - RESISTIVITY OF MUD CAKE
RMF .OHMM     4.5                  : RMF          - RESISTIVITY OF MUD FILTRATE
SUFT.C        15                   : SUFT         - SURFACE TEMPERATURE
~A  DEPTH     PHIN       GR     PHID     RESD
# ...
  305.500    0.433   80.462    0.213   11.531
  305.750    0.434   83.521    0.207    9.407
  306.000    0.428   87.194    0.205    8.741
  306.250    0.420   90.253    0.205    8.753
  306.500    0.428   90.891    0.206    8.924
  306.750    0.437   88.493    0.211    9.447
  307.000    0.435   88.533    0.215    9.999
  307.250    0.437   91.592    0.217   10.585
  307.500    0.445   94.651    0.218   11.421
  307.750    0.455   92.867    0.218   11.427
  308.000    0.443   89.871    0.215   11.660
  308.250    0.439   85.665    0.213   11.669
  308.500    0.439   85.092    0.208   11.681
  308.750    0.440   86.932    0.199   11.691
  309.000    0.439   92.421    0.198   11.278
  309.250    0.435   96.086    0.199   11.079
  309.500    0.428   97.934    0.201   10.686
  309.750    0.423   97.982    0.206    9.930
  310.000    0.418   98.006    0.213    9.583
  310.250    0.422   97.425    0.221    9.768
  310.500    0.427   96.254    0.233    9.962
  310.750    0.439   95.672    0.234   10.550
  311.000    0.446   94.501    0.224   10.754
  311.250    0.430   93.920    0.220   11.386
  311.500    0.438   91.530    0.225   11.402
  311.750    0.435   87.929    0.221   11.209
  312.000    0.427   84.934    0.220   10.805
  312.250    0.421   84.361    0.224   10.615
  312.500    0.430   86.814    0.242   10.436
  312.750    0.440   86.854    0.259   10.637
  313.000    0.469   86.273    0.267   11.474
  313.250    0.462   85.094    0.265   12.143
  313.500    0.441   81.501    0.269   12.620
  313.750    0.444   80.322    0.271   12.630
  314.000    0.455   76.722    0.243   12.643
  314.250    0.450   80.378    0.232   12.656
  314.500    0.442   84.043    0.241   11.761
  314.750    0.435   84.083    0.240   10.530
  315.000    0.428   85.326    0.227    9.610
  315.250    0.437   89.588    0.216    9.264
  315.500    0.466   93.252    0.211    8.772
  315.750    0.472   98.144    0.208    8.307
  316.000    0.477  100.590    0.206    8.312
  316.250    0.476   98.200    0.217    8.320
  316.500    0.473   90.361    0.231    8.812
  316.750    0.452   85.541    0.244    8.982
  317.000    0.447   81.941    0.254    9.508
  317.250    0.440   80.164    0.249    9.881
  317.500    0.430   82.013    0.238   10.267
  317.750    0.423   84.466    0.226   10.667
  318.000    0.417   82.690    0.222   10.879
  318.250    0.438   82.117    0.248   11.519
  318.500    0.450   82.746    0.264   11.965
  318.750    0.468   83.997    0.273   13.396
  319.000    0.474   85.240    0.273   13.911
  319.250    0.468   84.053    0.275   15.010
  319.500    0.439   75.609    0.270   15.300
  319.750    0.424   68.989    0.258   15.604
  320.000    0.417   72.645    0.252   14.233
  320.250    0.415   78.732    0.247   12.051
  320.500    0.424   83.002    0.240   10.016
  320.750    0.437   88.491    0.245    8.481
  321.000    0.454   92.147    0.265    7.595
  321.250    0.460   92.188    0.277    7.463
  321.500    0.455   88.595    0.253    7.469
  321.750    0.447   87.400    0.245    7.477
  322.000    0.445   85.010    0.233    7.772
  322.250    0.451   86.253    0.210    7.925
  322.500    0.460   88.715    0.209    7.931
  322.750    0.462   90.563    0.211    8.091
  323.000    0.460   92.411    0.210    7.659
  323.250    0.453   94.873    0.204    7.251
  323.500    0.452   97.335    0.204    6.863
  323.750    0.456   99.175    0.206    6.619
  324.000    0.464  101.015    0.211    6.506
  324.250    0.457   96.204    0.219    6.393
  324.500    0.445   92.006    0.222    6.400
  324.750    0.458   90.827    0.220    6.408
  325.000    0.468   89.648    0.220    6.532
  325.250    0.465   87.855    0.242    7.180
  325.500    0.460   83.044    0.249    7.456
  325.750    0.453   79.451    0.243    8.192
  326.000    0.445   81.291    0.238    8.836
  326.250    0.436   84.956    0.230    9.181
  326.500    0.424   85.602    0.230    9.366
  326.750    0.414   85.020    0.228    9.376
  327.000    0.408   85.665    0.211    9.215
  327.250    0.395   87.514    0.208    8.886
  327.500    0.405   91.178    0.209    8.412
  327.750    0.426   89.992    0.211    8.266
  328.000    0.432   88.215    0.212    8.120
  328.250    0.439   87.634    0.213    8.129
  328.500    0.435   88.279    0.213    8.139
  328.750    0.429   90.127    0.212    8.459
  329.000    0.422   91.976    0.221    8.787
  329.250    0.416   93.832    0.216    8.966
  329.500    0.422   95.075    0.211    8.971
  329.750    0.426   95.712    0.207    8.815
  330.000    0.434   93.323    0.201    8.661
  330.250    0.438   90.941    0.197    8.509
  330.500    0.442   89.754    0.198    8.520
  330.750    0.448   89.180    0.200    8.527
  331.000    0.455   91.626    0.204    8.859
  331.250    0.455   93.474    0.214    9.207
  331.500    0.427   87.452    0.210    9.929
  331.750    0.412   78.402    0.208   10.314
  332.000    0.397   74.196    0.223   11.547
  332.250    0.403   68.787    0.249   12.686
  332.500    0.405   68.819    0.216   14.196
  332.750    0.400   70.054    0.177   17.442
  333.000    0.385   73.718    0.177   20.269
  333.250    0.356   76.793    0.199   21.059
  333.500    0.359   77.415    0.232   22.292
  333.750    0.343   78.052    0.182   22.734
  334.000    0.296   64.764    0.149   24.523
  334.250    0.265   59.953    0.143   26.935
  334.500    0.226   56.360    0.114   30.706
  334.750    0.203   53.970    0.085   35.014
  335.000    0.191   52.178    0.032   38.469
  335.250    0.169   49.191    0.025   46.396
  335.500    0.157   46.187    0.025   53.899
  335.750    0.155   43.192    0.032   58.140
  336.000    0.191   45.048    0.038   61.543
  336.250    0.242   45.678    0.054   59.342
  336.500    0.278   46.929    0.108   48.411
  336.750    0.297   46.953    0.159   36.661
  337.000    0.332   48.817    0.177   28.284
  337.250    0.354   50.052    0.200   26.276
  337.500    0.352   51.900    0.211   23.532
  337.750    0.349   54.951    0.222   22.278
  338.000    0.353   57.405    0.242   21.091
  338.250    0.370   59.278    0.262   19.243
  338.500    0.389   59.899    0.267   17.877
  338.750    0.408   61.142    0.266   16.002
  339.000    0.423   78.126    0.196   14.327
  339.250    0.429   81.186    0.185   11.688
  339.500    0.435   84.850    0.179    9.896
  339.750    0.430   87.909    0.187    9.727
  340.000    0.420   96.426    0.218    9.734
  340.250    0.421   92.825    0.222    9.750
  340.500    0.427   88.619    0.214    9.941
  340.750    0.431   87.440    0.205   10.136
  341.000    0.434   89.902    0.203   10.534
  341.250    0.439   91.137    0.206   10.740
  341.500    0.439   93.001    0.210   11.162
  341.750    0.434   93.638    0.206   11.597
  342.000    0.429   94.268    0.201   11.825
  342.250    0.423   93.694    0.192   11.622
  342.500    0.417   94.332    0.198   11.420
  342.750    0.418   94.364    0.205   11.011
  343.000    0.422   93.790    0.204   10.049
  343.250    0.429   92.611    0.197    9.869
  343.500    0.447   93.249    0.191    9.521
  343.750    0.448   95.097    0.216    9.353
  344.000    0.443   95.734    0.240    9.542
  344.250    0.435   95.169    0.246   10.103
  344.500    0.426   94.579    0.236   10.491
  344.750    0.413   92.190    0.219   11.314
  345.000    0.407   87.378    0.201   14.428
  345.250    0.405   83.180    0.192   17.397
  345.500    0.403   85.028    0.201   19.838
  345.750    0.399   85.060    0.210   21.399
  346.000    0.394   83.268    0.214   23.516
  346.250    0.384   79.675    0.199   24.879
  346.500    0.341   78.496    0.149   26.830
  346.750    0.267   77.915    0.051   29.484
  347.000    0.258   60.389    0.051   32.384
  347.250    0.291   54.979    0.084   34.280
  347.500    0.317   58.636    0.164   31.863
  347.750    0.325   70.785    0.183   30.158
  348.000    0.346   73.231    0.208   27.001
  348.250    0.363   79.333    0.193   25.562
  348.500    0.385   82.998    0.186   25.589
  348.750    0.383   81.811    0.179   26.111
