~VERSION INFORMATION
 VERS.                 2.0:   CWLS LOG ASCII STANDARD -VERSION 2.0
 WRAP.                  NO:   ONE LINE PER DEPTH STEP
~WELL INFORMATION BLOCK
#MNEM.UNIT           DATA                    DESCRIPTION OF MNEMONIC
#---------    -------------------            -------------------------------
# Generated from Intellog Unique Number	CW_79_81/WELL/2471
WELL.         GULF AMOCO HOOLE               : Well_name    - WELL
LOC .         00/10-21-081-24W4/0            : Location     - LOCATION
UWI .         00/10-21-081-24W4/0            : Uwi          - UNIQUE WELL ID
ENTR.         MAX                            : Entered      - ENTERED BY
SRVC.         COMPUTALOG                     : Scn          - SERVICE COMPANY
STRT.M        245                            : top_depth    - START DEPTH
STOP.M        482                            : bot_depth    - STOP DEPTH
STEP.M        0.25                           : increment    - STEP LENGTH
 NULL. -999.2500:NULL Value
~CURVE INFORMATION BLOCK
#MNEM UNIT       ERCB CURVE CODE    CURVE DESCRIPTION
#-----------   ------------------   ----------------------------------
DEPT.M        00 001 00 00         : DEPTH        - DEPTH
ILD .OHMM     00 120 00 00         : RESD         - DEEP RESISTIVITY (DIL)
NPHI.V/V      00 330 00 00         : PHIN         - NEUTRON POROSITY (SANDSTONE)
DPHI.V/V      00 890 00 00         : PHID         - DENSITY POROSITY (SANDSTONE)
GR  .API      00 310 00 00         : GR           - GAMMA RAY
CALI.MM       00 280 01 00         : CAL          - CALIPER
~PARAMETER INFORMATION
#MNEM.UNIT           DATA             DESCRIPTION OF MNEMONIC
#---------         -----------     ------------------------------
GL  .M        596.1                : gl           - GROUND LEVEL ELEVATION
EREF.M        600.35               : kb           - ELEVATION OF DEPTH REFERENCE
DATM.M        596.1                : datum        - DATUM ELEVATION
TDD .M        502                  : tdd          - TOTAL DEPTH DRILLER
RUN .         ONE                  : Run          - RUN NUMBER
ENG .         BILL                 : Engineer     - RECORDING ENGINEER
WIT .         JIM                  : Witness      - WITNESSED BY
MUD .         GEL                  : Mud_type     - MUD TYPE
MATR.         SANDSTONE            : Logunit      - NEUTRON MATRIX
TMAX.C        16                   : BHT          - MAXIMUM RECORDED TEMPERATURE
BHTD.M        502                  : BHTDEP       - MAXIMUM RECORDED TEMPERATURE
MATR.         1                    : LOGUNIT      - NEUTRON MATRIX
RMT .C        14                   : MDTP         - TEMPERATURE OF MUD
NEUT.         1                    : NEUTRON      - NEUTRON TYPE
RESI.         0                    : RESIST       - RESISTIVITY TYPE
RMC .OHMM     4.2                  : RMC          - RESISTIVITY OF MUD CAKE
RMF .OHMM     5.2                  : RMF          - RESISTIVITY OF MUD FILTRATE
SUFT.C        -15                  : SUFT         - SURFACE TEMPERATURE
~A  DEPTH     RESD     PHIN     PHID       GR      CAL
# ...
  464.000    6.862    0.459    0.535   58.319  279.235
  464.250    7.265    0.354    0.499   59.262  247.588
  464.500    7.776    0.320    0.364   63.086  232.741
  464.750    8.300    0.318    0.179   63.668  228.706
  465.000    8.701    0.323    0.027   60.287  229.378
  465.250    8.836    0.336    0.033   57.771  228.294
  465.500    8.896    0.346    0.061   58.502  227.014
  465.750    8.698    0.359    0.106   66.171  227.780
  466.000    8.551    0.371    0.172   73.478  229.151
  466.250    8.514    0.384    0.198   76.462  229.921
  466.500    8.677    0.401    0.186   75.182  229.887
  466.750    9.356    0.429    0.231   73.868  229.851
  467.000   10.248    0.423    0.402   74.597  229.821
  467.250   10.851    0.422    0.380   74.821  229.384
  467.500   11.370    0.430    0.350   75.945  228.956
  467.750   11.233    0.442    0.324   77.966  228.529
  468.000   10.537    0.468    0.327   79.927  228.198
  468.250    9.734    0.525    0.409   79.308  228.739
  468.500    8.822    0.522    0.453   76.284  231.628
  468.750    7.952    0.511    0.489   67.623  240.004
  469.000    7.214    0.500    0.555   61.299  286.201
  469.250    6.685    0.485    0.596   62.361  314.790
  469.500    6.364    0.469    0.591   69.608  306.758
  469.750    6.174    0.467    0.527   76.391  272.333
  470.000    5.940    0.491    0.376   80.372  236.445
  470.250    5.639    0.502    0.450   77.714  242.016
  470.500    5.415    0.499    0.513   70.732  307.024
  470.750    5.277    0.491    0.556   63.989  350.625
  471.000    5.235    0.482    0.573   60.128  346.593
  471.250    5.340    0.470    0.547   60.416  316.079
  471.500    5.500    0.473    0.504   63.148  279.780
  471.750    5.658    0.471    0.518   69.853  266.142
  472.000    5.852    0.466    0.519   74.759  262.107
  472.250    6.022    0.460    0.511   75.221  273.083
  472.500    6.130    0.449    0.499   72.981  291.262
  472.750    6.206    0.421    0.479   75.560  290.959
  473.000    6.393    0.401    0.460   82.545  267.578
  473.250    6.721    0.393    0.445   85.644  228.325
  473.500    7.370    0.388    0.412   89.291  222.085
  473.750    8.105    0.398    0.366   91.557  229.259
  474.000    8.748    0.419    0.328   91.298  236.831
  474.250    9.365    0.433    0.334   88.004  237.559
  474.500    9.500    0.431    0.324   87.234  233.364
  474.750    9.495    0.434    0.324   89.373  211.322
  475.000    9.593    0.429    0.318   89.896  216.891
  475.250    9.762    0.415    0.307   89.158  226.066
  475.500   10.007    0.391    0.278   87.457  228.437
  475.750   10.416    0.344    0.192   84.433  227.032
  476.000   10.650    0.310    0.140   81.414  226.165
  476.250   10.877    0.321    0.105   82.596  224.934
  476.500   10.990    0.345    0.175   85.580  223.702
  476.750   11.103    0.365    0.248   87.604  222.670
  477.000   11.278    0.368    0.287   86.265  222.038
  477.250   11.604    0.344    0.320   78.767  222.080
  477.500   12.047    0.325    0.298   74.993  222.461
  477.750   12.483    0.318    0.264   74.735  222.433
  478.000   12.729    0.318    0.236   75.196  222.410
  478.250   12.720    0.326    0.215   76.019  222.782
  478.500   12.314    0.335    0.200   77.262  223.450
  478.750   11.059    0.347    0.199   80.052  223.982
  479.000    9.731    0.375    0.228   83.287  224.780
  479.250    9.238    0.397    0.335   84.707  225.549
  479.500    9.168    0.399    0.346   80.367  225.120
  479.750    9.427    0.387    0.314   68.703  224.889
  480.000    9.897    0.371    0.282   57.394  225.057
  480.250   10.457    0.359    0.277   65.128  224.538
  480.500   11.107    0.359    0.273   73.864  224.085
  480.750   11.343    0.366    0.269   78.164  223.657
  481.000   11.399    0.367    0.264   79.047  222.924
  481.250   11.099    0.364    0.251   78.669  222.493
  481.500   10.541    0.361    0.226   78.290  222.664
  481.750    9.889    0.354    0.189   78.220  223.594
  482.000    9.304    0.345    0.169   77.953  224.395
