~VERSION INFORMATION
 VERS.                 2.0:   CWLS LOG ASCII STANDARD -VERSION 2.0
 WRAP.                  NO:   ONE LINE PER DEPTH STEP
~WELL INFORMATION BLOCK
#MNEM.UNIT           DATA                    DESCRIPTION OF MNEMONIC
#---------    -------------------            -------------------------------
# Generated from Intellog Unique Number	CS_73_76/WELL/2192
WELL.         BOW VALLEY INDUSTRIES LTD      : Well_name    - WELL
LOC .         00/10-17-074-13W4/0            : Location     - LOCATION
UWI .         00/10-17-074-13W4/0            : Uwi          - UNIQUE WELL ID
ENTR.         SP                             : Entered      - ENTERED BY
SRVC.         SCHLUMBERGER                   : Scn          - SERVICE COMPANY
STRT.M        365                            : top_depth    - START DEPTH
STOP.M        602                            : bot_depth    - STOP DEPTH
STEP.M        0.25                           : increment    - STEP LENGTH
 NULL. -999.2500:NULL Value
~CURVE INFORMATION BLOCK
#MNEM UNIT       ERCB CURVE CODE    CURVE DESCRIPTION
#-----------   ------------------   ----------------------------------
DEPT.M        00 001 00 00         : DEPTH        - DEPTH
ILD .OHMM     00 120 00 00         : RESD         - DEEP RESISTIVITY (DIL)
DPHI.V/V      00 890 00 00         : PHID         - DENSITY POROSITY (LIMESTONE)
NPHI.V/V      00 330 00 00         : PHIN         - NEUTRON POROSITY (LIMESTONE)
GR  .API      00 310 00 00         : GR           - GAMMA RAY
~PARAMETER INFORMATION
#MNEM.UNIT           DATA             DESCRIPTION OF MNEMONIC
#---------         -----------     ------------------------------
GL  .M        724.21               : gl           - GROUND LEVEL ELEVATION
EREF.M        727.56               : kb           - ELEVATION OF DEPTH REFERENCE
DATM.M        724.21               : datum        - DATUM ELEVATION
TDD .M        609                  : tdd          - TOTAL DEPTH DRILLER
RUN .         ONE                  : Run          - RUN NUMBER
ENG .         BILL                 : Engineer     - RECORDING ENGINEER
WIT .         JIM                  : Witness      - WITNESSED BY
MUD .         GEL                  : Mud_type     - MUD TYPE
MATR.         LIMESTONE            : Logunit      - NEUTRON MATRIX
TMAX.C        18                   : BHT          - MAXIMUM RECORDED TEMPERATURE
BHTD.M        609                  : BHTDEP       - MAXIMUM RECORDED TEMPERATURE
MATR.         1                    : LOGUNIT      - NEUTRON MATRIX
RMT .C        25                   : MDTP         - TEMPERATURE OF MUD
NEUT.         1                    : NEUTRON      - NEUTRON TYPE
RESI.         0                    : RESIST       - RESISTIVITY TYPE
RMC .OHMM     0.25                 : RMC          - RESISTIVITY OF MUD CAKE
RMF .OHMM     0.25                 : RMF          - RESISTIVITY OF MUD FILTRATE
SUFT.C        15                   : SUFT         - SURFACE TEMPERATURE
~A  DEPTH     RESD     PHID     PHIN       GR
# ...
  495.500    4.885    0.214    0.404   98.798
  495.750    4.711    0.228    0.409  103.038
  496.000    4.713    0.245    0.414  105.461
  496.250    4.803    0.227    0.421  106.072
  496.500    5.175    0.229    0.428  102.449
  496.750    5.372    0.244    0.433  100.638
  497.000    5.476    0.246    0.433  100.039
  497.250    5.478    0.250    0.427   99.439
  497.500    5.482    0.254    0.420   98.838
  497.750    5.484    0.227    0.412   97.634
  498.000    5.486    0.241    0.410   97.033
  498.250    5.591    0.249    0.406   96.434
  498.500    5.698    0.256    0.401   94.021
  498.750    5.918    0.266    0.410   93.419
  499.000    6.144    0.246    0.437   92.215
  499.250    6.261    0.224    0.441   89.801
  499.500    6.500    0.205    0.445   84.968
  499.750    7.267    0.153    0.292   81.344
  500.000    7.686    0.146    0.273   78.324
  500.250    8.129    0.193    0.342   78.934
  500.500    7.553    0.240    0.409   81.357
  500.750    6.637    0.258    0.420   86.201
  501.000    5.943    0.261    0.429   88.021
  501.250    5.420    0.266    0.434   86.213
  501.500    5.322    0.274    0.436   84.403
  501.750    5.133    0.289    0.435   82.595
  502.000    5.134    0.292    0.423   82.599
  502.250    5.137    0.298    0.416   84.417
  502.500    5.139    0.289    0.409   86.238
  502.750    5.142    0.272    0.403   88.663
  503.000    5.145    0.272    0.399   89.271
  503.250    5.244    0.274    0.404   91.090
  503.500    5.246    0.279    0.416   89.283
  503.750    5.249    0.274    0.421   88.681
  504.000    5.250    0.265    0.415   87.478
  504.250    5.351    0.259    0.407   87.484
  504.500    5.354    0.250    0.423   88.092
  504.750    5.356    0.262    0.435   90.516
  505.000    5.260    0.269    0.445   91.731
  505.250    5.264    0.276    0.451   89.317
  505.500    5.265    0.282    0.459   88.112
  505.750    5.268    0.275    0.458   87.513
  506.000    5.370    0.265    0.464   87.520
  506.250    5.373    0.256    0.425   88.128
  506.500    5.476    0.253    0.422   90.553
  506.750    5.581    0.269    0.430   91.766
  507.000    5.583    0.275    0.436   94.191
  507.250    5.585    0.284    0.410   95.405
  507.500    5.590    0.273    0.424   94.201
  507.750    5.592    0.263    0.436   94.811
  508.000    5.594    0.258    0.446   95.421
  508.250    5.494    0.253    0.456   93.612
  508.500    5.497    0.260    0.463   91.197
  508.750    5.499    0.265    0.424   90.596
  509.000    5.402    0.259    0.414   92.417
  509.250    5.403    0.254    0.411   93.630
  509.500    5.307    0.250    0.423   93.638
  509.750    5.212    0.265    0.451   93.036
  510.000    5.025    0.270    0.463   94.855
  510.250    4.844    0.260    0.466  102.726
  510.500    4.670    0.248    0.446  105.149
  510.750    4.339    0.237    0.417  107.572
  511.000    4.183    0.224    0.400  106.368
  511.250    4.764    0.211    0.363  101.535
  511.500    5.953    0.167    0.314   94.886
  511.750    8.010    0.089    0.294   86.423
  512.000   10.195    0.137    0.322   80.984
  512.250   10.985    0.172    0.354   77.360
  512.500    9.654    0.197    0.368   80.390
  512.750    8.176    0.213    0.382   85.840
  513.000    7.054    0.223    0.405   87.659
  513.250    6.675    0.254    0.419   88.873
  513.500    5.977    0.230    0.432   90.087
  513.750    5.552    0.259    0.423   94.327
  514.000    5.064    0.275    0.431   91.916
  514.250    4.882    0.276    0.440   90.107
  514.500    4.796    0.270    0.429   89.505
  514.750    4.798    0.263    0.415   88.298
  515.000    4.800    0.268    0.411   86.489
  515.250    4.803    0.268    0.424   88.913
  515.500    4.717    0.252    0.431   90.732
  515.750    4.719    0.240    0.441   90.134
  516.000    4.721    0.229    0.437   88.929
  516.250    4.722    0.251    0.434   90.142
  516.500    4.725    0.264    0.425   92.567
  516.750    4.640    0.265    0.429   93.178
  517.000    4.644    0.263    0.435   93.182
  517.250    4.645    0.249    0.420   93.792
  517.500    4.647    0.263    0.410   93.193
  517.750    4.736    0.266    0.415   93.804
  518.000    4.828    0.206    0.418   95.017
  518.250    4.920    0.168    0.401   95.626
  518.500    5.108    0.141    0.396   92.003
  518.750    5.711    0.118    0.387   89.588
  519.000    6.385    0.093    0.373   85.965
  519.250    7.139    0.054    0.330   82.945
  519.500    7.982    0.061    0.263   79.926
  519.750    8.442    0.130    0.266   78.116
  520.000    7.558    0.166    0.295   80.540
  520.250    6.767    0.186    0.332   88.408
  520.500    6.287    0.197    0.370   93.254
  520.750    6.061    0.180    0.396   94.467
  521.000    5.953    0.168    0.413   97.498
  521.250    5.739    0.175    0.410   99.921
  521.500    5.741    0.176    0.412  104.764
  521.750    5.639    0.185    0.419  107.189
  522.000    5.539    0.190    0.425  107.800
  522.250    5.540    0.197    0.425  108.409
  522.500    5.648    0.203    0.412  109.624
  522.750    5.650    0.195    0.403  112.048
  523.000    5.759    0.208    0.408  112.054
  523.250    5.870    0.199    0.411  112.664
  523.500    5.983    0.198    0.405  113.274
  523.750    5.985    0.187    0.395  114.489
  524.000    5.877    0.188    0.388  114.492
  524.250    5.562    0.198    0.379  109.055
  524.500    5.074    0.186    0.386  106.034
  524.750    4.891    0.196    0.407  101.805
  525.000    4.803    0.182    0.411   96.973
  525.250    4.895    0.173    0.422   93.349
  525.500    5.083    0.158    0.408   92.143
  525.750    5.180    0.175    0.396   99.408
  526.000    4.387    0.190    0.403  102.437
  526.250    3.263    0.200    0.424  103.046
  526.500    2.473    0.207    0.444  101.841
  526.750    2.214    0.220    0.455  101.846
  527.000    2.057    0.233    0.482  103.668
  527.250    1.983    0.270    0.512  104.276
  527.500    1.984    0.260    0.507  104.280
  527.750    2.099    0.265    0.491  103.681
  528.000    2.179    0.250    0.494  103.686
  528.250    2.262    0.223    0.501  106.716
  528.500    2.222    0.221    0.512  110.350
  528.750    2.142    0.205    0.500  113.378
  529.000    2.104    0.196    0.486  113.989
  529.250    2.144    0.199    0.485  110.972
  529.500    2.534    0.197    0.494  108.557
  529.750    2.940    0.200    0.472  106.746
  530.000    3.411    0.204    0.448  103.728
  530.250    3.885    0.163    0.410  101.314
  530.500    4.592    0.163    0.371  100.107
  530.750    5.135    0.179    0.386  104.952
  531.000    5.043    0.194    0.387  105.562
  531.250    5.045    0.178    0.391  104.960
  531.500    5.336    0.164    0.400  101.941
  531.750    5.966    0.152    0.411   97.110
  532.000    5.859    0.135    0.381   95.903
  532.250    5.545    0.111    0.343   93.489
  532.500    5.248    0.096    0.346   95.913
  532.750    4.787    0.138    0.358  100.153
  533.000    4.530    0.158    0.369  103.183
  533.250    4.287    0.187    0.394  103.792
  533.500    4.211    0.184    0.403  104.401
  533.750    4.136    0.183    0.415  103.803
  534.000    4.137    0.195    0.435  103.808
  534.250    4.063    0.204    0.416  104.418
  534.500    3.845    0.192    0.428  104.423
  534.750    3.777    0.176    0.433  106.241
  535.000    3.641    0.160    0.423  109.270
  535.250    3.643    0.167    0.433  109.881
  535.500    3.578    0.178    0.449  109.282
  535.750    3.514    0.176    0.453  111.101
  536.000    3.388    0.175    0.461  111.105
  536.250    3.327    0.154    0.469  109.298
  536.500    3.150    0.164    0.458  108.696
  536.750    3.093    0.177    0.449  107.493
  537.000    3.094    0.173    0.444  106.892
  537.250    3.213    0.166    0.456  106.900
  537.500    3.214    0.167    0.450  107.509
  537.750    3.276    0.141    0.457  108.117
  538.000    3.217    0.173    0.467  112.960
  538.250    3.160    0.190    0.474  110.547
  538.500    3.103    0.196    0.480  109.341
  538.750    3.105    0.182    0.493  108.741
