~VERSION INFORMATION
 VERS.                 2.0:   CWLS LOG ASCII STANDARD -VERSION 2.0
 WRAP.                  NO:   ONE LINE PER DEPTH STEP
~WELL INFORMATION BLOCK
#MNEM.UNIT           DATA                    DESCRIPTION OF MNEMONIC
#---------    -------------------            -------------------------------
# Generated from Intellog Unique Number	CS_67_68/WELL/2196
WELL.         10-28-067-03W4                 : Well_name    - WELL
LOC .         00/10-28-067-03W4/0            : Location     - LOCATION
UWI .         00/10-28-067-03W4/0            : Uwi          - UNIQUE WELL ID
ENTR.         SP                             : Entered      - ENTERED BY
SRVC.         SCHLUMBERGER                   : Scn          - SERVICE COMPANY
STRT.M        335                            : top_depth    - START DEPTH
STOP.M        560                            : bot_depth    - STOP DEPTH
STEP.M        0.25                           : increment    - STEP LENGTH
 NULL. -999.2500:NULL Value
~CURVE INFORMATION BLOCK
#MNEM UNIT       ERCB CURVE CODE    CURVE DESCRIPTION
#-----------   ------------------   ----------------------------------
DEPT.M        00 001 00 00         : DEPTH        - DEPTH
ILD .OHMM     00 120 00 00         : RESD         - DEEP RESISTIVITY (DIL)
DPHI.V/V      00 890 00 00         : PHID         - DENSITY POROSITY (LIMESTONE)
NPHI.V/V      00 330 00 00         : PHIN         - NEUTRON POROSITY (LIMESTONE)
GR  .API      00 310 00 00         : GR           - GAMMA RAY
CALI.MM       00 280 01 00         : CAL          - CALIPER
~PARAMETER INFORMATION
#MNEM.UNIT           DATA             DESCRIPTION OF MNEMONIC
#---------         -----------     ------------------------------
GL  .M        678.88               : gl           - GROUND LEVEL ELEVATION
EREF.M        682.54               : kb           - ELEVATION OF DEPTH REFERENCE
DATM.M        682.54               : datum        - DATUM ELEVATION
TDD .M        573                  : tdd          - TOTAL DEPTH DRILLER
RUN .         ONE                  : Run          - RUN NUMBER
ENG .         BILL                 : Engineer     - RECORDING ENGINEER
WIT .         JIM                  : Witness      - WITNESSED BY
MUD .         GEL                  : Mud_type     - MUD TYPE
MATR.         LIMESTONE            : Logunit      - NEUTRON MATRIX
TMAX.C        18                   : BHT          - MAXIMUM RECORDED TEMPERATURE
BHTD.M        572.4                : BHTDEP       - MAXIMUM RECORDED TEMPERATURE
MATR.         1                    : LOGUNIT      - NEUTRON MATRIX
RMT .C        25                   : MDTP         - TEMPERATURE OF MUD
NEUT.         1                    : NEUTRON      - NEUTRON TYPE
RESI.         0                    : RESIST       - RESISTIVITY TYPE
RMC .OHMM     0.25                 : RMC          - RESISTIVITY OF MUD CAKE
RMF .OHMM     0.25                 : RMF          - RESISTIVITY OF MUD FILTRATE
SUFT.C        15                   : SUFT         - SURFACE TEMPERATURE
~A  DEPTH     RESD     PHID     PHIN       GR      CAL
# ...
  444.500    6.291    0.293    0.490   70.078  205.444
  444.750    6.150    0.307    0.483   74.837  204.846
  445.000    5.979    0.307    0.469   81.240  204.754
  445.250    5.845    0.291    0.472   85.998  204.664
  445.500    5.714    0.285    0.462   82.471  204.878
  445.750    5.597    0.281    0.451   83.087  204.888
  446.000    5.482    0.275    0.463   84.616  204.898
  446.250    5.339    0.279    0.482   84.623  205.214
  446.500    5.230    0.286    0.477   83.837  205.630
  446.750    5.123    0.279    0.478   83.173  205.947
  447.000    5.036    0.272    0.486   84.215  206.057
  447.250    4.942    0.277    0.509   86.598  206.473
  447.500    4.877    0.284    0.529   87.761  206.790
  447.750    4.831    0.294    0.514   86.244  207.003
  448.000    4.822    0.300    0.510   82.230  207.115
  448.250    4.804    0.308    0.502   78.398  207.125
  448.500    4.794    0.318    0.491   75.662  206.932
  448.750    4.740    0.326    0.493   78.654  207.145
  449.000    4.669    0.316    0.492   81.950  207.258
  449.250    4.599    0.309    0.486   85.916  207.370
  449.500    4.471    0.298    0.486   88.847  207.584
  449.750    4.306    0.291    0.503   89.585  207.797
  450.000    4.032    0.283    0.518   87.703  208.518
  450.250    3.768    0.308    0.534   86.246  212.490
  450.500    3.528    0.327    0.518   85.217  215.951
  450.750    3.416    0.344    0.523   84.066  219.720
  451.000    3.340    0.362    0.545   84.377  221.354
  451.250    3.321    0.337    0.553   89.501  213.140
  451.500    3.315    0.322    0.565   95.478  205.433
  451.750    3.253    0.304    0.589   99.383  211.334
  452.000    3.051    0.287    0.611   98.049  215.306
  452.250    2.825    0.272    0.610   96.532  217.345
  452.500    2.610    0.259    0.568   97.696  218.777
  452.750    2.421    0.249    0.543   98.372  218.584
  453.000    2.292    0.249    0.544   99.476  217.579
  453.250    2.224    0.253    0.545  103.564  216.575
  453.500    2.195    0.265    0.530  106.312  216.078
  453.750    2.237    0.286    0.536   99.312  216.088
  454.000    2.434    0.315    0.557   91.215  216.505
  454.250    3.050    0.332    0.549   84.459  216.415
  454.500    4.081    0.330    0.506   78.372  213.885
  454.750    5.161    0.332    0.487   68.996  206.788
  455.000    7.158    0.339    0.473   61.569  203.244
  455.250    9.155    0.333    0.463   57.432  203.865
  455.500   11.623    0.325    0.452   55.550  203.878
  455.750   15.554    0.326    0.443   56.592  203.888
  456.000   19.451    0.336    0.439   57.756  203.998
  456.250   22.437    0.346    0.445   58.797  204.212
  456.500   24.926    0.339    0.459   60.998  204.526
  456.750   25.879    0.340    0.473   63.441  204.844
  457.000   26.369    0.339    0.490   60.827  205.055
  457.250   26.023    0.336    0.481   57.543  205.167
  457.500   24.826    0.333    0.474   56.087  205.075
  457.750   24.135    0.331    0.467   56.642  204.680
  458.000   23.863    0.330    0.458   57.502  202.153
  458.250   24.087    0.334    0.473   59.213  199.930
  458.500   24.267    0.339    0.483   61.291  199.127
  458.750   24.266    0.340    0.481   57.155  199.139
  459.000   24.447    0.339    0.490   53.689  199.147
  459.250   24.677    0.339    0.504   57.960  199.158
  459.500   24.722    0.339    0.489   59.794  199.169
  459.750   24.674    0.339    0.469   56.327  198.874
  460.000   24.167    0.339    0.468   55.785  198.682
  460.250   23.850    0.340    0.477   59.813  198.896
  460.500   23.405    0.340    0.481   62.195  199.617
  460.750   22.882    0.340    0.480   60.679  200.033
  461.000   22.454    0.340    0.467   58.735  200.246
  461.250   22.243    0.341    0.467   60.509  200.461
  461.500   21.869    0.345    0.461   61.733  200.775
  461.750   21.380    0.352    0.463   62.653  200.785
  462.000   20.667    0.347    0.481   62.903  200.900
  462.250   20.129    0.343    0.497   62.239  200.503
  462.500   19.495    0.353    0.503   62.306  200.208
  462.750   18.774    0.356    0.515   63.043  200.421
  463.000   17.979    0.351    0.517   64.146  201.549
  463.250   16.489    0.352    0.497   63.543  202.067
  463.500   15.672    0.356    0.477   64.890  202.079
  463.750   15.036    0.352    0.469   68.004  201.987
  464.000   14.895    0.346    0.467   67.461  201.692
  464.250   14.922    0.341    0.455   66.797  201.500
  464.500   14.809    0.343    0.456   66.926  201.309
  464.750   14.698    0.348    0.477   67.664  201.317
  465.000   14.450    0.351    0.492   68.462  201.632
  465.250   14.180    0.354    0.492   68.833  202.253
  465.500   13.863    0.351    0.481   67.012  202.771
  465.750   13.452    0.351    0.473   65.069  203.492
  466.000   13.028    0.350    0.473   64.161  203.909
  466.250   12.617    0.345    0.468   66.177  203.716
  466.500   12.174    0.339    0.465   69.352  203.017
  466.750   11.768    0.336    0.465   70.333  202.518
  467.000   11.249    0.334    0.467   68.086  202.022
  467.250   10.833    0.333    0.466   70.711  201.829
  467.500   10.433    0.332    0.464   73.215  201.535
  467.750    9.658    0.331    0.475   74.380  201.649
  468.000    9.043    0.333    0.479   73.472  201.658
  468.250    8.595    0.328    0.480   71.529  201.670
  468.500    8.246    0.328    0.482   70.621  201.881
  468.750    8.123    0.332    0.493   74.648  201.995
  469.000    7.956    0.338    0.501   75.020  202.310
  469.250    7.749    0.334    0.505   71.859  202.319
  469.500    7.491    0.333    0.506   70.829  202.634
  469.750    7.255    0.328    0.510   74.308  203.253
  470.000    6.934    0.318    0.517   75.655  206.208
  470.250    6.517    0.308    0.516   76.575  214.445
  470.500    6.241    0.346    0.510   77.923  222.680
  470.750    5.932    0.341    0.512   78.476  220.863
  471.000    5.606    0.351    0.513   78.604  217.116
  471.250    5.269    0.343    0.509   79.463  214.588
  471.500    4.951    0.316    0.503   78.982  215.005
  471.750    4.706    0.301    0.499   79.354  220.803
  472.000    4.515    0.315    0.507   81.554  225.180
  472.250    4.340    0.324    0.516   78.636  227.322
  472.500    4.259    0.334    0.519   75.352  222.865
  472.750    4.203    0.351    0.512   74.444  223.789
  473.000    4.211    0.332    0.512   78.410  226.440
  473.250    4.219    0.315    0.509   77.382  231.324
  473.500    4.250    0.333    0.501   75.438  225.142
  473.750    4.258    0.349    0.493   78.553  218.754
  474.000    4.250    0.337    0.488   80.873  212.977
  474.250    4.233    0.319    0.508   81.915  208.925
  474.500    4.202    0.314    0.526   83.688  207.109
  474.750    4.123    0.305    0.523   85.217  206.206
  475.000    4.038    0.292    0.508   83.153  206.216
  475.250    3.956    0.283    0.518   81.635  208.662
  475.500    3.904    0.282    0.529   84.810  213.954
  475.750    3.824    0.298    0.524   86.766  215.487
  476.000    3.731    0.307    0.500   82.629  216.818
  476.250    3.752    0.315    0.473   80.503  219.874
  476.500    3.823    0.323    0.487   84.774  226.079
  476.750    3.902    0.334    0.502   84.902  230.659
  477.000    4.006    0.340    0.507   81.802  222.446
  477.250    4.082    0.333    0.525   79.127  216.060
  477.500    4.144    0.321    0.543   77.671  212.311
  477.750    4.183    0.312    0.533   79.992  208.463
  478.000    4.214    0.304    0.507   80.181  204.412
  478.250    4.245    0.303    0.500   80.005  201.986
  478.500    3.319    0.312    0.524   81.473  202.099
  478.750    2.375    0.317    0.546   85.501  202.721
  479.000    2.020    0.314    0.554   88.066  203.341
  479.250    1.899    0.311    0.541   85.757  203.655
  479.500    1.815    0.306    0.547   83.511  203.662
  479.750    1.771    0.301    0.571   82.297  203.673
  480.000    1.804    0.296    0.588   82.303  203.480
  480.250    1.863    0.292    0.556   84.381  203.592
  480.500    1.923    0.287    0.536   85.849  205.430
  480.750    1.997    0.283    0.511   88.293  208.893
