~VERSION INFORMATION
 VERS.                 2.0:   CWLS LOG ASCII STANDARD -VERSION 2.0
 WRAP.                  NO:   ONE LINE PER DEPTH STEP
~WELL INFORMATION BLOCK
#MNEM.UNIT           DATA                    DESCRIPTION OF MNEMONIC
#---------    -------------------            -------------------------------
# Generated from Intellog Unique Number	CW_73_75/WELL/2744
WELL.         ALLIED ET AL CALLING 11-08     : Well_name    - WELL
LOC .         00/11-08-073-20W4/0            : Location     - LOCATION
UWI .         00/11-08-073-20W4/0            : Uwi          - UNIQUE WELL ID
ENTR.         JAYE                           : Entered      - ENTERED BY
SRVC.         SCHLUMBERGER                   : Scn          - SERVICE COMPANY
DATE.         20 JAN 77                      : Date         - LOG DATE
STRT.M        396.24                         : top_depth    - START DEPTH
STOP.M        624.74                         : bot_depth    - STOP DEPTH
STEP.M        0.25                           : increment    - STEP LENGTH
 NULL. -999.2500:NULL Value
~CURVE INFORMATION BLOCK
#MNEM UNIT       ERCB CURVE CODE    CURVE DESCRIPTION
#-----------   ------------------   ----------------------------------
DEPT.M        00 001 00 00         : DEPTH        - DEPTH
ILD .OHMM     00 120 00 00         : RESD         - DEEP RESISTIVITY (DIL)
NPHI.V/V      00 330 00 00         : PHIN         - NEUTRON POROSITY (SANDSTONE)
DPHI.V/V      00 890 00 00         : PHID         - DENSITY POROSITY (SANDSTONE)
GR  .API      00 310 00 00         : GR           - GAMMA RAY
CALI.MM       00 280 01 00         : CAL          - CALIPER
~PARAMETER INFORMATION
#MNEM.UNIT           DATA             DESCRIPTION OF MNEMONIC
#---------         -----------     ------------------------------
GL  .M        687.019              : gl           - GROUND LEVEL ELEVATION
EREF.M        690.22               : kb           - ELEVATION OF DEPTH REFERENCE
DATM.M        687.019              : datum        - DATUM ELEVATION
TDD .M        631.241              : tdd          - TOTAL DEPTH DRILLER
RUN .         ONE                  : Run          - RUN NUMBER
BASE.         EDM                  : Branch       - HOME BASE OF LOGGING UNIT
MATR.         SANDSTONE            : Logunit      - NEUTRON MATRIX
TMAX.C        21.1111              : BHT          - MAXIMUM RECORDED TEMPERATURE
BHTD.M        628.802              : BHTDEP       - MAXIMUM RECORDED TEMPERATURE
RMT .C        21.1111              : MDTP         - TEMPERATURE OF MUD
MUDD.KG/M     1176                 : MWT          - MUD DENSITY
NEUT.         1                    : NEUTRON      - NEUTRON TYPE
RESI.         0                    : RESIST       - RESISTIVITY TYPE
RM  .OHMM     2.8                  : RM           - RESISTIVITY OF MUD
RMC .OHMM     3.83                 : RMC          - RESISTIVITY OF MUD CAKE
RMF .OHMM     2.77                 : RMF          - RESISTIVITY OF MUD FILTRATE
SUFT.C        -17.7778             : SUFT         - SURFACE TEMPERATURE
~A  DEPTH     RESD     PHIN     PHID       GR      CAL
# ...
  505.740    3.946    0.407    0.299   70.639  170.219
  505.990    3.941    0.393    0.305   71.465  170.578
  506.240    3.976    0.380    0.312   71.309  170.936
  506.490    4.012    0.393    0.325   71.766  171.193
  506.740    4.046    0.407    0.337   72.161  171.451
  506.990    4.081    0.423    0.342   69.875  171.398
  507.240    4.117    0.407    0.319   70.211  171.351
  507.490    4.152    0.400    0.287   71.582  171.297
  507.740    4.187    0.402    0.265   73.441  171.037
  507.990    4.222    0.414    0.265   73.409  171.191
  508.240    4.258    0.430    0.302   71.248  171.239
  508.490    4.254    0.405    0.330   71.092  171.082
  508.740    4.250    0.389    0.306   73.074  171.037
  508.990    4.245    0.388    0.289   73.529  170.880
  509.240    4.242    0.410    0.277   73.440  170.728
  509.490    4.237    0.440    0.284   74.565  170.676
  509.740    4.272    0.447    0.274   75.997  170.207
  509.990    4.268    0.432    0.260   81.028  169.531
  510.240    4.303    0.412    0.250   80.386  168.858
  510.490    4.300    0.400    0.242   83.830  167.981
  510.740    4.296    0.414    0.242   90.141  167.621
  510.990    4.252    0.421    0.227   93.831  167.154
  511.240    4.130    0.430    0.229   95.506  166.996
  511.490    3.969    0.445    0.223   96.510  166.944
  511.740    3.808    0.450    0.234   97.760  167.614
  511.990    3.607    0.450    0.229   95.537  169.111
  512.240    3.446    0.446    0.219   99.100  170.605
  512.490    3.324    0.430    0.235   97.547  171.999
  512.740    3.203    0.443    0.219   97.820  172.775
  512.990    3.120    0.438    0.219  101.203  172.826
  513.240    3.077    0.437    0.232  102.269  172.569
  513.490    3.033    0.446    0.241  102.299  172.308
  513.740    3.264    0.515    0.218  105.805  172.051
  513.990    3.614    0.522    0.233  108.395  171.689
  514.240    4.120    0.466    0.216  109.400  171.640
  514.490    4.509    0.561    0.218  106.080  171.275
  514.740    4.741    0.590    0.203  104.522  171.120
  514.990    4.501    0.519    0.192  100.041  170.758
  515.240    3.947    0.465    0.200   99.460  170.910
  515.490    3.197    0.428    0.211  101.505  170.858
  515.740    2.604    0.467    0.214  107.204  170.801
  515.990    2.638    0.475    0.220  110.710  170.553
  516.240    2.870    0.458    0.208  111.594  170.493
  516.490    3.219    0.430    0.192  110.163  170.541
  516.740    3.726    0.453    0.174  107.696  171.011
  516.990    4.351    0.482    0.195  105.889  170.954
  517.240    4.818    0.465    0.181  103.117  171.112
  517.490    5.246    0.457    0.189   99.487  171.880
  517.740    5.516    0.424    0.182   95.373  172.136
  517.990    5.591    0.372    0.154   92.963  170.642
  518.240    5.615    0.374    0.171   91.716  167.608
  518.490    5.781    0.391    0.213  100.078  166.230
  518.740    5.866    0.399    0.204  104.234  164.873
  518.990    6.031    0.408    0.196  104.104  163.535
  519.240    6.157    0.401    0.187  101.652  163.097
  519.490    6.204    0.395    0.201  101.336  162.567
  519.740    6.250    0.398    0.193  104.085  162.786
  519.990    6.297    0.408    0.182  106.093  163.077
  520.240    6.341    0.410    0.178  107.491  163.273
  520.490    6.388    0.411    0.180  103.881  163.369
  520.740    6.473    0.406    0.178   99.592  163.563
  520.990    6.559    0.397    0.173   95.243  163.629
  521.240    6.565    0.387    0.156   96.341  163.749
  521.490    6.532    0.404    0.177   99.511  163.824
  521.740    6.458    0.427    0.197  101.646  163.806
  521.990    6.544    0.414    0.183  101.393  163.520
  522.240    6.630    0.363    0.181   99.673  163.387
  522.490    6.716    0.341    0.166   98.875  163.271
  522.740    6.602    0.368    0.153  100.331  163.148
  522.990    6.330    0.395    0.183  103.075  162.953
  523.240    6.098    0.380    0.211  102.213  162.711
  523.490    5.906    0.369    0.226  103.556  162.379
  523.740    5.752    0.391    0.226  105.197  162.285
  523.990    5.677    0.414    0.225  100.605  162.268
  524.240    5.565    0.410    0.200  101.037  162.258
  524.490    5.451    0.392    0.185  100.716  162.283
  524.740    5.338    0.391    0.199   97.107  162.322
  524.990    5.304    0.386    0.178   95.815  162.622
  525.240    5.231    0.390    0.188   92.870  163.068
  525.490    5.198    0.410    0.199   88.399  163.251
  525.740    5.165    0.404    0.209   87.229  163.418
  525.990    5.171    0.400    0.224   89.731  163.869
  526.240    5.176    0.408    0.216   92.538  164.014
  526.490    5.062    0.400    0.220   93.263  164.210
  526.740    5.030    0.423    0.239   94.234  164.310
  526.990    5.075    0.429    0.239   92.763  163.890
  527.240    5.559    0.420    0.220   87.314  163.247
  527.490    6.600    0.392    0.208   76.361  162.214
  527.740    7.046    0.367    0.214   70.423  161.697
  527.990    7.012    0.416    0.241   60.206  161.673
  528.240    6.739    0.399    0.263   65.949  161.545
  528.490    6.028    0.359    0.237   71.628  161.535
  528.740    5.637    0.376    0.236   74.493  161.533
  528.990    6.160    0.398    0.261   73.876  161.629
  529.240    6.724    0.384    0.231   71.483  161.611
  529.490    6.491    0.338    0.203   68.544  161.498
  529.740    5.980    0.297    0.163   65.846  161.600
  529.990    5.269    0.300    0.158   67.672  161.670
  530.240    4.758    0.342    0.224   70.723  162.080
  530.490    4.645    0.433    0.286   72.068  162.594
  530.740    4.652    0.438    0.270   72.671  162.671
  530.990    4.658    0.456    0.290   72.782  162.771
  531.240    4.704    0.465    0.295   72.410  162.868
  531.490    4.750    0.449    0.292   76.200  162.970
  531.740    4.796    0.423    0.289   78.695  163.144
  531.990    4.841    0.403    0.289   80.947  163.239
  532.240    4.847    0.404    0.286   78.926  163.542
  532.490    4.894    0.415    0.269   75.928  163.743
  532.740    4.979    0.438    0.259   73.897  163.946
  532.990    5.144    0.426    0.267   71.756  164.152
  533.240    5.549    0.413    0.266   72.049  164.454
  533.490    5.794    0.427    0.255   74.916  164.722
  533.740    5.840    0.437    0.230   77.176  164.930
  533.990    5.687    0.361    0.200   76.434  165.336
  534.240    5.534    0.329    0.169   74.960  165.410
  534.490    5.340    0.387    0.196   75.381  165.531
  534.740    5.107    0.399    0.223   76.839  165.394
  534.990    5.076    0.428    0.248   78.731  165.289
  535.240    5.279    0.409    0.256   80.739  165.200
  535.490    5.684    0.406    0.234   79.266  165.059
  535.740    6.328    0.404    0.206   74.122  165.046
  535.990    6.851    0.368    0.190   69.346  165.027
  536.240    6.777    0.335    0.176   69.036  165.043
  536.490    6.306    0.307    0.166   81.805  165.105
  536.740    5.835    0.342    0.154   94.885  164.910
  536.990    5.482    0.381    0.188  100.623  164.886
  537.240    5.170    0.392    0.202  104.590  164.882
  537.490    4.897    0.422    0.198  102.575  165.263
  537.740    4.705    0.449    0.205  100.672  167.763
  537.990    4.591    0.459    0.198  102.555  170.121
  538.240    4.478    0.463    0.204  107.987  171.762
  538.490    4.405    0.494    0.205  111.591  172.469
  538.740    4.371    0.492    0.215  108.646  172.668
  538.990    4.299    0.486    0.202  106.565  172.965
  539.240    4.304    0.465    0.213  104.723  173.061
  539.490    4.310    0.449    0.197  100.494  173.365
  539.740    4.355    0.469    0.211  101.409  173.355
  539.990    4.522    0.487    0.208  104.089  173.441
  540.240    4.727    0.503    0.211  105.916  173.435
  540.490    5.052    0.477    0.185  104.443  173.323
  540.740    5.416    0.418    0.157  102.479  173.313
  540.990    5.980    0.427    0.133  101.005  172.776
  541.240    6.344    0.423    0.139  100.755  171.620
  541.490    6.710    0.399    0.139  100.934  170.060
  541.740    6.834    0.383    0.157  101.962  168.914
  541.990    6.960    0.383    0.169  105.076  168.480
