~VERSION INFORMATION
 VERS.                 2.0:   CWLS LOG ASCII STANDARD -VERSION 2.0
 WRAP.                  NO:   ONE LINE PER DEPTH STEP
~WELL INFORMATION BLOCK
#MNEM.UNIT           DATA                    DESCRIPTION OF MNEMONIC
#---------    -------------------            -------------------------------
# Generated from Intellog Unique Number	CS_77_79/WELL/1010
WELL.         MAYNARD ET AL THORNBURY        : Well_name    - WELL
LOC .         00/11-35-079-12W4/0            : Location     - LOCATION
UWI .         00/11-35-079-12W4/0            : Uwi          - UNIQUE WELL ID
ENTR.         JHS                            : Entered      - ENTERED BY
SRVC.         SCHLUMBERGER                   : Scn          - SERVICE COMPANY
STRT.M        215                            : top_depth    - START DEPTH
STOP.M        480                            : bot_depth    - STOP DEPTH
STEP.M        0.25                           : increment    - STEP LENGTH
 NULL. -999.2500:NULL Value
~CURVE INFORMATION BLOCK
#MNEM UNIT       ERCB CURVE CODE    CURVE DESCRIPTION
#-----------   ------------------   ----------------------------------
DEPT.M        00 001 00 00         : DEPTH        - DEPTH
DPHI.V/V      00 890 00 00         : PHID         - DENSITY POROSITY (LIMESTONE)
NPHI.V/V      00 330 00 00         : PHIN         - NEUTRON POROSITY (LIMESTONE)
GR  .API      00 310 00 00         : GR           - GAMMA RAY
ILD .OHMM     00 120 00 00         : RESD         - DEEP RESISTIVITY (DIL)
RHOB.KG/M3    00 350 00 00         : DENS         - BULK DENSITY
~PARAMETER INFORMATION
#MNEM.UNIT           DATA             DESCRIPTION OF MNEMONIC
#---------         -----------     ------------------------------
GL  .M        681.99               : gl           - GROUND LEVEL ELEVATION
EREF.M        685.19               : kb           - ELEVATION OF DEPTH REFERENCE
DATM.M        685.19               : datum        - DATUM ELEVATION
TDD .M        495                  : tdd          - TOTAL DEPTH DRILLER
RUN .         ONE                  : Run          - RUN NUMBER
ENG .         BILL                 : Engineer     - RECORDING ENGINEER
WIT .         JIM                  : Witness      - WITNESSED BY
MUD .         GEL                  : Mud_type     - MUD TYPE
MATR.         LIMESTONE            : Logunit      - NEUTRON MATRIX
TMAX.C        20                   : BHT          - MAXIMUM RECORDED TEMPERATURE
BHTD.M        495                  : BHTDEP       - MAXIMUM RECORDED TEMPERATURE
MATR.         1                    : LOGUNIT      - NEUTRON MATRIX
RMT .C        25                   : MDTP         - TEMPERATURE OF MUD
NEUT.         1                    : NEUTRON      - NEUTRON TYPE
RESI.         0                    : RESIST       - RESISTIVITY TYPE
RMC .OHMM     0.25                 : RMC          - RESISTIVITY OF MUD CAKE
RMF .OHMM     0.25                 : RMF          - RESISTIVITY OF MUD FILTRATE
SUFT.C        15                   : SUFT         - SURFACE TEMPERATURE
~A  DEPTH     PHID     PHIN       GR     RESD     DENS
# ...
  361.000    0.210    0.522  111.449    3.222    0.000
  361.250    0.206    0.525  111.476    3.223    0.000
  361.500    0.211    0.525  112.123    3.306    0.000
  361.750    0.209    0.520  111.537    3.306    0.000
  362.000    0.204    0.526  108.488    3.389    0.000
  362.250    0.205    0.537  106.668    3.307    0.000
  362.500    0.228    0.548  108.554    3.225    0.000
  362.750    0.232    0.554  106.743    3.143    0.000
  363.000    0.248    0.557  106.153    3.061    0.000
  363.250    0.248    0.546  108.040    2.815    0.000
  363.500    0.243    0.539  108.077    2.568    0.000
  363.750    0.240    0.541  105.636    2.075    0.000
  364.000    0.233    0.528  103.814    1.582    0.000
  364.250    0.228    0.521  104.463    1.171    0.000
  364.500    0.229    0.515  104.513    1.089    0.000
  364.750    0.230    0.511  103.918    1.089    0.000
  365.000    0.229    0.506  102.108    1.172    0.000
  365.250    0.226    0.503  102.132    1.419    0.000
  365.500    0.227    0.503  101.551    1.667    0.000
  365.750    0.237    0.499  101.580    2.490    0.000
  366.000    0.237    0.501  100.375    3.725    0.000
  366.250    0.233    0.506   96.707    4.795    0.000
  366.500    0.231    0.503   98.592    5.207    0.000
  366.750    0.231    0.507  101.099    5.126    0.000
  367.000    0.231    0.515   96.811    4.797    0.000
  367.250    0.227    0.529   95.605    4.468    0.000
  367.500    0.224    0.527   96.260    4.139    0.000
  367.750    0.221    0.525   95.055    3.893    0.000
  368.000    0.214    0.520   95.089    3.811    0.000
  368.250    0.219    0.516  100.070    3.811    0.000
  368.500    0.214    0.510  103.803    4.059    0.000
  368.750    0.209    0.502  105.688    4.306    0.000
  369.000    0.210    0.490  106.954    4.553    0.000
  369.250    0.214    0.476  108.835    4.801    0.000
  369.500    0.211    0.471  110.725    4.884    0.000
  369.750    0.215    0.466  108.900    4.966    0.000
  370.000    0.211    0.461  103.996    4.885    0.000
  370.250    0.201    0.461   98.488    4.803    0.000
  370.500    0.196    0.456   96.046    4.803    0.000
  370.750    0.222    0.449   92.374    4.804    0.000
  371.000    0.232    0.436   89.315    4.886    0.000
  371.250    0.237    0.430   86.265    5.134    0.000
  371.500    0.227    0.427   85.684    5.546    0.000
  371.750    0.221    0.429   86.955    5.957    0.000
  372.000    0.224    0.440   86.981    6.616    0.000
  372.250    0.238    0.430   87.026    7.028    0.000
  372.500    0.245    0.423   87.665    7.276    0.000
  372.750    0.243    0.405   83.378    7.523    0.000
  373.000    0.212    0.325   77.243    7.935    0.000
  373.250    0.164    0.311   74.807    8.759    0.000
  373.500    0.117    0.309   75.459    9.747    0.000
  373.750    0.097    0.314   78.574   10.735    0.000
  374.000    0.098    0.369   85.395   10.653    0.000
  374.250    0.168    0.404   92.219   10.489    0.000
  374.500    0.203    0.426   94.719    9.913    0.000
  374.750    0.217    0.429   95.990    9.008    0.000
  375.000    0.230    0.429   96.638    8.268    0.000
  375.250    0.231    0.430   97.921    7.692    0.000
  375.500    0.237    0.435   99.806    7.446    0.000
  375.750    0.223    0.448   99.828    7.364    0.000
  376.000    0.213    0.445   98.016    7.364    0.000
  376.250    0.208    0.440   98.664    7.282    0.000
  376.500    0.202    0.433   99.925    7.200    0.000
  376.750    0.202    0.428   99.356    7.201    0.000
  377.000    0.223    0.428   98.762    7.202    0.000
  377.250    0.222    0.430   98.181    7.120    0.000
  377.500    0.228    0.456   96.983    7.038    0.000
  377.750    0.247    0.468   96.402    6.956    0.000
  378.000    0.244    0.461   95.815    6.792    0.000
  378.250    0.274    0.456   97.078    6.545    0.000
  378.500    0.261    0.458   99.580    6.299    0.000
  378.750    0.241    0.468  100.846    6.052    0.000
  379.000    0.234    0.469   98.414    5.559    0.000
  379.250    0.220    0.495  100.294    5.230    0.000
  379.500    0.215    0.507  101.561    4.737    0.000
  379.750    0.215    0.496  101.595    4.079    0.000
  380.000    0.212    0.490  101.630    3.503    0.000
  380.250    0.222    0.482  104.139    3.256    0.000
  380.500    0.232    0.476  103.549    3.257    0.000
  380.750    0.240    0.468  101.117    3.422    0.000
  381.000    0.243    0.462   99.909    3.587    0.000
  381.250    0.239    0.456   98.709    3.999    0.000
  381.500    0.234    0.451   98.127    4.329    0.000
  381.750    0.225    0.451   98.775    4.741    0.000
  382.000    0.222    0.458  100.050    5.317    0.000
  382.250    0.219    0.467  101.933    5.565    0.000
  382.500    0.214    0.473  102.588    5.565    0.000
  382.750    0.218    0.474  102.613    5.483    0.000
  383.000    0.225    0.471  102.029    5.401    0.000
  383.250    0.226    0.459  101.446    5.402    0.000
  383.500    0.223    0.447   99.626    5.485    0.000
  383.750    0.219    0.440   99.041    5.567    0.000
  384.000    0.217    0.437  100.310    5.897    0.000
  384.250    0.215    0.434  101.578    6.144    0.000
  384.500    0.210    0.428  100.377    6.309    0.000
  384.750    0.211    0.421   97.949    6.639    0.000
  385.000    0.209    0.414   97.979    7.051    0.000
  385.250    0.215    0.404   98.005    7.628    0.000
  385.500    0.223    0.392   96.193    8.122    0.000
  385.750    0.219    0.375   93.134    8.616    0.000
  386.000    0.166    0.368   90.083    9.110    0.000
  386.250    0.159    0.372   91.969    9.522    0.000
  386.500    0.161    0.389   92.619    9.934    0.000
  386.750    0.174    0.405   93.891    9.606    0.000
  387.000    0.198    0.421   96.389    8.371    0.000
  387.250    0.229    0.433  100.130    7.796    0.000
  387.500    0.221    0.444   98.927    7.138    0.000
  387.750    0.210    0.452   97.105    6.562    0.000
  388.000    0.203    0.449   96.533    6.233    0.000
  388.250    0.205    0.429   95.943    6.151    0.000
  388.500    0.224    0.416   93.505    6.316    0.000
  388.750    0.233    0.398   91.694    6.646    0.000
  389.000    0.215    0.391   90.489    7.058    0.000
  389.250    0.194    0.387   90.519    7.552    0.000
  389.500    0.188    0.388   91.174    8.294    0.000
  389.750    0.181    0.399   90.583    8.623    0.000
  390.000    0.234    0.402   89.383    8.541    0.000
  390.250    0.250    0.403   88.179    8.295    0.000
  390.500    0.260    0.414   86.362    7.884    0.000
  390.750    0.264    0.416   87.018    7.391    0.000
  391.000    0.262    0.416   87.056    7.062    0.000
  391.250    0.257    0.422   85.856    6.815    0.000
  391.500    0.247    0.429   85.884    6.651    0.000
  391.750    0.235    0.437   87.774    6.487    0.000
  392.000    0.226    0.436   89.658    6.487    0.000
  392.250    0.224    0.428   90.923    6.488    0.000
  392.500    0.225    0.423   92.187    6.570    0.000
  392.750    0.227    0.415   94.068    6.653    0.000
  393.000    0.243    0.410   95.954    6.654    0.000
  393.250    0.238    0.407   92.913    6.736    0.000
  393.500    0.263    0.406   89.851    6.737    0.000
  393.750    0.281    0.407   85.561    6.820    0.000
  394.000    0.291    0.409   81.276    6.902    0.000
  394.250    0.306    0.411   78.848    6.985    0.000
  394.500    0.305    0.408   78.256    7.068    0.000
  394.750    0.303    0.399   78.286    7.315    0.000
  395.000    0.293    0.386   75.850    7.480    0.000
  395.250    0.267    0.365   72.810    7.892    0.000
  395.500    0.238    0.350   70.986    8.716    0.000
  395.750    0.170    0.351   72.870    8.881    0.000
  396.000    0.160    0.357   77.226    8.881    0.000
  396.250    0.196    0.368   80.966    8.717    0.000
  396.500    0.240    0.355   82.843    8.471    0.000
  396.750    0.260    0.302   82.877    8.471    0.000
  397.000    0.186    0.248   80.447    8.554    0.000
  397.250    0.146    0.227   73.065    9.213    0.000
