~VERSION INFORMATION
 VERS.                 2.0:   CWLS LOG ASCII STANDARD -VERSION 2.0
 WRAP.                  NO:   ONE LINE PER DEPTH STEP
~WELL INFORMATION BLOCK
#MNEM.UNIT           DATA                    DESCRIPTION OF MNEMONIC
#---------    -------------------            -------------------------------
# Generated from Intellog Unique Number	CW_70_72/WELL/3022
NULL.         -999.25                        : NULL_VALUE
WELL.         SUNDANCE CANAL 10-20           : Well_name    - WELL              
LOC .         10-20-070-23W4                 : Location     - LOCATION          
UWI .         00/10-20-070-23W4/0            : Uwi          - UNIQUE WELL ID    
ENTR.         jj                             : Entered      - ENTERED BY        
SRVC.         WESTERN ATLAS                  : Scn          - SERVICE COMPANY   
DATE.         18 FEB 77                      : Date         - LOG DATE          
STRT.M        396.24                         : top_depth    - START DEPTH       
STOP.M        579.24                         : bot_depth    - STOP DEPTH        
STEP.M        0.25                           : increment    - STEP LENGTH       
~CURVE INFORMATION BLOCK
#MNEM UNIT       ERCB CURVE CODE    CURVE DESCRIPTION
#-----------   ------------------   ----------------------------------
DEPT.M        00 001 00 00         : DEPTH        - DEPTH                       
ILD .OHMM     00 120 00 00         : RESD         - DEEP RESISTIVITY (DIL)      
CALI.MM       00 280 01 00         : CAL          - CALIPER                     
GR  .API      00 310 00 00         : GR           - GAMMA RAY                   
NPHI.V/V      00 330 00 00         : PHIN         - NEUTRON POROSITY (SANDSTONE)
DPHI.V/V      00 890 00 00         : PHID         - DENSITY POROSITY (SANDSTONE)
~PARAMETER INFORMATION       
#MNEM.UNIT           DATA             DESCRIPTION OF MNEMONIC
#---------         -----------     ------------------------------
GL  .M        626.059              : gl           - GROUND LEVEL ELEVATION      
EREF.M        629.717              : kb           - ELEVATION OF DEPTH REFERENCE
DATM.M        626.059              : datum        - DATUM ELEVATION             
TDD .M        588.264              : tdd          - TOTAL DEPTH DRILLER         
RUN .         ONE                  : Run          - RUN NUMBER                  
ENG .         DALY                 : Engineer     - RECORDING ENGINEER          
BASE.         EDM                  : Branch       - HOME BASE OF LOGGING UNIT   
MUD .         GEL BENDEX           : Mud_type     - MUD TYPE                    
MATR.         SANDSTONE            : Logunit      - NEUTRON MATRIX              
TMAX.C        23.8889              : BHT          - MAXIMUM RECORDED TEMPERATURE
BHTD.M        589.483              : BHTDEP       - MAXIMUM RECORDED TEMPERATURE
RMT .C        14.4444              : MDTP         - TEMPERATURE OF MUD          
MUDD.KG/M     1104                 : MWT          - MUD DENSITY                 
NEUT.         1                    : NEUTRON      - NEUTRON TYPE                
RESI.         0                    : RESIST       - RESISTIVITY TYPE            
RM  .OHMM     6.64                 : RM           - RESISTIVITY OF MUD          
RMC .OHMM     0.25                 : RMC          - RESISTIVITY OF MUD CAKE     
RMF .OHMM     5.99                 : RMF          - RESISTIVITY OF MUD FILTRATE 
SUFT.C        -17                  : SUFT         - SURFACE TEMPERATURE         
~A  DEPTH     RESD      CAL       GR     PHIN     PHID
# ...
  505.740    5.115  159.146   97.631    0.412    0.126
  505.990    4.871  159.270   99.164    0.425    0.154
  506.240    4.450  163.722  100.209    0.444    0.153
  506.490    4.339  167.135   96.092    0.458    0.133
  506.740    4.258  161.914   92.638    0.473    0.164
  506.990    4.359  158.948   87.182    0.463    0.192
  507.240    4.564  156.502   80.508    0.426    0.209
  507.490    4.780  155.698   76.631    0.401    0.216
  507.740    5.034  155.410   77.801    0.380    0.159
  507.990    5.180  155.332   82.856    0.427    0.143
  508.240    5.716  155.557   85.362    0.456    0.157
  508.490    5.970  156.199   81.728    0.416    0.179
  508.740    6.347  157.970   77.549    0.356    0.136
  508.990    6.331  162.827   77.256    0.318    0.106
  509.240    5.876  163.877   81.037    0.385    0.082
  509.490    5.462  159.578   79.653    0.438    0.120
  509.740    4.941  156.924   79.362    0.416    0.158
  509.990    4.630  155.815   84.784    0.385    0.156
  510.240    4.526  157.073   90.024    0.410    0.142
  510.490    4.499  159.976   84.385    0.403    0.168
  510.740    4.505  163.601   85.978    0.370    0.134
  510.990    4.867  165.577   91.704    0.396    0.122
  511.240    4.452  164.262   93.783    0.439    0.166
  511.490    4.425  159.033   95.194    0.426    0.200
  511.740    4.406  156.378   94.781    0.427    0.185
  511.990    4.380  157.534   94.856    0.441    0.172
  512.240    4.331  161.259  101.189    0.454    0.164
  512.490    4.353  162.722  100.108    0.456    0.160
  512.740    4.368  162.127   98.542    0.445    0.154
  512.990    4.391  159.062   98.736    0.435    0.149
  513.240    4.453  158.363   97.412    0.447    0.151
  513.490    4.560  162.606   95.846    0.461    0.162
  513.740    4.687  163.553   96.770    0.469    0.161
  513.990    4.764  163.884   95.506    0.453    0.160
  514.240    4.788  163.807   93.816    0.445    0.165
  514.490    4.813  164.338   92.493    0.439    0.163
  514.740    4.838  164.566   94.148    0.429    0.141
  514.990    4.818  164.589   96.286    0.415    0.139
  515.240    4.807  165.331   99.278    0.402    0.134
  515.490    4.806  166.178  101.297    0.447    0.143
  515.740    4.812  165.168   99.182    0.444    0.136
  515.990    4.819  165.293   98.466    0.445    0.129
  516.240    4.835  167.066   99.939    0.451    0.146
  516.490    4.807  165.337  101.410    0.437    0.142
  516.740    4.725  160.729  101.180    0.433    0.127
  516.990    4.636  162.500  100.159    0.420    0.147
  517.240    4.490  162.731   96.100    0.402    0.162
  517.490    4.302  162.955   96.114    0.406    0.158
  517.740    4.151  163.597   99.407    0.415    0.170
  517.990    4.058  164.337  100.089    0.417    0.186
  518.240    4.072  160.962   97.974    0.420    0.172
  518.490    4.169  159.955   93.307    0.429    0.153
  518.740    4.325  163.888   93.807    0.440    0.159
  518.990    4.477  162.985   92.362    0.440    0.166
  519.240    4.688  161.772   89.456    0.444    0.167
  519.490    4.817  160.662   85.094    0.447    0.163
  519.740    5.026  160.579   80.732    0.452    0.165
  519.990    5.262  161.015   78.859    0.449    0.141
  520.240    5.509  160.520   79.662    0.444    0.120
  520.490    5.919  159.619   80.648    0.451    0.140
  520.740    6.514  158.303   76.406    0.481    0.159
  520.990    7.579  157.190   68.458    0.503    0.196
  521.240    9.947  156.183   60.873    0.328    0.184
  521.490   15.477  156.102   49.824    0.291    0.141
  521.740   24.268  159.520   50.020    0.240    0.106
  521.990   27.920  164.587   54.530    0.200    0.064
  522.240   20.525  166.874   58.254    0.186    0.036
  522.490   16.366  161.335   60.513    0.321    0.086
  522.740   12.766  154.051   63.200    0.369    0.119
  522.990   11.146  150.779   66.008    0.406    0.145
  523.240    9.626  152.138   67.481    0.421    0.179
  523.490    8.802  155.970   66.826    0.366    0.156
  523.740    8.112  160.005   65.683    0.320    0.127
  523.990    7.886  161.881   69.646    0.380    0.097
  524.240    7.941  156.241   71.665    0.425    0.194
  524.490    8.206  152.355   71.436    0.462    0.218
  524.740    8.917  151.138   70.720    0.424    0.233
  524.990    9.545  150.645   69.942    0.405    0.224
  525.240   10.012  150.259   68.617    0.404    0.225
  525.490    9.933  150.280   67.413    0.423    0.225
  525.740    9.222  150.611   71.257    0.431    0.247
  525.990    8.766  151.662   74.794    0.431    0.270
  526.240    8.305  155.080   75.415    0.452    0.243
  526.490    7.855  157.161   73.971    0.458    0.224
  526.740    7.510  157.284   75.017    0.444    0.219
  526.990    7.340  156.996   76.973    0.434    0.216
  527.240    7.229  157.432   79.541    0.423    0.215
  527.490    7.473  157.658   80.586    0.443    0.187
  527.740    8.519  158.194   78.775    0.464    0.207
  527.990    9.550  158.113   71.616    0.458    0.206
  528.240   10.414  155.667   69.563    0.457    0.206
  528.490   11.004  152.604   73.953    0.455    0.165
  528.740   10.659  152.209   80.103    0.407    0.182
  528.990    9.205  154.085   88.930    0.395    0.193
  529.240    7.408  157.811   95.081    0.405    0.190
  529.490    6.041  158.657  101.536    0.405    0.187
  529.740    4.889  158.783  108.600    0.428    0.152
  529.990    4.167  165.287  108.673    0.443    0.152
  530.240    3.819  167.263  107.229    0.461    0.152
  530.490    3.727  167.911  109.612    0.447    0.152
  530.740    3.683  168.338  112.483    0.440    0.151
  530.990    3.711  168.984  113.282    0.463    0.140
  531.240    3.735  169.205  111.838    0.478    0.128
  531.490    3.769  169.742  108.204    0.460    0.129
  531.740    3.832  169.557  102.810    0.428    0.147
  531.990    3.915  166.287  100.024    0.418    0.130
  532.240    4.099  164.970   96.999    0.432    0.113
  532.490    4.379  166.741   95.798    0.449    0.085
  532.740    4.714  167.178   94.351    0.445    0.134
  532.990    5.258  164.211   91.811    0.420    0.123
  533.240    5.649  161.249   89.695    0.404    0.103
  533.490    5.992  163.949   88.310    0.390    0.097
  533.740    6.147  164.691   90.150    0.381    0.066
  533.990    6.052  162.858   93.568    0.377    0.102
  534.240    5.526  162.059   96.678    0.414    0.134
  534.490    5.129  161.772   99.303    0.433    0.149
  534.740    4.932  161.797  101.932    0.408    0.159
  534.990    4.804  161.609  103.889    0.420    0.155
  535.240    4.722  160.602  105.298    0.432    0.148
  535.490    4.694  159.594  105.675    0.442    0.131
  535.740    4.684  159.001  103.561    0.444    0.137
  535.990    4.743  158.919  103.880    0.448    0.160
  536.240    4.766  160.175  104.803    0.456    0.142
  536.490    4.827  164.727  104.756    0.449    0.142
  536.740    4.897  166.703  102.033    0.437    0.146
  536.990    4.940  166.826  101.865    0.435    0.128
  537.240    4.993  167.161  105.161    0.424    0.120
  537.490    5.028  167.387  107.846    0.416    0.127
  537.740    5.036  167.921  109.743    0.421    0.155
  537.990    5.053  169.075  105.502    0.425    0.122
  538.240    5.059  170.541  102.110    0.416    0.118
  538.490    5.048  171.594  105.285    0.430    0.107
  538.740    5.036  172.128  107.363    0.442    0.092
  538.990    5.026  169.679  103.245    0.437    0.125
  539.240    5.079  161.878   99.609    0.422    0.134
  539.490    5.250  159.225   96.219    0.400    0.150
  539.740    5.394  159.040   92.648    0.386    0.143
  539.990    5.545  160.300   89.379    0.408    0.116
  540.240    5.594  161.863   84.833    0.423    0.107
  540.490    5.520  164.048   85.271    0.418    0.096
  540.740    5.456  165.612   89.111    0.415    0.081
  540.990    5.365  166.766   91.616    0.426    0.114
  541.240    5.313  164.524   80.143    0.426    0.136
  541.490    5.311  167.841   63.139    0.416    0.128
  541.740    5.308  166.936   43.762    0.408    0.114
  541.990    5.286  164.383   32.835    0.402    0.102
