~VERSION INFORMATION
 VERS.                 2.0:   CWLS LOG ASCII STANDARD -VERSION 2.0
 WRAP.                  NO:   ONE LINE PER DEPTH STEP
~WELL INFORMATION BLOCK
#MNEM.UNIT           DATA                    DESCRIPTION OF MNEMONIC
#---------    -------------------            -------------------------------
# Generated from Intellog Unique Number	CW_70_72/WELL/3029
NULL.         -999.25                        : NULL_VALUE
WELL.         CHIEFCO ET AL DANCING 11-12    : Well_name    - WELL              
LOC .         11-12-070-27W4                 : Location     - LOCATION          
UWI .         00/11-12-070-27W4/0            : Uwi          - UNIQUE WELL ID    
ENTR.         JAYE                           : Entered      - ENTERED BY        
SRVC.         SCHLUMBERGER                   : Scn          - SERVICE COMPANY   
DATE.         5 OCT 76                       : Date         - LOG DATE          
STRT.M        469.392                        : top_depth    - START DEPTH       
STOP.M        719.392                        : bot_depth    - STOP DEPTH        
STEP.M        0.25                           : increment    - STEP LENGTH       
~CURVE INFORMATION BLOCK
#MNEM UNIT       ERCB CURVE CODE    CURVE DESCRIPTION
#-----------   ------------------   ----------------------------------
DEPT.M        00 001 00 00         : DEPTH        - DEPTH                       
ILD .OHMM     00 120 00 00         : RESD         - DEEP RESISTIVITY (DIL)      
CALI.MM       00 280 01 00         : CAL          - CALIPER                     
GR  .API      00 310 00 00         : GR           - GAMMA RAY                   
NPHI.V/V      00 330 00 00         : PHIN         - NEUTRON POROSITY (SANDSTONE)
DPHI.V/V      00 890 00 00         : PHID         - DENSITY POROSITY (SANDSTONE)
~PARAMETER INFORMATION       
#MNEM.UNIT           DATA             DESCRIPTION OF MNEMONIC
#---------         -----------     ------------------------------
GL  .M        636.422              : gl           - GROUND LEVEL ELEVATION      
EREF.M        639.166              : kb           - ELEVATION OF DEPTH REFERENCE
DATM.M        636.422              : datum        - DATUM ELEVATION             
TDD .M        733.654              : tdd          - TOTAL DEPTH DRILLER         
RUN .         ONE                  : Run          - RUN NUMBER                  
ENG .         PAQUIN               : Engineer     - RECORDING ENGINEER          
WIT .         ERICKSON             : Witness      - WITNESSED BY                
BASE.         EDM                  : Branch       - HOME BASE OF LOGGING UNIT   
MUD .         GEL                  : Mud_type     - MUD TYPE                    
MATR.         SANDSTONE            : Logunit      - NEUTRON MATRIX              
TMAX.C        -17.7778             : BHT          - MAXIMUM RECORDED TEMPERATURE
BHTD.M        733.958              : BHTDEP       - MAXIMUM RECORDED TEMPERATURE
RMT .C        10.5556              : MDTP         - TEMPERATURE OF MUD          
MUDD.KG/M     1140                 : MWT          - MUD DENSITY                 
NEUT.         1                    : NEUTRON      - NEUTRON TYPE                
RESI.         0                    : RESIST       - RESISTIVITY TYPE            
RM  .OHMM     4.35                 : RM           - RESISTIVITY OF MUD          
RMC .OHMM     0.25                 : RMC          - RESISTIVITY OF MUD CAKE     
RMF .OHMM     3.86                 : RMF          - RESISTIVITY OF MUD FILTRATE 
SUFT.C        -17.7778             : SUFT         - SURFACE TEMPERATURE         
~A  DEPTH     RESD      CAL       GR     PHIN     PHID
# ...
  651.892    2.164  174.881   97.978    0.538    0.149
  652.142    2.499  178.255   94.639    0.549    0.130
  652.392    2.998  174.345   90.394    0.478    0.162
  652.642    3.506  165.822   85.421    0.396    0.175
  652.892    4.238  160.579   84.808    0.375    0.104
  653.142    4.659  159.744   83.650    0.381    0.087
  653.392    4.876  159.425   80.131    0.385    0.096
  653.642    4.806  159.107   81.880    0.377    0.106
  653.892    4.745  158.890   86.959    0.369    0.090
  654.142    4.686  158.775   91.070    0.384    0.105
  654.392    4.601  159.070   95.302    0.395    0.123
  654.642    4.511  159.775   98.079    0.385    0.105
  654.892    4.429  160.687   99.406    0.383    0.113
  655.142    4.271  161.598  101.879    0.383    0.137
  655.392    4.082  162.304  104.114    0.385    0.129
  655.642    4.104  162.906  103.320    0.388    0.109
  655.892    4.150  163.305  101.738    0.397    0.107
  656.142    4.173  163.600   98.460    0.414    0.117
  656.392    4.211  163.383   95.668    0.411    0.129
  656.642    4.258  163.163   93.905    0.407    0.125
  656.892    4.336  162.536   93.231    0.422    0.107
  657.142    4.392  162.115   95.465    0.418    0.106
  657.392    4.401  161.795  100.241    0.400    0.074
  657.642    4.361  161.681  102.110    0.388    0.087
  657.892    4.205  161.464  102.710    0.398    0.105
  658.142    4.107  161.452  103.005    0.404    0.094
  658.392    4.115  161.439  103.482    0.397    0.118
  658.642    4.176  161.733  103.112    0.386    0.135
  658.892    4.261  161.722  101.107    0.370    0.123
  659.142    4.339  161.401   98.374    0.363    0.123
  659.392    4.517  160.977   95.037    0.375    0.116
  659.642    4.797  160.864   88.549    0.365    0.097
  659.892    5.002  160.646   84.787    0.352    0.037
  660.142    5.440  160.226   81.268    0.356    0.025
  660.392    5.632  158.674   87.317    0.345    0.024
  660.642    4.816  158.970   99.361    0.382    0.076
  660.892    4.073  160.907   98.989    0.420    0.099
  661.142    3.502  166.945   95.954    0.464    0.158
  661.392    3.535  164.471   90.981    0.448    0.144
  661.642    3.865  162.302   88.189    0.410    0.115
  661.892    4.142  161.166   90.786    0.391    0.116
  662.142    4.521  159.615   92.232    0.393    0.111
  662.392    4.943  159.091   91.377    0.394    0.104
  662.642    5.355  158.668   88.885    0.392    0.111
  662.892    5.781  158.037   84.822    0.367    0.101
  663.142    5.974  157.924   84.028    0.335    0.085
  663.392    5.825  157.810   88.744    0.339    0.085
  663.642    5.386  158.002   93.035    0.361    0.099
  663.892    5.185  158.299   94.784    0.371    0.118
  664.142    5.000  158.389   94.959    0.380    0.125
  664.392    4.865  158.888   95.195    0.358    0.133
  664.642    4.946  158.876   95.248    0.352    0.138
  664.892    5.130  158.865   94.756    0.352    0.129
  665.142    5.650  158.850   92.447    0.347    0.113
  665.392    6.066  158.736   89.231    0.342    0.091
  665.642    6.326  158.623   87.892    0.338    0.071
  665.892    6.502  158.508   91.578    0.329    0.049
  666.142    6.224  158.392   97.142    0.320    0.074
  666.392    5.798  158.279  101.011    0.335    0.092
  666.642    5.180  158.061  104.879    0.353    0.094
  666.892    4.869  158.152  108.444    0.372    0.101
  667.142    4.503  158.755  108.801    0.397    0.134
  667.392    4.256  159.150  105.645    0.383    0.125
  667.642    4.164  159.345  103.336    0.364    0.119
  667.892    4.142  159.232  102.783    0.356    0.126
  668.142    4.195  159.116  102.898    0.353    0.119
  668.392    4.296  159.206  103.799    0.360    0.129
  668.642    4.328  159.297  105.366    0.366    0.135
  668.892    4.173  160.003  107.055    0.386    0.130
  669.142    4.143  162.862  107.895    0.407    0.120
  669.392    4.182  162.234  102.438    0.411    0.113
  669.642    4.298  157.608   94.982    0.384    0.106
  669.892    4.498  157.490   95.884    0.372    0.075
  670.142    4.751  157.686  100.902    0.365    0.062
  670.392    4.848  157.672  102.530    0.403    0.092
  670.642    4.778  155.982  142.746    0.390    0.123
  670.892    4.915  155.908  142.410    0.374    0.118
  671.142    5.260  155.537  144.904    0.357    0.124
  671.392    5.671  155.265  148.739    0.336    0.101
  671.642    5.992  154.891  151.355    0.320    0.077
  671.892    6.390  154.523   66.007    0.305    0.076
  672.142    6.777  154.451   63.912    0.300    0.076
  672.392    7.293  154.182   63.091    0.299    0.037
  672.642    7.993  154.120   63.353    0.285    0.013
  672.892    8.602  154.161   65.551    0.271    0.016
  673.142    8.875  154.197   70.046    0.288    0.045
  673.392    8.434  154.223   77.200    0.302    0.029
  673.642    7.490  154.267   86.108    0.317    0.049
  673.892    6.495  154.297   92.598    0.356    0.078
  674.142    5.622  154.334   87.482    0.334    0.104
  674.392    5.141  154.573   87.322    0.323    0.123
  674.642    5.086  155.122   90.124    0.324    0.114
  674.892    5.344  155.772   93.289    0.325    0.096
  675.142    5.762  156.632   97.726    0.321    0.103
  675.392    6.011  157.074   99.257    0.318    0.109
  675.642    6.282  157.418  100.730    0.314    0.102
  675.892    6.411  157.254  102.685    0.317    0.096
  676.142    6.459  156.884  102.648    0.325    0.103
  676.392    6.367  156.809   99.281    0.328    0.117
  676.642    6.139  156.540   95.920    0.326    0.117
  676.892    6.007  156.473   94.912    0.325    0.100
  677.142    5.900  156.307   96.207    0.325    0.089
  677.392    5.868  156.443   97.677    0.327    0.099
  677.642    5.913  156.585   96.547    0.330    0.106
  677.892    5.969  156.726   93.669    0.334    0.108
  678.142    6.014  157.060   94.960    0.337    0.105
  678.392    6.004  157.101   96.979    0.339    0.106
  678.642    6.027  157.138   97.965    0.340    0.098
  678.892    6.028  157.275  100.104    0.343    0.107
  679.142    6.029  157.308  100.426    0.351    0.101
  679.392    6.031  157.550   95.368    0.343    0.096
  679.642    6.396  157.693   90.068    0.335    0.083
  679.892    7.311  157.725   82.169    0.331    0.098
  680.142    8.206  157.357   73.003    0.332    0.099
  680.392    9.484  156.574   64.075    0.327    0.092
  680.642   11.350  155.797   56.902    0.306    0.072
  680.892   13.070  155.317   54.930    0.289    0.066
  681.142   14.457  154.834   56.282    0.269    0.054
  681.392   15.758  154.569   56.482    0.251    0.037
  681.642   15.761  154.706   55.475    0.226    0.031
  681.892   12.750  155.155   59.669    0.218    0.034
  682.142   10.600  155.390   65.920    0.240    0.075
  682.392    8.846  155.837   72.168    0.306    0.117
  682.642    7.559  156.184   76.241    0.332    0.139
  682.892    7.105  156.322   77.046    0.348    0.099
  683.142    7.494  156.354   74.165    0.315    0.095
  683.392    8.335  156.292   70.256    0.297    0.109
  683.642    8.444  156.324   75.359    0.313    0.144
  683.892    8.292  156.265   79.796    0.325    0.188
  684.142    7.695  156.295   83.077    0.335    0.190
  684.392    7.285  156.443   86.969    0.342    0.174
  684.642    6.859  156.468   90.015    0.349    0.182
  684.892    6.542  156.607   90.339    0.354    0.178
  685.142    6.532  156.856   90.722    0.357    0.163
  685.392    6.727  157.096   95.337    0.353    0.150
  685.642    7.005  157.332   95.722    0.342    0.141
  685.892    7.361  157.163   91.632    0.322    0.136
  686.142    7.735  157.095   84.216    0.312    0.134
  686.392    8.294  156.935   83.815    0.326    0.146
  686.642    8.700  156.867   87.223    0.312    0.148
  686.892    9.026  156.800   88.271    0.307    0.106
  687.142    9.382  156.729   87.748    0.307    0.089
  687.392    9.627  156.666   82.028    0.312    0.072
  687.642    9.647  157.213   74.550    0.318    0.071
  687.892    9.217  157.767   78.865    0.315    0.044
  688.142    8.537  157.496   86.140    0.340    0.029
