~VERSION INFORMATION
 VERS.                 2.0:   CWLS LOG ASCII STANDARD -VERSION 2.0
 WRAP.                  NO:   ONE LINE PER DEPTH STEP
~WELL INFORMATION BLOCK
#MNEM.UNIT           DATA                    DESCRIPTION OF MNEMONIC
#---------    -------------------            -------------------------------
# Generated from Intellog Unique Number	CC_80_83/WELL/2366
NULL.         -999.25                        : NULL_VALUE
WELL.         CHEVRON CAN OXY LGAR           : Well_name    - WELL              
LOC .         10-23-082-16W4                 : Location     - LOCATION          
UWI .         00/10-23-082-16W400            : Uwi          - UNIQUE WELL ID    
ENTR.         RJA                            : Entered      - ENTERED BY        
SRVC.         SCHLUMBERGER                   : Scn          - SERVICE COMPANY   
DATE.         18 FEB 74                      : Date         - LOG DATE
STRT.M        94.488                         : top_depth    - START DEPTH       
STOP.M        286.511                        : bot_depth    - STOP DEPTH        
STEP.M        0.3048                         : increment    - STEP LENGTH       
~CURVE INFORMATION BLOCK
#MNEM UNIT       ERCB CURVE CODE    CURVE DESCRIPTION
#-----------   ------------------   ----------------------------------
DEPT.M        00 001 00 00         : DEPTH        - DEPTH                       
DPHI.V/V      00 890 00 00         : PHID         - DENSITY POROSITY (LIMESTONE)
NPHI.V/V      00 330 00 00         : PHIN         - NEUTRON POROSITY (LIMESTONE)
GR  .API      00 310 00 00         : GR           - GAMMA RAY                   
ILD .OHMM     00 120 00 00         : RESD         - DEEP RESISTIVITY (DIL)      
~PARAMETER INFORMATION       
#MNEM.UNIT           DATA             DESCRIPTION OF MNEMONIC
#---------         -----------     ------------------------------
GL  .M        550.774              : gl           - GROUND LEVEL ELEVATION      
EREF.M        554.126              : kb           - ELEVATION OF DEPTH REFERENCE
DATM.M        554.126              : datum        - DATUM ELEVATION             
TDD .M        287.731              : tdd          - TOTAL DEPTH DRILLER         
RUN .         ONE                  : Run          - RUN NUMBER                  
ENG .         BILL                 : Engineer     - RECORDING ENGINEER          
WIT .         JIM                  : Witness      - WITNESSED BY                
MUD .         GEL                  : Mud_type     - MUD TYPE                    
MATR.         LIMESTONE            : Logunit      - NEUTRON MATRIX              
TMAX.C        18.3333              : BHT          - MAXIMUM RECORDED TEMPERATURE
BHTD.M        287.731              : BHTDEP       - MAXIMUM RECORDED TEMPERATURE
MATR.         1                    : LOGUNIT      - NEUTRON MATRIX              
RMT .C        25                   : MDTP         - TEMPERATURE OF MUD          
NEUT.         1                    : NEUTRON      - NEUTRON TYPE                
RESI.         0                    : RESIST       - RESISTIVITY TYPE            
RMC .OHMM     0.25                 : RMC          - RESISTIVITY OF MUD CAKE     
RMF .OHMM     0.25                 : RMF          - RESISTIVITY OF MUD FILTRATE 
SUFT.C        4                    : SUFT         - SURFACE TEMPERATURE         
~A  DEPTH     PHID     PHIN       GR     RESD
# ...
  253.591    0.286    0.443   79.719    9.954
  253.896    0.291    0.454   76.577    9.615
  254.201    0.280    0.491   75.810    9.633
  254.506    0.279    0.471   74.482    9.338
  254.811    0.276    0.457   73.583    9.086
  255.115    0.263    0.470   71.628    9.038
  255.420    0.260    0.486   71.738    9.106
  255.725    0.250    0.502   73.699    9.141
  256.030    0.269    0.517   77.457    9.143
  256.335    0.258    0.466   85.139    9.229
  256.639    0.248    0.462   86.858    9.316
  256.944    0.231    0.499   86.087    9.352
  257.249    0.247    0.501   84.942    9.423
  257.554    0.247    0.526   88.588    9.425
  257.859    0.244    0.489   87.261    9.003
  258.163    0.238    0.497   84.865    8.889
  258.468    0.241    0.512   84.097    8.777
  258.773    0.256    0.501   87.182    8.634
  259.078    0.240    0.494   87.399    8.541
  259.383    0.251    0.461   84.704    8.418
  259.688    0.246    0.506   83.188    8.450
  259.992    0.235    0.532   83.292    8.609
  260.297    0.267    0.538   80.836    8.626
  260.602    0.269    0.501   82.560    8.612
  260.907    0.249    0.510   84.452    8.582
  261.212    0.248    0.493   85.050    8.568
  261.516    0.238    0.493   82.604    8.538
  261.821    0.233    0.486   74.749    8.508
  262.126    0.241    0.458   82.242    8.432
  262.431    0.259    0.477   81.668    8.341
  262.736    0.250    0.508   80.388    8.205
  263.040    0.269    0.525   82.982    8.012
  263.345    0.268    0.518   84.075    7.612
  263.650    0.254    0.529   83.108    7.191
  263.955    0.245    0.542   86.067    6.769
  264.260    0.250    0.558   87.407    6.243
  264.564    0.235    0.587   94.165    5.633
  264.869    0.250    0.588   90.658    5.026
  265.174    0.250    0.564   93.188    4.485
  265.479    0.234    0.559   95.636    3.951
  265.784    0.220    0.565   97.611    3.740
  266.089    0.219    0.612  102.673    3.895
  266.393    0.226    0.601  104.207    4.589
  266.698    0.221    0.580   99.329    5.337
  267.003    0.224    0.535   91.041    7.022
  267.308    0.200    0.477   89.271    8.727
  267.613    0.216    0.470   88.259    9.966
  267.917    0.213    0.475   91.089    9.876
  268.222    0.241    0.483   88.140    9.127
  268.527    0.230    0.513   91.475    8.782
  268.832    0.217    0.507   93.189    8.528
  269.137    0.198    0.506   87.631    8.546
  269.441    0.195    0.482   91.523    8.754
  269.746    0.200    0.472   85.778    9.322
  270.051    0.163    0.402   81.213    9.549
  270.356    0.142    0.434   90.328    9.155
  270.661    0.184    0.448   90.549    9.006
  270.965    0.200    0.466   92.760    9.226
  271.270    0.190    0.487   89.070    9.539
  271.575    0.187    0.473   87.179    9.400
  271.880    0.216    0.454   89.518    8.930
  272.185    0.196    0.466   91.540    7.188
  272.490    0.210    0.487   95.554    5.476
  272.794    0.213    0.554   88.695    4.399
  273.099    0.231    0.582   59.272    3.933
  273.404    0.275    0.523   51.793    4.188
  273.709    0.284    0.452   50.461    5.675
  274.014    0.267    0.424   53.293    7.761
  274.318    0.254    0.415   57.992    9.987
  274.623    0.250    0.407   62.195   11.745
  274.928    0.265    0.460   63.162   11.640
  275.233    0.260    0.471   67.425   10.310
  275.538    0.259    0.463   76.038    7.768
  275.842    0.262    0.515   84.038    6.583
  276.147    0.246    0.517   81.772    5.631
  276.452    0.240    0.513   78.884    5.071
  276.757    0.237    0.526   80.971    4.773
  277.062    0.224    0.577   88.910    4.783
  277.366    0.202    0.522   86.204    4.927
  277.671    0.194    0.510   86.495    5.160
  277.976    0.200    0.502   90.079    5.247
  278.281    0.218    0.485   92.659    4.948
  278.586    0.237    0.559   97.854    4.489
  278.891    0.248    0.581  103.109    4.065
  279.195    0.241    0.588  104.518    3.516
  279.500    0.230    0.616  108.284    3.370
  279.805    0.242    0.616  101.168    3.279
  280.110    0.233    0.640   86.539    3.274
  280.415    0.221    0.635   69.296    3.299
  280.719    0.220    0.626   68.530    3.398
  281.024    0.231    0.591   68.761    3.665
  281.329    0.218    0.569   69.034    3.975
  281.634    0.220    0.538   69.327    4.366
  281.939    0.223    0.501   69.490    4.904
  282.243    0.221    0.473   69.526    5.117
  282.548    0.211    0.351   69.438    5.694
  282.853    0.194    0.304   69.351    6.267
  283.158    0.160    0.294   69.073    6.075
  283.463    0.142    0.454   69.108    4.469
  283.767    0.270    0.450   69.392    4.017
  284.072    0.304    0.448   69.432    4.010
  284.377    0.288    0.447   69.099    4.231
  284.682    0.285    0.450   68.513    4.530
  284.987    0.263    0.450   68.613    4.649
  285.292    0.259    0.449   69.086    4.710
  285.596    0.273    0.450   69.368    4.711
  285.901    0.285    0.453   69.283    4.609
  286.206    0.267    0.454   69.383    4.593
  286.511    0.280    0.456   69.606    4.577
