~VERSION INFORMATION
 VERS.                 2.0:   CWLS LOG ASCII STANDARD -VERSION 2.0
 WRAP.                  NO:   ONE LINE PER DEPTH STEP
~WELL INFORMATION BLOCK
#MNEM.UNIT           DATA                    DESCRIPTION OF MNEMONIC
#---------    -------------------            -------------------------------
# Generated from Intellog Unique Number	CS_73_76/WELL/3248
WELL.         BOW VALLEY INDUSTRIES LTD.     : Well_name    - WELL
LOC .         00/10-30-075-12W4/0            : Location     - LOCATION
UWI .         00/10-30-075-12W4/0            : Uwi          - UNIQUE WELL ID
ENTR.         SP                             : Entered      - ENTERED BY
SRVC.         SCHLUMBERGER                   : Scn          - SERVICE COMPANY
STRT.M        320                            : top_depth    - START DEPTH
STOP.M        531                            : bot_depth    - STOP DEPTH
STEP.M        0.25                           : increment    - STEP LENGTH
 NULL. -999.2500:NULL Value
~CURVE INFORMATION BLOCK
#MNEM UNIT       ERCB CURVE CODE    CURVE DESCRIPTION
#-----------   ------------------   ----------------------------------
DEPT.M        00 001 00 00         : DEPTH        - DEPTH
ILD .OHMM     00 120 00 00         : RESD         - DEEP RESISTIVITY (DIL)
DPHI.V/V      00 890 00 00         : PHID         - DENSITY POROSITY (LIMESTONE)
NPHI.V/V      00 330 00 00         : PHIN         - NEUTRON POROSITY (LIMESTONE)
GR  .API      00 310 00 00         : GR           - GAMMA RAY
~PARAMETER INFORMATION
#MNEM.UNIT           DATA             DESCRIPTION OF MNEMONIC
#---------         -----------     ------------------------------
GL  .M        694.33               : gl           - GROUND LEVEL ELEVATION
EREF.M        697.68               : kb           - ELEVATION OF DEPTH REFERENCE
DATM.M        694.33               : datum        - DATUM ELEVATION
TDD .M        537                  : tdd          - TOTAL DEPTH DRILLER
RUN .         ONE                  : Run          - RUN NUMBER
ENG .         BILL                 : Engineer     - RECORDING ENGINEER
WIT .         JIM                  : Witness      - WITNESSED BY
MUD .         GEL                  : Mud_type     - MUD TYPE
MATR.         LIMESTONE            : Logunit      - NEUTRON MATRIX
TMAX.C        23.9                 : BHT          - MAXIMUM RECORDED TEMPERATURE
BHTD.M        537                  : BHTDEP       - MAXIMUM RECORDED TEMPERATURE
MATR.         1                    : LOGUNIT      - NEUTRON MATRIX
RMT .C        25                   : MDTP         - TEMPERATURE OF MUD
NEUT.         1                    : NEUTRON      - NEUTRON TYPE
RESI.         0                    : RESIST       - RESISTIVITY TYPE
RMC .OHMM     0.25                 : RMC          - RESISTIVITY OF MUD CAKE
RMF .OHMM     0.25                 : RMF          - RESISTIVITY OF MUD FILTRATE
SUFT.C        15                   : SUFT         - SURFACE TEMPERATURE
~A  DEPTH     RESD     PHID     PHIN       GR
# ...
  450.500    5.147    0.326    0.462   74.761
  450.750    5.147    0.331    0.454   74.749
  451.000    5.053    0.340    0.448   74.132
  451.250    5.053    0.345    0.450   74.123
  451.500    5.053    0.327    0.468   74.113
  451.750    5.054    0.320    0.481   74.095
  452.000    5.149    0.316    0.482   73.478
  452.250    5.343    0.316    0.475   72.861
  452.500    5.650    0.321    0.472   71.028
  452.750    5.974    0.321    0.450   69.199
  453.000    6.316    0.303    0.433   68.579
  453.250    6.435    0.299    0.421   69.782
  453.500    6.435    0.307    0.439   70.377
  453.750    6.087    0.309    0.461   69.762
  454.000    5.651    0.316    0.474   67.920
  454.250    5.247    0.320    0.487   67.916
  454.500    5.151    0.326    0.471   67.906
  454.750    5.056    0.329    0.456   69.709
  455.000    5.056    0.331    0.448   70.310
  455.250    5.151    0.335    0.461   71.513
  455.500    5.152    0.337    0.462   71.502
  455.750    5.249    0.338    0.457   70.884
  456.000    5.347    0.341    0.469   70.871
  456.250    5.347    0.342    0.480   72.073
  456.500    5.348    0.342    0.488   72.061
  456.750    5.348    0.341    0.478   69.622
  457.000    5.250    0.330    0.471   67.790
  457.250    5.153    0.318    0.465   67.168
  457.500    5.059    0.317    0.457   66.547
  457.750    5.059    0.315    0.459   66.537
  458.000    4.966    0.329    0.478   67.132
  458.250    4.966    0.330    0.487   67.731
  458.500    4.966    0.325    0.477   69.539
  458.750    4.967    0.337    0.475   69.530
  459.000    4.876    0.330    0.469   67.696
  459.250    4.967    0.325    0.478   65.257
  459.500    4.967    0.334    0.482   63.425
  459.750    4.968    0.340    0.470   64.016
  460.000    5.156    0.337    0.461   65.823
  460.250    4.787    0.331    0.453   67.031
  460.500    4.877    0.327    0.452   67.626
  460.750    4.968    0.336    0.455   68.223
  461.000    5.062    0.325    0.463   67.603
  461.250    5.062    0.321    0.471   66.987
  461.500    5.062    0.325    0.480   65.754
  461.750    4.878    0.332    0.487   65.748
  462.000    4.700    0.335    0.482   66.347
  462.250    4.529    0.334    0.475   68.757
  462.500    4.446    0.324    0.460   69.358
  462.750    4.446    0.326    0.457   69.955
  463.000    4.446    0.336    0.454   69.943
  463.250    4.530    0.339    0.468   67.501
  463.500    4.530    0.339    0.473   65.669
  463.750    4.615    0.337    0.469   65.049
  464.000    4.702    0.333    0.463   66.253
  464.250    4.790    0.331    0.462   68.059
  464.500    4.790    0.322    0.461   68.659
  464.750    4.702    0.311    0.458   69.858
  465.000    4.531    0.305    0.478   69.243
  465.250    4.448    0.303    0.498   68.018
  465.500    4.448    0.312    0.495   66.788
  465.750    4.448    0.306    0.474   68.602
  466.000    4.617    0.298    0.462   70.413
  466.250    4.792    0.322    0.458   66.758
  466.500    5.067    0.330    0.455   69.780
  466.750    5.162    0.338    0.451   70.986
  467.000    5.259    0.330    0.451   67.937
  467.250    5.358    0.319    0.457   70.352
  467.500    5.259    0.304    0.445   72.160
  467.750    5.259    0.290    0.439   72.758
  468.000    5.163    0.279    0.433   73.354
  468.250    5.260    0.270    0.444   72.129
  468.500    5.260    0.275    0.454   71.509
  468.750    5.260    0.279    0.446   70.888
  469.000    5.359    0.267    0.452   70.880
  469.250    5.359    0.257    0.484   70.868
  469.500    5.360    0.250    0.489   71.464
  469.750    5.261    0.250    0.482   72.669
  470.000    5.262    0.281    0.470   73.266
  470.250    5.262    0.286    0.466   72.637
  470.500    5.262    0.267    0.476   72.627
  470.750    5.361    0.257    0.468   72.622
  471.000    5.263    0.244    0.466   74.432
  471.250    5.263    0.269    0.476   75.029
  471.500    5.263    0.296    0.468   73.800
  471.750    5.263    0.301    0.460   73.182
  472.000    5.263    0.284    0.455   74.385
  472.250    5.264    0.274    0.459   75.591
  472.500    5.264    0.302    0.465   78.007
  472.750    5.167    0.290    0.467   77.996
  473.000    5.168    0.261    0.470   76.768
  473.250    5.168    0.235    0.471   76.150
  473.500    5.168    0.253    0.461   77.352
  473.750    5.168    0.271    0.452   80.980
  474.000    5.265    0.270    0.450   82.791
  474.250    5.266    0.279    0.444   84.603
  474.500    5.266    0.255    0.448   85.808
  474.750    5.266    0.262    0.457   86.407
  475.000    5.266    0.244    0.459   86.395
  475.250    5.365    0.220    0.458   81.522
  475.500    5.568    0.208    0.442   76.043
  475.750    5.998    0.191    0.414   73.607
  476.000    6.705    0.137    0.395   69.345
  476.250    7.358    0.098    0.359   71.155
  476.500    7.780    0.111    0.314   76.003
  476.750    7.637    0.173    0.344   81.455
  477.000    6.960    0.191    0.373   85.694
  477.250    6.583    0.207    0.408   88.112
  477.500    6.227    0.219    0.430   89.313
  477.750    6.000    0.217    0.434   90.513
  478.000    5.890    0.202    0.431   91.721
  478.250    5.676    0.204    0.438   94.744
  478.500    5.571    0.213    0.444   95.945
  478.750    5.469    0.201    0.456   96.541
  479.000    5.676    0.217    0.457   97.138
  479.250    5.891    0.206    0.439   97.126
  479.500    6.114    0.200    0.430   97.725
  479.750    6.229    0.199    0.436   97.714
  480.000    6.346    0.224    0.434   92.236
  480.250    6.347    0.212    0.424   87.368
  480.500    6.003    0.202    0.433   83.714
  480.750    5.573    0.227    0.438   86.739
  481.000    5.272    0.216    0.441   89.760
  481.250    5.080    0.211    0.439   89.141
  481.500    4.895    0.203    0.450   89.131
  481.750    4.805    0.192    0.440   90.941
  482.000    4.545    0.195    0.437   93.961
  482.250    4.142    0.232    0.439   94.561
  482.500    3.377    0.251    0.457   93.943
  482.750    2.965    0.261    0.486   89.677
  483.000    2.556    0.280    0.520   88.456
  483.250    2.418    0.284    0.549   89.658
  483.500    2.203    0.260    0.571   90.255
  483.750    2.123    0.252    0.574   89.637
  484.000    2.163    0.257    0.580   88.407
  484.250    2.163    0.260    0.564   89.007
  484.500    2.204    0.261    0.542   92.031
  484.750    2.245    0.262    0.528   95.656
  485.000    2.245    0.252    0.504   96.861
  485.250    2.288    0.238    0.517   98.063
  485.500    2.374    0.243    0.524   98.662
  485.750    2.510    0.246    0.534   99.259
  486.000    2.755    0.244    0.550   94.390
  486.250    2.913    0.226    0.559   87.695
  486.500    3.379    0.211    0.510   85.867
  486.750    3.848    0.211    0.453   90.709
  487.000    4.465    0.204    0.444   93.130
  487.250    5.085    0.185    0.455   91.298
  487.500    5.580    0.176    0.459   85.821
  487.750    6.011    0.156    0.423   80.342
  488.000    6.238    0.125    0.364   83.974
  488.250    6.239    0.151    0.385   87.609
  488.500    6.124    0.178    0.405   92.451
  488.750    5.581    0.189    0.428   95.475
  489.000    4.811    0.192    0.442   96.680
  489.250    4.304    0.203    0.463   96.671
  489.500    4.147    0.198    0.457   93.011
  489.750    4.071    0.188    0.443   91.181
  490.000    3.996    0.149    0.447   92.989
  490.250    3.997    0.142    0.453   95.409
  490.500    3.997    0.159    0.447   99.641
  490.750    3.924    0.171    0.454  102.061
  491.000    3.924    0.196    0.462  103.874
  491.250    3.852    0.214    0.478  105.080
  491.500    3.781    0.206    0.482  104.461
  491.750    3.711    0.195    0.488  101.410
  492.000    3.643    0.189    0.496  100.794
  492.250    3.446    0.205    0.481   98.961
  492.500    3.383    0.204    0.503   95.914
  492.750    3.446    0.179    0.522   89.826
  493.000    3.853    0.143    0.513   87.390
  493.250    4.150    0.131    0.453   84.950
  493.500    4.639    0.120    0.412   91.006
  493.750    4.997    0.141    0.416   94.035
