~VERSION INFORMATION
 VERS.                 2.0:   CWLS LOG ASCII STANDARD -VERSION 2.0
 WRAP.                  NO:   ONE LINE PER DEPTH STEP
~WELL INFORMATION BLOCK
#MNEM.UNIT           DATA                    DESCRIPTION OF MNEMONIC
#---------    -------------------            -------------------------------
# Generated from Intellog Unique Number	CS_73_76/WELL/3256
WELL.         DOME ET AL KIRBY               : Well_name    - WELL
LOC .         00/11-04-075-06W4/0            : Location     - LOCATION
UWI .         00/11-04-075-06W4/0            : Uwi          - UNIQUE WELL ID
ENTR.         SP                             : Entered      - ENTERED BY
SRVC.         SCHLUMBERGER                   : Scn          - SERVICE COMPANY
STRT.M        265                            : top_depth    - START DEPTH
STOP.M        480                            : bot_depth    - STOP DEPTH
STEP.M        0.25                           : increment    - STEP LENGTH
 NULL. -999.2500:NULL Value
~CURVE INFORMATION BLOCK
#MNEM UNIT       ERCB CURVE CODE    CURVE DESCRIPTION
#-----------   ------------------   ----------------------------------
DEPT.M        00 001 00 00         : DEPTH        - DEPTH
ILD .OHMM     00 120 00 00         : RESD         - DEEP RESISTIVITY (DIL)
DPHI.V/V      00 890 00 00         : PHID         - DENSITY POROSITY (LIMESTONE)
NPHI.V/V      00 330 00 00         : PHIN         - NEUTRON POROSITY (LIMESTONE)
GR  .API      00 310 00 00         : GR           - GAMMA RAY
~PARAMETER INFORMATION
#MNEM.UNIT           DATA             DESCRIPTION OF MNEMONIC
#---------         -----------     ------------------------------
GL  .M        654.52               : gl           - GROUND LEVEL ELEVATION
EREF.M        658.42               : kb           - ELEVATION OF DEPTH REFERENCE
DATM.M        654.52               : datum        - DATUM ELEVATION
TDD .M        484                  : tdd          - TOTAL DEPTH DRILLER
RUN .         ONE                  : Run          - RUN NUMBER
ENG .         BILL                 : Engineer     - RECORDING ENGINEER
WIT .         JIM                  : Witness      - WITNESSED BY
MUD .         GEL                  : Mud_type     - MUD TYPE
MATR.         LIMESTONE            : Logunit      - NEUTRON MATRIX
TMAX.C        16                   : BHT          - MAXIMUM RECORDED TEMPERATURE
BHTD.M        484                  : BHTDEP       - MAXIMUM RECORDED TEMPERATURE
MATR.         1                    : LOGUNIT      - NEUTRON MATRIX
RMT .C        25                   : MDTP         - TEMPERATURE OF MUD
NEUT.         1                    : NEUTRON      - NEUTRON TYPE
RESI.         0                    : RESIST       - RESISTIVITY TYPE
RMC .OHMM     0.25                 : RMC          - RESISTIVITY OF MUD CAKE
RMF .OHMM     0.25                 : RMF          - RESISTIVITY OF MUD FILTRATE
SUFT.C        15                   : SUFT         - SURFACE TEMPERATURE
~A  DEPTH     RESD     PHID     PHIN       GR
# ...
  308.500   11.161    0.254    0.421   89.627
  308.750   11.368    0.248    0.418   89.014
  309.000   11.581    0.255    0.415   85.960
  309.250   11.362    0.250    0.424   84.129
  309.500   10.734    0.235    0.429   81.076
  309.750   10.335    0.217    0.433   81.072
  310.000    9.404    0.228    0.446   81.679
  310.250    8.885    0.248    0.453   83.505
  310.500    8.554    0.254    0.465   84.720
  310.750    8.551    0.235    0.472   84.717
  311.000    9.392    0.238    0.488   85.323
  311.250   10.511    0.255    0.504   75.564
  311.500   10.912    0.282    0.455   66.414
  311.750   11.762    0.304    0.410   56.654
  312.000   12.677    0.290    0.391   60.309
  312.250   13.159    0.278    0.409   63.355
  312.500   13.406    0.290    0.409   64.570
  312.750   13.656    0.289    0.418   65.175
  313.000   13.910    0.278    0.423   66.392
  313.250   13.908    0.287    0.412   67.609
  313.500   14.166    0.298    0.401   69.434
  313.750   14.163    0.297    0.389   70.041
  314.000   14.157    0.282    0.387   69.427
  314.250   14.154    0.278    0.397   66.982
  314.500   13.886    0.273    0.407   66.980
  314.750   13.368    0.254    0.424   66.978
  315.000   12.871    0.247    0.435   70.022
  315.250   11.711    0.256    0.441   72.457
  315.500   11.066    0.270    0.426   73.064
  315.750   10.260    0.275    0.413   74.281
  316.000    9.877    0.261    0.408   74.885
  316.250   10.647    0.254    0.415   74.883
  316.500   11.694    0.259    0.425   72.440
  316.750   12.602    0.254    0.419   69.998
  317.000   12.838    0.260    0.406   65.725
  317.250   13.080    0.271    0.400   64.503
  317.500   13.075    0.278    0.407   63.280
  317.750   12.828    0.284    0.412   63.885
  318.000   12.584    0.293    0.407   63.882
  318.250   12.580    0.292    0.397   63.879
  318.500   12.343    0.294    0.396   63.875
  318.750   12.339    0.298    0.400   63.872
  319.000   11.878    0.291    0.406   64.477
  319.250   11.876    0.284    0.409   65.693
  319.500   11.433    0.306    0.417   67.520
  319.750   10.601    0.294    0.401   72.394
  320.000    9.829    0.286    0.385   77.267
  320.250    8.944    0.277    0.403   79.704
  320.500    8.138    0.255    0.424   84.579
  320.750    7.405    0.231    0.441   86.405
  321.000    6.612    0.215    0.453   90.060
  321.250    6.247    0.215    0.468   92.495
  321.500    5.792    0.230    0.474   92.491
  321.750    5.682    0.226    0.477   90.657
  322.000    5.681    0.221    0.480   88.826
  322.250    5.679    0.228    0.454   86.382
  322.500    5.677    0.244    0.449   85.769
  322.750    5.675    0.252    0.463   85.766
  323.000    5.674    0.255    0.479   86.373
  323.250    5.780    0.255    0.498   85.760
  323.500    5.778    0.236    0.486   83.317
  323.750    5.775    0.235    0.479   80.265
  324.000    5.773    0.252    0.477   77.822
  324.250    5.772    0.268    0.486   77.819
  324.500    5.770    0.279    0.469   75.376
  324.750    5.769    0.255    0.460   71.713
  325.000    5.768    0.261    0.468   69.272
  325.250    5.658    0.270    0.473   63.170
  325.500    5.657    0.280    0.477   60.727
  325.750    5.446    0.297    0.463   57.675
  326.000    5.342    0.318    0.426   56.453
  326.250    5.341    0.326    0.412   55.228
  326.500    5.142    0.326    0.417   54.616
  326.750    5.044    0.322    0.422   52.784
  327.000    4.949    0.330    0.414   49.731
  327.250    4.948    0.320    0.403   51.556
  327.500    4.854    0.315    0.405   52.163
  327.750    4.762    0.313    0.418   50.940
  328.000    4.584    0.332    0.424   48.497
  328.250    4.583    0.340    0.431   47.275
  328.500    4.496    0.347    0.427   49.098
  328.750    4.494    0.346    0.436   50.315
  329.000    4.493    0.338    0.442   50.922
  329.250    4.492    0.332    0.442   52.139
  329.500    4.490    0.327    0.440   50.306
  329.750    4.490    0.334    0.437   49.692
  330.000    4.404    0.338    0.435   50.298
  330.250    4.403    0.327    0.425   50.295
  330.500    4.319    0.331    0.413   49.071
  330.750    4.319    0.331    0.407   48.459
  331.000    4.317    0.323    0.406   48.453
  331.250    4.653    0.319    0.408   49.059
  331.500    5.615    0.317    0.397   49.056
  331.750    6.285    0.304    0.356   49.663
  332.000    7.167    0.268    0.289   47.831
  332.250    7.726    0.192    0.241   43.559
  332.500    7.579    0.162    0.253   40.506
  332.750    6.896    0.208    0.283   41.723
  333.000    6.274    0.235    0.323   44.767
  333.250    5.709    0.278    0.376   45.374
  333.500    5.098    0.287    0.406   44.761
  333.750    4.727    0.282    0.419   46.585
  334.000    4.638    0.284    0.411   47.803
  334.250    4.724    0.285    0.406   50.237
  334.500    4.723    0.292    0.411   50.844
  334.750    4.547    0.298    0.416   52.060
  335.000    4.060    0.287    0.415   57.544
  335.250    3.765    0.274    0.424   63.639
  335.500    3.425    0.261    0.447   73.391
  335.750    3.176    0.253    0.468   81.924
  336.000    3.058    0.250    0.486   85.579
  336.250    3.115    0.251    0.508   86.185
  336.500    3.114    0.246    0.521   86.182
  336.750    3.113    0.240    0.538   87.397
  337.000    3.112    0.269    0.543   88.004
  337.250    3.111    0.261    0.536   87.390
  337.500    3.110    0.268    0.529   85.557
  337.750    3.109    0.273    0.509   83.725
  338.000    3.108    0.275    0.518   78.844
  338.250    3.049    0.287    0.537   70.913
  338.500    3.049    0.314    0.490   61.763
  338.750    3.047    0.333    0.457   56.881
  339.000    3.047    0.340    0.449   53.830
  339.250    3.045    0.341    0.444   51.387
  339.500    2.988    0.344    0.443   51.383
  339.750    2.987    0.348    0.447   55.038
  340.000    3.043    0.345    0.456   55.645
  340.250    3.100    0.346    0.463   55.032
  340.500    3.157    0.340    0.472   54.418
  340.750    3.156    0.336    0.443   54.415
  341.000    3.156    0.340    0.454   55.020
  341.250    3.038    0.335    0.462   55.627
  341.500    2.925    0.330    0.463   58.672
  341.750    2.712    0.313    0.447   65.375
  342.000    2.515    0.291    0.437   75.738
  342.250    2.421    0.270    0.454   82.442
  342.500    2.420    0.257    0.463   86.706
  342.750    2.658    0.244    0.477   87.922
  343.000    3.089    0.257    0.499   87.309
  343.250    3.590    0.267    0.518   86.696
  343.500    3.798    0.235    0.523   84.252
  343.750    4.331    0.247    0.519   83.031
  344.000    4.668    0.257    0.497   80.587
  344.250    4.938    0.257    0.477   79.974
  344.500    5.030    0.247    0.433   79.971
  344.750    4.843    0.257    0.416   78.138
  345.000    4.324    0.250    0.418   76.306
  345.250    4.010    0.238    0.429   76.910
  345.500    3.448    0.240    0.439   79.346
  345.750    3.197    0.263    0.427   81.173
  346.000    2.749    0.278    0.433   85.436
  346.250    2.697    0.243    0.462   87.263
  346.500    2.748    0.222    0.473   88.479
  346.750    3.193    0.216    0.491   87.866
  347.000    3.507    0.238    0.496   82.375
  347.250    3.780    0.260    0.461   75.663
  347.500    4.075    0.279    0.450   73.221
  347.750    4.392    0.274    0.455   72.608
  348.000    4.823    0.266    0.460   69.556
  348.250    4.914    0.276    0.451   64.674
  348.500    5.006    0.287    0.433   60.402
  348.750    5.098    0.300    0.425   59.179
  349.000    5.002    0.313    0.431   57.956
  349.250    5.001    0.313    0.438   58.562
  349.500    4.815    0.296    0.444   62.217
  349.750    4.724    0.287    0.450   64.652
  350.000    4.548    0.271    0.461   65.259
  350.250    4.378    0.259    0.465   68.913
  350.500    4.215    0.266    0.477   71.959
  350.750    4.135    0.245    0.483   75.004
  351.000    4.057    0.232    0.483   79.268
  351.250    3.980    0.239    0.480   81.095
  351.500    3.979    0.251    0.480   84.139
  351.750    3.978    0.263    0.480   84.746
