~VERSION INFORMATION
 VERS.                 2.0:   CWLS LOG ASCII STANDARD -VERSION 2.0
 WRAP.                  NO:   ONE LINE PER DEPTH STEP
~WELL INFORMATION BLOCK
#MNEM.UNIT           DATA                    DESCRIPTION OF MNEMONIC
#---------    -------------------            -------------------------------
# Generated from Intellog Unique Number	CS_71_72/WELL/870
WELL.         AEC IPIATIK KIRBY              : Well_name    - WELL
LOC .         00/10-25-071-05W4/0            : Location     - LOCATION
UWI .         00/10-25-071-05W4/0            : Uwi          - UNIQUE WELL ID
ENTR.         SP                             : Entered      - ENTERED BY
SRVC.         SCHLUMBERGER                   : Scn          - SERVICE COMPANY
STRT.M        300                            : top_depth    - START DEPTH
STOP.M        520                            : bot_depth    - STOP DEPTH
STEP.M        0.25                           : increment    - STEP LENGTH
 NULL. -999.2500:NULL Value
~CURVE INFORMATION BLOCK
#MNEM UNIT       ERCB CURVE CODE    CURVE DESCRIPTION
#-----------   ------------------   ----------------------------------
DEPT.M        00 001 00 00         : DEPTH        - DEPTH
GR  .API      00 310 00 00         : GR           - GAMMA RAY
NPHI.V/V      00 330 00 00         : PHIN         - NEUTRON POROSITY (LIMESTONE)
DPHI.V/V      00 890 00 00         : PHID         - DENSITY POROSITY (LIMESTONE)
ILD .OHMM     00 120 00 00         : RESD         - DEEP RESISTIVITY (DIL)
~PARAMETER INFORMATION
#MNEM.UNIT           DATA             DESCRIPTION OF MNEMONIC
#---------         -----------     ------------------------------
GL  .M        681.4                : gl           - GROUND LEVEL ELEVATION
EREF.M        685.4                : kb           - ELEVATION OF DEPTH REFERENCE
DATM.M        681.4                : datum        - DATUM ELEVATION
TDD .M        543.5                : tdd          - TOTAL DEPTH DRILLER
RUN .         ONE                  : Run          - RUN NUMBER
ENG .         BILL                 : Engineer     - RECORDING ENGINEER
WIT .         JIM                  : Witness      - WITNESSED BY
MUD .         GEL                  : Mud_type     - MUD TYPE
MATR.         LIMESTONE            : Logunit      - NEUTRON MATRIX
TMAX.C        20                   : BHT          - MAXIMUM RECORDED TEMPERATURE
BHTD.M        543.5                : BHTDEP       - MAXIMUM RECORDED TEMPERATURE
MATR.         1                    : LOGUNIT      - NEUTRON MATRIX
RMT .C        25                   : MDTP         - TEMPERATURE OF MUD
NEUT.         1                    : NEUTRON      - NEUTRON TYPE
RESI.         0                    : RESIST       - RESISTIVITY TYPE
RMC .OHMM     0.25                 : RMC          - RESISTIVITY OF MUD CAKE
RMF .OHMM     0.25                 : RMF          - RESISTIVITY OF MUD FILTRATE
SUFT.C        15                   : SUFT         - SURFACE TEMPERATURE
~A  DEPTH       GR     PHIN     PHID     RESD
# ...
  474.000   44.461    0.401    0.312   47.530
  474.250   45.831    0.386    0.305   52.541
  474.500   44.346    0.380    0.290   58.293
  474.750   42.077    0.372    0.279   65.906
  475.000   40.469    0.369    0.282   71.490
  475.250   38.809    0.380    0.293   73.998
  475.500   37.563    0.391    0.298   66.541
  475.750   38.630    0.401    0.290   49.969
  476.000   46.489    0.395    0.277   40.146
  476.250   53.435    0.391    0.271   33.612
  476.500   61.235    0.400    0.281   28.303
  476.750   71.035    0.389    0.270   23.344
  477.000   80.895    0.369    0.239   18.932
  477.250   88.210    0.366    0.215   16.706
  477.500   75.504    0.399    0.235   20.668
  477.750   61.704    0.431    0.272   24.124
  478.000   49.909    0.456    0.299   27.274
  478.250   46.667    0.452    0.334   29.365
  478.500   54.831    0.428    0.321   27.261
  478.750   61.109    0.406    0.281   24.055
  479.000   63.570    0.396    0.264   23.451
  479.250   55.601    0.409    0.283   24.592
  479.500   49.570    0.421    0.303   27.802
  479.750   46.320    0.428    0.324   29.599
  480.000   57.213    0.383    0.323   29.620
  480.250   67.983    0.385    0.264   29.920
  480.500   66.015    0.401    0.230   30.223
  480.750   55.679    0.420    0.268   27.902
  481.000   47.336    0.398    0.310   24.393
  481.250   55.377    0.367    0.294   21.203
  481.500   66.694    0.363    0.253   18.710
  481.750   66.668    0.382    0.262   20.412
  482.000   57.237    0.387    0.283   22.103
  482.250   56.724    0.372    0.275   23.356
  482.500   62.338    0.361    0.253   23.997
  482.750   68.196    0.354    0.249   23.965
  483.000   74.417    0.353    0.211   20.522
  483.250   66.503    0.373    0.207   25.059
  483.500   53.435    0.417    0.284   30.650
  483.750   37.270    0.431    0.318   40.570
  484.000   37.606    0.431    0.336   53.800
  484.250   41.956    0.426    0.347   65.439
  484.500   44.289    0.417    0.351   73.287
  484.750   46.260    0.425    0.341   69.980
  485.000   41.505    0.422    0.329   70.691
  485.250   39.412    0.413    0.324   77.701
  485.500   38.414    0.417    0.319   86.537
  485.750   39.122    0.430    0.314   95.651
  486.000   40.482    0.416    0.310   94.996
  486.250   43.065    0.399    0.310   75.894
  486.500   48.738    0.382    0.301   54.382
  486.750   61.150    0.362    0.282   41.845
  487.000   69.249    0.373    0.249   33.998
  487.250   69.827    0.392    0.261   35.657
  487.500   56.880    0.410    0.293   46.058
  487.750   44.053    0.415    0.311   61.882
  488.000   37.898    0.392    0.315   87.794
  488.250   35.203    0.378    0.316  100.377
  488.500   40.759    0.383    0.321   62.362
  488.750   49.163    0.402    0.323   42.238
  489.000   57.807    0.415    0.302   32.380
  489.250   62.875    0.403    0.262   29.115
  489.500   65.518    0.392    0.246   27.852
  489.750   61.248    0.398    0.246   30.102
  490.000   56.243    0.420    0.269   34.675
  490.250   48.753    0.432    0.300   40.550
  490.500   41.508    0.402    0.312   46.979
  490.750   41.908    0.383    0.310   51.726
  491.000   46.491    0.379    0.311   57.072
  491.250   50.040    0.380    0.302   60.192
  491.500   48.374    0.388    0.308   58.342
  491.750   51.562    0.380    0.314   51.101
  492.000   59.967    0.382    0.294   42.705
  492.250   65.763    0.393    0.276   35.559
  492.500   62.161    0.386    0.268   30.851
  492.750   55.347    0.383    0.266   31.639
  493.000   50.579    0.393    0.273   35.235
  493.250   44.665    0.398    0.294   43.016
  493.500   38.086    0.396    0.308   64.085
  493.750   32.053    0.405    0.318   84.980
  494.000   29.723    0.397    0.325  114.392
  494.250   29.208    0.381    0.331  168.809
  494.500   28.337    0.373    0.338  191.921
  494.750   27.098    0.378    0.337  191.351
  495.000   26.520    0.389    0.333  181.691
  495.250   27.283    0.389    0.326  169.611
  495.500   29.193    0.380    0.323  155.686
  495.750   30.866    0.370    0.321  143.178
  496.000   29.624    0.364    0.325  133.165
  496.250   27.535    0.375    0.337  125.257
  496.500   26.353    0.394    0.345  118.488
  496.750   26.996    0.403    0.349  113.555
  497.000   28.484    0.400    0.349  109.057
  497.250   28.698    0.389    0.343  103.533
  497.500   26.610    0.381    0.337   91.878
  497.750   26.339    0.390    0.335   79.125
  498.000   34.138    0.383    0.328   64.900
  498.250   47.274    0.332    0.227   54.440
  498.500   56.466    0.323    0.207   44.567
  498.750   63.658    0.335    0.218   34.294
  499.000   69.697    0.346    0.227   24.296
  499.250   74.283    0.339    0.209   16.862
  499.500   76.255    0.333    0.192   13.857
  499.750   73.013    0.332    0.213   13.057
  500.000   55.090    0.359    0.243   13.930
  500.250   39.837    0.393    0.271   16.882
  500.500   37.083    0.415    0.300   19.046
  500.750   40.632    0.400    0.327   23.660
  501.000   45.457    0.385    0.303   24.804
  501.250   48.765    0.376    0.290   26.505
  501.500   51.834    0.366    0.289   26.526
  501.750   56.173    0.358    0.273   25.282
  502.000   55.661    0.373    0.281   25.062
  502.250   48.294    0.407    0.303   26.086
  502.500   44.143    0.430    0.317   27.990
  502.750   41.508    0.432    0.332   28.801
  503.000   40.567    0.401    0.315   30.149
  503.250   40.359    0.365    0.297   31.382
  503.500   39.420    0.379    0.301   33.549
  503.750   38.545    0.394    0.316   34.918
  504.000   38.580    0.411    0.323   36.341
  504.250   40.674    0.426    0.327   37.191
  504.500   47.566    0.429    0.322   35.115
  504.750   55.057    0.419    0.301   31.107
  505.000   58.305    0.397    0.288   29.478
  505.250   54.273    0.376    0.288   29.113
  505.500   42.600    0.393    0.311   29.798
  505.750   33.897    0.385    0.332   31.544
  506.000   32.598    0.381    0.339   34.804
  506.250   31.055    0.398    0.339   38.263
  506.500   26.113    0.410    0.332   40.204
  506.750   25.420    0.420    0.335   37.807
  507.000   26.603    0.415    0.347   32.804
  507.250   27.913    0.404    0.347   27.367
  507.500   30.319    0.411    0.337   23.967
  507.750   32.533    0.423    0.349   20.334
  508.000   33.955    0.411    0.362   18.044
  508.250   34.718    0.406    0.350   15.423
  508.500   34.508    0.425    0.347   12.345
  508.750   33.153    0.432    0.352    8.600
  509.000   32.212    0.409    0.346    5.705
  509.250   31.211    0.394    0.337    4.645
  509.500   29.545    0.386    0.336    4.192
  509.750   27.820    0.385    0.337    3.791
  510.000   28.226    0.389    0.337    3.454
  510.250   29.224    0.387    0.337    3.335
  510.500   31.562    0.382    0.338    3.338
  510.750   33.356    0.383    0.337    3.390
  511.000   34.539    0.397    0.350    3.431
  511.250   33.175    0.423    0.359    3.494
  511.500   26.056    0.412    0.361    3.508
  511.750   25.057    0.405    0.361    3.497
  512.000   25.575    0.409    0.360    3.434
  512.250   27.183    0.413    0.363    3.261
  512.500   28.976    0.406    0.370    3.039
  512.750   29.919    0.389    0.376    2.940
  513.000   28.743    0.377    0.355    2.860
  513.250   28.474    0.375    0.343    2.798
  513.500   28.691    0.375    0.337    2.832
  513.750   29.025    0.368    0.336    2.948
  514.000   28.812    0.366    0.339    3.751
  514.250   29.090    0.362    0.325    4.927
  514.500   29.788    0.333    0.301    7.382
  514.750   27.943    0.062    0.115   13.192
  515.000   26.096    0.042   -0.012   18.964
  515.250   25.098    0.031   -0.015   22.937
  515.500   26.102    0.022   -0.017   27.848
  515.750   28.626    0.019   -0.017   32.872
  516.000   29.503    0.018   -0.017   37.302
  516.250   28.810    0.018   -0.015   40.014
  516.500   27.446    0.018   -0.012   41.665
  516.750   29.666    0.019   -0.009   42.552
  517.000   33.579    0.020   -0.006   44.540
  517.250   36.587    0.021   -0.000   46.721
