~VERSION INFORMATION
 VERS.                 2.0:   CWLS LOG ASCII STANDARD -VERSION 2.0
 WRAP.                  NO:   ONE LINE PER DEPTH STEP
~WELL INFORMATION BLOCK
#MNEM.UNIT           DATA                    DESCRIPTION OF MNEMONIC
#---------    -------------------            -------------------------------
# Generated from Intellog Unique Number	CW_79_81/WELL/2469
WELL.         10-18-081-20W4                 : Well_name    - WELL
LOC .         00/10-18-081-20W4/0            : Location     - LOCATION
UWI .         00/10-18-081-20W4/0            : Uwi          - UNIQUE WELL ID
ENTR.         MAX                            : Entered      - ENTERED BY
SRVC.         COMPUTALOG                     : Scn          - SERVICE COMPANY
STRT.M        190                            : top_depth    - START DEPTH
STOP.M        415                            : bot_depth    - STOP DEPTH
STEP.M        0.3                            : increment    - STEP LENGTH
 NULL. -999.2500:NULL Value
~CURVE INFORMATION BLOCK
#MNEM UNIT       ERCB CURVE CODE    CURVE DESCRIPTION
#-----------   ------------------   ----------------------------------
DEPT.M        00 001 00 00         : DEPTH        - DEPTH
GR  .API      00 310 00 00         : GR           - GAMMA RAY
CALI.MM       00 280 01 00         : CAL          - CALIPER
DPHI.V/V      00 890 00 00         : PHID         - DENSITY POROSITY (SANDSTONE)
NPHI.V/V      00 330 00 00         : PHIN         - NEUTRON POROSITY (SANDSTONE)
ILD .OHMM     00 120 00 00         : RESD         - DEEP RESISTIVITY (DIL)
~PARAMETER INFORMATION
#MNEM.UNIT           DATA             DESCRIPTION OF MNEMONIC
#---------         -----------     ------------------------------
GL  .M        581.81               : gl           - GROUND LEVEL ELEVATION
EREF.M        585.04               : kb           - ELEVATION OF DEPTH REFERENCE
DATM.M        581.81               : datum        - DATUM ELEVATION
TDD .M        415                  : tdd          - TOTAL DEPTH DRILLER
RUN .         ONE                  : Run          - RUN NUMBER
ENG .         BILL                 : Engineer     - RECORDING ENGINEER
WIT .         JIM                  : Witness      - WITNESSED BY
MUD .         GEL                  : Mud_type     - MUD TYPE
MATR.         SANDSTONE            : Logunit      - NEUTRON MATRIX
TMAX.C        27                   : BHT          - MAXIMUM RECORDED TEMPERATURE
BHTD.M        415                  : BHTDEP       - MAXIMUM RECORDED TEMPERATURE
MATR.         1                    : LOGUNIT      - NEUTRON MATRIX
RMT .C        9                    : MDTP         - TEMPERATURE OF MUD
NEUT.         1                    : NEUTRON      - NEUTRON TYPE
RESI.         0                    : RESIST       - RESISTIVITY TYPE
RMC .OHMM     6.3                  : RMC          - RESISTIVITY OF MUD CAKE
RMF .OHMM     8                    : RMF          - RESISTIVITY OF MUD FILTRATE
SUFT.C        -20                  : SUFT         - SURFACE TEMPERATURE
~A  DEPTH       GR      CAL     PHID     PHIN     RESD
# ...
  277.600   84.621  198.548    0.250    0.435   14.655
  277.900   82.324  198.176    0.245    0.425   18.138
  278.200   79.423  197.794    0.230    0.395   18.335
  278.500   71.212  197.401    0.220    0.376   18.368
  278.800   63.014  197.007    0.222    0.368   18.904
  279.100   60.415  196.133    0.258    0.410   19.636
  279.400   58.413  196.253    0.277    0.417   19.847
  279.700   60.829  196.845    0.287    0.412   19.335
  280.000   63.264  197.939    0.292    0.391   18.326
  280.300   65.109  198.552    0.292    0.374   17.522
  280.600   68.418  198.640    0.291    0.378   16.300
  280.900   70.551  199.723    0.289    0.396   15.449
  281.200   71.497  201.310    0.283    0.400   15.051
  281.500   67.716  200.435    0.281    0.393   14.935
  281.800   63.063  200.567    0.280    0.397   14.959
  282.100   61.639  200.644    0.280    0.392   14.975
  282.400   62.302  200.273    0.280    0.387   14.997
  282.700   62.965  200.361    0.281    0.381   14.881
  283.000   63.910  199.486    0.282    0.373   14.901
  283.300   64.554  199.607    0.283    0.365   14.925
  283.600   64.915  199.717    0.282    0.357   14.677
  283.900   66.458  199.805    0.280    0.358   14.562
  284.200   72.431  199.914    0.279    0.381   14.447
  284.500   78.700  200.024    0.278    0.396   14.334
  284.800   81.136  200.123    0.276    0.419   14.098
  285.100   76.764  199.259    0.273    0.410   13.987
  285.400   75.938  199.358    0.267    0.405   14.004
  285.700   82.502  199.982    0.260    0.387   14.024
  286.000   88.186  200.552    0.249    0.382   13.914
  286.300   94.166  201.154    0.231    0.413   13.186
  286.600   92.447  202.248    0.218    0.437   11.934
  286.900   88.391  202.872    0.222    0.453   10.410
  287.200   87.557  203.452    0.225    0.412    9.507
  287.500   87.912  203.070    0.224    0.417    9.010
  287.800   87.394  202.688    0.221    0.422    8.696
  288.100   85.969  203.290    0.220    0.425    8.247
  288.400   86.042  203.881    0.221    0.420    8.723
  288.700   86.108  201.540    0.228    0.417    8.655
  289.000   87.349  199.659    0.235    0.429    8.668
  289.300   81.501  198.784    0.252    0.395    8.680
  289.600   80.385  198.883    0.252    0.369    8.853
  289.900   80.149  198.008    0.253    0.367    9.282
  290.200   83.471  198.129    0.248    0.370    9.737
  290.500   87.383  198.710    0.236    0.381    9.484
  290.800   90.094  200.296    0.233    0.383    9.069
  291.100   94.295  199.914    0.232    0.377    8.675
  291.400   99.382  199.061    0.236    0.397    8.373
  291.700  104.470  200.123    0.231    0.408    8.159
  292.000  103.649  201.217    0.222    0.411    8.168
  292.300   97.513  201.316    0.215    0.412    8.180
  292.600   91.664  200.463    0.218    0.411    8.267
  292.900   82.863  199.566    0.239    0.410    8.355
  293.200   76.726  199.184    0.254    0.403    8.603
  293.500   76.785  197.314    0.251    0.403    8.773
  293.800   80.986  195.947    0.232    0.398    9.200
  294.100   84.898  196.090    0.219    0.402    9.919
  294.400   81.998  196.155    0.208    0.396   10.116
  294.700   81.177  195.773    0.202    0.397   10.039
  295.000   81.545  194.920    0.200    0.394    9.869
  295.300   81.893  194.516    0.203    0.378    9.705
  295.600   81.959  193.652    0.210    0.366    9.716
  295.900   82.327  193.259    0.217    0.377    9.824
  296.200   83.568  193.861    0.214    0.385    9.837
  296.500   84.513  196.421    0.210    0.394    9.851
  296.800   87.238  199.988    0.243    0.426    9.422
  297.100   91.439  200.579    0.272    0.447    8.766
  297.400   90.920  201.170    0.291    0.457    8.229
  297.700   87.147  206.203    0.284    0.456    7.243
  298.000   88.381  208.282    0.273    0.471    6.204
  298.300   92.884  197.562    0.259    0.486    6.212
  298.600   93.245  198.164    0.260    0.468    6.455
  298.900   90.653  198.821    0.260    0.450    7.088
  299.200   88.047  199.849    0.263    0.412    7.641
  299.500   88.710  199.959    0.265    0.394    7.865
  299.800   89.072  200.047    0.262    0.412    7.876
  300.100   87.654  200.168    0.251    0.429    7.961
  300.400   84.471  200.770    0.248    0.432    7.972
  300.700   81.275  201.865    0.241    0.427    8.059
  301.000   73.654  202.456    0.251    0.437    8.071
  301.300   70.471  203.047    0.254    0.443    8.156
  301.600   76.149  204.645    0.259    0.448    8.168
  301.900   81.834  208.693    0.262    0.399    8.105
  302.200   87.800  211.253    0.260    0.390    8.042
  302.500   90.827  210.860    0.250    0.415    8.052
  302.800   86.751  204.570    0.240    0.401    8.064
  303.100   81.500  201.715    0.245    0.422    8.150
  303.400   78.606  200.840    0.267    0.429    8.088
  303.700   80.444  203.423    0.270    0.404    7.952
  304.000   80.510  205.502    0.262    0.380    7.963
  304.300   80.582  210.042    0.252    0.383    7.902
  304.600   80.930  208.664    0.251    0.380    7.770
  304.900   82.178  211.717    0.266    0.399    7.568
  305.200   84.009  217.242    0.285    0.412    7.508
  305.500   86.740  223.751    0.309    0.403    7.450
  305.800   89.464  220.415    0.309    0.397    7.670
  306.100   91.001  222.002    0.296    0.378    8.044
  306.400   88.992  228.019    0.323    0.361    7.980
  306.700   85.514  227.648    0.367    0.361    7.846
  307.000   83.801  230.197    0.400    0.379    7.644
  307.300   82.101  243.106    0.405    0.464    7.518
  307.600   79.804  259.483    0.379    0.498    7.528
  307.900   76.903  245.295    0.363    0.484    7.676
  308.200   75.197  217.826    0.259    0.459    7.977
  308.500   72.598  199.699    0.210    0.419    8.521
  308.800   66.756  192.436    0.171    0.247    9.184
  309.100   59.136  191.047    0.112    0.154   10.275
  309.400   54.469  191.157    0.038    0.117   11.810
  309.700   56.898  192.765    0.021    0.121   15.165
  310.000   62.281  192.842    0.067    0.187   20.017
  310.300   75.947  193.937    0.172    0.317   21.585
  310.600   87.526  194.058    0.237    0.398   20.079
  310.900   90.847  193.675    0.237    0.396   17.836
  311.200   86.771  193.763    0.200    0.371   14.454
  311.500   80.332  194.868    0.176    0.327   12.377
  311.800   78.337  194.475    0.141    0.294   11.836
  312.100   80.169  194.093    0.137    0.260   12.998
  312.400   83.773  193.699    0.187    0.299   13.883
  312.700   91.230  192.835    0.213    0.332   14.291
  313.000   94.840  193.438    0.227    0.336   12.582
  313.300   94.617  193.525    0.228    0.386   11.385
  313.600   97.039  193.646    0.224    0.400   10.793
  313.900   95.917  193.264    0.219    0.430   10.511
  314.200   93.318  193.363    0.212    0.462   10.335
  314.500   89.255  193.473    0.197    0.449   10.160
  314.800   89.026  193.572    0.187    0.435   10.080
  315.100   90.556  194.174    0.191    0.406   10.377
  315.400   93.287  194.295    0.204    0.379   10.684
  315.700   93.937  194.875    0.206    0.385   10.602
  316.000   91.344  195.499    0.214    0.412    9.863
  316.300   89.349  196.090    0.218    0.397    9.434
  316.600   89.999  196.189    0.216    0.417    9.189
  316.900   91.837  196.791    0.213    0.432    9.201
  317.200   91.903  196.431    0.209    0.428    9.130
  317.500   88.707  196.518    0.196    0.405    9.230
  317.800   82.859  198.083    0.199    0.396    9.414
  318.100   81.448  201.639    0.218    0.376    9.604
  318.400   82.990  205.687    0.216    0.360    9.529
  318.700   87.192  212.689    0.207    0.359    9.544
  319.000   92.870  201.487    0.234    0.387    9.645
  319.300   97.373  201.575    0.316    0.428    9.660
  319.600   99.500  204.157    0.351    0.480    9.584
  319.900   94.544  209.671    0.376    0.557    9.252
  320.200   93.422  227.996    0.378    0.568    8.848
  320.500   90.534  241.408    0.380    0.575    8.307
  320.800   89.412  223.796    0.360    0.516    7.800
  321.100   88.894  234.233    0.329    0.445    7.459
