~VERSION INFORMATION
 VERS.                 2.0:   CWLS LOG ASCII STANDARD -VERSION 2.0
 WRAP.                  NO:   ONE LINE PER DEPTH STEP
~WELL INFORMATION BLOCK
#MNEM.UNIT           DATA                    DESCRIPTION OF MNEMONIC
#---------    -------------------            -------------------------------
# Generated from Intellog Unique Number	CS_73_76/WELL/2190
WELL.         BOW VALLEY EXPLORATION         : Well_name    - WELL
LOC .         00/10-15-074-17W4/0            : Location     - LOCATION
UWI .         00/10-15-074-17W4/0            : Uwi          - UNIQUE WELL ID
ENTR.         SP                             : Entered      - ENTERED BY
SRVC.         SCHLUMBERGER                   : Scn          - SERVICE COMPANY
STRT.M        235                            : top_depth    - START DEPTH
STOP.M        420                            : bot_depth    - STOP DEPTH
STEP.M        0.25                           : increment    - STEP LENGTH
 NULL. -999.2500:NULL Value
~CURVE INFORMATION BLOCK
#MNEM UNIT       ERCB CURVE CODE    CURVE DESCRIPTION
#-----------   ------------------   ----------------------------------
DEPT.M        00 001 00 00         : DEPTH        - DEPTH
ILD .OHMM     00 120 00 00         : RESD         - DEEP RESISTIVITY (DIL)
DPHI.V/V      00 890 00 00         : PHID         - DENSITY POROSITY (LIMESTONE)
NPHI.V/V      00 330 00 00         : PHIN         - NEUTRON POROSITY (LIMESTONE)
GR  .API      00 310 00 00         : GR           - GAMMA RAY
~PARAMETER INFORMATION
#MNEM.UNIT           DATA             DESCRIPTION OF MNEMONIC
#---------         -----------     ------------------------------
GL  .M        580.9                : gl           - GROUND LEVEL ELEVATION
EREF.M        583.2                : kb           - ELEVATION OF DEPTH REFERENCE
DATM.M        580.9                : datum        - DATUM ELEVATION
TDD .M        421                  : tdd          - TOTAL DEPTH DRILLER
RUN .         ONE                  : Run          - RUN NUMBER
ENG .         BILL                 : Engineer     - RECORDING ENGINEER
WIT .         JIM                  : Witness      - WITNESSED BY
MUD .         GEL                  : Mud_type     - MUD TYPE
MATR.         LIMESTONE            : Logunit      - NEUTRON MATRIX
TMAX.C        20                   : BHT          - MAXIMUM RECORDED TEMPERATURE
BHTD.M        421                  : BHTDEP       - MAXIMUM RECORDED TEMPERATURE
MATR.         1                    : LOGUNIT      - NEUTRON MATRIX
RMT .C        25                   : MDTP         - TEMPERATURE OF MUD
NEUT.         1                    : NEUTRON      - NEUTRON TYPE
RESI.         0                    : RESIST       - RESISTIVITY TYPE
RMC .OHMM     0.25                 : RMC          - RESISTIVITY OF MUD CAKE
RMF .OHMM     0.25                 : RMF          - RESISTIVITY OF MUD FILTRATE
SUFT.C        15                   : SUFT         - SURFACE TEMPERATURE
~A  DEPTH     RESD     PHID     PHIN       GR
  235.000    3.794    0.188    0.468   94.130
  235.250    3.936    0.186    0.466   91.093
  235.500    3.723    0.197    0.468   91.700
  235.750    3.522    0.206    0.476   93.522
  236.000    3.393    0.217    0.484   94.737
  236.250    3.210    0.194    0.494   94.737
  236.500    3.269    0.200    0.499   94.130
  236.750    3.586    0.196    0.501   91.700
  237.000    3.721    0.181    0.505   91.093
  237.250    4.007    0.182    0.512   94.737
  237.500    4.235    0.191    0.523   97.773
  237.750    4.314    0.198    0.522   98.988
  238.000    4.006    0.187    0.493   96.559
  238.250    3.789    0.203    0.482   95.951
  238.500    3.650    0.216    0.501   93.522
  238.750    3.583    0.211    0.508   90.486
  239.000    3.583    0.214    0.487   93.522
  239.250    3.650    0.203    0.476   91.093
  239.500    3.649    0.205    0.478   89.271
  239.750    3.717    0.216    0.491   90.486
  240.000    3.717    0.220    0.507   91.093
  240.250    3.786    0.232    0.512   90.486
  240.500    3.856    0.213    0.473   90.486
  240.750    3.785    0.211    0.468   90.486
  241.000    3.855    0.229    0.491   88.057
  241.250    4.151    0.249    0.506   84.413
  241.500    4.814    0.264    0.525   75.304
  241.750    5.686    0.296    0.523   68.624
  242.000    6.594    0.396    0.506   55.870
  242.250    7.100    0.501    0.600   46.761
  242.500    7.505    0.611    0.604   43.725
  242.750    7.933    0.596    0.560   57.085
  243.000    8.385    0.258    0.501   74.696
  243.250    9.029    0.248    0.432   79.555
  243.500    9.722    0.252    0.414   71.053
  243.750   10.088    0.258    0.389   63.158
  244.000   10.467    0.281    0.355   58.300
  244.250   10.662    0.268    0.349   58.300
  244.500   10.466    0.257    0.362   60.729
  244.750   10.464    0.278    0.377   56.478
  245.000   10.271    0.286    0.361   51.619
  245.250   10.082    0.309    0.344   47.368
  245.500    9.896    0.315    0.369   45.547
  245.750    9.895    0.301    0.380   46.761
  246.000    9.894    0.296    0.388   49.798
  246.250    9.893    0.308    0.372   55.263
  246.500    9.892    0.318    0.365   61.943
  246.750    9.891    0.299    0.376   70.445
  247.000   10.075    0.278    0.398   77.733
  247.250   10.262    0.242    0.414   83.806
  247.500   10.453    0.237    0.425   94.737
  247.750   10.846    0.251    0.426   97.773
  248.000   11.254    0.264    0.403   93.522
  248.250   11.463    0.268    0.394   85.020
  248.500   11.463    0.249    0.400   85.020
  248.750   11.675    0.246    0.391   89.879
  249.000   11.892    0.236    0.398   94.130
  249.250   11.892    0.222    0.408   97.166
  249.500   11.672    0.223    0.411   97.773
  249.750   11.671    0.231    0.397   95.951
  250.000   11.888    0.221    0.403   89.271
  250.250   12.335    0.215    0.403   80.769
  250.500   13.283    0.229    0.385   76.518
  250.750   16.586    0.236    0.376   70.445
  251.000   19.232    0.215    0.360   61.336
  251.250   21.893    0.211    0.349   49.798
  251.500   23.574    0.232    0.256   44.332
  251.750   22.297    0.285    0.283   43.725
  252.000   21.485    0.295    0.306   54.656
  252.250   22.709    0.254    0.321   66.802
  252.500   24.005    0.249    0.332   69.838
  252.750   28.355    0.261    0.365   71.053
  253.000   32.879    0.263    0.394   66.194
  253.250   34.755    0.272    0.373   58.907
  253.500   36.062    0.284    0.367   56.478
  253.750   34.748    0.293    0.377   54.656
  254.000   24.895    0.307    0.382   55.870
  254.250   18.855    0.304    0.368   60.121
  254.500   15.097    0.275    0.373   67.409
  254.750   12.778    0.240    0.374   71.053
  255.000   10.422    0.127    0.377   72.874
  255.250    8.500    0.086    0.409   94.130
  255.500    6.806    0.085    0.444  104.453
  255.750    5.868    0.137    0.449  111.134
  256.000    5.250    0.150    0.455  113.563
  256.250    5.059    0.139    0.471  112.348
  256.500    4.785    0.114    0.482  108.097
  256.750    4.697    0.117    0.493  108.097
  257.000    4.526    0.133    0.501  110.526
  257.250    4.280    0.150    0.512  111.741
  257.500    4.280    0.170    0.520  112.955
  257.750    4.201    0.188    0.536  115.385
  258.000    4.201    0.145    0.540  117.814
  258.250    4.200    0.153    0.505  117.814
  258.500    4.200    0.164    0.495  115.385
  258.750    4.199    0.179    0.498  117.814
  259.000    4.278    0.204    0.485  120.243
  259.250    4.521    0.227    0.476  118.421
  259.500    4.779    0.210    0.459  112.348
  259.750    5.052    0.204    0.431  107.490
  260.000    5.242    0.209    0.412  100.810
  260.250    5.750    0.208    0.400  106.275
  260.500    7.180    0.214    0.390  109.919
  260.750    8.966    0.197    0.405  109.312
  261.000    9.477    0.209    0.412  107.490
  261.250    9.476    0.202    0.418  106.883
  261.500    9.131    0.198    0.417  104.453
  261.750    8.963    0.182    0.430   99.595
  262.000    8.477    0.163    0.447   88.664
  262.250    8.168    0.146    0.457   85.020
  262.500    8.167    0.173    0.443   79.555
  262.750    8.319    0.208    0.409   72.267
  263.000    8.794    0.256    0.358   66.194
  263.250    9.826    0.283    0.338   62.551
  263.500   10.778    0.296    0.333   69.231
  263.750   11.393    0.301    0.348   75.911
  264.000   11.822    0.248    0.367   80.162
  264.250   11.820    0.260    0.384   78.947
  264.500   11.819    0.265    0.412   78.340
  264.750   11.601    0.263    0.428   80.162
  265.000   11.600    0.272    0.432   81.376
  265.250   11.178    0.281    0.409   85.020
  265.500   10.188    0.269    0.413   92.308
  265.750    8.948    0.239    0.435   94.130
  266.000    8.308    0.246    0.444   97.773
  266.250    8.006    0.255    0.458   97.773
  266.500    7.858    0.275    0.432  100.810
  266.750    8.220    0.268    0.415  102.632
  267.000    8.619    0.257    0.413  106.275
  267.250    8.152    0.296    0.425  108.097
  267.500    7.711    0.246    0.414  103.239
  267.750    8.001    0.222    0.428   89.271
  268.000    8.150    0.231    0.442   80.162
  268.250    8.614    0.254    0.423   75.911
  268.500    9.275    0.272    0.406   77.733
  268.750    9.448    0.251    0.384   79.555
  269.000    9.624    0.222    0.360   83.806
  269.250    9.623    0.214    0.347   85.020
  269.500    9.272    0.195    0.352   86.235
  269.750    8.609    0.205    0.370   84.413
  270.000    8.295    0.251    0.393   78.340
  270.250    8.449    0.250    0.417   70.445
  270.500    8.449    0.272    0.403   66.802
  270.750    9.267    0.271    0.350   63.765
  271.000    9.979    0.179    0.314   63.765
  271.250   10.354    0.116    0.309   64.373
  271.500    9.977    0.131    0.346   68.016
  271.750    9.094    0.191    0.389   75.304
  272.000    7.697    0.269    0.412   79.555
  272.250    6.636    0.277    0.436   80.769
  272.500    6.049    0.272    0.454   78.340
  272.750    5.937    0.255    0.446   71.660
  273.000    6.393    0.255    0.448   72.874
  273.250    6.512    0.282    0.431   74.696
  273.500    7.012    0.261    0.437   82.591
  273.750    7.276    0.233    0.448   88.664
  274.000    7.411    0.250    0.454   91.700
  274.250    7.410    0.268    0.423   92.308
  274.500    7.689    0.263    0.418   90.486
  274.750    7.979    0.266    0.417   83.198
  275.000    8.591    0.269    0.417   78.947
  275.250    9.081    0.256    0.420   78.947
  275.500    9.080    0.263    0.432   77.733
  275.750    9.248    0.250    0.449   72.874
  276.000    9.420    0.257    0.455   67.409
  276.250    9.775    0.296    0.428   65.587
  276.500    9.957    0.303    0.419   65.587
  276.750   10.142    0.314    0.402   68.624
  277.000   10.331    0.284    0.413   71.053
  277.250   10.330    0.268    0.428   77.733
  277.500   10.329    0.255    0.435   78.947
  277.750    9.952    0.239    0.441   80.162
  278.000    8.904    0.209    0.445   81.376
  278.250    8.116    0.155    0.437   86.842
