~VERSION INFORMATION
 VERS.                 2.0:   CWLS LOG ASCII STANDARD -VERSION 2.0
 WRAP.                  NO:   ONE LINE PER DEPTH STEP
~WELL INFORMATION BLOCK
#MNEM.UNIT           DATA                    DESCRIPTION OF MNEMONIC
#---------    -------------------            -------------------------------
# Generated from Intellog Unique Number	CS_71_72/WELL/897
WELL.         AMOCO AEC IPAITIK              : Well_name    - WELL
LOC .         00/11-15-072-04W4/0            : Location     - LOCATION
UWI .         00/11-15-072-04W4/0            : Uwi          - UNIQUE WELL ID
ENTR.         SP                             : Entered      - ENTERED BY
SRVC.         SCHLUMBERGER                   : Scn          - SERVICE COMPANY
STRT.M        305                            : top_depth    - START DEPTH
STOP.M        500                            : bot_depth    - STOP DEPTH
STEP.M        0.25                           : increment    - STEP LENGTH
 NULL. -999.2500:NULL Value
~CURVE INFORMATION BLOCK
#MNEM UNIT       ERCB CURVE CODE    CURVE DESCRIPTION
#-----------   ------------------   ----------------------------------
DEPT.M        00 001 00 00         : DEPTH        - DEPTH
DPHI.V/V      00 890 00 00         : PHID         - DENSITY POROSITY (LIMESTONE)
NPHI.V/V      00 330 00 00         : PHIN         - NEUTRON POROSITY (LIMESTONE)
GR  .API      00 310 00 00         : GR           - GAMMA RAY
ILD .OHMM     00 120 00 00         : RESD         - DEEP RESISTIVITY (DIL)
~PARAMETER INFORMATION
#MNEM.UNIT           DATA             DESCRIPTION OF MNEMONIC
#---------         -----------     ------------------------------
GL  .M        680.6                : gl           - GROUND LEVEL ELEVATION
EREF.M        685.31               : kb           - ELEVATION OF DEPTH REFERENCE
DATM.M        680.6                : datum        - DATUM ELEVATION
TDD .M        524                  : tdd          - TOTAL DEPTH DRILLER
RUN .         ONE                  : Run          - RUN NUMBER
ENG .         BILL                 : Engineer     - RECORDING ENGINEER
WIT .         JIM                  : Witness      - WITNESSED BY
MUD .         GEL                  : Mud_type     - MUD TYPE
MATR.         LIMESTONE            : Logunit      - NEUTRON MATRIX
TMAX.C        25                   : BHT          - MAXIMUM RECORDED TEMPERATURE
BHTD.M        524                  : BHTDEP       - MAXIMUM RECORDED TEMPERATURE
MATR.         1                    : LOGUNIT      - NEUTRON MATRIX
RMT .C        25                   : MDTP         - TEMPERATURE OF MUD
NEUT.         1                    : NEUTRON      - NEUTRON TYPE
RESI.         0                    : RESIST       - RESISTIVITY TYPE
RMC .OHMM     0.25                 : RMC          - RESISTIVITY OF MUD CAKE
RMF .OHMM     0.25                 : RMF          - RESISTIVITY OF MUD FILTRATE
SUFT.C        15                   : SUFT         - SURFACE TEMPERATURE
~A  DEPTH     PHID     PHIN       GR     RESD
# ...
  392.000    0.266    0.455   66.613    1.328
  392.250    0.265    0.427   67.840    1.353
  392.500    0.264    0.426   69.057    1.404
  392.750    0.259    0.450   69.673    1.404
  393.000    0.256    0.470   72.104    1.378
  393.250    0.264    0.464   70.908    1.352
  393.500    0.270    0.444   66.692    1.377
  393.750    0.269    0.427   66.698    1.403
  394.000    0.264    0.430   69.738    1.483
  394.250    0.264    0.432   75.199    1.567
  394.500    0.258    0.426   78.232    1.656
  394.750    0.234    0.439   81.875    1.719
  395.000    0.228    0.484   83.698    1.817
  395.250    0.267    0.532   86.129    1.850
  395.500    0.272    0.553   84.935    1.920
  395.750    0.258    0.572   82.531    2.029
  396.000    0.248    0.583   81.328    2.067
  396.250    0.256    0.552   81.340    2.185
  396.500    0.242    0.508   82.565    2.225
  396.750    0.227    0.498   81.971    2.309
  397.000    0.225    0.480   80.170    2.396
  397.250    0.239    0.490   80.183    2.440
  397.500    0.244    0.518   82.615    2.532
  397.750    0.244    0.539   83.833    2.627
  398.000    0.255    0.556   86.870    2.531
  398.250    0.261    0.557   88.696    2.439
  398.500    0.265    0.567   87.499    2.394
  398.750    0.253    0.590   81.466    2.438
  399.000    0.240    0.606   78.452    2.530
  399.250    0.228    0.591   75.440    2.724
  399.500    0.238    0.553   73.638    2.576
  399.750    0.254    0.477   74.255    2.987
  400.000    0.260    0.453   77.298    3.099
  400.250    0.248    0.465   77.910    3.276
  400.500    0.244    0.477   77.318    3.463
  400.750    0.235    0.494   76.727    3.527
  401.000    0.231    0.497   76.735    3.592
  401.250    0.237    0.495   75.541    3.659
  401.500    0.224    0.479   76.764    3.659
  401.750    0.208    0.454   79.193    3.726
  402.000    0.199    0.476   81.630    3.726
  402.250    0.214    0.489   82.243    3.725
  402.500    0.230    0.478   82.253    3.656
  402.750    0.236    0.482   81.663    3.589
  403.000    0.245    0.489   79.261    3.522
  403.250    0.244    0.493   78.663    3.522
  403.500    0.246    0.481   81.098    3.457
  403.750    0.233    0.475   82.921    3.331
  404.000    0.225    0.476   85.353    3.209
  404.250    0.212    0.479   89.603    3.035
  404.500    0.213    0.484   90.820    2.871
  404.750    0.222    0.493   91.440    2.766
  405.000    0.222    0.508   93.267    2.665
  405.250    0.211    0.533   94.487    2.616
  405.500    0.205    0.528   93.899    2.816
  405.750    0.200    0.525   93.303    2.922
  406.000    0.203    0.520   93.317    3.089
  406.250    0.206    0.513   94.541    3.205
  406.500    0.208    0.505   95.155    3.264
  406.750    0.207    0.522   92.751    3.325
  407.000    0.207    0.526   90.341    3.325
  407.250    0.218    0.512   84.916    3.263
  407.500    0.231    0.511   83.713    3.202
  407.750    0.246    0.528   86.750    3.202
  408.000    0.254    0.530   89.786    3.202
  408.250    0.257    0.511   87.376    3.322
  408.500    0.259    0.502   82.553    3.577
  408.750    0.254    0.485   80.143    3.997
  409.000    0.249    0.480   78.948    4.304
  409.250    0.243    0.479   81.986    4.634
  409.500    0.231    0.457   83.811    4.808
  409.750    0.224    0.454   83.822    4.989
  410.000    0.220    0.466   82.025    4.988
  410.250    0.224    0.481   80.826    4.987
  410.500    0.245    0.492   80.230    4.987
  410.750    0.254    0.495   80.851    4.717
  411.000    0.257    0.512   80.860    4.299
  411.250    0.265    0.532   80.266    4.219
  411.500    0.272    0.518   79.069    4.298
  411.750    0.278    0.495   77.270    4.627
  412.000    0.279    0.469   76.073    4.801
  412.250    0.277    0.504   73.062    5.170
  412.500    0.283    0.533   71.860    5.566
  412.750    0.280    0.516   71.269    5.776
  413.000    0.271    0.490   72.491    6.218
  413.250    0.261    0.474   73.714    6.334
  413.500    0.266    0.500   73.119    6.452
  413.750    0.277    0.512   71.319    6.332
  414.000    0.297    0.498   73.752    5.665
  414.250    0.304    0.464   75.581    5.359
  414.500    0.299    0.477   74.985    5.260
  414.750    0.306    0.482   71.976    5.559
  415.000    0.314    0.462   70.169    5.662
  415.250    0.327    0.433   67.160    5.985
  415.500    0.343    0.411   66.568    6.210
  415.750    0.341    0.411   67.187    6.209
  416.000    0.333    0.445   66.594    6.208
  416.250    0.320    0.469   65.997    5.981
  416.500    0.313    0.493   65.406    5.871
  416.750    0.302    0.512   65.419    5.763
  417.000    0.280    0.482   66.638    5.762
  417.250    0.256    0.469   69.080    5.655
  417.500    0.248    0.459   69.690    5.551
  417.750    0.235    0.459   72.727    5.549
  418.000    0.224    0.462   77.583    5.549
  418.250    0.231    0.464   79.405    5.652
  418.500    0.253    0.465   81.837    5.651
  418.750    0.269    0.467   72.171    5.650
  419.000    0.275    0.460   71.580    5.246
  419.250    0.262    0.483   75.828    4.523
  419.500    0.257    0.511   78.866    4.047
  419.750    0.255    0.543   80.082    3.362
  420.000    0.260    0.554   84.938    3.064
  420.250    0.268    0.538   86.156    2.691
  420.500    0.271    0.512   83.750    2.408
  420.750    0.281    0.532   86.181    2.278
  421.000    0.288    0.563   87.404    2.236
  421.250    0.275    0.598   86.206    2.277
  421.500    0.249    0.559   86.223    2.407
  421.750    0.238    0.525   87.448    2.497
  422.000    0.247    0.524   88.065    2.591
  422.250    0.241    0.570   89.892    2.591
  422.500    0.237    0.584   90.502    2.639
  422.750    0.243    0.559   92.329    2.688
  423.000    0.249    0.536   86.897    2.841
  423.250    0.255    0.530   79.655    3.116
  423.500    0.260    0.526   76.639    3.418
  423.750    0.258    0.487   72.419    3.546
  424.000    0.251    0.476   73.034    3.890
  424.250    0.264    0.525   66.394    5.529
  424.500    0.278    0.399   56.731    7.716
  424.750    0.115    0.293   49.483   11.811
  425.000   -0.000    0.196   45.260   15.591
  425.250    0.024    0.203   47.693   19.832
  425.500    0.076    0.227   50.729   23.424
  425.750    0.096    0.250   52.558   24.306
  426.000    0.086    0.263   53.781   22.568
  426.250    0.079    0.260   54.395   16.470
  426.500    0.187    0.265   55.618   13.433
  426.750    0.287    0.310   58.656   10.557
  427.000    0.300    0.393   61.088    8.935
  427.250    0.302    0.442   62.309    7.287
  427.500    0.298    0.458   63.531    6.642
  427.750    0.292    0.459   63.544    6.282
  428.000    0.284    0.458   64.770    6.281
  428.250    0.281    0.458   65.384    6.280
  428.500    0.285    0.462   67.210    6.164
  428.750    0.285    0.465   69.042    6.163
  429.000    0.263    0.461   70.259    6.049
  429.250    0.257    0.458   72.088    5.937
  429.500    0.253    0.476   73.312    5.828
  429.750    0.250    0.483   74.531    5.720
  430.000    0.247    0.471   75.147    5.719
  430.250    0.241    0.466   75.160    5.613
  430.500    0.235    0.471   75.776    5.612
  430.750    0.231    0.478   77.607    5.612
  431.000    0.234    0.476   77.618    5.611
  431.250    0.242    0.476   75.812    5.610
  431.500    0.252    0.488   70.991    5.821
  431.750    0.265    0.494   67.974    6.153
  432.000    0.254    0.500   59.523    6.875
  432.250    0.109    0.510   57.716    7.267
  432.500    0.080    0.487   58.334    7.681
  432.750    0.205    0.397   60.162    7.823
  433.000    0.266    0.393   63.198    7.822
  433.250    0.286    0.430   68.054    7.537
  433.500    0.289    0.463   70.481    6.743
  433.750    0.288    0.476   73.518    6.378
  434.000    0.258    0.473   78.375    6.145
  434.250    0.230    0.459   78.986    6.031
  434.500    0.221    0.456   80.815    6.030
  434.750    0.231    0.462   80.225    6.143
  435.000    0.255    0.457   80.237    6.142
  435.250    0.276    0.448   80.852    6.028
