~VERSION INFORMATION
 VERS.                 2.0:   CWLS LOG ASCII STANDARD -VERSION 2.0
 WRAP.                  NO:   ONE LINE PER DEPTH STEP
~WELL INFORMATION BLOCK
#MNEM.UNIT           DATA                    DESCRIPTION OF MNEMONIC
#---------    -------------------            -------------------------------
# Generated from Intellog Unique Number	CC_80_83/WELL/2398
NULL.         -999.25                        : NULL_VALUE
WELL.         PEX HOUSE                      : Well_name    - WELL
LOC .         11-12-080-16W4                 : Location     - LOCATION          
UWI .         00/11-12-080-16W4/0            : Uwi          - UNIQUE WELL ID    
ENTR.         DW                             : Entered      - ENTERED BY        
SRVC.         SCHLUMBERGER                   : Scn          - SERVICE COMPANY   
DATE.         16 FEB 82                      : Date         - LOG DATE
STRT.M        150                            : top_depth    - START DEPTH       
STOP.M        389.996                        : bot_depth    - STOP DEPTH        
STEP.M        0.3                            : increment    - STEP LENGTH       
~CURVE INFORMATION BLOCK
#MNEM UNIT       ERCB CURVE CODE    CURVE DESCRIPTION
#-----------   ------------------   ----------------------------------
DEPT.M        00 001 00 00         : DEPTH        - DEPTH                       
ILD .OHMM     00 120 00 00         : RESD         - DEEP RESISTIVITY (DIL)      
GR  .API      00 310 00 00         : GR           - GAMMA RAY                   
NPHI.V/V      00 330 00 00         : PHIN         - NEUTRON POROSITY (LIMESTONE)
DPHI.V/V      00 890 00 00         : PHID         - DENSITY POROSITY (LIMESTONE)
~PARAMETER INFORMATION       
#MNEM.UNIT           DATA             DESCRIPTION OF MNEMONIC
#---------         -----------     ------------------------------
GL  .M        561.3                : gl           - GROUND LEVEL ELEVATION      
EREF.M        565                  : kb           - ELEVATION OF DEPTH REFERENCE
DATM.M        565                  : datum        - DATUM ELEVATION             
TDD .M        388                  : tdd          - TOTAL DEPTH DRILLER         
RUN .         ONE                  : Run          - RUN NUMBER                  
ENG .         BILL                 : Engineer     - RECORDING ENGINEER          
WIT .         JIM                  : Witness      - WITNESSED BY                
MUD .         GEL                  : Mud_type     - MUD TYPE                    
MATR.         LIMESTONE            : Logunit      - NEUTRON MATRIX              
TMAX.C        25.5                 : BHT          - MAXIMUM RECORDED TEMPERATURE
BHTD.M        388                  : BHTDEP       - MAXIMUM RECORDED TEMPERATURE
MATR.         1                    : LOGUNIT      - NEUTRON MATRIX              
RMT .C        25                   : MDTP         - TEMPERATURE OF MUD          
NEUT.         1                    : NEUTRON      - NEUTRON TYPE                
RESI.         0                    : RESIST       - RESISTIVITY TYPE            
RMC .OHMM     0.25                 : RMC          - RESISTIVITY OF MUD CAKE     
RMF .OHMM     0.25                 : RMF          - RESISTIVITY OF MUD FILTRATE 
SUFT.C        15                   : SUFT         - SURFACE TEMPERATURE         
~A  DEPTH     RESD       GR     PHIN     PHID
# ...
  254.401    7.713   77.126    0.497    0.292
  254.701    8.164   78.367    0.508    0.262
  255.001    8.478   70.272    0.502    0.190
  255.301    8.476   68.400    0.478    0.183
  255.601    8.004   69.020    0.383    0.237
  255.901    6.743   75.863    0.431    0.260
  256.201    3.810   89.551    0.480    0.260
  256.501    2.864  100.751    0.510    0.254
  256.801    2.506   98.880    0.513    0.252
  257.101    2.458   92.651    0.525    0.251
  257.401    2.703   89.536    0.529    0.238
  257.701    3.207   85.798    0.515    0.228
  258.001    4.105   85.795    0.471    0.223
  258.301    4.964   88.281    0.493    0.221
  258.601    5.778   85.787    0.515    0.221
  258.901    6.233   88.272    0.495    0.224
  259.201    6.724   90.758    0.503    0.229
  259.501    6.852   89.511    0.509    0.228
  259.801    6.470   83.905    0.458    0.225
  260.101    5.995   83.902    0.494    0.228
  260.401    5.554   86.387    0.512    0.236
  260.701    5.346   87.628    0.486    0.238
  261.001    5.344   85.134    0.472    0.236
  261.301    5.550   84.509    0.482    0.240
  261.601    5.875   82.638    0.488    0.241
  261.901    5.986   83.256    0.460    0.236
  262.201    5.871   83.875    0.441    0.229
  262.501    5.760   84.493    0.446    0.226
  262.801    5.869   82.623    0.472    0.264
  263.101    6.331   76.396    0.497    0.352
  263.401    7.094   72.035    0.491    0.400
  263.701    7.509   70.164    0.469    0.438
  264.001    8.415   68.293    0.465    0.436
  264.301    9.078   63.311    0.465    0.337
  264.601    9.427   57.705    0.453    0.348
  264.901    9.424   53.967    0.456    0.389
  265.201    9.422   55.207    0.468    0.372
  265.501    9.420   58.316    0.476    0.367
  265.801    9.598   67.026    0.461    0.389
  266.101    9.781   68.889    0.468    0.396
  266.401    9.778   68.262    0.479    0.386
  266.701    9.963   70.750    0.468    0.367
  267.001    9.960   75.102    0.442    0.342
  267.301    9.958   73.231    0.435    0.302
  267.601    9.956   68.248    0.439    0.315
  267.901   10.145   65.132    0.442    0.349
  268.201    9.951   63.262    0.453    0.341
  268.501    9.947   59.523    0.439    0.342
  268.801    9.945   59.520    0.426    0.332
  269.101    9.943   60.138    0.430    0.323
  269.401   10.131   60.757    0.445    0.326
  269.701   10.129   61.376    0.460    0.328
  270.001   10.126   60.127    0.445    0.325
  270.301   10.123   60.746    0.458    0.331
  270.600   10.316   60.120    0.473    0.336
  270.900   10.712   56.382    0.463    0.327
  271.200   10.711   58.868    0.439    0.327
  271.500   10.914   55.130    0.431    0.331
  271.800   11.120   53.881    0.435    0.331
  272.100   11.117   57.611    0.424    0.331
  272.400   11.114   59.475    0.416    0.327
  272.700   11.112   61.339    0.406    0.325
  273.000   10.899   60.091    0.414    0.323
  273.300   10.896   59.464    0.426    0.318
  273.600   10.689   61.327    0.416    0.315
  273.900   10.485   59.457    0.416    0.320
  274.200    9.901   57.585    0.418    0.323
  274.500    9.528   60.071    0.419    0.331
  274.800    9.527   61.313    0.419    0.333
  275.100    9.344   59.442    0.450    0.318
  275.400    9.342   56.949    0.434    0.321
  275.700    9.519   56.944    0.432    0.326
  276.000    9.700   59.431    0.441    0.335
  276.300    9.884   60.050    0.477    0.337
  276.600   10.264   60.046    0.470    0.338
  276.900   11.073   59.420    0.403    0.342
  277.200   11.720   60.038    0.416    0.342
  277.500   12.171   60.034    0.415    0.342
  277.800   12.168   59.409    0.410    0.340
  278.100   11.936   58.781    0.411    0.335
  278.400   11.487   58.777    0.455    0.327
  278.700   10.848   60.020    0.442    0.328
  279.000   10.440   60.637    0.452    0.332
  279.300   10.241   61.257    0.461    0.337
  279.600   10.238   60.630    0.460    0.333
  279.900   10.043   56.893    0.423    0.335
  280.200   10.232   53.777    0.402    0.336
  280.500   10.230   53.773    0.413    0.337
  280.800   10.036   58.126    0.430    0.336
  281.100    9.843   61.856    0.441    0.320
  281.400    9.655   62.476    0.475    0.319
  281.700    9.654   63.716    0.459    0.336
  282.000    9.470   61.846    0.450    0.332
  282.300    9.288   58.729    0.457    0.337
  282.600    9.287   59.971    0.472    0.338
  282.900    9.462   61.213    0.466    0.332
  283.200    9.460   60.586    0.418    0.333
  283.500    9.457   61.205    0.417    0.337
  283.800    9.637   60.578    0.436    0.332
  284.100    9.819   61.197    0.445    0.327
  284.400    9.816   59.325    0.465    0.319
  284.700    9.815   59.945    0.462    0.322
  285.000    9.812   60.563    0.469    0.327
  285.300    9.810   60.559    0.461    0.331
  285.600    9.807   60.556    0.438    0.332
  285.900    9.805   59.308    0.422    0.327
  286.200    9.618   58.682    0.459    0.329
  286.500    9.615   61.168    0.457    0.336
  286.800    9.254   72.367    0.465    0.335
  287.100    8.906   75.476    0.474    0.322
  287.400    8.572   71.115    0.466    0.317
  287.700    8.408   74.845    0.457    0.309
  288.000    8.406   79.821    0.450    0.300
  288.300    8.404   81.685    0.449    0.286
  288.600    8.088   74.835    0.450    0.293
  288.900    7.214   77.320    0.460    0.296
  289.200    6.314   83.540    0.475    0.248
  289.500    5.219   88.515    0.476    0.224
  289.800    4.928   91.624    0.479    0.220
  290.100    5.021   88.509    0.487    0.237
  290.400    5.315   83.525    0.491    0.239
  290.700    5.733   82.899    0.485    0.234
  291.000    6.069   82.896    0.464    0.234
  291.300    6.302   83.514    0.438    0.226
  291.600    6.422   92.224    0.446    0.217
  291.900    6.299   99.689    0.455    0.215
  292.200    6.178  102.175    0.459    0.218
  292.500    6.177   98.437    0.491    0.221
  292.800    6.059   90.341    0.498    0.217
  293.100    5.832   94.073    0.451    0.223
  293.400    5.830   95.936    0.438    0.218
  293.700    5.829   94.687    0.468    0.220
  294.000    6.170   94.061    0.482    0.232
  294.300    7.320   92.190    0.486    0.228
  294.600    8.520   91.564    0.435    0.215
  294.900    9.732   92.182    0.411    0.202
  295.199   10.498   92.178    0.412    0.187
  295.499   10.104   90.309    0.417    0.180
  295.799    8.842   87.815    0.413    0.201
  296.099    7.738   89.056    0.422    0.225
  296.399    7.034   90.919    0.474    0.232
  296.699    6.770   90.294    0.466    0.233
  296.999    6.641   89.044    0.466    0.232
  297.299    6.639   88.419    0.453    0.225
  297.599    6.637   91.527    0.440    0.209
  297.899    6.636   94.013    0.484    0.204
  298.199    6.634   88.408    0.475    0.202
  298.499    7.022   62.886    0.468    0.192
  298.799    8.019   62.882    0.454    0.220
  299.099    8.818   70.970    0.429    0.280
  299.399    9.157   72.833    0.430    0.295
  299.699    9.330   71.584    0.445    0.283
  299.999    9.152   70.336    0.461    0.287
  300.299    8.978   69.087    0.444    0.290
  300.599    8.641   70.326    0.435    0.256
  300.899    8.005   71.569    0.435    0.207
  301.199    7.705   79.657    0.448    0.216
  301.499    7.703   85.255    0.460    0.228
  301.799    7.700   92.719    0.469    0.241
  302.099    7.699   95.206    0.473    0.252
  302.399    7.410   87.110    0.457    0.256
  302.699    7.551   83.373    0.450    0.254
  302.999    7.692   79.635    0.464    0.303
  303.299    7.839   71.540    0.479    0.309
  303.599    8.140   67.802    0.483    0.272
  303.899    8.139   75.889    0.450    0.238
  304.199    8.293   74.018    0.439    0.307
  304.499    8.291   70.902    0.454    0.316
  304.799    8.289   72.144    0.463    0.324
  305.099    8.130   78.364    0.483    0.335
  305.399    8.128   78.983    0.478    0.350
  305.699    8.127   77.734    0.463    0.352
  305.999    7.971   78.352    0.462    0.323
  306.299    7.969   68.391    0.470    0.317
