~VERSION INFORMATION
 VERS.                 2.0:   CWLS LOG ASCII STANDARD -VERSION 2.0
 WRAP.                  NO:   ONE LINE PER DEPTH STEP
~WELL INFORMATION BLOCK
#MNEM.UNIT           DATA                    DESCRIPTION OF MNEMONIC
#---------    -------------------            -------------------------------
# Generated from Intellog Unique Number	CS_77_79/WELL/1008
WELL.         PCI PCEJ CHARD                 : Well_name    - WELL
LOC .         00/11-33-079-07W4/0            : Location     - LOCATION
UWI .         00/11-33-079-07W4/0            : Uwi          - UNIQUE WELL ID
ENTR.         JHS                            : Entered      - ENTERED BY
SRVC.         SCHLUMBERGER                   : Scn          - SERVICE COMPANY
STRT.M        140                            : top_depth    - START DEPTH
STOP.M        380                            : bot_depth    - STOP DEPTH
STEP.M        0.25                           : increment    - STEP LENGTH
 NULL. -999.2500:NULL Value
~CURVE INFORMATION BLOCK
#MNEM UNIT       ERCB CURVE CODE    CURVE DESCRIPTION
#-----------   ------------------   ----------------------------------
DEPT.M        00 001 00 00         : DEPTH        - DEPTH
DPHI.V/V      00 890 00 00         : PHID         - DENSITY POROSITY (LIMESTONE)
NPHI.V/V      00 330 00 00         : PHIN         - NEUTRON POROSITY (LIMESTONE)
GR  .API      00 310 00 00         : GR           - GAMMA RAY
ILD .OHMM     00 120 00 00         : RESD         - DEEP RESISTIVITY (DIL)
RHOB.KG/M3    00 350 00 00         : DENS         - BULK DENSITY
~PARAMETER INFORMATION
#MNEM.UNIT           DATA             DESCRIPTION OF MNEMONIC
#---------         -----------     ------------------------------
GL  .M        589.9                : gl           - GROUND LEVEL ELEVATION
EREF.M        593.55               : kb           - ELEVATION OF DEPTH REFERENCE
DATM.M        593.55               : datum        - DATUM ELEVATION
TDD .M        406                  : tdd          - TOTAL DEPTH DRILLER
RUN .         ONE                  : Run          - RUN NUMBER
ENG .         BILL                 : Engineer     - RECORDING ENGINEER
WIT .         JIM                  : Witness      - WITNESSED BY
MUD .         GEL                  : Mud_type     - MUD TYPE
MATR.         LIMESTONE            : Logunit      - NEUTRON MATRIX
TMAX.C        23                   : BHT          - MAXIMUM RECORDED TEMPERATURE
BHTD.M        406                  : BHTDEP       - MAXIMUM RECORDED TEMPERATURE
MATR.         1                    : LOGUNIT      - NEUTRON MATRIX
RMT .C        25                   : MDTP         - TEMPERATURE OF MUD
NEUT.         1                    : NEUTRON      - NEUTRON TYPE
RESI.         0                    : RESIST       - RESISTIVITY TYPE
RMC .OHMM     0.25                 : RMC          - RESISTIVITY OF MUD CAKE
RMF .OHMM     0.25                 : RMF          - RESISTIVITY OF MUD FILTRATE
SUFT.C        15                   : SUFT         - SURFACE TEMPERATURE
~A  DEPTH     PHID     PHIN       GR     RESD     DENS
# ...
  286.000    0.260    0.454   88.373    8.057    0.000
  286.250    0.249    0.458   88.385    7.908    0.000
  286.500    0.257    0.454   85.346    7.616    0.000
  286.750    0.274    0.488   78.043    7.335    0.000
  287.000    0.279    0.495   77.442    7.064    0.000
  287.250    0.274    0.484   87.211    6.676    0.000
  287.500    0.275    0.495   89.661    6.552    0.000
  287.750    0.276    0.498   87.842    6.554    0.000
  288.000    0.280    0.480   86.026    6.554    0.000
  288.250    0.286    0.472   89.085    6.807    0.000
  288.500    0.293    0.494   89.096    7.070    0.000
  288.750    0.302    0.530   84.234    7.483    0.000
  289.000    0.305    0.489   84.244    7.921    0.000
  289.250    0.296    0.448   81.813    8.383    0.000
  289.500    0.291    0.443   77.556    8.707    0.000
  289.750    0.292    0.484   72.689    9.043    0.000
  290.000    0.308    0.467   72.701    9.044    0.000
  290.250    0.300    0.448   71.494    8.877    0.000
  290.500    0.281    0.443   70.895    8.550    0.000
  290.750    0.273    0.424   72.126    8.391    0.000
  291.000    0.270    0.435   78.234    7.782    0.000
  291.250    0.289    0.530   81.905    7.354    0.000
  291.500    0.348    0.536   76.427    6.820    0.000
  291.750    0.365    0.517   73.390    6.091    0.000
  292.000    0.407    0.506   72.792    5.757    0.000
  292.250    0.435    0.501   75.851    5.650    0.000
  292.500    0.403    0.531   79.523    5.545    0.000
  292.750    0.390    0.544   83.805    5.442    0.000
  293.000    0.366    0.541   85.642    5.143    0.000
  293.250    0.355    0.579   88.705    4.954    0.000
  293.500    0.341    0.584   88.106    5.243 2127.650
  293.750    0.334    0.587   81.409    5.763 2138.180
  294.000    0.356    0.593   74.714    6.215 2100.450
  294.250    0.391    0.512   71.677    7.094 2041.750
  294.500    0.342    0.490   69.860    7.798 2125.730
  294.750    0.331    0.478   69.871    8.411 2144.650
  295.000    0.317    0.482   71.101    8.572 2167.780
  295.250    0.311    0.477   72.944    8.573 2178.300
  295.500    0.307    0.472   71.736    8.103 2184.640
  295.750    0.304    0.481   72.357    7.514 2190.970
  296.000    0.297    0.490   74.193    6.711 2201.510
  296.250    0.292    0.484   74.205    5.663 2209.950
  296.500    0.292    0.474   68.730    4.963 2209.990
  296.750    0.306    0.540   73.008    4.433 2186.950
  297.000    0.352    0.613   83.996    4.269 2107.270
  297.250    0.341    0.604   83.399    4.604 2126.190
  297.500    0.334    0.519   77.920    5.061 2138.820
  297.750    0.309    0.491   74.886    6.113 2180.830
  298.000    0.301    0.497   72.459    6.719 2195.560
  298.250    0.314    0.466   71.251    7.526 2172.520
  298.500    0.313    0.457   70.042    7.965 2174.660
  298.750    0.296    0.485   68.835    8.273 2204.080
  299.000    0.300    0.473   68.844    8.756 2197.830
  299.250    0.286    0.461   67.634    9.267 2220.950
  299.500    0.239    0.477   67.035   10.186 2300.720
  299.750    0.168    0.401   62.778   10.188 2422.460
  300.000    0.253    0.404   72.243    7.824 2277.770
  300.250    0.302    0.469   75.340    6.864 2193.960
  300.500    0.318    0.497   75.374    6.137 2166.800
  300.750    0.349    0.531   72.346    5.487 2112.370
  301.000    0.389    0.510   71.150    4.905 2045.350
  301.250    0.376    0.517   77.918    4.222 2066.460
  301.500    0.366    0.542   80.406    3.776 2083.340
  301.750    0.364    0.558   81.656    4.077 2087.690
  302.000    0.363    0.574   83.524    4.401 2089.890
  302.250    0.361    0.543   82.336    4.936 2092.100
  302.500    0.354    0.495   79.921    5.432 2104.810
  302.750    0.290    0.481   79.948    5.754 2214.020
  303.000    0.262    0.519   84.268    5.984 2262.400
  303.250    0.265    0.539   83.073    6.222 2256.240
  303.500    0.308    0.511   78.822    6.468 2182.900
  303.750    0.329    0.475   83.139    6.853 2147.350
  304.000    0.306    0.452   88.683    7.265 2187.340
  304.250    0.291    0.481   89.330    7.269 2212.630
  304.500    0.298    0.477   86.302    7.418 2200.150
  304.750    0.319    0.440   84.494    7.427 2164.620
  305.000    0.304    0.427   85.757    7.298 2189.910
  305.250    0.320    0.454   84.563    6.777 2162.750
  305.500    0.422    0.491   82.756    6.172 1988.720
  305.750    0.401    0.506   79.731    5.215 2024.500
  306.000    0.331    0.505   79.764    4.085 2144.210
  306.250    0.320    0.606   79.793    3.262 2163.210
  306.500    0.363    0.612   74.928    2.704 2089.900
  306.750    0.382    0.591   71.898    2.417 2056.450
  307.000    0.371    0.578   70.094    2.288 2075.450
  307.250    0.380    0.602   68.901    2.205 2060.880
  307.500    0.391    0.611   67.102    2.208 2042.110
  307.750    0.394    0.604   65.907    2.254 2035.950
  308.000    0.376    0.587   66.546    2.343 2067.550
  308.250    0.368    0.565   73.927    2.435 2080.240
  308.500    0.361    0.550   73.967    2.732 2092.940
  308.750    0.339    0.567   71.542    2.949 2130.830
  309.000    0.332    0.599   69.739    3.183 2141.450
  309.250    0.329    0.578   72.227    3.570 2147.860
  309.500    0.315    0.550   73.476    4.079 2171.040
  309.750    0.295    0.514   81.474    4.660 2204.730
  310.000    0.287    0.477   84.561    5.532 2219.540
  310.250    0.288    0.477   82.759    5.971 2217.560
  310.500    0.308    0.490   75.444    6.328 2184.100
  310.750    0.277    0.442   70.580    6.102 2236.680
  311.000    0.218    0.434   79.793    5.663 2337.490
  311.250    0.207    0.490   82.285    5.064 2356.510
  311.500    0.306    0.523   81.705    4.528 2186.670
  311.750    0.335    0.497   81.123    4.283 2136.440
  312.000    0.313    0.483   79.925    3.978 2174.310
  312.250    0.281    0.501   79.351    3.835 2228.980
  312.500    0.281    0.524   78.771    3.629 2229.110
  312.750    0.290    0.539   79.409    3.498 2214.540
  313.000    0.288    0.518   80.672    3.374 2216.740
  313.250    0.295    0.503   79.473    3.377 2206.390
  313.500    0.303    0.525   78.283    3.383 2191.810
  313.750    0.294    0.543   82.601    3.517 2206.610
  314.000    0.282    0.554   82.633    3.586 2227.710
  314.250    0.281    0.564   80.828    3.801 2229.930
  314.500    0.289    0.540   82.705    3.879 2215.360
  314.750    0.290    0.509   85.185    3.957 2213.380
  315.000    0.299    0.516   85.828    3.961 2198.820
  315.250    0.295    0.542   84.018    4.277 2205.220
  315.500    0.271    0.522   76.099    4.796 2247.300
  315.750    0.280    0.512   71.229    5.378 2230.630
  316.000    0.333    0.494   70.653    5.697 2140.540
  316.250    0.359    0.453   71.903    6.038 2096.600
  316.500    0.297    0.424   71.326    6.159 2201.610
  316.750    0.244    0.441   73.814    6.406 2291.950
  317.000    0.232    0.514   78.128    6.535 2313.050
  317.250    0.280    0.530   78.770    6.796 2231.340
  317.500    0.250    0.447   72.685    7.476 2281.830
  317.750    0.196    0.393   67.812    8.382 2374.240
  318.000    0.180    0.371   61.728    9.397 2401.650
  318.250    0.276    0.353   59.918   10.150 2238.100
  318.500    0.319    0.343   59.344   10.161 2164.810
  318.750    0.318    0.343   61.212   10.175 2167.010
  319.000    0.295    0.354   64.915    9.996 2204.890
  319.250    0.284    0.358   64.334    9.820 2223.890
  319.500    0.277    0.370   60.697    9.470 2236.610
  319.750    0.268    0.379   61.955    9.479 2251.410
  320.000    0.253    0.386   65.659   10.044 2276.710
  320.250    0.245    0.382   69.973   11.478    0.000
  320.500    0.261    0.349   63.273   13.879 2264.340
  320.750    0.321    0.310   43.714   17.758 2161.650
  321.000    0.372    0.276   37.623   22.723 2073.730
  321.250    0.371    0.269   38.885   25.963 2075.870
  321.500    0.355    0.279   43.813   24.108 2103.270
  321.750    0.342    0.296   45.071   19.244 2124.350
  322.000    0.335    0.338   42.659   12.250 2137.060
  322.250    0.339    0.368   46.971    9.970 2130.910
