~VERSION INFORMATION
 VERS.                 2.0:   CWLS LOG ASCII STANDARD -VERSION 2.0
 WRAP.                  NO:   ONE LINE PER DEPTH STEP
~WELL INFORMATION BLOCK
#MNEM.UNIT           DATA                    DESCRIPTION OF MNEMONIC
#---------    -------------------            -------------------------------
# Generated from Intellog Unique Number	CS_77_79/WELL/3305
WELL.         12-28-078-15W4                 : Well_name    - WELL
LOC .         00/12-28-078-15W4/0            : Location     - LOCATION
UWI .         00/12-28-078-15W4/0            : Uwi          - UNIQUE WELL ID
ENTR.         JOETTE                         : Entered      - ENTERED BY
SRVC.         SCHLUMBERGER                   : Scn          - SERVICE COMPANY
DATE.         08/18/92                       : Date         - LOG DATE
STRT.M        250                            : top_depth    - START DEPTH
STOP.M        473                            : bot_depth    - STOP DEPTH
STEP.M        0.25                           : increment    - STEP LENGTH
 NULL. -999.2500:NULL Value
~CURVE INFORMATION BLOCK
#MNEM UNIT       ERCB CURVE CODE    CURVE DESCRIPTION
#-----------   ------------------   ----------------------------------
DEPT.M        00 001 00 00         : DEPTH        - DEPTH
GR  .API      00 310 00 00         : GR           - GAMMA RAY
NPHI.V/V      00 330 00 00         : PHIN         - NEUTRON POROSITY (SANDSTONE)
DPHI.V/V      00 890 00 00         : PHID         - DENSITY POROSITY (SANDSTONE)
ILD .OHMM     00 120 00 00         : RESD         - DEEP RESISTIVITY (DIL)
~PARAMETER INFORMATION
#MNEM.UNIT           DATA             DESCRIPTION OF MNEMONIC
#---------         -----------     ------------------------------
GL  .M        656.5                : gl           - GROUND LEVEL ELEVATION
EREF.M        660.5                : kb           - ELEVATION OF DEPTH REFERENCE
DATM.M        660.5                : datum        - DATUM ELEVATION
TDD .M        476                  : tdd          - TOTAL DEPTH DRILLER
RUN .         ONE                  : Run          - RUN NUMBER
ENG .         BILL                 : Engineer     - RECORDING ENGINEER
WIT .         JIM                  : Witness      - WITNESSED BY
MUD .         GEL                  : Mud_type     - MUD TYPE
MATR.         SANDSTONE            : Logunit      - NEUTRON MATRIX
TMAX.C        31                   : BHT          - MAXIMUM RECORDED TEMPERATURE
BHTD.M        476                  : BHTDEP       - MAXIMUM RECORDED TEMPERATURE
RMT .C        22                   : MDTP         - TEMPERATURE OF MUD
MUDD.KG/M     1120                 : MWT          - MUD DENSITY
NEUT.         1                    : NEUTRON      - NEUTRON TYPE
RESI.         0                    : RESIST       - RESISTIVITY TYPE
RM  .OHMM     5.7                  : RM           - RESISTIVITY OF MUD
RMC .OHMM     3.2                  : RMC          - RESISTIVITY OF MUD CAKE
RMF .OHMM     7.8                  : RMF          - RESISTIVITY OF MUD FILTRATE
SUFT.C        4                    : SUFT         - SURFACE TEMPERATURE
~A  DEPTH       GR     PHIN     PHID     RESD
# ...
  380.500   74.328    0.554    0.256    6.295
  380.750   73.722    0.556    0.254    6.061
  381.000   77.320    0.560    0.250    5.835
  381.250   79.717    0.557    0.250    5.723
  381.500   76.710    0.545    0.254    5.720
  381.750   77.304    0.538    0.257    5.824
  382.000   79.102    0.538    0.257    6.043
  382.250   76.694    0.541    0.262    6.507
  382.500   74.288    0.537    0.272    6.879
  382.750   73.082    0.513    0.274    7.691
  383.000   73.678    0.507    0.272    8.439
  383.250   76.075    0.496    0.274    8.920
  383.500   76.070    0.487    0.266    9.787
  383.750   74.263    0.478    0.254   10.154
  384.000   74.860    0.489    0.249   10.534
  384.250   75.455    0.482    0.256   11.135
  384.500   74.850    0.471    0.257   10.136
  384.750   70.040    0.451    0.192    9.400
  385.000   65.229    0.433    0.209    8.884
  385.250   65.825    0.455    0.254    8.714
  385.500   65.820    0.469    0.280    8.233
  385.750   64.012    0.471    0.298    7.927
  386.000   65.808    0.465    0.320    7.922
  386.250   67.607    0.461    0.320    8.066
  386.500   70.606    0.469    0.305    8.214
  386.750   69.398    0.482    0.305    8.208
  387.000   65.790    0.489    0.314    8.206
  387.250   63.384    0.485    0.326    8.050
  387.500   57.972    0.483    0.338    8.194
  387.750   53.763    0.485    0.343    8.192
  388.000   51.956    0.493    0.343    8.499
  388.250   51.350    0.501    0.343    8.816
  388.500   50.745    0.502    0.341    9.494
  388.750   50.740    0.496    0.339   10.036
  389.000   50.736    0.506    0.335   10.608
  389.250   51.331    0.517    0.337   10.802
  389.500   51.324    0.508    0.340   11.205
  389.750   51.922    0.503    0.337   11.198
  390.000   51.315    0.502    0.333   10.986
  390.250   50.109    0.487    0.333   10.574
  390.500   49.504    0.467    0.339   10.375
  390.750   50.100    0.472    0.349    9.804
  391.000   51.296    0.477    0.345    9.265
  391.250   51.292    0.452    0.339    8.755
  391.500   51.285    0.447    0.335    8.118
  391.750   51.283    0.480    0.332    7.964
  392.000   51.277    0.484    0.332    8.262
  392.250   51.273    0.488    0.332    8.735
  392.500   51.869    0.494    0.334    9.581
  392.750   52.465    0.502    0.339    9.943
  393.000   53.660    0.510    0.343   10.508
  393.250   56.058    0.505    0.343   10.700
  393.500   54.853    0.494    0.343   11.103
  393.750   51.841    0.489    0.343   11.515
  394.000   51.839    0.510    0.345   11.729
  394.250   53.035    0.536    0.348   12.628
  394.500   53.028    0.547    0.352   13.352
  394.750   53.026    0.547    0.361   14.925
  395.000   53.020    0.495    0.362   16.687
  395.250   51.214    0.465    0.357   19.363
  395.500   45.804    0.415    0.350   20.856
  395.750   37.390    0.241    0.106   17.951
  396.000   31.979    0.211    0.058   13.058
  396.250   34.976    0.265    0.111   10.237
  396.500   43.982    0.324    0.183    8.810
  396.750   51.786    0.416    0.336    8.169
  397.000   51.781    0.447    0.339    8.166
  397.250   53.578    0.477    0.342    8.162
  397.500   57.176    0.472    0.343    8.158
  397.750   54.168    0.458    0.348    8.304
  398.000   50.558    0.448    0.352    8.302
  398.250   52.957    0.459    0.351    8.452
  398.500   53.552    0.465    0.346    8.607
  398.750   53.548    0.466    0.344    8.929
  399.000   52.941    0.470    0.343    8.925
  399.250   52.336    0.477    0.344    9.086
  399.500   52.332    0.483    0.348    9.254
  399.750   54.129    0.483    0.351    9.247
  400.000   55.926    0.471    0.352    9.243
  400.250   55.920    0.457    0.349    9.235
  400.500   55.315    0.455    0.344    9.231
  400.750   54.109    0.465    0.336    9.225
  401.000   52.302    0.473    0.339    9.222
  401.250   52.297    0.445    0.339    9.044
  401.500   52.892    0.440    0.339    8.871
  401.750   52.889    0.464    0.336    8.702
  402.000   52.883    0.477    0.336    8.536
  402.250   53.479    0.489    0.338    8.373
  402.500   55.874    0.461    0.339    8.369
  402.750   55.872    0.457    0.338    8.210
  403.000   55.867    0.447    0.337    8.051
  403.250   57.064    0.461    0.341    8.049
  403.500   58.860    0.457    0.350    7.895
  403.750   57.054    0.441    0.353    7.889
  404.000   54.647    0.438    0.348    7.739
  404.250   57.043    0.444    0.342    7.734
  404.500   58.241    0.487    0.338    7.730
  404.750   58.836    0.504    0.338    7.724
  405.000   58.832    0.522    0.339    7.579
  405.250   58.226    0.519    0.338    7.572
  405.500   56.420    0.513    0.335    7.570
  405.750   55.214    0.511    0.333    7.566
  406.000   55.807    0.509    0.330    7.562
  406.250   55.805    0.509    0.327    7.556
  406.500   55.800    0.509    0.324    7.412
  406.750   56.393    0.507    0.321    7.408
  407.000   57.590    0.506    0.321    7.267
  407.250   59.987    0.505    0.324    7.128
  407.500   61.184    0.503    0.327    6.991
  407.750   59.979    0.498    0.330    6.857
  408.000   56.971    0.489    0.321    6.855
  408.250   57.567    0.483    0.312    6.600
  408.500   62.966    0.488    0.323    6.354
  408.750   62.962    0.509    0.331    5.782
  409.000   62.958    0.511    0.332    5.568
  409.250   64.153    0.502    0.333    5.262
  409.500   65.351    0.481    0.331    4.880
  409.750   67.148    0.485    0.312    4.526
  410.000   68.945    0.536    0.293    4.440
  410.250   70.742    0.553    0.284    4.355
  410.500   75.541    0.523    0.275    4.352
  410.750   78.541    0.522    0.265    4.516
  411.000   80.337    0.521    0.255    5.049
  411.250   80.933    0.511    0.246    5.751
  411.500   82.129    0.500    0.236    6.799
  411.750   82.124    0.479    0.230    7.891
  412.000   74.311    0.463    0.230    8.986
  412.250   67.099    0.434    0.224    9.678
  412.500   60.487    0.424    0.191    9.493
  412.750   54.475    0.401    0.180    9.141
  413.000   49.664    0.382    0.185    8.478
  413.250   50.261    0.392    0.211    7.862
  413.500   54.461    0.445    0.220    7.024
  413.750   62.865    0.461    0.230    6.638
  414.000   70.667    0.479    0.234    6.634
  414.250   71.263    0.490    0.235    6.882
  414.500   73.061    0.497    0.241    7.273
  414.750   76.659    0.503    0.246    7.408
  415.000   76.054    0.508    0.241    7.685
  415.250   74.247    0.502    0.235    7.826
  415.500   73.642    0.493    0.229    8.118
  415.750   73.637    0.475    0.233    8.266
  416.000   74.233    0.473    0.235    8.574
  416.250   74.228    0.470    0.235    8.897
  416.500   71.820    0.460    0.234    9.232
  416.750   70.614    0.451    0.234    9.757
  417.000   70.609    0.444    0.234   10.313
  417.250   71.806    0.460    0.232   10.698
  417.500   74.204    0.450    0.228   10.693
  417.750   77.202    0.431    0.218   10.688
  418.000   78.999    0.420    0.209   10.289
  418.250   78.992    0.418    0.196    9.907
  418.500   78.388    0.418    0.180    9.018
  418.750   76.582    0.418    0.182    8.521
  419.000   73.574    0.419    0.198    7.903
  419.250   71.167    0.427    0.206    7.610
  419.500   80.772    0.461    0.214    6.926
  419.750   84.972    0.474    0.221    6.668
  420.000   88.570    0.474    0.226    6.301
  420.250   86.763    0.466    0.222    6.067
  420.500   84.955    0.468    0.220    5.523
  420.750   83.749    0.474    0.224    4.934
  421.000   83.142    0.478    0.229    4.327
  421.250   82.539    0.475    0.226    3.725
  421.500   81.333    0.469    0.221    3.146
  421.750   80.127    0.463    0.225    2.708
  422.000   78.319    0.502    0.245    2.420
  422.250   74.710    0.533    0.269    2.244
  422.500   75.306    0.581    0.285    2.243
  422.750   75.301    0.627    0.299    2.415
  423.000   73.495    0.642    0.304    2.650
  423.250   69.887    0.673    0.304    3.019
  423.500   69.280    0.694    0.297    3.569
  423.750   70.478    0.727    0.285    4.142
