~VERSION INFORMATION
 VERS.                 2.0:   CWLS LOG ASCII STANDARD -VERSION 2.0
 WRAP.                  NO:   ONE LINE PER DEPTH STEP
~WELL INFORMATION BLOCK
#MNEM.UNIT           DATA                    DESCRIPTION OF MNEMONIC
#---------    -------------------            -------------------------------
# Generated from Intellog Unique Number	CW_70_72/WELL/2909
NULL.         -999.25                        : NULL_VALUE
WELL.         NOVALTA RICHMOND               : Well_name    - WELL              
LOC .         16-04-070-19W4                 : Location     - LOCATION          
UWI .         00/16-04-070-19W4/0            : Uwi          - UNIQUE WELL ID    
ENTR.         MAX                            : Entered      - ENTERED BY        
SRVC.         COMPUTALOG                     : Scn          - SERVICE COMPANY   
DATE.         21 DEC 84                      : Date         - LOG DATE
STRT.M        300                            : top_depth    - START DEPTH       
STOP.M        470                            : bot_depth    - STOP DEPTH        
STEP.M        0.25                           : increment    - STEP LENGTH       
~CURVE INFORMATION BLOCK
#MNEM UNIT       ERCB CURVE CODE    CURVE DESCRIPTION
#-----------   ------------------   ----------------------------------
DEPT.M        00 001 00 00         : DEPTH        - DEPTH                       
ILD .OHMM     00 120 00 00         : RESD         - DEEP RESISTIVITY (DIL)      
NPHI.V/V      00 330 00 00         : PHIN         - NEUTRON POROSITY (SANDSTONE)
DPHI.V/V      00 890 00 00         : PHID         - DENSITY POROSITY (SANDSTONE)
CALI.MM       00 280 01 00         : CAL          - CALIPER                     
GR  .API      00 310 00 00         : GR           - GAMMA RAY                   
~PARAMETER INFORMATION       
#MNEM.UNIT           DATA             DESCRIPTION OF MNEMONIC
#---------         -----------     ------------------------------
GL  .M        555.94               : gl           - GROUND LEVEL ELEVATION      
EREF.M        558.89               : kb           - ELEVATION OF DEPTH REFERENCE
DATM.M        555.94               : datum        - DATUM ELEVATION             
TDD .M        546.1                : tdd          - TOTAL DEPTH DRILLER         
RUN .         ONE                  : Run          - RUN NUMBER                  
ENG .         BILL                 : Engineer     - RECORDING ENGINEER          
WIT .         JIM                  : Witness      - WITNESSED BY                
MUD .         GEL                  : Mud_type     - MUD TYPE                    
MATR.         SANDSTONE            : Logunit      - NEUTRON MATRIX              
TMAX.C        24                   : BHT          - MAXIMUM RECORDED TEMPERATURE
BHTD.M        546.1                : BHTDEP       - MAXIMUM RECORDED TEMPERATURE
RMT .C        13.8                 : MDTP         - TEMPERATURE OF MUD          
MUDD.KG/M     1080                 : MWT          - MUD DENSITY                 
NEUT.         1                    : NEUTRON      - NEUTRON TYPE                
RESI.         0                    : RESIST       - RESISTIVITY TYPE            
RM  .OHMM     6                    : RM           - RESISTIVITY OF MUD          
RMC .OHMM     4.5                  : RMC          - RESISTIVITY OF MUD CAKE     
RMF .OHMM     7                    : RMF          - RESISTIVITY OF MUD FILTRATE 
SUFT.C        -10                  : SUFT         - SURFACE TEMPERATURE         
~A  DEPTH     RESD     PHIN     PHID      CAL       GR
# ...
  336.500    4.295    0.457    0.240  157.691   75.488
  336.750    4.627    0.448    0.242  156.692   78.513
  337.000    4.715    0.439    0.232  156.692   80.933
  337.250    4.719    0.436    0.225  156.705   82.448
  337.500    4.763    0.448    0.226  155.201   83.358
  337.750    4.809    0.455    0.233  154.705   80.946
  338.000    4.769    0.457    0.248  154.712   78.231
  338.250    4.769    0.442    0.259  154.718   75.820
  338.500    4.771    0.416    0.266  154.723   74.011
  338.750    4.862    0.417    0.272  154.732   70.995
  339.000    5.001    0.426    0.273  154.738   69.488
  339.250    5.239    0.421    0.257  154.744   76.741
  339.500    5.438    0.422    0.222  155.254   81.275
  339.750    5.645    0.420    0.192  155.764   76.749
  340.000    5.647    0.411    0.202  157.784   74.640
  340.250    5.652    0.417    0.212  157.288   78.871
  340.500    5.601    0.428    0.219  157.296   82.801
  340.750    5.351    0.440    0.225  157.805   82.202
  341.000    5.112    0.449    0.229  157.812   80.997
  341.250    4.884    0.458    0.234  157.818   80.095
  341.500    4.710    0.446    0.235  158.832   79.797
  341.750    4.669    0.426    0.215  159.342   78.896
  342.000    4.714    0.446    0.215  159.348   77.691
  342.250    4.848    0.457    0.246  158.349   73.165
  342.500    5.032    0.459    0.259  156.845   71.357
  342.750    5.272    0.434    0.262  155.846   72.267
  343.000    5.323    0.418    0.246  155.349   75.291
  343.250    5.277    0.415    0.230  155.356   80.731
  343.500    5.277    0.415    0.224  155.865   82.245
  343.750    5.139    0.417    0.225  156.376   82.853
  344.000    5.046    0.424    0.226  156.885   84.972
  344.250    4.821    0.449    0.223  158.402   85.580
  344.500    4.649    0.465    0.218  160.925   85.886
  344.750    4.524    0.472    0.221  164.457   87.099
  345.000    4.484    0.457    0.222  165.468   88.914
  345.250    4.487    0.436    0.226  165.475   84.388
  345.500    4.487    0.437    0.260  165.483   80.466
  345.750    4.532    0.438    0.269  164.482   78.960
  346.000    4.704    0.428    0.271  162.476   76.246
  346.250    4.838    0.415    0.256  158.455   75.646
  346.500    4.930    0.408    0.244  155.945   76.253
  346.750    4.888    0.412    0.234  155.449   78.371
  347.000    4.845    0.428    0.220  156.462   83.208
  347.250    4.758    0.432    0.224  159.489   87.743
  347.500    4.588    0.436    0.228  161.005   87.142
  347.750    4.424    0.454    0.223  162.020   87.751
  348.000    4.266    0.470    0.215  162.529   88.963
  348.250    4.114    0.481    0.202  163.039   83.531
  348.500    4.040    0.478    0.189  164.053   87.460
  348.750    4.005    0.463    0.212  164.562   96.525
  349.000    4.081    0.464    0.224  165.575   98.341
  349.250    4.236    0.456    0.229  165.079   93.513
  349.500    4.479    0.435    0.238  163.073   90.195
  349.750    4.780    0.415    0.242  161.570   86.574
  350.000    5.054    0.412    0.246  161.073   78.726
  350.250    5.493    0.441    0.302  162.087   74.803
  350.500    5.755    0.467    0.332  161.589   66.653
  350.750    5.811    0.448    0.342  160.086   51.254
  351.000    5.501    0.411    0.313  158.079   50.654
  351.250    4.973    0.394    0.312  155.066   50.054
  351.500    4.176    0.386    0.328  153.060   49.151
  351.750    3.953    0.389    0.339  152.562   47.645
  352.000    3.953    0.391    0.339  152.570   47.347
  352.250    3.642    0.373    0.342  152.575   48.861
  352.500    3.415    0.367    0.345  152.582   50.678
  352.750    3.356    0.370    0.344  152.086   48.569
  353.000    3.295    0.377    0.347  152.093   47.365
  353.250    3.295    0.391    0.348  152.101   47.670
  353.500    3.268    0.395    0.344  152.106   50.090
  353.750    3.268    0.388    0.334  152.106   51.000
  354.000    3.241    0.384    0.331  152.626   50.702
  354.250    3.212    0.389    0.330  152.629   51.008
  354.500    3.214    0.391    0.333  152.636   51.314
  354.750    3.214    0.378    0.338  152.643   52.224
  355.000    3.187    0.378    0.343  152.649   52.228
  355.250    3.159    0.390    0.346  152.655   51.326
  355.500    3.159    0.398    0.348  152.662   53.746
  355.750    3.163    0.405    0.348  152.669   60.395
  356.000    3.163    0.406    0.345  153.180   61.003
  356.250    3.163    0.404    0.342  153.186   59.498
  356.500    3.166    0.393    0.341  153.696   58.293
  356.750    3.168    0.381    0.339  153.704   60.713
  357.000    3.168    0.371    0.335  154.215   59.207
  357.250    3.170    0.378    0.334  154.220   56.191
  357.500    3.201    0.394    0.339  154.226   57.705
  357.750    3.262    0.400    0.345  154.233   61.635
  358.000    3.325    0.409    0.349  154.241   61.338
  358.250    3.357    0.397    0.345  154.247   56.811
  358.500    3.359    0.392    0.340  154.253   57.117
  358.750    3.360    0.401    0.341  153.758   59.839
  359.000    3.360    0.413    0.344  153.763   60.447
  359.250    3.363    0.413    0.347  154.273   60.451
  359.500    3.333    0.409    0.348  154.783   61.059
  359.750    3.336    0.409    0.352  154.790   61.667
  360.000    3.306    0.415    0.354  154.797   61.973
  360.250    3.277    0.430    0.354  154.803   60.467
  360.500    3.218    0.450    0.353  154.810   59.264
  360.750    3.190    0.453    0.351  154.818   60.173
  361.000    3.134    0.440    0.349  154.824   60.177
  361.250    3.134    0.422    0.347  154.831   58.671
  361.500    3.166    0.413    0.348  154.837   56.863
  361.750    3.196    0.408    0.349  154.844   55.962
  362.000    3.196    0.413    0.352  154.851   56.267
  362.250    3.259    0.424    0.354  154.857   58.687
  362.500    3.321    0.435    0.355  155.368   59.598
  362.750    3.321    0.436    0.354  155.374   59.903
  363.000    3.324    0.429    0.344  155.884   62.928
  363.250    3.387    0.427    0.333  155.890   65.046
  363.500    3.389    0.435    0.334  156.400   62.331
  363.750    3.390    0.433    0.337  155.906   57.805
  364.000    3.423    0.426    0.332  155.408   59.017
  364.250    3.456    0.420    0.318  154.911   59.323
  364.500    3.522    0.424    0.306  154.919   56.911
  364.750    3.557    0.448    0.309  154.924   56.613
  365.000    3.559    0.450    0.311  154.428   57.524
  365.250    3.560    0.430    0.311  153.931   58.735
  365.500    3.561    0.425    0.315  153.435   61.759
  365.750    3.597    0.430    0.315  153.440   64.180
  366.000    3.598    0.445    0.309  152.442   62.371
  366.250    3.598    0.445    0.306  151.944   59.053
  366.500    3.601    0.430    0.309  151.447   59.361
  366.750    3.602    0.412    0.312  150.951   62.988
  367.000    3.604    0.415    0.306  150.957   65.710
  367.250    3.605    0.430    0.309  151.468   68.130
  367.500    3.607    0.417    0.317  151.978   69.342
  367.750    3.609    0.400    0.294  153.494   71.461
  368.000    3.609    0.400    0.255  155.011   74.183
  368.250    3.646    0.414    0.237  157.031   76.905
  368.500    3.681    0.428    0.230  159.554   79.325
  368.750    3.751    0.445    0.234  161.575   82.350
  369.000    3.751    0.457    0.245  163.092   83.562
  369.250    3.825    0.461    0.278  163.601   83.264
  369.500    3.970    0.457    0.293  163.609   79.643
  369.750    4.236    0.457    0.298  161.602   74.815
  370.000    4.562    0.458    0.299  158.588   72.403
  370.250    4.650    0.433    0.307  155.071   70.595
  370.500    4.484    0.410    0.304  152.058   68.787
  370.750    4.363    0.402    0.298  151.059   64.864
  371.000    4.207    0.394    0.295  151.065   64.567
  371.250    4.094    0.398    0.292  151.072   62.758
  371.500    4.059    0.403    0.289  151.078   61.856
  371.750    4.059    0.404    0.288  151.078   63.673
  372.000    4.062    0.410    0.297  150.087   66.093
  372.250    4.064    0.418    0.305  149.588   68.814
  372.500    4.064    0.421    0.300  149.594   72.745
  372.750    4.105    0.417    0.287  150.104   76.373
