~VERSION INFORMATION
 VERS.                 2.0:   CWLS LOG ASCII STANDARD -VERSION 2.0
 WRAP.                  NO:   ONE LINE PER DEPTH STEP
~WELL INFORMATION BLOCK
#MNEM.UNIT           DATA                    DESCRIPTION OF MNEMONIC
#---------    -------------------            -------------------------------
# Generated from Intellog Unique Number	CC_88_90/WELL/2303
WELL.         JOLI FOU MINK                  : Well_name    - WELL
LOC .         00/11-11-090-12W4/0            : Location     - LOCATION
UWI .         00/11-11-090-12W400            : Uwi          - UNIQUE WELL ID
ENTR.         DW                             : Entered      - ENTERED BY
SRVC.         SCHLUMBERGER                   : Scn          - SERVICE COMPANY
STRT.M        100                            : top_depth    - START DEPTH
STOP.M        274.75                         : bot_depth    - STOP DEPTH
STEP.M        0.25                           : increment    - STEP LENGTH
 NULL. -999.2500:NULL Value
~CURVE INFORMATION BLOCK
#MNEM UNIT       ERCB CURVE CODE    CURVE DESCRIPTION
#-----------   ------------------   ----------------------------------
DEPT.M        00 001 00 00         : DEPTH        - DEPTH
GR  .API      00 310 00 00         : GR           - GAMMA RAY
DPHI.V/V      00 890 00 00         : PHID         - DENSITY POROSITY (SANDSTONE)
NPHI.V/V      00 330 00 00         : PHIN         - NEUTRON POROSITY (SANDSTONE)
ILD .OHMM     00 120 00 00         : RESD         - DEEP RESISTIVITY (DIL)
~PARAMETER INFORMATION
#MNEM.UNIT           DATA             DESCRIPTION OF MNEMONIC
#---------         -----------     ------------------------------
GL  .M        528.5                : gl           - GROUND LEVEL ELEVATION
EREF.M        530                  : kb           - ELEVATION OF DEPTH REFERENCE
DATM.M        530                  : datum        - DATUM ELEVATION
TDD .M        275                  : tdd          - TOTAL DEPTH DRILLER
RUN .         ONE                  : Run          - RUN NUMBER
ENG .         BILL                 : Engineer     - RECORDING ENGINEER
WIT .         JIM                  : Witness      - WITNESSED BY
MUD .         GEL                  : Mud_type     - MUD TYPE
MATR.         SANDSTONE            : Logunit      - NEUTRON MATRIX
TMAX.C        24                   : BHT          - MAXIMUM RECORDED TEMPERATURE
BHTD.M        275                  : BHTDEP       - MAXIMUM RECORDED TEMPERATURE
MATR.         1                    : LOGUNIT      - NEUTRON MATRIX
RMT .C        25                   : MDTP         - TEMPERATURE OF MUD
NEUT.         1                    : NEUTRON      - NEUTRON TYPE
RESI.         0                    : RESIST       - RESISTIVITY TYPE
RMC .OHMM     0.25                 : RMC          - RESISTIVITY OF MUD CAKE
RMF .OHMM     0.25                 : RMF          - RESISTIVITY OF MUD FILTRATE
SUFT.C        4                    : SUFT         - SURFACE TEMPERATURE
~A  DEPTH       GR     PHID     PHIN     RESD
  100.000   53.965    0.348    0.498   40.116
  100.250   52.648    0.347    0.509   42.085
  100.500   53.718    0.338    0.514   43.161
  100.750   55.874    0.327    0.492   42.507
  101.000   58.846    0.324    0.473   40.802
  101.250   59.594    0.282    0.482   39.811
  101.500   55.041    0.190    0.487   39.820
  101.750   51.900    0.218    0.476   39.592
  102.000   54.137    0.269    0.475   41.846
  102.250   54.316    0.303    0.491   46.993
  102.500   51.417    0.332    0.491   53.094
  102.750   48.816    0.346    0.471   57.220
  103.000   46.917    0.337    0.467   57.723
  103.250   48.656    0.347    0.476   56.731
  103.500   47.340    0.339    0.498   55.878
  103.750   50.528    0.336    0.510   54.343
  104.000   55.285    0.340    0.502   52.795
  104.250   54.396    0.341    0.496   52.018
  104.500   51.677    0.359    0.497   51.140
  104.750   48.638    0.363    0.464   50.919
  105.000   50.660    0.346    0.457   52.252
  105.250   51.330    0.359    0.467   53.686
  105.500   50.200    0.378    0.470   53.654
  105.750   50.213    0.361    0.479   52.573
  106.000   50.914    0.343    0.498   51.721
  106.250   56.760    0.350    0.490   50.847
  106.500   57.864    0.349    0.486   49.986
  106.750   55.774    0.339    0.476   49.119
  107.000   55.069    0.332    0.461   48.373
  107.250   54.943    0.324    0.455   47.389
  107.500   54.446    0.319    0.458   45.828
  107.750   56.163    0.335    0.487   44.964
  108.000   54.779    0.339    0.497   44.882
  108.250   53.163    0.329    0.478   44.473
  108.500   56.268    0.338    0.470   43.501
  108.750   59.080    0.348    0.481   41.759
  109.000   55.521    0.329    0.474   39.082
  109.250   55.401    0.349    0.451   37.236
  109.500   54.638    0.350    0.438   35.306
  109.750   51.938    0.349    0.462   34.739
  110.000   53.208    0.343    0.490   36.088
  110.250   56.849    0.331    0.495   37.636
  110.500   54.147    0.343    0.494   38.070
  110.750   50.308    0.350    0.487   37.644
  111.000   49.520    0.353    0.490   35.013
  111.250   52.831    0.347    0.485   32.881
  111.500   56.250    0.341    0.478   32.600
  111.750   56.248    0.344    0.492   33.384
  112.000   53.999    0.344    0.514   34.357
  112.250   51.628    0.344    0.494   33.827
  112.500   52.584    0.348    0.478   33.238
  112.750   53.746    0.336    0.473   32.421
  113.000   52.584    0.324    0.475   31.254
  113.250   50.418    0.325    0.480   30.349
  113.500   49.558    0.315    0.486   29.326
  113.750   50.644    0.305    0.511   27.050
  114.000   50.088    0.291    0.534   25.507
  114.250   49.023    0.313    0.532   24.548
  114.500   52.051    0.335    0.505   24.077
  114.750   57.648    0.329    0.483   24.105
  115.000   58.606    0.342    0.486   24.075
  115.250   55.169    0.334    0.488   24.490
  115.500   51.276    0.326    0.509   24.184
  115.750   50.867    0.321    0.530   23.969
  116.000   52.088    0.318    0.521   23.871
  116.250   51.463    0.320    0.491   23.396
  116.500   49.254    0.314    0.476   23.013
  116.750   46.601    0.290    0.482   22.621
  117.000   45.236    0.286    0.499   22.271
  117.250   46.890    0.280    0.491   21.712
  117.500   47.717    0.273    0.470   20.887
  117.750   46.706    0.286    0.471   19.784
  118.000   49.109    0.298    0.487   18.548
  118.250   52.930    0.302    0.497   17.940
  118.500   53.307    0.306    0.488   17.313
  118.750   51.951    0.315    0.488   17.106
  119.000   51.349    0.326    0.492   17.023
  119.250   51.488    0.335    0.489   16.746
  119.500   52.026    0.340    0.503   16.748
  119.750   53.076    0.341    0.531   16.472
  120.000   53.270    0.345    0.517   16.215
  120.250   53.166    0.336    0.505   15.768
  120.500   53.084    0.325    0.506   15.318
  120.750   52.259    0.329    0.498   15.102
  121.000   51.260    0.332    0.495   14.840
  121.250   52.633    0.331    0.508   14.585
  121.500   54.238    0.330    0.517   14.353
  121.750   50.751    0.330    0.511   14.051
  122.000   46.372    0.336    0.499   13.993
  122.250   48.422    0.339    0.495   14.240
  122.500   52.340    0.336    0.502   14.447
  122.750   48.080    0.344    0.517   14.900
  123.000   48.362    0.348    0.501   15.200
  123.250   51.536    0.341    0.488   15.283
  123.500   52.109    0.337    0.496   15.129
  123.750   50.692    0.341    0.515   14.890
  124.000   50.966    0.344    0.529   14.894
  124.250   55.276    0.334    0.505   14.902
  124.500   55.412    0.335    0.496   14.658
  124.750   53.765    0.342    0.505   14.565
  125.000   53.023    0.332    0.513   14.468
  125.250   51.729    0.320    0.517   14.233
  125.500   50.818    0.324    0.514   14.238
  125.750   53.309    0.320    0.493   14.205
  126.000   54.964    0.322    0.493   14.363
  126.250   54.891    0.324    0.499   14.592
  126.500   55.536    0.317    0.497   14.818
  126.750   57.015    0.318    0.494   14.983
  127.000   57.412    0.336    0.491   14.958
  127.250   58.000    0.344    0.495   14.936
  127.500   57.068    0.346    0.532   14.909
  127.750   54.433    0.342    0.561   14.923
  128.000   54.190    0.337    0.552   14.799
  128.250   56.280    0.322    0.525   14.554
  128.500   56.642    0.291    0.521   14.566
  128.750   59.150    0.298    0.535   14.773
  129.000   60.907    0.326    0.533   14.988
  129.250   60.004    0.339    0.509   15.248
  129.500   57.129    0.335    0.495   15.341
  129.750   55.205    0.331    0.503   15.369
  130.000   55.887    0.332    0.514   15.595
  130.250   55.462    0.325    0.526   15.334
  130.500   54.131    0.323    0.527   15.242
  130.750   52.012    0.326    0.532   15.250
  131.000   50.568    0.331    0.529   15.221
  131.250   51.085    0.333    0.510   15.201
  131.500   52.672    0.330    0.503   15.186
  131.750   53.929    0.339    0.498   15.404
  132.000   52.912    0.350    0.494   15.630
  132.250   55.746    0.353    0.482   15.895
  132.500   58.109    0.356    0.471   16.008
  132.750   54.912    0.354    0.475   15.996
  133.000   52.512    0.340    0.487   16.257
  133.250   52.413    0.345    0.507   16.517
  133.500   52.585    0.353    0.512   16.518
  133.750   52.145    0.353    0.518   16.639
  134.000   53.300    0.348    0.518   16.908
  134.250   55.829    0.350    0.507   17.161
  134.500   56.665    0.364    0.507   17.401
  134.750   57.650    0.363    0.501   17.378
  135.000   58.242    0.353    0.502   17.571
  135.250   56.344    0.317    0.509   17.842
  135.500   55.754    0.299    0.518   18.127
  135.750   58.157    0.310    0.515   18.325
  136.000   58.972    0.304    0.495   18.288
  136.250   59.057    0.327    0.506   18.560
  136.500   58.049    0.345    0.523   18.777
  136.750   57.555    0.352    0.505   19.422
  137.000   57.614    0.356    0.483   20.362
  137.250   57.725    0.359    0.488   20.762
  137.500   59.435    0.356    0.481   20.728
  137.750   63.806    0.331    0.471   19.619
  138.000   69.963    0.305    0.515   10.645
  138.250   77.530    0.294    0.571    5.784
  138.500   83.024    0.293    0.586    5.922
  138.750   85.657    0.291    0.571    4.487
  139.000   88.724    0.287    0.571    4.115
  139.250   89.891    0.283    0.593    3.975
  139.500   89.638    0.278    0.613    3.960
  139.750   88.248    0.291    0.619    4.208
  140.000   82.478    0.305    0.614    4.540
  140.250   77.499    0.299    0.580    4.970
  140.500   81.827    0.290    0.522    5.744
  140.750   83.787    0.294    0.521    6.450
  141.000   81.976    0.288    0.535    6.752
  141.250   80.487    0.271    0.546    6.868
  141.500   77.526    0.257    0.551    7.606
  141.750   72.200    0.267    0.537    9.153
  142.000   70.019    0.297    0.514   10.449
  142.250   72.234    0.293    0.530   10.653
  142.500   76.851    0.286    0.519   10.448
  142.750   80.487    0.285    0.525    9.582
  143.000   85.189    0.284    0.552    7.813
  143.250   92.017    0.278    0.575    6.092
