~VERSION INFORMATION
 VERS.                 2.0:   CWLS LOG ASCII STANDARD -VERSION 2.0
 WRAP.                  NO:   ONE LINE PER DEPTH STEP
~WELL INFORMATION BLOCK
#MNEM.UNIT           DATA                    DESCRIPTION OF MNEMONIC
#---------    -------------------            -------------------------------
# Generated from Intellog Unique Number	CC_80_83/WELL/2396
NULL.         -999.25                        : NULL_VALUE
WELL.         BVX ET AL WATCHUSK             : Well_name    - WELL
LOC .         11-11-081-03W4                 : Location     - LOCATION          
UWI .         00/11-11-081-03W400            : Uwi          - UNIQUE WELL ID    
ENTR.         DW                             : Entered      - ENTERED BY        
SRVC.         SCHLUMBERGER                   : Scn          - SERVICE COMPANY   
DATE.         13 MAR 78                      : Date         - LOG DATE
STRT.M        106.68                         : top_depth    - START DEPTH       
STOP.M        313.944                        : bot_depth    - STOP DEPTH        
STEP.M        0.305                          : increment    - STEP LENGTH       
~CURVE INFORMATION BLOCK
#MNEM UNIT       ERCB CURVE CODE    CURVE DESCRIPTION
#-----------   ------------------   ----------------------------------
DEPT.M        00 001 00 00         : DEPTH        - DEPTH                       
ILD .OHMM     00 120 00 00         : RESD         - DEEP RESISTIVITY (DIL)      
GR  .API      00 310 00 00         : GR           - GAMMA RAY                   
NPHI.V/V      00 330 00 00         : PHIN         - NEUTRON POROSITY (LIMESTONE)
DPHI.V/V      00 890 00 00         : PHID         - DENSITY POROSITY (LIMESTONE)
~PARAMETER INFORMATION       
#MNEM.UNIT           DATA             DESCRIPTION OF MNEMONIC
#---------         -----------     ------------------------------
GL  .M        464.82               : gl           - GROUND LEVEL ELEVATION      
EREF.M        467.868              : kb           - ELEVATION OF DEPTH REFERENCE
DATM.M        467.868              : datum        - DATUM ELEVATION             
TDD .M        324.307              : tdd          - TOTAL DEPTH DRILLER         
RUN .         ONE                  : Run          - RUN NUMBER                  
ENG .         BILL                 : Engineer     - RECORDING ENGINEER          
WIT .         JIM                  : Witness      - WITNESSED BY                
MUD .         GEL                  : Mud_type     - MUD TYPE                    
MATR.         LIMESTONE            : Logunit      - NEUTRON MATRIX              
TMAX.C        21.1111              : BHT          - MAXIMUM RECORDED TEMPERATURE
BHTD.M        324.307              : BHTDEP       - MAXIMUM RECORDED TEMPERATURE
MATR.         1                    : LOGUNIT      - NEUTRON MATRIX              
RMT .C        25                   : MDTP         - TEMPERATURE OF MUD          
NEUT.         1                    : NEUTRON      - NEUTRON TYPE                
RESI.         0                    : RESIST       - RESISTIVITY TYPE            
RMC .OHMM     0.25                 : RMC          - RESISTIVITY OF MUD CAKE     
RMF .OHMM     0.25                 : RMF          - RESISTIVITY OF MUD FILTRATE 
SUFT.C        15                   : SUFT         - SURFACE TEMPERATURE         
~A  DEPTH     RESD       GR     PHIN     PHID
# ...
  265.784    4.465   93.390    0.394    0.154
  266.088    4.380   95.855    0.382    0.159
  266.393    4.378  102.626    0.399    0.162
  266.698    4.545  102.019    0.415    0.167
  267.003    4.630   96.494    0.419    0.171
  267.308    4.807   92.202    0.379    0.167
  267.613    4.991   89.137    0.383    0.164
  267.917    5.181   89.143    0.387    0.161
  268.222    5.180   98.986    0.384    0.165
  268.527    4.985  105.755    0.390    0.176
  268.832    4.365  107.607    0.410    0.136
  269.137    3.475  108.231    0.432    0.140
  269.441    3.474  103.320    0.438    0.148
  269.746    3.606   92.268    0.427    0.160
  270.051    3.816   86.741    0.422    0.171
  270.356    3.888   80.603    0.409    0.184
  270.661    3.813   87.989    0.396    0.208
  270.965    3.467   94.143    0.386    0.210
  271.270    3.401   94.150    0.378    0.175
  271.575    3.464   89.855    0.382    0.160
  271.880    3.666   91.094    0.406    0.157
  272.185    3.734   94.174    0.391    0.151
  272.489    3.269   98.486    0.364    0.146
  272.794    2.507   99.108    0.353    0.172
  273.099    1.816  103.418    0.390    0.168
  273.404    1.531   98.509    0.420    0.178
  273.709    1.445   79.464    0.437    0.158
  274.014    1.558   25.383    0.433    0.174
  274.318    1.713   13.714    0.391    0.192
  274.623    2.190    9.419    0.339    0.267
  274.928    2.801   12.501    0.349    0.269
  275.233    3.448   20.499    0.353    0.261
  275.538    4.326   31.571    0.348    0.241
  275.842    5.032   57.393    0.359    0.233
  276.147    5.426   70.923    0.384    0.222
  276.452    5.741   75.234    0.413    0.190
  276.757    6.552   65.408    0.433    0.220
  277.062    7.477   53.124    0.480    0.268
  277.366    7.764   41.455    0.498    0.288
  277.671    8.531   48.837    0.499    0.384
  277.976    8.692   58.679    0.481    0.498
  278.281    8.525   52.542    0.466    0.475
  278.586    8.363   40.258    0.629    0.520
  278.890    7.749   36.578    0.651    0.583
  279.195    7.045   35.972    0.661    0.607
  279.500    6.530   43.969    0.669    0.616
  279.805    5.502   58.729    0.678    0.615
  280.110    5.099   72.258    0.680    0.602
  280.415    4.725   79.642    0.682    0.572
  280.719    4.379   81.495    0.688    0.401
  281.024    3.907   77.814    0.639    0.172
  281.329    3.356   63.686    0.356    0.128
  281.634    2.776   52.016    0.349    0.152
  281.939    2.477   37.273    0.358    0.210
  282.243    2.338   33.595    0.351    0.220
  282.548    2.294   34.831    0.329    0.225
  282.853    2.208   36.069    0.329    0.224
  283.158    1.970   33.003    0.334    0.200
  283.463    1.692   26.250    0.329    0.228
  283.767    1.538   21.343    0.330    0.250
  284.072    1.481   17.662    0.361    0.258
  284.377    1.425   15.212    0.372    0.263
  284.682    1.452   14.606    0.375    0.274
  284.987    1.507   16.461    0.370    0.284
  285.291    1.688   18.309    0.365    0.287
  285.596    1.964   22.005    0.371    0.266
  285.901    2.117   28.774    0.385    0.260
  286.206    2.076   36.773    0.417    0.282
  286.511    2.037   36.781    0.458    0.303
  286.816    1.960   25.112    0.555    0.320
  287.120    1.923   20.817    0.521    0.322
  287.425    1.886   27.586    0.450    0.277
  287.730    1.781   36.814    0.345    0.244
  288.035    1.530   36.207    0.357    0.216
  288.340    1.290   26.381    0.391    0.254
  288.644    1.218   15.325    0.408    0.298
  288.949    1.172   12.876    0.389    0.302
  289.254    1.194   13.499    0.378    0.291
  289.559    1.217   15.964    0.379    0.282
  289.864    1.388   18.431    0.381    0.296
  290.168    1.585   17.825    0.397    0.310
  290.473    1.843   19.676    0.427    0.314
  290.778    2.104   24.602    0.418    0.307
  291.083    2.494   35.674    0.414    0.294
  291.388    2.901   47.360    0.411    0.320
  291.692    3.571   73.797    0.608    0.419
  291.997    3.779  127.894    0.618    0.379
  292.302    4.075  124.214    0.542    0.171
  292.607    4.151  111.316    0.483    0.154
  292.912    4.309  100.874    0.447    0.125
  293.217    4.227   80.599    0.411    0.113
  293.521    3.992   60.941    0.382    0.116
  293.826    3.770   51.728    0.342    0.140
  294.131    3.364   44.360    0.335    0.164
  294.436    2.730   40.066    0.337    0.181
  294.741    2.482   35.773    0.343    0.197
  295.045    2.173   30.864    0.357    0.218
  295.350    1.867   25.954    0.383    0.225
  295.655    1.634   21.659    0.419    0.265
  295.960    1.514   15.521    0.375    0.268
  296.265    1.457   13.686    0.338    0.255
  296.569    1.457   14.922    0.333    0.258
  296.874    1.513   21.691    0.333    0.255
  297.179    2.009   49.359    0.340    0.242
  297.484    2.473   77.026    0.358    0.193
  297.789    3.103   88.712    0.393    0.207
  298.093    3.821   92.408    0.431    0.213
  298.398    4.529   99.176    0.459    0.219
  298.703    4.977  102.258    0.469    0.123
  299.008    5.573  105.342    0.407    0.089
  299.313    5.571  105.962    0.354    0.120
  299.618    5.465  102.283    0.385    0.131
  299.922    4.969   94.300    0.434    0.146
  300.227    4.350   80.172    0.418    0.167
  300.532    3.399   55.594    0.381    0.188
  300.837    2.976   49.456    0.339    0.192
  301.142    3.032   60.528    0.307    0.163
  301.446    3.594   57.464    0.311    0.139
  301.751    4.864   57.474    0.318    0.099
  302.056    5.447   61.783    0.251    0.086
  302.361    5.343   69.780    0.293    0.095
  302.666    5.142   74.706    0.349    0.099
  302.970    4.856   85.778    0.371    0.126
  303.275    4.251   93.160    0.395    0.158
  303.580    3.652  106.691    0.417    0.169
  303.885    3.321  122.679    0.444    0.183
  304.190    3.077  123.918    0.562    0.177
  304.494    2.962  118.394    0.573    0.158
  304.799    2.905  108.567    0.557    0.115
  305.104    3.132   96.282    0.531    0.093
  305.409    3.191  101.208    0.470    0.130
  305.714    3.250  104.904    0.454    0.137
  306.019    3.249   94.463    0.506    0.122
  306.323    3.127   76.032    0.517    0.060
  306.628    3.067   70.509    0.487    0.000
  306.933    3.246   66.215    0.454    0.000
  307.238    3.704   85.890    0.396    0.046
  307.543    4.148  114.787    0.450    0.093
  307.847    4.558  115.411    0.497    0.141
  308.152    4.644  110.501    0.530    0.220
  308.457    4.731   98.831    0.550    0.143
  308.762    4.729   84.088    0.528    0.084
  309.067    4.910   71.189    0.510    0.019
  309.371    5.499   55.830    0.434    0.054
  309.676    7.730   23.878    0.402    0.046
  309.981   13.641   30.647    0.184    0.049
  310.286   12.403   68.763    0.282    0.121
  310.591   10.858   65.698    0.385    0.159
  310.895    9.873   44.193    0.447    0.187
  311.200    9.502   25.148    0.327    0.105
  311.505   11.699   21.469    0.160    0.012
  311.810   14.960   22.093    0.159    0.026
  312.115   14.673   21.485    0.174    0.041
  312.420   14.119   20.881    0.187    0.037
  312.724   13.591   19.658    0.195    0.021
  313.029   13.332   19.051    0.195    0.003
  313.334   12.590   18.446    0.190    0.000
  313.639   13.319   18.452    0.168    0.000
  313.944   13.570   19.077    0.163    0.000
