~VERSION INFORMATION
 VERS.                 2.0:   CWLS LOG ASCII STANDARD -VERSION 2.0
 WRAP.                  NO:   ONE LINE PER DEPTH STEP
~WELL INFORMATION BLOCK
#MNEM.UNIT           DATA                    DESCRIPTION OF MNEMONIC
#---------    -------------------            -------------------------------
# Generated from Intellog Unique Number	CC_84_87/WELL/2321
NULL.         -999.25                        : NULL_VALUE
WELL.         SUNCOR CHEECHAM LEASE          : Well_name    - WELL
LOC .         11-05-085-06W4                 : Location     - LOCATION          
UWI .         00/11-05-085-06W400            : Uwi          - UNIQUE WELL ID    
ENTR.         JHS                            : Entered      - ENTERED BY        
SRVC.         SCHLUMBERGER                   : Scn          - SERVICE COMPANY   
DATE.         07 FEB 81                      : Date         - LOG DATE
STRT.M        100                            : top_depth    - START DEPTH       
STOP.M        265.001                        : bot_depth    - STOP DEPTH        
STEP.M        0.3                            : increment    - STEP LENGTH       
~CURVE INFORMATION BLOCK
#MNEM UNIT       ERCB CURVE CODE    CURVE DESCRIPTION
#-----------   ------------------   ----------------------------------
DEPT.M        00 001 00 00         : DEPTH        - DEPTH                       
DPHI.V/V      00 890 00 00         : PHID         - DENSITY POROSITY (LIMESTONE)
NPHI.V/V      00 330 00 00         : PHIN         - NEUTRON POROSITY (LIMESTONE)
GR  .API      00 310 00 00         : GR           - GAMMA RAY                   
ILD .OHMM     00 120 00 00         : RESD         - DEEP RESISTIVITY (DIL)      
~PARAMETER INFORMATION       
#MNEM.UNIT           DATA             DESCRIPTION OF MNEMONIC
#---------         -----------     ------------------------------
GL  .M        477                  : gl           - GROUND LEVEL ELEVATION      
EREF.M        480.63               : kb           - ELEVATION OF DEPTH REFERENCE
DATM.M        480.63               : datum        - DATUM ELEVATION             
TDD .M        269.5                : tdd          - TOTAL DEPTH DRILLER         
RUN .         ONE                  : Run          - RUN NUMBER                  
ENG .         BILL                 : Engineer     - RECORDING ENGINEER          
WIT .         JIM                  : Witness      - WITNESSED BY                
MUD .         GEL                  : Mud_type     - MUD TYPE                    
MATR.         LIMESTONE            : Logunit      - NEUTRON MATRIX              
TMAX.C        60                   : BHT          - MAXIMUM RECORDED TEMPERATURE
BHTD.M        269.5                : BHTDEP       - MAXIMUM RECORDED TEMPERATURE
MATR.         1                    : LOGUNIT      - NEUTRON MATRIX              
RMT .C        25                   : MDTP         - TEMPERATURE OF MUD          
NEUT.         1                    : NEUTRON      - NEUTRON TYPE                
RESI.         0                    : RESIST       - RESISTIVITY TYPE            
RMC .OHMM     0.25                 : RMC          - RESISTIVITY OF MUD CAKE     
RMF .OHMM     0.25                 : RMF          - RESISTIVITY OF MUD FILTRATE 
SUFT.C        15                   : SUFT         - SURFACE TEMPERATURE         
~A  DEPTH     PHID     PHIN       GR     RESD
# ...
  152.201    0.246    0.478   85.438    1.428
  152.501    0.254    0.476   86.672    1.430
  152.801    0.252    0.461   87.297    1.432
  153.101    0.256    0.456   85.496    1.434
  153.401    0.260    0.478   86.730    1.436
  153.701    0.263    0.467   84.930    1.438
  154.001    0.257    0.506   86.162    1.414
  154.301    0.244    0.499   87.400    1.416
  154.601    0.243    0.480   86.201    1.418
  154.901    0.255    0.477   83.186    1.393
  155.201    0.254    0.488   82.599    1.370
  155.501    0.257    0.494   83.225    1.346
  155.801    0.260    0.509   81.423    1.323
  156.101    0.250    0.488   82.052    1.325
  156.401    0.238    0.473   82.677    1.327
  156.701    0.245    0.481   80.875    1.354
  157.001    0.267    0.489   79.073    1.357
  157.301    0.272    0.502   76.058    1.384
  157.601    0.253    0.494   74.863    1.386
  157.901    0.245    0.470   77.310    1.388
  158.201    0.264    0.458   77.938    1.390
  158.501    0.251    0.448   76.743    1.393
  158.801    0.249    0.459   75.548    1.395
  159.101    0.265    0.481   77.998    1.397
  159.401    0.256    0.506   82.270    1.425
  159.701    0.279    0.513   84.718    1.454
  160.001    0.266    0.501   87.166    1.541
  160.301    0.262    0.491   85.368    1.603
  160.601    0.265    0.478   85.992    1.636
  160.901    0.278    0.496   86.619    1.578
  161.201    0.278    0.505   85.424    1.466
  161.501    0.248    0.483   84.838    1.468
  161.801    0.255    0.484   87.892    1.498
  162.101    0.227    0.471   93.378    1.618
  162.401    0.204    0.449   97.044    1.780
  162.701    0.195    0.479   97.670    1.958
  163.001    0.237    0.495   98.906    2.114
  163.301    0.222    0.483  100.141    2.241
  163.601    0.216    0.490  101.979    2.420
  163.901    0.210    0.508  104.430    2.470
  164.201    0.203    0.520  108.698    2.473
  164.501    0.201    0.552  109.326    2.431
  164.801    0.210    0.581  106.917    2.345
  165.101    0.214    0.554  106.938    2.261
  165.401    0.215    0.506  105.742    2.265
  165.701    0.229    0.531  105.762    2.269
  166.001    0.238    0.512  106.998    2.272
  166.301    0.229    0.515  108.230    2.318
  166.601    0.213    0.521  110.679    2.322
  166.901    0.200    0.542  113.738    2.369
  167.201    0.203    0.528  116.187    2.373
  167.501    0.206    0.554  117.422    2.332
  167.801    0.208    0.558  118.656    2.249
  168.101    0.210    0.567  118.673    2.129
  168.401    0.203    0.599  116.264    2.016
  168.701    0.195    0.611  117.499    1.944
  169.001    0.220    0.611  121.164    1.947
  169.301    0.234    0.594  123.004    1.949
  169.601    0.249    0.583  120.596    2.027
  169.901    0.217    0.568  117.579    2.189
  170.201    0.207    0.515  115.776    2.409
  170.501    0.228    0.530  111.546    2.650
  170.801    0.204    0.541  110.352    3.085
  171.101    0.215    0.509  106.120    3.592
  171.401    0.214    0.492  100.675    3.806
  171.701    0.210    0.480  102.514    3.959
  172.001    0.221    0.476  105.573    4.040
  172.301    0.210    0.470  104.985    4.281
  172.601    0.202    0.487  106.220    4.537
  172.901    0.197    0.513  108.059    4.629
  173.201    0.188    0.524  108.689    4.636
  173.501    0.222    0.517  109.921    4.644
  173.801    0.226    0.494  113.586    4.740
  174.101    0.216    0.487  116.640    4.836
  174.401    0.217    0.485  114.232    5.031
  174.701    0.178    0.472  118.502    5.230
  175.001    0.167    0.466  115.488    5.439
  175.301    0.180    0.475  114.292    5.764
  175.601    0.178    0.478  114.920    6.108
  175.901    0.189    0.448  113.725    6.352
  176.201    0.169    0.434  109.493    6.361
  176.501    0.140    0.410  108.906    6.251
  176.801    0.119    0.430  111.355    5.917
  177.101    0.207    0.474  111.378    5.707
  177.401    0.183    0.492  110.789    5.505
  177.701    0.196    0.487  110.807    5.309
  178.001    0.192    0.495  111.433    5.025
  178.301    0.179    0.508  113.275    4.939
  178.601    0.182    0.503  117.546    4.946
  178.901    0.201    0.480  119.388    4.954
  179.201    0.200    0.464  115.158    5.055
  179.501    0.185    0.443  108.496    5.160
  179.801    0.204    0.444  105.481    5.167
  180.101    0.229    0.455  107.930    5.374
  180.401    0.217    0.453  112.201    5.588
  180.701    0.196    0.448  112.221    5.597
  181.001    0.197    0.449  112.849    5.399
  181.301    0.199    0.460  111.654    4.921
  181.601    0.194    0.482  113.495    4.319
  181.901    0.193    0.510  112.907    4.013
  182.201    0.180    0.507  114.140    3.943
  182.501    0.207    0.527  120.234    4.026
  182.801    0.194    0.499  120.862    4.108
  183.101    0.189    0.477  119.665    4.271
  183.401    0.186    0.483  116.041    4.526
  183.701    0.182    0.492  113.633    4.979
  184.001    0.233    0.470  113.046    5.585
  184.301    0.238    0.469  111.244    5.807
  184.601    0.241    0.501  107.011    5.496
  184.901    0.232    0.519  104.603    4.646
  185.201    0.216    0.522  105.837    3.379
  185.501    0.199    0.569  108.286    3.024
  185.801    0.244    0.592  111.341    3.086
  186.101    0.227    0.586  116.221    3.332
  186.401    0.218    0.565  119.276    4.028
  186.701    0.197    0.528  115.652    4.601
  187.001    0.186    0.491  113.245    5.358
  187.301    0.211    0.445  110.835    5.894
  187.601    0.212    0.430  102.959    6.486
  187.901    0.217    0.441   97.515    6.873
  188.201    0.201    0.471   98.141    7.015
  188.501    0.233    0.467  102.412    7.025
  188.801    0.223    0.448  105.467    6.905
  189.101    0.241    0.455  104.276    6.787
  189.401    0.262    0.473  101.864    6.926
  189.701    0.233    0.464   94.596    7.069
  190.001    0.213    0.509   95.223    7.353
  190.301    0.198    0.502   95.850    7.362
  190.601    0.160    0.429   91.013    7.234
  190.901    0.094    0.418   90.424    6.847
  191.201    0.088    0.466  100.771    6.360
  191.501    0.219    0.466  106.863    5.908
  191.801    0.209    0.458  109.310    5.699
  192.101    0.194    0.473  111.762    5.817
  192.401    0.186    0.484  113.602    5.934
  192.701    0.199    0.482  113.015    6.172
  193.001    0.177    0.461  113.033    6.181
  193.301    0.175    0.445  113.053    5.741
  193.601    0.192    0.446  115.502    4.418
  193.901    0.198    0.452  116.131    3.095
  194.201    0.186    0.466  113.112    2.567
  194.501    0.201    0.498  110.098    2.297
  194.801    0.236    0.554  107.080    2.389
  195.101    0.259    0.551  101.027    2.531
  195.401    0.230    0.548   96.796    2.891
  195.701    0.232    0.541   99.851    3.431
  196.001    0.196    0.520  101.085    3.775
  196.301    0.194    0.500   97.462    4.313
  196.601    0.185    0.483   98.090    4.570
  196.901    0.175    0.469   99.931    4.664
  197.201    0.188    0.453  100.559    4.671
  197.501    0.206    0.445   98.149    4.505
  197.801    0.213    0.456   98.169    4.030
  198.101    0.202    0.478  101.832    3.605
  198.401    0.189    0.502  107.318    3.543
  198.701    0.185    0.518  110.376    3.684
  199.001    0.197    0.521  110.395    3.761
  199.301    0.200    0.534  107.377    3.766
  199.601    0.214    0.495  101.323    3.433
  199.901    0.228    0.486   99.524    3.189
  200.201    0.217    0.492  103.794    3.075
  200.501    0.213    0.552  112.317    3.080
  200.801    0.209    0.529  112.337    3.086
  201.101    0.193    0.501  112.964    3.148
  201.401    0.199    0.488  110.553    3.094
  201.701    0.185    0.483  119.074    2.985
  202.001    0.201    0.517  121.525    2.933
  202.301    0.207    0.526  122.757    2.937
  202.601    0.216    0.512  123.384    2.998
  202.901    0.215    0.505  119.760    3.059
  203.201    0.199    0.509  114.922    3.242
  203.501    0.195    0.508  110.084    3.436
  203.801    0.195    0.514  108.285    3.641
  204.101    0.183    0.490  107.697    3.715
