~VERSION INFORMATION
 VERS.                 2.0:   CWLS LOG ASCII STANDARD -VERSION 2.0
 WRAP.                  NO:   ONE LINE PER DEPTH STEP
~WELL INFORMATION BLOCK
#MNEM.UNIT           DATA                    DESCRIPTION OF MNEMONIC
#---------    -------------------            -------------------------------
# Generated from Intellog Unique Number	CS_73_76/WELL/2200
WELL.         PEX KIRBY                      : Well_name    - WELL
LOC .         AA/11-10-074-08W4/0            : Location     - LOCATION
UWI .         AA/11-10-074-08W4/0            : Uwi          - UNIQUE WELL ID
ENTR.         SP                             : Entered      - ENTERED BY
SRVC.         SCHLUMBERGER                   : Scn          - SERVICE COMPANY
STRT.M        310                            : top_depth    - START DEPTH
STOP.M        533                            : bot_depth    - STOP DEPTH
STEP.M        0.25                           : increment    - STEP LENGTH
 NULL. -999.2500:NULL Value
~CURVE INFORMATION BLOCK
#MNEM UNIT       ERCB CURVE CODE    CURVE DESCRIPTION
#-----------   ------------------   ----------------------------------
DEPT.M        00 001 00 00         : DEPTH        - DEPTH
ILD .OHMM     00 120 00 00         : RESD         - DEEP RESISTIVITY (DIL)
DPHI.V/V      00 890 00 00         : PHID         - DENSITY POROSITY (LIMESTONE)
NPHI.V/V      00 330 00 00         : PHIN         - NEUTRON POROSITY (LIMESTONE)
GR  .API      00 310 00 00         : GR           - GAMMA RAY
~PARAMETER INFORMATION
#MNEM.UNIT           DATA             DESCRIPTION OF MNEMONIC
#---------         -----------     ------------------------------
GL  .M        692.3                : gl           - GROUND LEVEL ELEVATION
EREF.M        695.8                : kb           - ELEVATION OF DEPTH REFERENCE
DATM.M        692.3                : datum        - DATUM ELEVATION
TDD .M        538                  : tdd          - TOTAL DEPTH DRILLER
RUN .         ONE                  : Run          - RUN NUMBER
ENG .         BILL                 : Engineer     - RECORDING ENGINEER
WIT .         JIM                  : Witness      - WITNESSED BY
MUD .         GEL                  : Mud_type     - MUD TYPE
MATR.         LIMESTONE            : Logunit      - NEUTRON MATRIX
TMAX.C        23                   : BHT          - MAXIMUM RECORDED TEMPERATURE
BHTD.M        538                  : BHTDEP       - MAXIMUM RECORDED TEMPERATURE
MATR.         1                    : LOGUNIT      - NEUTRON MATRIX
RMT .C        25                   : MDTP         - TEMPERATURE OF MUD
NEUT.         1                    : NEUTRON      - NEUTRON TYPE
RESI.         0                    : RESIST       - RESISTIVITY TYPE
RMC .OHMM     0.25                 : RMC          - RESISTIVITY OF MUD CAKE
RMF .OHMM     0.25                 : RMF          - RESISTIVITY OF MUD FILTRATE
SUFT.C        15                   : SUFT         - SURFACE TEMPERATURE
~A  DEPTH     RESD     PHID     PHIN       GR
# ...
  440.500    9.973    0.153    0.289   68.585
  440.750    7.965    0.228    0.401   77.717
  441.000    6.604    0.224    0.436   77.095
  441.250    6.015    0.222    0.461   77.691
  441.500    5.906    0.224    0.454   77.677
  441.750    5.798    0.246    0.469   77.669
  442.000    5.800    0.242    0.487   77.044
  442.250    5.802    0.231    0.463   79.470
  442.500    6.028    0.227    0.441   81.900
  442.750    6.143    0.215    0.458   81.885
  443.000    6.381    0.209    0.449   81.265
  443.250    6.627    0.217    0.436   83.081
  443.500    6.630    0.229    0.425   83.679
  443.750    6.632    0.214    0.414   81.838
  444.000    6.634    0.209    0.419   81.825
  444.250    6.515    0.232    0.429   84.252
  444.500    6.396    0.243    0.430   86.070
  444.750    6.279    0.238    0.429   86.666
  445.000    6.165    0.232    0.426   86.046
  445.250    6.167    0.230    0.419   83.594
  445.500    6.054    0.221    0.435   81.143
  445.750    6.056    0.214    0.441   79.300
  446.000    6.058    0.217    0.448   79.897
  446.250    6.061    0.232    0.464   82.323
  446.500    6.063    0.225    0.453   84.143
  446.750    6.065    0.218    0.428   85.958
  447.000    6.069    0.268    0.452   84.117
  447.250    5.957    0.291    0.484   81.667
  447.500    5.959    0.274    0.486   79.214
  447.750    5.850    0.221    0.429   77.375
  448.000    5.230    0.202    0.402   76.752
  448.250    4.763    0.229    0.447   76.740
  448.500    3.733    0.251    0.471   79.776
  448.750    3.096    0.257    0.474   78.540
  449.000    2.872    0.289    0.476   77.922
  449.250    2.716    0.314    0.478   77.908
  449.500    2.521    0.300    0.490   79.118
  449.750    2.474    0.281    0.514   80.324
  450.000    2.384    0.280    0.478   74.825
  450.250    2.341    0.289    0.470   76.637
  450.500    2.342    0.278    0.489   78.457
  450.750    2.343    0.272    0.505   82.102
  451.000    2.343    0.268    0.503   84.532
  451.250    2.434    0.274    0.510   85.126
  451.500    2.528    0.279    0.499   83.287
  451.750    2.884    0.269    0.516   79.614
  452.000    3.417    0.252    0.531   76.552
  452.250    3.754    0.239    0.511   75.324
  452.500    4.364    0.230    0.456   77.141
  452.750    4.886    0.233    0.420   80.175
  453.000    5.574    0.233    0.436   80.774
  453.250    6.359    0.222    0.455   73.443
  453.500    8.431    0.224    0.442   69.166
  453.750   10.175    0.256    0.452   61.837
  454.000   14.817    0.321    0.404   55.116
  454.250   20.781    0.365    0.360   52.057
  454.500   23.266    0.373    0.309   52.043
  454.750   24.166    0.374    0.315   56.909
  455.000   22.012    0.370    0.339   56.898
  455.250   21.207    0.372    0.349   52.612
  455.500   20.434    0.374    0.328   51.386
  455.750   20.061    0.364    0.322   50.764
  456.000   20.450    0.347    0.344   59.286
  456.250   22.053    0.355    0.365   57.445
  456.500   23.782    0.350    0.364   54.994
  456.750   25.169    0.289    0.359   53.154
  457.000   26.637    0.264    0.344   52.528
  457.250   27.153    0.276    0.343   54.345
  457.500   26.658    0.294    0.380   56.162
  457.750   26.171    0.313    0.410   56.152
  458.000   26.677    0.326    0.439   54.308
  458.250   27.192    0.316    0.457   54.298
  458.500   28.241    0.318    0.444   55.503
  458.750   29.336    0.325    0.426   54.275
  459.000   29.343    0.332    0.430   53.041
  459.250   29.358    0.337    0.429   55.466
  459.500   28.824    0.323    0.429   57.893
  459.750   28.294    0.318    0.428   57.883
  460.000   26.258    0.324    0.420   56.651
  460.250   24.832    0.320    0.441   57.249
  460.500   23.483    0.313    0.454   58.451
  460.750   23.051    0.320    0.447   59.053
  461.000   23.060    0.323    0.451   60.255
  461.250   24.407    0.323    0.447   60.247
  461.500   25.351    0.327    0.433   59.626
  461.750   25.842    0.320    0.423   58.395
  462.000   25.850    0.313    0.427   55.328
  462.250   25.379    0.297    0.427   54.101
  462.500   23.998    0.295    0.417   51.648
  462.750   22.690    0.280    0.402   51.638
  463.000   20.281    0.241    0.385   52.234
  463.250   16.816    0.212    0.409   54.663
  463.500   21.076    0.233    0.470   54.649
  463.750   24.041    0.266    0.488   53.416
  464.000   31.280    0.297    0.429   52.184
  464.250   40.698    0.318    0.423   51.564
  464.500   43.885    0.311    0.418   50.941
  464.750   46.445    0.240    0.362   52.150
  465.000   37.100    0.240    0.329   53.358
  465.250   35.742    0.266    0.422   55.783
  465.500   33.169    0.302    0.465   56.988
  465.750   31.364    0.312    0.483   56.978
  466.000   29.662    0.303    0.467   55.139
  466.250   28.576    0.292    0.436   52.684
  466.500   29.127    0.294    0.417   53.889
  466.750   29.691    0.306    0.415   54.491
  467.000   30.843    0.311    0.410   55.694
  467.250   30.852    0.316    0.398   56.296
  467.500   31.446    0.316    0.413   56.279
  467.750   33.913    0.308    0.410   55.659
  468.000   35.893    0.294    0.422   53.819
  468.250   36.584    0.275    0.443   53.195
  468.500   36.597    0.262    0.448   53.792
  468.750   34.605    0.282    0.441   55.003
  469.000   31.517    0.295    0.425   56.818
  469.250   29.252    0.311    0.431   58.636
  469.500   27.145    0.319    0.426   61.058
  469.750   25.193    0.289    0.443   61.657
  470.000   23.820    0.288    0.456   61.644
  470.250   23.387    0.299    0.445   61.024
  470.500   22.960    0.204    0.401   59.794
  470.750   20.140    0.158    0.360   56.733
  471.000   16.700    0.126    0.357   56.107
  471.250   15.208    0.167    0.363   56.705
  471.500   13.595    0.238    0.362   56.697
  471.750   12.855    0.248    0.341   53.025
  472.000   12.620    0.244    0.337   46.915
  472.250   13.108    0.274    0.365   42.637
  472.500   16.736    0.306    0.389   35.305
  472.750   28.857    0.331    0.406   31.634
  473.000   57.816    0.337    0.412   29.796
  473.250  109.496    0.342    0.417   27.342
  473.500  124.921    0.345    0.421   25.501
  473.750  129.738    0.355    0.395   24.270
  474.000  132.256    0.353    0.373   23.037
  474.250  125.058    0.350    0.389   23.027
  474.500  116.065    0.352    0.410   23.624
  474.750  109.739    0.353    0.422   24.219
  475.000  103.780    0.354    0.424   24.818
  475.250   99.992    0.354    0.407   25.417
  475.500   96.340    0.354    0.394   26.006
  475.750   94.580    0.361    0.396   26.608
  476.000  101.996    0.371    0.407   26.600
  476.250  116.375    0.379    0.407   25.977
  476.500  123.145    0.372    0.404   24.746
  476.750  130.333    0.349    0.405   24.733
  477.000  127.954    0.333    0.415   25.330
  477.250   86.310    0.353    0.425   28.364
  477.500   56.064    0.364    0.415   30.182
  477.750   51.061    0.344    0.393   30.170
  478.000   68.986    0.334    0.411   27.718
  478.250   84.833    0.340    0.410   25.268
  478.500  106.302    0.344    0.388   22.206
  478.750  125.916    0.334    0.377   20.976
  479.000  135.788    0.327    0.382   20.356
  479.250  138.402    0.355    0.400   21.561
  479.500  114.762    0.358    0.410   25.205
  479.750   95.162    0.345    0.414   28.852
  480.000   81.930    0.325    0.396   31.888
  480.250   76.025    0.320    0.385   35.533
  480.500   70.553    0.316    0.386   39.180
  480.750   64.254    0.319    0.386   41.607
  481.000   55.315    0.319    0.382   43.425
  481.250   50.380    0.317    0.388   44.634
  481.500   49.459    0.318    0.391   45.229
  481.750   61.980    0.316    0.397   45.828
  482.000   76.226    0.318    0.413   41.547
  482.250   79.172    0.319    0.420   38.485
  482.500   45.098    0.321    0.408   37.864
  482.750   33.409    0.324    0.393   39.680
  483.000   25.220    0.329    0.370   45.765
  483.250   17.996    0.294    0.349   55.510
  483.500   14.105    0.219    0.335   83.545
  483.750   12.143    0.205    0.330   92.678
