~VERSION INFORMATION
VERS.                2.00:   CWLS LOG ASCII STANDARD -VERSION 2.0
WRAP.                  NO:
~WELL INFORMATION BLOCK
#MNEM.UNIT           DATA                    DESCRIPTION OF MNEMONIC
#---------    -------------------            -------------------------------
# Generated from Intellog Unique Number	CC_80_83/WELL/2471
LOC .         00/10-22-083-08W4/0            : Location     - LOCATION
UWI .         00/10-22-083-08W4/0            : Uwi          - UNIQUE WELL ID
ENTR.         DW                             : Entered      - ENTERED BY
STRT.M             259.08:
STOP.M             511.83:
STEP.M               0.25:
NULL.             -999.25:
COMP.  :COMPANY
WELL.  ARC0 ET AL SURMONT:WELL
FLD.   :FIELD
LOC.   :LOCATION
CTRY.  :COUNTRY
PROV.  :PROVINCE
SRVC.  SCHLUMBERGER:SERVICE COMPANY
DATE.  :LOG DATE
UWI.   :UNIQUE WELL ID
~PARAMETER INFORMATION
#MNEM.UNIT           DATA             DESCRIPTION OF MNEMONIC
#---------         -----------     ------------------------------
GL  .M        732.13               : gl           - GROUND LEVEL ELEVATION
EREF.M        735.178              : kb           - ELEVATION OF DEPTH REFERENCE
DATM.M        735.178              : datum        - DATUM ELEVATION
TDD .M        515.722              : tdd          - TOTAL DEPTH DRILLER
RUN .         ONE                  : Run          - RUN NUMBER
ENG .         BILL                 : Engineer     - RECORDING ENGINEER
WIT .         JIM                  : Witness      - WITNESSED BY
MUD .         GEL                  : Mud_type     - MUD TYPE
MATR.         SANDSTONE            : Logunit      - NEUTRON MATRIX
TMAX.C        20                   : BHT          - MAXIMUM RECORDED TEMPERATURE
BHTD.M        515.722              : BHTDEP       - MAXIMUM RECORDED TEMPERATURE
MATR.         1                    : LOGUNIT      - NEUTRON MATRIX
RMT .C        25                   : MDTP         - TEMPERATURE OF MUD
NEUT.         1                    : NEUTRON      - NEUTRON TYPE
RESI.         0                    : RESIST       - RESISTIVITY TYPE
RMC .OHMM     0.25                 : RMC          - RESISTIVITY OF MUD CAKE
RMF .OHMM     0.25                 : RMF          - RESISTIVITY OF MUD FILTRATE
SUFT.C        15                   : SUFT         - SURFACE TEMPERATURE
~Curve Information Block
#MNEM UNIT       ERCB CURVE CODE    CURVE DESCRIPTION
#MNEM.UNIT         API CODE    Curve Description
#----------    ------------    --------------------
DEPT.M                     :   DEPTH
DPHI.V/V                   :   DPHI
DT  .us/m                  :   DT
GR  .API       00 310 00 00:   GR
ILD .Ohmm      00 120 00 00:   ILD
NPHI.V/V       00 330 00 00:   NPHI
RHOB.gm/c3                 :   RHOB
~A  Depth           DPHI          DT          GR         ILD        NPHI        RHOB
259.08           -999.25     -999.25       88.90        2.95        0.41     -999.25
259.33           -999.25     -999.25       85.35        2.96        0.41     -999.25
259.58           -999.25     -999.25       88.65        2.93        0.42     -999.25
259.83           -999.25     -999.25       88.75        2.85        0.42     -999.25
260.08           -999.25     -999.25       89.77        2.77        0.41     -999.25
260.33           -999.25     -999.25       97.39        2.74        0.40     -999.25
260.58           -999.25     -999.25      102.47        2.74        0.40     -999.25
260.83           -999.25     -999.25      103.22        2.69        0.39     -999.25
261.08           -999.25     -999.25       97.66        2.71        0.40     -999.25
261.33           -999.25     -999.25       92.11        2.74        0.41     -999.25
261.58           -999.25     -999.25       90.73        2.74        0.39     -999.25
261.83           -999.25     -999.25       90.28        2.74        0.40     -999.25
262.08           -999.25     -999.25       89.42        2.73        0.39     -999.25
262.33           -999.25     -999.25       86.85        2.77        0.39     -999.25
262.58           -999.25     -999.25       85.57        2.82        0.41     -999.25
262.83           -999.25     -999.25       86.28        2.85        0.42     -999.25
263.08           -999.25     -999.25       86.52        2.84        0.42     -999.25
263.33           -999.25     -999.25       85.43        2.84        0.40     -999.25
263.58           -999.25     -999.25       85.09        2.84        0.40     -999.25
263.83           -999.25     -999.25       86.77        2.85        0.41     -999.25
264.08           -999.25     -999.25       88.65        2.83        0.41     -999.25
264.33           -999.25     -999.25       89.17        2.78        0.42     -999.25
264.58           -999.25     -999.25       87.76        2.74        0.45     -999.25
264.83           -999.25     -999.25       84.86        2.74        0.41     -999.25
265.08           -999.25     -999.25       86.97        2.74        0.41     -999.25
265.33           -999.25     -999.25       87.69        2.74        0.41     -999.25
265.58           -999.25     -999.25       84.94        2.73        0.39     -999.25
265.83           -999.25     -999.25       84.60        2.68        0.40     -999.25
266.08           -999.25     -999.25       86.24        2.64        0.43     -999.25
266.33           -999.25     -999.25       80.43        2.60        0.44     -999.25
266.58           -999.25     -999.25       83.89        2.56        0.41     -999.25
266.83           -999.25     -999.25       88.62        2.52        0.40     -999.25
267.08           -999.25     -999.25       84.05        2.48        0.42     -999.25
267.33           -999.25     -999.25       77.79        2.44        0.43     -999.25
267.58           -999.25     -999.25       78.42        2.40        0.43     -999.25
267.83           -999.25     -999.25       79.08        2.37        0.44     -999.25
268.08           -999.25     -999.25       77.75        2.32        0.44     -999.25
268.33           -999.25     -999.25       81.42        2.31        0.42     -999.25
268.58           -999.25     -999.25       85.31        2.30        0.40     -999.25
268.83           -999.25     -999.25       80.03        2.26        0.41     -999.25
269.08           -999.25     -999.25       82.39        2.23        0.43     -999.25
269.33           -999.25     -999.25       87.35        2.19        0.42     -999.25
269.58           -999.25     -999.25       84.94        2.18        0.42     -999.25
269.83           -999.25     -999.25       79.46        2.17        0.42     -999.25
270.08           -999.25     -999.25       79.63        2.14        0.40     -999.25
270.33           -999.25     -999.25       82.29        2.14        0.41     -999.25
270.58           -999.25     -999.25       83.88        2.14        0.41     -999.25
270.83           -999.25     -999.25       82.80        2.14        0.41     -999.25
271.08           -999.25     -999.25       80.03        2.14        0.42     -999.25
271.33           -999.25     -999.25       76.84        2.14        0.42     -999.25
271.58           -999.25     -999.25       75.12        2.14        0.42     -999.25
271.83           -999.25     -999.25       77.71        2.17        0.40     -999.25
272.08           -999.25     -999.25       79.35        2.21        0.40     -999.25
272.33           -999.25     -999.25       82.24        2.23        0.43     -999.25
272.58           -999.25     -999.25       85.07        2.30        0.43     -999.25
272.83           -999.25     -999.25       84.37        2.47        0.41     -999.25
273.08           -999.25     -999.25       82.83        2.67        0.40     -999.25
273.33           -999.25     -999.25       81.57        2.84        0.40     -999.25
273.58           -999.25     -999.25       81.80        3.08        0.39     -999.25
273.83           -999.25     -999.25       82.13        3.25        0.39     -999.25
274.08           -999.25     -999.25       83.41        3.34        0.39     -999.25
274.33           -999.25     -999.25       86.60        3.45        0.38     -999.25
274.58           -999.25     -999.25       87.59        3.45        0.39     -999.25
274.83           -999.25     -999.25       89.61        3.40        0.41     -999.25
275.08           -999.25     -999.25       92.84        3.37        0.39     -999.25
275.33           -999.25     -999.25       91.02        3.39        0.37     -999.25
275.58           -999.25     -999.25       85.44        3.46        0.38     -999.25
275.83           -999.25     -999.25       84.78        3.57        0.36     -999.25
276.08           -999.25     -999.25       81.95        3.69        0.35     -999.25
276.33           -999.25     -999.25       79.11        3.78        0.34     -999.25
276.58           -999.25     -999.25       78.38        3.78        0.33     -999.25
276.83           -999.25     -999.25       79.67        3.69        0.34     -999.25
277.08           -999.25     -999.25       82.48        3.57        0.36     -999.25
277.33           -999.25     -999.25       84.42        3.52        0.38     -999.25
277.58           -999.25     -999.25       80.12        3.51        0.40     -999.25
277.83           -999.25     -999.25       78.20        3.51        0.41     -999.25
278.08           -999.25     -999.25       79.65        3.53        0.41     -999.25
278.33           -999.25     -999.25       79.78        3.59        0.41     -999.25
278.58           -999.25     -999.25       80.39        3.71        0.38     -999.25
278.83           -999.25     -999.25       83.99        4.01        0.38     -999.25
279.08           -999.25     -999.25       86.29        4.31        0.38     -999.25
279.33           -999.25     -999.25       87.10        4.52        0.37     -999.25
279.58           -999.25     -999.25       83.43        4.59        0.37     -999.25
279.83           -999.25     -999.25       74.84        4.38        0.37     -999.25
280.08           -999.25     -999.25       71.15        3.91        0.33     -999.25
280.33           -999.25     -999.25       73.38        3.68        0.34     -999.25
280.58           -999.25     -999.25       77.99        3.60        0.38     -999.25
280.83           -999.25     -999.25       82.15        3.78        0.39     -999.25
281.08           -999.25     -999.25       78.45        4.16        0.35     -999.25
281.33           -999.25     -999.25       64.99        4.67        0.33     -999.25
281.58           -999.25     -999.25       60.37        6.62        0.33     -999.25
281.83           -999.25     -999.25       62.86       10.59        0.32     -999.25
282.08           -999.25     -999.25       65.52       12.11        0.30     -999.25
282.33           -999.25     -999.25       66.55       11.21        0.29     -999.25
282.58           -999.25     -999.25       67.67       10.17        0.32     -999.25
