~VERSION INFORMATION
 VERS.                 2.0:   CWLS LOG ASCII STANDARD -VERSION 2.0
 WRAP.                  NO:   ONE LINE PER DEPTH STEP
~WELL INFORMATION BLOCK
#MNEM.UNIT           DATA                    DESCRIPTION OF MNEMONIC
#---------    -------------------            -------------------------------
# Generated from Intellog Unique Number	CS_73_76/WELL/3258
WELL.         11-08-075-05W4                 : Well_name    - WELL
LOC .         00/11-08-075-05W4/0            : Location     - LOCATION
UWI .         00/11-08-075-05W4/0            : Uwi          - UNIQUE WELL ID
ENTR.         SP                             : Entered      - ENTERED BY
SRVC.         SCHLUMBERGER                   : Scn          - SERVICE COMPANY
STRT.M        240                            : top_depth    - START DEPTH
STOP.M        480                            : bot_depth    - STOP DEPTH
STEP.M        0.25                           : increment    - STEP LENGTH
 NULL. -999.2500:NULL Value
~CURVE INFORMATION BLOCK
#MNEM UNIT       ERCB CURVE CODE    CURVE DESCRIPTION
#-----------   ------------------   ----------------------------------
DEPT.M        00 001 00 00         : DEPTH        - DEPTH
ILD .OHMM     00 120 00 00         : RESD         - DEEP RESISTIVITY (DIL)
DPHI.V/V      00 890 00 00         : PHID         - DENSITY POROSITY (LIMESTONE)
NPHI.V/V      00 330 00 00         : PHIN         - NEUTRON POROSITY (LIMESTONE)
GR  .API      00 310 00 00         : GR           - GAMMA RAY
~PARAMETER INFORMATION
#MNEM.UNIT           DATA             DESCRIPTION OF MNEMONIC
#---------         -----------     ------------------------------
GL  .M        636.15               : gl           - GROUND LEVEL ELEVATION
EREF.M        639.43               : kb           - ELEVATION OF DEPTH REFERENCE
DATM.M        636.15               : datum        - DATUM ELEVATION
TDD .M        483.5                : tdd          - TOTAL DEPTH DRILLER
RUN .         ONE                  : Run          - RUN NUMBER
ENG .         BILL                 : Engineer     - RECORDING ENGINEER
WIT .         JIM                  : Witness      - WITNESSED BY
MUD .         GEL                  : Mud_type     - MUD TYPE
MATR.         LIMESTONE            : Logunit      - NEUTRON MATRIX
TMAX.C        25                   : BHT          - MAXIMUM RECORDED TEMPERATURE
BHTD.M        483.5                : BHTDEP       - MAXIMUM RECORDED TEMPERATURE
MATR.         1                    : LOGUNIT      - NEUTRON MATRIX
RMT .C        25                   : MDTP         - TEMPERATURE OF MUD
NEUT.         1                    : NEUTRON      - NEUTRON TYPE
RESI.         0                    : RESIST       - RESISTIVITY TYPE
RMC .OHMM     0.25                 : RMC          - RESISTIVITY OF MUD CAKE
RMF .OHMM     0.25                 : RMF          - RESISTIVITY OF MUD FILTRATE
SUFT.C        15                   : SUFT         - SURFACE TEMPERATURE
~A  DEPTH     RESD     PHID     PHIN       GR
# ...
  327.000    1.918    0.194    0.425  100.262
  327.250    1.918    0.201    0.430  100.272
  327.500    1.919    0.215    0.407   94.186
  327.750    1.919    0.245    0.395   87.487
  328.000    1.920    0.264    0.381   76.521
  328.250    1.885    0.258    0.379   72.871
  328.500    1.885    0.276    0.377   74.711
  328.750    1.885    0.287    0.392   75.939
  329.000    1.851    0.285    0.404   76.559
  329.250    1.851    0.294    0.413   72.300
  329.500    1.817    0.299    0.415   68.650
  329.750    1.817    0.286    0.398   70.493
  330.000    1.818    0.272    0.391   71.108
  330.250    1.818    0.275    0.403   73.558
  330.500    1.853    0.276    0.401   74.787
  330.750    1.854    0.281    0.390   74.186
  331.000    1.889    0.283    0.413   77.246
  331.250    1.926    0.281    0.424   79.083
  331.500    1.963    0.286    0.424   79.094
  331.750    2.001    0.293    0.405   78.493
  332.000    2.158    0.291    0.394   77.894
  332.250    2.241    0.189    0.387   78.514
  332.500    2.418    0.183    0.408   79.741
  332.750    2.608    0.181    0.434   82.190
  333.000    2.867    0.282    0.451   84.029
  333.250    2.977    0.287    0.464   85.866
  333.500    3.092    0.250    0.448   87.096
  333.750    3.152    0.209    0.440   85.885
  334.000    3.213    0.202    0.429   84.675
  334.250    3.214    0.230    0.431   87.123
  334.500    3.276    0.232    0.418   88.352
  334.750    3.276    0.213    0.405   87.145
  335.000    3.277    0.204    0.397   85.323
  335.250    3.341    0.206    0.394   81.065
  335.500    3.341    0.214    0.395   79.244
  335.750    3.406    0.213    0.399   82.912
  336.000    3.406    0.207    0.401   85.970
  336.250    3.472    0.201    0.400   84.153
  336.500    3.473    0.196    0.411   86.600
  336.750    3.474    0.196    0.433   92.099
  337.000    3.410    0.198    0.441   89.057
  337.250    3.347    0.203    0.438   87.848
  337.500    3.224    0.187    0.433   90.906
  337.750    3.164    0.221    0.431   89.091
  338.000    3.106    0.255    0.421   87.268
  338.250    3.048    0.282    0.411   85.451
  338.500    3.049    0.235    0.400   84.847
  338.750    3.108    0.210    0.400   86.076
  339.000    3.168    0.221    0.396   89.745
  339.250    3.169    0.199    0.393   89.756
  339.500    3.230    0.189    0.390   90.375
  339.750    3.231    0.175    0.423   89.774
  340.000    3.171    0.171    0.437   88.561
  340.250    3.112    0.186    0.439   87.965
  340.500    3.055    0.198    0.429   90.413
  340.750    2.998    0.192    0.413   92.861
  341.000    2.943    0.173    0.405   94.699
  341.250    2.889    0.157    0.402   96.538
  341.500    2.835    0.160    0.397   95.329
  341.750    2.731    0.175    0.408   91.678
  342.000    2.581    0.189    0.410   88.639
  342.250    2.394    0.195    0.415   88.648
  342.500    2.263    0.208    0.423   89.267
  342.750    2.180    0.217    0.426   87.451
  343.000    2.060    0.252    0.442   86.846
  343.250    2.022    0.275    0.461   91.126
  343.500    1.985    0.230    0.456   94.793
  343.750    1.986    0.254    0.456   97.851
  344.000    1.986    0.271    0.462   97.861
  344.250    1.986    0.263    0.454   95.430
  344.500    1.950    0.233    0.448   93.001
  344.750    1.914    0.222    0.446   93.011
  345.000    1.879    0.246    0.446   96.069
  345.250    1.809    0.270    0.451   95.469
  345.500    1.743    0.270    0.443   94.869
  345.750    1.647    0.237    0.428   93.660
  346.000    1.557    0.206    0.405   91.231
  346.250    1.417    0.201    0.390   86.971
  346.500    1.290    0.231    0.378   84.541
  346.750    1.196    0.266    0.357   83.941
  347.000    1.220    0.285    0.342   79.073
  347.250    1.392    0.307    0.327   71.765
  347.500    1.682    0.297    0.314   68.728
  347.750    1.883    0.212    0.288   66.299
  348.000    2.150    0.085    0.255   62.039
  348.250    2.071    0.007    0.267   61.438
  348.500    1.683    0.129    0.303   65.108
  348.750    1.532    0.169    0.342   67.555
  349.000    1.269    0.211    0.363   64.517
  349.250    1.112    0.264    0.371   63.913
  349.500    1.012    0.277    0.380   62.709
  349.750    0.994    0.288    0.380   62.717
  350.000    1.032    0.281    0.372   62.725
  350.250    1.092    0.270    0.367   62.122
  350.500    1.156    0.271    0.358   58.474
  350.750    1.179    0.265    0.354   55.434
  351.000    1.201    0.266    0.359   53.614
  351.250    1.179    0.268    0.372   53.624
  351.500    1.179    0.281    0.383   53.635
  351.750    1.158    0.273    0.374   56.086
  352.000    1.115    0.267    0.366   57.922
  352.250    1.115    0.252    0.358   59.150
  352.500    1.095    0.250    0.346   59.160
  352.750    1.054    0.245    0.353   58.559
  353.000    1.016    0.247    0.360   59.791
  353.250    0.997    0.250    0.364   60.408
  353.500    0.960    0.258    0.357   59.198
  353.750    0.942    0.267    0.355   59.207
  354.000    0.925    0.271    0.354   61.050
  354.250    0.925    0.258    0.356   61.664
  354.500    0.926    0.262    0.370   61.676
  354.750    0.943    0.279    0.364   59.245
  355.000    1.037    0.280    0.362   56.207
  355.250    1.077    0.289    0.359   58.655
  355.500    1.162    0.304    0.359   62.322
  355.750    1.162    0.316    0.373   64.770
  356.000    1.141    0.322    0.383   62.343
  356.250    1.078    0.321    0.394   61.134
  356.500    1.000    0.310    0.394   61.143
  356.750    0.945    0.324    0.384   62.979
  357.000    0.910    0.328    0.378   62.382
  357.250    0.877    0.310    0.373   62.389
  357.500    0.861    0.299    0.365   64.840
  357.750    0.845    0.297    0.369   65.457
  358.000    0.845    0.307    0.367   63.639
  358.250    0.861    0.296    0.360   62.429
  358.500    0.895    0.301    0.368   62.437
  358.750    0.947    0.285    0.367   62.446
  359.000    0.965    0.280    0.362   64.896
  359.250    1.061    0.267    0.353   69.177
  359.500    1.144    0.251    0.346   71.622
  359.750    1.234    0.245    0.348   75.293
  360.000    1.306    0.238    0.364   77.128
  360.250    1.409    0.235    0.374   79.576
  360.500    1.549    0.238    0.383   80.196
  360.750    1.609    0.254    0.382   80.204
  361.000    1.703    0.258    0.389   83.264
  361.250    1.803    0.251    0.396   84.493
  361.500    1.837    0.248    0.405   83.893
  361.750    1.908    0.232    0.406   84.511
  362.000    1.982    0.217    0.410   86.961
  362.250    2.021    0.212    0.410   88.801
  362.500    2.099    0.241    0.412   89.418
  362.750    2.180    0.258    0.416   89.427
  363.000    2.222    0.232    0.415   90.656
  363.250    2.265    0.204    0.417   89.447
  363.500    2.352    0.196    0.418   89.459
  363.750    2.309    0.204    0.417   90.075
  364.000    2.266    0.194    0.421   91.306
  364.250    2.225    0.188    0.418   92.533
  364.500    2.143    0.210    0.416   93.763
  364.750    2.103    0.247    0.427   93.164
  365.000    1.988    0.313    0.441   92.561
  365.250    1.879    0.353    0.439   92.574
  365.500    1.810    0.251    0.421   93.190
  365.750    1.743    0.236    0.402   89.543
  366.000    1.744    0.228    0.385   84.674
  366.250    1.711    0.235    0.371   78.588
  366.500    1.712    0.260    0.365   76.155
  366.750    1.745    0.276    0.369   70.679
  367.000    1.812    0.283    0.402   68.247
  367.250    1.847    0.292    0.389   64.598
  367.500    1.883    0.289    0.380   63.389
  367.750    1.883    0.280    0.396   63.398
  368.000    1.884    0.276    0.390   66.458
  368.250    1.849    0.286    0.375   66.466
  368.500    1.781    0.291    0.368   64.646
  368.750    1.715    0.293    0.360   65.267
  369.000    1.621    0.289    0.347   66.495
  369.250    1.504    0.283    0.342   67.723
  369.500    1.422    0.288    0.341   70.173
  369.750    1.344    0.300    0.347   70.182
  370.000    1.294    0.298    0.349   70.193
  370.250    1.270    0.309    0.358   68.373
