~VERSION INFORMATION
 VERS.                 2.0:   CWLS LOG ASCII STANDARD -VERSION 2.0
 WRAP.                  NO:   ONE LINE PER DEPTH STEP
~WELL INFORMATION BLOCK
#MNEM.UNIT           DATA                    DESCRIPTION OF MNEMONIC
#---------    -------------------            -------------------------------
# Generated from Intellog Unique Number	CS_77_79/WELL/3301
WELL.         TRITON CANADA RESOURCES LTD.   : Well_name    - WELL
LOC .         00/10-29-079-10W4/0            : Location     - LOCATION
UWI .         00/10-29-079-10W4/0            : Uwi          - UNIQUE WELL ID
ENTR.         JOETTE                         : Entered      - ENTERED BY
SRVC.         SCHLUMBERGER                   : Scn          - SERVICE COMPANY
DATE.         08/24/92                       : Date         - LOG DATE
STRT.M        250                            : top_depth    - START DEPTH
STOP.M        465                            : bot_depth    - STOP DEPTH
STEP.M        0.25                           : increment    - STEP LENGTH
 NULL. -999.2500:NULL Value
~CURVE INFORMATION BLOCK
#MNEM UNIT       ERCB CURVE CODE    CURVE DESCRIPTION
#-----------   ------------------   ----------------------------------
DEPT.M        00 001 00 00         : DEPTH        - DEPTH
GR  .API      00 310 00 00         : GR           - GAMMA RAY
NPHI.V/V      00 330 00 00         : PHIN         - NEUTRON POROSITY (SANDSTONE)
DPHI.V/V      00 890 00 00         : PHID         - DENSITY POROSITY (SANDSTONE)
ILD .OHMM     00 120 00 00         : RESD         - DEEP RESISTIVITY (DIL)
~PARAMETER INFORMATION
#MNEM.UNIT           DATA             DESCRIPTION OF MNEMONIC
#---------         -----------     ------------------------------
GL  .M        664.8                : gl           - GROUND LEVEL ELEVATION
EREF.M        666.5                : kb           - ELEVATION OF DEPTH REFERENCE
DATM.M        666.5                : datum        - DATUM ELEVATION
TDD .M        473                  : tdd          - TOTAL DEPTH DRILLER
RUN .         ONE                  : Run          - RUN NUMBER
ENG .         BILL                 : Engineer     - RECORDING ENGINEER
WIT .         JIM                  : Witness      - WITNESSED BY
MUD .         GEL                  : Mud_type     - MUD TYPE
MATR.         SANDSTONE            : Logunit      - NEUTRON MATRIX
TMAX.C        25                   : BHT          - MAXIMUM RECORDED TEMPERATURE
BHTD.M        473                  : BHTDEP       - MAXIMUM RECORDED TEMPERATURE
MATR.         1                    : LOGUNIT      - NEUTRON MATRIX
RMT .C        4.44                 : MDTP         - TEMPERATURE OF MUD
NEUT.         1                    : NEUTRON      - NEUTRON TYPE
RESI.         0                    : RESIST       - RESISTIVITY TYPE
RMC .OHMM     5.98                 : RMC          - RESISTIVITY OF MUD CAKE
RMF .OHMM     6.46                 : RMF          - RESISTIVITY OF MUD FILTRATE
SUFT.C        15                   : SUFT         - SURFACE TEMPERATURE
~A  DEPTH       GR     PHIN     PHID     RESD
  250.000  100.069    0.389    0.218    7.370
  250.250   99.537    0.396    0.216    7.243
  250.500  100.196    0.405    0.212    7.385
  250.750  102.605    0.399    0.214    7.811
  251.000  103.263    0.399    0.222    8.112
  251.250  102.115    0.400    0.228    8.742
  251.500   96.289    0.394    0.214    9.249
  251.750   92.815    0.393    0.204    9.428
  252.000  100.518    0.400    0.210    9.791
  252.250   97.633    0.407    0.215    9.801
  252.500   89.454    0.396    0.223    9.458
  252.750   89.510    0.396    0.231    8.961
  253.000   91.345    0.402    0.218    8.642
  253.250   94.917    0.403    0.200    7.746
  253.500   99.693    0.413    0.200    7.074
  253.750  101.514    0.431    0.201    6.952
  254.000  105.687    0.421    0.209    6.957
  254.250  106.346    0.416    0.214    6.963
  254.500  104.623    0.424    0.221    6.972
  254.750  105.856    0.419    0.216    6.853
  255.000  108.279    0.414    0.210    6.738
  255.250  110.114    0.428    0.211    6.620
  255.500  110.758    0.444    0.216    6.625
  255.750  109.652    0.457    0.220    6.880
  256.000  109.091    0.467    0.221    7.548
  256.250  105.632    0.466    0.218    9.251
  256.500  102.145    0.460    0.220   14.671
  256.750   95.730    0.421    0.226   17.980
  257.000   84.008    0.381    0.259   21.238
  257.250   65.241    0.366    0.311   24.187
  257.500   55.283    0.361    0.321   26.060
  257.750   54.162    0.367    0.327   26.570
  258.000   53.042    0.377    0.343   27.096
  258.250   55.465    0.381    0.347   27.129
  258.500   62.594    0.375    0.350   27.149
  258.750   62.062    0.384    0.349   27.169
  259.000   62.706    0.394    0.337   27.714
  259.250   63.939    0.386    0.333   28.242
  259.500   59.877    0.375    0.333   29.343
  259.750   58.743    0.375    0.338   29.903
  260.000   58.813    0.378    0.342   30.488
  260.250   56.502    0.385    0.344   29.969
  260.500   48.911    0.368    0.338   27.869
  260.750   38.968    0.357    0.330   25.445
  261.000   39.612    0.373    0.328   23.237
  261.250   47.903    0.398    0.316   23.254
  261.500   52.105    0.398    0.323   24.149
  261.750   49.794    0.379    0.332   26.515
  262.000   43.380    0.364    0.337   27.522
  262.250   38.730    0.366    0.343   29.112
  262.500   37.008    0.364    0.342   30.809
  262.750   34.725    0.357    0.336   31.987
  263.000   33.590    0.346    0.327   32.605
  263.250   33.086    0.356    0.307   33.251
  263.500   34.907    0.364    0.277   33.910
  263.750   33.199    0.362    0.277   33.935
  264.000   34.431    0.371    0.292   33.968
  264.250   38.591    0.384    0.306   34.017
  264.500   41.000    0.382    0.315   34.034
  264.750   38.129    0.388    0.326   34.076
  265.000   31.112    0.387    0.332   33.495
  265.250   28.227    0.382    0.336   32.909
  265.500   30.048    0.374    0.339   32.332
  265.750   33.648    0.368    0.344   31.782
  266.000   33.129    0.360    0.348   30.663
  266.250   32.597    0.361    0.340   30.126
  266.500   35.595    0.373    0.344   29.613
  266.750   37.415    0.381    0.350   29.649
  267.000   38.060    0.384    0.354   29.671
  267.250   36.351    0.382    0.348   29.707
  267.500   34.054    0.380    0.349   29.743
  267.750   32.346    0.375    0.356   30.310
  268.000   31.225    0.367    0.359   30.911
  268.250   31.267    0.370    0.355   31.508
  268.500   31.324    0.379    0.352   31.554
  268.750   32.556    0.384    0.351   31.577
  269.000   34.391    0.386    0.352   31.616
  269.250   36.212    0.386    0.353   31.062
  269.500   36.856    0.386    0.357   30.540
  269.750   36.324    0.375    0.358   30.555
  270.000   35.792    0.375    0.359   28.950
  270.250   35.862    0.381    0.359   27.422
  270.500   36.492    0.390    0.358   24.574
  270.750   37.151    0.401    0.353   21.231
  271.000   38.398    0.387    0.353   18.347
  271.250   39.630    0.387    0.356   17.706
  271.500   42.025    0.419    0.354   17.715
  271.750   50.905    0.446    0.318   19.445
  272.000   57.445    0.465    0.302   21.340
  272.250   62.207    0.425    0.341   22.567
  272.500   51.087    0.416    0.353   25.232
  272.750   41.717    0.404    0.363   26.197
  273.000   35.905    0.402    0.357   27.212
  273.250   38.314    0.397    0.363   27.239
  273.500   34.827    0.388    0.373   26.768
  273.750   32.530    0.394    0.377   24.905
  274.000   31.998    0.405    0.374   24.017
  274.250   33.819    0.420    0.367   23.183
  274.500   40.962    0.431    0.366   23.195
  274.750   41.592    0.417    0.372   23.217
  275.000   41.074    0.402    0.371   24.565
  275.250   38.175    0.388    0.363   25.504
  275.500   32.937    0.374    0.353   26.003
  275.750   30.640    0.394    0.346   26.029
  276.000   34.814    0.393    0.347   26.060
  276.250   36.635    0.395    0.350   26.092
  276.500   35.514    0.405    0.347   26.111
  276.750   30.879    0.391    0.342   26.635
  277.000   26.817    0.374    0.346   26.648
  277.250   27.462    0.380    0.347   26.687
  277.500   31.033    0.392    0.352   25.735
  277.750   30.529    0.387    0.359   23.933
  278.000   29.997    0.399    0.358   22.669
  278.250   30.627    0.414    0.354   23.542
  278.500   33.624    0.391    0.354   24.009
  278.750   30.165    0.376    0.350   24.472
  279.000   29.633    0.373    0.353   23.186
  279.250   30.866    0.370    0.356   22.365
  279.500   34.437    0.387    0.337   20.803
  279.750   41.566    0.406    0.328   19.356
  280.000   45.754    0.418    0.334   18.670
  280.250   42.869    0.410    0.346   18.684
  280.500   39.382    0.410    0.355   19.408
  280.750   30.614    0.409    0.352   19.782
  281.000   28.331    0.399    0.345   20.174
  281.250   29.564    0.395    0.332   19.465
  281.500   35.488    0.432    0.313   18.097
  281.750   47.911    0.406    0.310   15.635
  282.000   48.556    0.406    0.317   14.810
  282.250   52.730    0.453    0.295   15.666
  282.500   71.035    0.491    0.286   16.269
  282.750   79.340    0.488    0.289   15.992
  283.000   76.441    0.449    0.299   15.429
  283.250   71.791    0.435    0.306   14.348
  283.500   75.377    0.416    0.306   12.858
  283.750   86.624    0.453    0.300   10.515
  284.000   88.444    0.417    0.292    9.598
  284.250   88.514    0.418    0.288    9.434
  284.500   89.747    0.530    0.288    9.800
  284.750   93.921    0.508    0.292   10.369
  285.000   97.520    0.498    0.294   10.566
  285.250   96.400    0.487    0.296   11.182
  285.500   94.089    0.490    0.296   11.395
  285.750   91.806    0.504    0.294   11.837
  286.000   91.862    0.506    0.290   11.846
  286.250   90.756    0.495    0.288   11.863
  286.500   90.196    0.489    0.285   11.872
  286.750   88.501    0.487    0.279   11.880
  287.000   92.087    0.489    0.271   11.678
  287.250   94.496    0.499    0.264   11.270
  287.500   92.199    0.498    0.262   11.072
  287.750   89.300    0.487    0.272   10.297
  288.000   87.003    0.476    0.278    8.896
  288.250   85.883    0.468    0.273    7.548
  288.500   84.791    0.491    0.273    7.694
  288.750   84.847    0.495    0.283    8.762
  289.000   90.771    0.481    0.299   11.991
  289.250   99.651    0.456    0.314   12.452
  289.500   84.427    0.454    0.308   13.172
  289.750   88.587    0.448    0.305   13.679
  290.000   91.584    0.426    0.310   13.692
  290.250   90.478    0.443    0.304   13.706
  290.500   88.769    0.485    0.302   13.469
  290.750   83.517    0.541    0.379   14.781
  291.000   70.632    0.388    0.433   18.451
  291.250   59.498    0.383    0.385   21.795
  291.500   51.907    0.381    0.348   24.827
  291.750   47.859    0.381    0.328   25.319
  292.000   44.386    0.381    0.319   25.331
  292.250   46.207    0.386    0.327   25.356
  292.500   43.910    0.395    0.324   25.858
  292.750   45.717    0.400    0.327   25.877
  293.000   47.566    0.404    0.334   25.909
  293.250   45.871    0.407    0.348   25.928
