~VERSION INFORMATION
 VERS.                 2.0:   CWLS LOG ASCII STANDARD -VERSION 2.0
 WRAP.                  NO:   ONE LINE PER DEPTH STEP
~WELL INFORMATION BLOCK
#MNEM.UNIT           DATA                    DESCRIPTION OF MNEMONIC
#---------    -------------------            -------------------------------
# Generated from Intellog Unique Number	CW_79_81/WELL/903
WELL.         11-12-079-25W4                 : Well_name    - WELL
LOC .         00/11-12-079-25W4/0            : Location     - LOCATION
UWI .         00/11-12-079-25W4/0            : Uwi          - UNIQUE WELL ID
ENTR.         MAX                            : Entered      - ENTERED BY
SRVC.         SCHLUMBERGER                   : Scn          - SERVICE COMPANY
STRT.M        240                            : top_depth    - START DEPTH
STOP.M        455                            : bot_depth    - STOP DEPTH
STEP.M        0.25                           : increment    - STEP LENGTH
 NULL. -999.2500:NULL Value
~CURVE INFORMATION BLOCK
#MNEM UNIT       ERCB CURVE CODE    CURVE DESCRIPTION
#-----------   ------------------   ----------------------------------
DEPT.M        00 001 00 00         : DEPTH        - DEPTH
ILD .OHMM     00 120 00 00         : RESD         - DEEP RESISTIVITY (DIL)
NPHI.V/V      00 330 00 00         : PHIN         - NEUTRON POROSITY (SANDSTONE)
DPHI.V/V      00 890 00 00         : PHID         - DENSITY POROSITY (SANDSTONE)
CALI.MM       00 280 01 00         : CAL          - CALIPER
GR  .API      00 310 00 00         : GR           - GAMMA RAY
~PARAMETER INFORMATION
#MNEM.UNIT           DATA             DESCRIPTION OF MNEMONIC
#---------         -----------     ------------------------------
GL  .M        559.5                : gl           - GROUND LEVEL ELEVATION
EREF.M        563                  : kb           - ELEVATION OF DEPTH REFERENCE
DATM.M        559.5                : datum        - DATUM ELEVATION
TDD .M        455                  : tdd          - TOTAL DEPTH DRILLER
RUN .         ONE                  : Run          - RUN NUMBER
ENG .         BILL                 : Engineer     - RECORDING ENGINEER
WIT .         JIM                  : Witness      - WITNESSED BY
MUD .         GEL                  : Mud_type     - MUD TYPE
MATR.         SANDSTONE            : Logunit      - NEUTRON MATRIX
TMAX.C        27.2                 : BHT          - MAXIMUM RECORDED TEMPERATURE
BHTD.M        455                  : BHTDEP       - MAXIMUM RECORDED TEMPERATURE
RMT .C        12.2                 : MDTP         - TEMPERATURE OF MUD
MUDD.KG/M     1080                 : MWT          - MUD DENSITY
NEUT.         1                    : NEUTRON      - NEUTRON TYPE
RESI.         0                    : RESIST       - RESISTIVITY TYPE
RM  .OHMM     5.14                 : RM           - RESISTIVITY OF MUD
RMC .OHMM     0                    : RMC          - RESISTIVITY OF MUD CAKE
RMF .OHMM     5.24                 : RMF          - RESISTIVITY OF MUD FILTRATE
SUFT.C        -20                  : SUFT         - SURFACE TEMPERATURE
~A  DEPTH     RESD     PHIN     PHID      CAL       GR
# ...
  276.500   10.832    0.391    0.252  231.092   97.952
  276.750    9.179    0.402    0.253  231.140  100.380
  277.000    7.027    0.405    0.247  230.677  101.612
  277.250    5.738    0.405    0.242  230.720   99.834
  277.500    4.475    0.435    0.250  230.768  100.458
  277.750    3.723    0.464    0.264  231.323  101.386
  278.000    3.524    0.492    0.264  231.355  104.119
  278.250    3.761    0.463    0.252  231.398   99.633
  278.500    4.126    0.474    0.262  231.948   86.124
  278.750    5.057    0.461    0.279  232.492   78.929
  279.000    5.973    0.433    0.291  233.031   75.646
  279.250    6.375    0.420    0.292  233.074   75.381
  279.500    5.924    0.421    0.266  233.123   75.400
  279.750    4.620    0.448    0.251  233.166   76.028
  280.000    4.138    0.462    0.242  232.702   78.159
  280.250    3.953    0.483    0.245  232.745   81.797
  280.500    4.141    0.495    0.259  233.796   85.729
  280.750    5.414    0.484    0.277  234.841   84.853
  281.000    6.697    0.479    0.286  235.882   80.067
  281.250    9.781    0.494    0.297  234.426   75.584
  281.500   12.211    0.470    0.311  231.963   68.388
  281.750   13.902    0.433    0.315  229.505   61.199
  282.000   14.431    0.416    0.309  229.041   58.812
  282.250   13.659    0.407    0.300  229.084   59.449
  282.500   10.554    0.414    0.307  229.634   61.276
  282.750    8.006    0.413    0.325  230.184   64.009
  283.000    6.974    0.410    0.330  230.728   66.140
  283.250    6.663    0.424    0.318  231.768   67.065
  283.500    6.917    0.458    0.288  232.312   67.996
  283.750    7.659    0.461    0.283  234.360   65.312
  284.000   10.105    0.436    0.273  235.907   55.714
  284.250   11.087    0.385    0.151  235.444   56.040
  284.500   13.842    0.418    0.208  233.983   62.686
  284.750   15.759    0.456    0.314  233.530   61.806
  285.000   17.289    0.422    0.340  233.568   60.930
  285.250   19.502    0.412    0.344  233.109   61.861
  285.500   20.432    0.428    0.340  233.158   60.684
  285.750   20.254    0.434    0.335  233.206   60.105
  286.000   20.262    0.417    0.329  233.244   59.830
  286.250   20.087    0.410    0.316  233.788   61.065
  286.500   20.087    0.408    0.312  234.332   61.091
  286.750   20.105    0.402    0.306  234.877   62.016
  287.000   20.300    0.404    0.307  234.429   60.237
  287.250   20.315    0.412    0.299  234.461   59.661
  287.500   20.322    0.419    0.285  234.008   61.191
  287.750   20.517    0.418    0.284  234.051   59.412
  288.000   20.526    0.404    0.305  234.094   55.528
  288.250   20.726    0.400    0.311  234.137   54.050
  288.500   20.927    0.390    0.304  233.679   56.181
  288.750   20.937    0.386    0.294  233.221   59.516
  289.000   20.755    0.395    0.299  232.757   59.541
  289.250   20.763    0.409    0.315  232.299   58.364
  289.500   20.393    0.412    0.328  232.342   56.285
  289.750   20.028    0.418    0.330  232.385   56.317
  290.000   19.491    0.421    0.327  232.433   58.141
  290.250   19.143    0.418    0.320  232.983   59.069
  290.500   18.976    0.409    0.327  233.527   59.997
  290.750   18.465    0.403    0.333  233.069   59.425
  291.000   16.538    0.422    0.330  233.613   57.044
  291.250   14.143    0.428    0.314  234.659   57.972
  291.500    9.428    0.420    0.310  235.198   64.317
  291.750    7.989    0.415    0.294  236.745   69.453
  292.000    6.405    0.432    0.272  238.793   73.693
  292.250    5.952    0.452    0.259  239.838   77.328
  292.500    5.955    0.458    0.246  239.391   80.969
  292.750    6.125    0.463    0.238  236.421   81.891
  293.000    6.658    0.464    0.266  232.960   79.811
  293.250    8.390    0.452    0.304  232.491   82.547
  293.500   10.188    0.448    0.331  231.543   83.174
  293.750   10.873    0.454    0.331  231.074   81.092
  294.000   12.962    0.472    0.329  229.613   77.508
  294.250   13.581    0.469    0.329  223.651   73.624
  294.500   13.841    0.458    0.322  224.686   74.251
  294.750   14.105    0.442    0.324  229.753   72.773
  295.000   14.110    0.441    0.327  230.798   70.096
  295.250   13.986    0.453    0.324  230.841   69.219
  295.500   13.363    0.456    0.322  230.377   68.944
  295.750   12.648    0.458    0.319  228.922   69.267
  296.000   11.863    0.476    0.308  228.458   70.797
  296.250   11.438    0.473    0.303  228.507   71.732
  296.500   10.927    0.444    0.291  228.049   72.052
  296.750   10.732    0.433    0.288  228.092   73.582
  297.000   10.444    0.450    0.294  232.145   74.516
  297.250   10.352    0.435    0.305  233.697   72.132
  297.500   10.262    0.423    0.299  233.233   73.963
  297.750   10.079    0.438    0.291  233.276   77.601
  298.000    9.719    0.445    0.295  233.314   80.631
  298.250    9.371    0.446    0.300  233.368   80.356
  298.500    9.120    0.432    0.303  232.909   79.179
  298.750    9.039    0.432    0.303  232.947   77.701
  299.000    8.797    0.447    0.281  233.001   79.531
  299.250    8.327    0.456    0.266  233.033   85.272
  299.500    7.955    0.461    0.273  233.082   86.808
  299.750    7.258    0.461    0.278  233.125   91.041
  300.000    6.997    0.460    0.251  234.175   94.075
  300.250    6.810    0.443    0.248  234.213   91.397
  300.500    6.750    0.422    0.251  234.251   87.209
  300.750    6.753    0.439    0.259  234.294   83.625
  301.000    6.818    0.453    0.260  235.339   85.158
  301.250    6.822    0.452    0.245  235.382   86.684
  301.500    6.762    0.440    0.240  235.425   86.710
  301.750    6.521    0.429    0.240  235.468   84.935
  302.000    6.345    0.414    0.249  235.021   82.250
  302.250    6.289    0.412    0.269  234.552   80.475
  302.500    6.351    0.431    0.275  233.107   82.907
  302.750    6.715    0.449    0.257  232.649   86.839
  303.000    6.971    0.446    0.264  233.193   89.876
  303.250    7.170    0.432    0.264  233.727   88.097
  303.500    7.173    0.415    0.263  232.778   88.728
  303.750    7.110    0.412    0.267  232.816   90.254
  304.000    6.984    0.418    0.269  232.853   90.882
  304.250    6.796    0.445    0.263  233.408   91.810
  304.500    6.675    0.474    0.247  233.947   91.234
  304.750    6.495    0.469    0.246  233.990   88.553
  305.000    6.439    0.481    0.245  234.039   86.480
  305.250    6.383    0.480    0.243  234.071   87.101
  305.500    6.327    0.474    0.249  234.125   87.427
  305.750    6.271    0.466    0.258  234.157   89.261
  306.000    6.333    0.471    0.263  234.200   94.396
  306.250    6.514    0.468    0.278  231.742   91.114
  306.500    7.016    0.446    0.301  228.271   77.004
  306.750    7.697    0.443    0.309  225.813   73.120
  307.000    8.926    0.435    0.308  225.850   73.152
  307.250    9.976    0.426    0.304  226.395   73.171
  307.500   10.260    0.427    0.299  226.443   73.197
  307.750   10.360    0.435    0.300  226.987   73.226
  308.000   10.360    0.444    0.306  227.537   73.249
  308.250   10.277    0.441    0.310  228.577   73.278
  308.500    9.907    0.435    0.312  229.132   74.804
  308.750    9.552    0.425    0.315  228.663   76.334
  309.000    9.295    0.439    0.329  227.208   79.370
  309.250    9.129    0.474    0.334  226.749   76.686
  309.500    8.884    0.474    0.333  227.288   72.200
  309.750    8.806    0.458    0.318  225.828   74.034
  310.000    8.810    0.455    0.310  224.873   75.266
  310.250    8.978    0.456    0.293  224.911   71.980
  310.500    9.320    0.432    0.279  226.463   67.792
  310.750    9.946    0.401    0.252  230.010   66.020
  311.000   11.429    0.346    0.190  232.559   66.647
  311.250   13.376    0.327    0.169  234.117   68.177
  311.500   14.274    0.321    0.167  233.658   70.305
  311.750   14.150    0.325    0.186  232.704   72.135
  312.000   13.272    0.353    0.234  232.235   74.570
  312.250   12.332    0.425    0.274  231.782   73.991
  312.500   11.044    0.441    0.289  230.828   70.709
  312.750    9.892    0.452    0.321  230.370   70.133
