~VERSION INFORMATION
 VERS.                 2.0:   CWLS LOG ASCII STANDARD -VERSION 2.0
 WRAP.                  NO:   ONE LINE PER DEPTH STEP
~WELL INFORMATION BLOCK
#MNEM.UNIT           DATA                    DESCRIPTION OF MNEMONIC
#---------    -------------------            -------------------------------
# Generated from Intellog Unique Number	CS_69_70/WELL/2879
WELL.         HUSKY OIL PRODUCTION LTD.      : Well_name    - WELL
LOC .         00/12-28-069-08W4/0            : Location     - LOCATION
UWI .         00/12-28-069-08W4/0            : Uwi          - UNIQUE WELL ID
ENTR.         JOETTE                         : Entered      - ENTERED BY
SRVC.         SCHLUMBERGER                   : Scn          - SERVICE COMPANY
DATE.         05/15/92                       : Date         - LOG DATE
STRT.M        325                            : top_depth    - START DEPTH
STOP.M        575                            : bot_depth    - STOP DEPTH
STEP.M        0.25                           : increment    - STEP LENGTH
 NULL. -999.2500:NULL Value
~CURVE INFORMATION BLOCK
#MNEM UNIT       ERCB CURVE CODE    CURVE DESCRIPTION
#-----------   ------------------   ----------------------------------
DEPT.M        00 001 00 00         : DEPTH        - DEPTH
GR  .API      00 310 00 00         : GR           - GAMMA RAY
CALI.MM       00 280 01 00         : CAL          - CALIPER
ILD .OHMM     00 120 00 00         : RESD         - DEEP RESISTIVITY (DIL)
DPHI.V/V      00 890 00 00         : PHID         - DENSITY POROSITY (SANDSTONE)
NPHI.V/V      00 330 00 00         : PHIN         - NEUTRON POROSITY (SANDSTONE)
~PARAMETER INFORMATION
#MNEM.UNIT           DATA             DESCRIPTION OF MNEMONIC
#---------         -----------     ------------------------------
GL  .M        662.9                : gl           - GROUND LEVEL ELEVATION
EREF.M        666.9                : kb           - ELEVATION OF DEPTH REFERENCE
DATM.M        666.9                : datum        - DATUM ELEVATION
TDD .M        580                  : tdd          - TOTAL DEPTH DRILLER
RUN .         ONE                  : Run          - RUN NUMBER
ENG .         BILL                 : Engineer     - RECORDING ENGINEER
WIT .         JIM                  : Witness      - WITNESSED BY
MUD .         GEL                  : Mud_type     - MUD TYPE
MATR.         SANDSTONE            : Logunit      - NEUTRON MATRIX
TMAX.C        26                   : BHT          - MAXIMUM RECORDED TEMPERATURE
BHTD.M        580                  : BHTDEP       - MAXIMUM RECORDED TEMPERATURE
RMT .C        18                   : MDTP         - TEMPERATURE OF MUD
MUDD.KG/M     1080                 : MWT          - MUD DENSITY
NEUT.         1                    : NEUTRON      - NEUTRON TYPE
RESI.         0                    : RESIST       - RESISTIVITY TYPE
RM  .OHMM     8.55                 : RM           - RESISTIVITY OF MUD
RMC .OHMM     8.57                 : RMC          - RESISTIVITY OF MUD CAKE
RMF .OHMM     8.57                 : RMF          - RESISTIVITY OF MUD FILTRATE
SUFT.C        4                    : SUFT         - SURFACE TEMPERATURE
~A  DEPTH       GR      CAL     RESD     PHID     PHIN
# ...
  507.500   73.984  184.945    6.815    0.203    0.372
  507.750   69.224  182.013    6.948    0.199    0.385
  508.000   63.258  179.137    8.066    0.208    0.394
  508.250   54.861  176.205   11.059    0.235    0.370
  508.500   43.463  172.295   14.081    0.218    0.304
  508.750   30.842  168.385   20.033    0.131    0.267
  509.000   23.668  164.476   24.141    0.088    0.237
  509.250   17.099  162.549   24.172    0.049    0.180
  509.500   12.942  159.673   23.741    0.032    0.152
  509.750    9.407  157.747   22.069    0.032    0.158
  510.000    7.078  157.888   20.516    0.039    0.174
  510.250    6.525  157.973   19.081    0.061    0.187
  510.500    7.197  161.103   19.091    0.084    0.180
  510.750    7.868  162.251   19.110    0.093    0.176
  511.000    6.142  161.358   19.502    0.095    0.174
  511.250    5.573  160.494   19.876    0.096    0.178
  511.500    4.468  160.579   20.641    0.100    0.187
  511.750    4.519  160.748   21.447    0.096    0.192
  512.000    5.190  160.833   22.278    0.088    0.186
  512.250    5.845  160.918   23.135    0.085    0.176
  512.500    7.119  161.060   24.487    0.081    0.173
  512.750    8.998  161.144   25.911    0.080    0.174
  513.000   11.513  161.286   26.915    0.073    0.172
  513.250   13.408  160.365   27.958    0.070    0.167
  513.500   14.046  160.478   27.480    0.062    0.163
  513.750   15.320  160.620   25.539    0.050    0.160
  514.000   17.199  161.767   24.642    0.042    0.161
  514.250   19.697  161.852   23.765    0.046    0.175
  514.500   22.196  163.027   23.365    0.051    0.198
  514.750   25.264  163.084   23.377    0.055    0.191
  515.000   30.176  164.231   23.401    0.050    0.191
  515.250   29.038  164.316   24.314    0.045    0.196
  515.500   31.502  163.423   25.250    0.042    0.196
  515.750   37.035  161.553   26.228    0.037    0.194
  516.000   35.292  159.655   27.245    0.035    0.189
  516.250   31.119  158.791   27.782    0.034    0.168
  516.500   23.929  157.870   27.824    0.031    0.156
  516.750   19.773  157.955   26.834    0.023    0.145
  517.000   19.237  158.096   22.740    0.026    0.145
  517.250   21.116  157.204   19.267    0.027    0.173
  517.500   25.424  157.317   18.938    0.029    0.192
  517.750   32.130  157.402   19.676    0.029    0.171
  518.000   35.232  157.543   20.826    0.033    0.166
  518.250   31.663  158.634   21.226    0.033    0.151
  518.500   26.317  158.804   20.100    0.024    0.139
  518.750   25.764  159.894   17.361    0.010    0.200
  519.000   33.073  161.070   16.436    0.009    0.219
  519.250   45.847  162.160   14.999    0.026    0.237
  519.500   48.312  163.251   13.684    0.031    0.244
  519.750   52.621  164.398   12.491    0.037    0.244
  520.000   56.913  165.517   11.825    0.046    0.241
  520.250   58.205  166.636   11.201    0.050    0.236
  520.500   58.273  166.721   11.212    0.048    0.235
  520.750   57.737  166.862   11.224    0.045    0.243
  521.000   55.995  167.953   11.659    0.051    0.254
  521.250   54.856  168.094   13.284    0.052    0.259
  521.500   54.320  168.207   15.415    0.050    0.251
  521.750   51.354  168.349   18.227    0.032    0.165
  522.000   41.146  168.462   24.088    0.018    0.144
  522.250   26.732  168.575   33.025    0.019    0.158
  522.500   29.817  167.711   33.676    0.017    0.117
  522.750   31.091  166.818   30.168    0.008    0.115
  523.000   23.315  166.875   27.026    0.010    0.128
  523.250   15.538  165.005   27.053    0.031    0.148
  523.500   16.830  164.084   30.268    0.038    0.149
  523.750   18.121  163.276   30.864    0.029    0.118
  524.000   18.759  163.333   25.200    0.018    0.107
  524.250   16.413  163.446   13.954    0.006    0.221
  524.500   24.326  162.525    9.648    0.023    0.278
  524.750   55.203  162.667    8.178    0.074    0.308
  525.000   63.115  162.780    8.978    0.095    0.307
  525.250   66.217  162.921   11.221    0.104    0.237
  525.500   57.217  163.006   16.263    0.091    0.218
  525.750   41.578  164.153   18.191    0.055    0.167
  526.000   32.595  164.238   22.742    0.016    0.159
  526.250   25.421  165.414   27.392    0.013    0.143
  526.500   20.679  165.499   30.647    0.017    0.127
  526.750   19.523  165.584   28.482    0.018    0.118
  527.000   22.021  165.753   24.138    0.017    0.119
  527.250   23.883  165.810   20.461    0.014    0.140
  527.500   28.778  165.951   18.329    0.016    0.162
  527.750   36.708  166.121   16.723    0.020    0.179
  528.000   46.430  166.178   14.706    0.026    0.200
  528.250   53.757  166.291   13.674    0.033    0.221
  528.500   59.859  166.404   13.188    0.033    0.231
  528.750   58.737  166.517   12.495    0.031    0.238
  529.000   58.184  166.687   12.275    0.031    0.245
  529.250   57.045  166.743   12.287    0.037    0.252
  529.500   56.510  166.857   12.767    0.040    0.255
  529.750   57.785  166.970   13.255    0.041    0.249
  530.000   55.456  166.077   14.554    0.046    0.243
  530.250   53.696  166.190   16.284    0.042    0.236
  530.500   50.144  165.326   17.880    0.034    0.227
  530.750   45.987  165.439   20.005    0.027    0.197
  531.000   37.004  165.581   21.966    0.020    0.164
  531.250   30.417  164.660   22.393    0.014    0.148
  531.500   25.674  163.796   22.846    0.015    0.135
  531.750   23.932  161.841   21.624    0.021    0.145
  532.000   28.207  160.027   19.376    0.026    0.175
  532.250   41.567  159.050   18.008    0.029    0.189
  532.500   47.066  159.163   18.363    0.027    0.197
  532.750   48.375  158.327   19.074    0.021    0.197
  533.000   46.615  158.384   19.813    0.018    0.190
  533.250   46.080  158.497   19.839    0.017    0.188
  533.500   47.975  159.644   18.786    0.023    0.182
  533.750   49.250  159.785   17.795    0.031    0.182
  534.000   51.111  160.904   17.157    0.044    0.189
  534.250   52.386  161.046   16.247    0.040    0.201
  534.500   53.057  161.102   15.677    0.035    0.206
  534.750   52.539  162.221   15.688    0.033    0.207
  535.000   52.003  163.340   15.713    0.031    0.210
  535.250   51.468  164.459   16.018    0.034    0.216
  535.500   52.742  164.572   16.338    0.034    0.215
  535.750   53.431  165.719   16.355    0.032    0.207
  536.000   53.499  166.810   16.067    0.027    0.211
  536.250   55.980  166.923   16.083    0.022    0.211
  536.500   55.428  167.093   16.104    0.021    0.200
  536.750   47.047  167.206   16.417    0.021    0.190
  537.000   39.857  167.319   16.442    0.022    0.198
  537.250   40.529  166.427   16.459    0.019    0.203
  537.500   46.078  166.512   16.471    0.014    0.209
  537.750   47.922  166.710   16.186    0.013    0.218
  538.000   50.438  167.800   15.050    0.013    0.224
  538.250   51.075  167.885   14.514    0.014    0.221
  538.500   51.764  167.998   13.745    0.028    0.217
  538.750   51.815  169.089   13.262    0.034    0.219
  539.000   51.900  169.202   13.026    0.033    0.226
  539.250   52.571  170.349   12.800    0.026    0.227
  539.500   53.276  170.462   12.816    0.019    0.225
  539.750   53.310  171.610   12.832    0.017    0.218
  540.000   53.378  171.723   13.082    0.013    0.215
  540.250   51.653  171.836   13.343    0.013    0.212
  540.500   48.100  171.949   13.606    0.014    0.208
  540.750   46.341  172.062   13.874    0.018    0.206
  541.000   44.598  172.175   14.148    0.017    0.205
  541.250   45.270  172.289   14.166    0.012    0.209
  541.500   47.148  172.402   14.177    0.009    0.214
  541.750   49.026  172.515   14.191    0.015    0.214
  542.000   49.128  172.628   13.195    0.024    0.212
  542.250   50.369  173.719   12.039    0.028    0.205
  542.500   52.247  175.900   10.782    0.035    0.213
  542.750   58.366  177.019    9.482    0.045    0.243
  543.000   69.899  178.109    8.338    0.071    0.268
  543.250   83.260  182.302    7.753    0.082    0.293
  543.500   86.345  183.393    7.617    0.090    0.319
  543.750   78.568  185.517    7.627    0.091    0.318
