~VERSION INFORMATION
 VERS.                 2.0:   CWLS LOG ASCII STANDARD -VERSION 2.0
 WRAP.                  NO:   ONE LINE PER DEPTH STEP
~WELL INFORMATION BLOCK
#MNEM.UNIT           DATA                    DESCRIPTION OF MNEMONIC
#---------    -------------------            -------------------------------
# Generated from Intellog Unique Number	CS_73_76/WELL/854
WELL.         HOUSTON OILS LIMITED           : Well_name    - WELL
LOC .         00/11-35-073-15W4/0            : Location     - LOCATION
UWI .         00/11-35-073-15W4/0            : Uwi          - UNIQUE WELL ID
ENTR.         SP                             : Entered      - ENTERED BY
SRVC.         SCHLUMBERGER                   : Scn          - SERVICE COMPANY
STRT.M        320.04                         : top_depth    - START DEPTH
STOP.M        536.29                         : bot_depth    - STOP DEPTH
STEP.M        0.25                           : increment    - STEP LENGTH
 NULL. -999.2500:NULL Value
~CURVE INFORMATION BLOCK
#MNEM UNIT       ERCB CURVE CODE    CURVE DESCRIPTION
#-----------   ------------------   ----------------------------------
DEPT.M        00 001 00 00         : DEPTH        - DEPTH
GR  .API      00 310 00 00         : GR           - GAMMA RAY
DPHI.V/V      00 890 00 00         : PHID         - DENSITY POROSITY (SANDSTONE)
NPHI.V/V      00 330 00 00         : PHIN         - NEUTRON POROSITY (SANDSTONE)
ILD .OHMM     00 120 00 00         : RESD         - DEEP RESISTIVITY (DIL)
~PARAMETER INFORMATION
#MNEM.UNIT           DATA             DESCRIPTION OF MNEMONIC
#---------         -----------     ------------------------------
GL  .M        657.758              : gl           - GROUND LEVEL ELEVATION
EREF.M        660.806              : kb           - ELEVATION OF DEPTH REFERENCE
DATM.M        657.758              : datum        - DATUM ELEVATION
TDD .M        539.496              : tdd          - TOTAL DEPTH DRILLER
RUN .         ONE                  : Run          - RUN NUMBER
ENG .         BILL                 : Engineer     - RECORDING ENGINEER
WIT .         JIM                  : Witness      - WITNESSED BY
MUD .         GEL                  : Mud_type     - MUD TYPE
MATR.         SANDSTONE            : Logunit      - NEUTRON MATRIX
TMAX.C        23.8889              : BHT          - MAXIMUM RECORDED TEMPERATURE
BHTD.M        539.496              : BHTDEP       - MAXIMUM RECORDED TEMPERATURE
MATR.         1                    : LOGUNIT      - NEUTRON MATRIX
RMT .C        25                   : MDTP         - TEMPERATURE OF MUD
NEUT.         1                    : NEUTRON      - NEUTRON TYPE
RESI.         0                    : RESIST       - RESISTIVITY TYPE
RMC .OHMM     0.25                 : RMC          - RESISTIVITY OF MUD CAKE
RMF .OHMM     0.25                 : RMF          - RESISTIVITY OF MUD FILTRATE
SUFT.C        15                   : SUFT         - SURFACE TEMPERATURE
~A  DEPTH       GR     PHID     PHIN     RESD
# ...
  363.540   87.152    0.177    0.529    9.333
  363.790   87.336    0.204    0.541    9.056
  364.040   89.918    0.213    0.549    8.662
  364.290   93.114    0.208    0.573    8.062
  364.540   96.270    0.209    0.544    7.708
  364.790   95.261    0.205    0.552    7.487
  365.040   92.240    0.220    0.538    7.278
  365.290   88.627    0.239    0.550    7.425
  365.540   86.104    0.251    0.547    7.498
  365.790   81.251    0.264    0.524    7.763
  366.040   76.726    0.286    0.504    7.999
  366.290   76.206    0.293    0.510    8.288
  366.540   78.983    0.307    0.500    8.617
  366.790   81.399    0.300    0.495    8.895
  367.040   83.370    0.268    0.521    8.915
  367.290   84.331    0.246    0.527    8.919
  367.540   88.223    0.245    0.525    8.396
  367.790   90.088    0.262    0.511    7.946
  368.040   91.502    0.239    0.529    7.722
  368.290   90.507    0.238    0.567    7.813
  368.540   84.794    0.268    0.583    7.902
  368.790   83.096    0.253    0.566    8.416
  369.040   82.562    0.255    0.565    8.932
  369.290   79.584    0.288    0.542    9.466
  369.540   72.246    0.312    0.542    9.879
  369.790   67.669    0.315    0.598   10.432
  370.040   60.503    0.307    0.482   10.733
  370.290   53.214    0.271    0.457   11.210
  370.540   50.453    0.279    0.429   11.546
  370.790   50.562    0.296    0.422   11.536
  371.040   51.036    0.309    0.428   11.556
  371.290   53.280    0.295    0.437   11.278
  371.540   54.150    0.285    0.455   10.914
  371.790   53.984    0.298    0.457   11.258
  372.040   51.388    0.299    0.450   11.136
  372.290   48.952    0.306    0.454   11.130
  372.540   48.658    0.312    0.451   11.151
  372.790   50.041    0.303    0.486   10.919
  373.040   51.072    0.301    0.493   10.935
  373.290   50.809    0.290    0.466   10.934
  373.540   48.748    0.295    0.448   10.935
  373.790   48.550    0.304    0.469   10.934
  374.040   49.684    0.306    0.468   10.923
  374.290   49.386    0.314    0.455   11.134
  374.540   52.395    0.319    0.448   11.136
  374.790   54.539    0.314    0.458   11.142
  375.040   55.947    0.311    0.457   11.143
  375.290   57.918    0.306    0.448   11.139
  375.540   59.078    0.302    0.440   11.119
  375.790   59.059    0.306    0.441   10.935
  376.040   59.193    0.308    0.446   10.926
  376.290   57.864    0.309    0.453   11.158
  376.540   59.578    0.323    0.465   11.146
  376.790   60.675    0.322    0.474   11.151
  377.040   59.061    0.312    0.454   11.152
  377.290   57.015    0.317    0.473   11.159
  377.540   59.539    0.324    0.479   11.203
  377.790   62.531    0.313    0.496   11.372
  378.040   64.282    0.309    0.485   11.134
  378.290   65.421    0.322    0.467   11.123
  378.540   67.911    0.322    0.477   10.952
  378.790   70.361    0.332    0.516   10.957
  379.040   70.447    0.334    0.553   10.960
  379.290   68.338    0.333    0.528   10.966
  379.540   67.093    0.330    0.500   11.041
  379.790   65.058    0.331    0.485   11.164
  380.040   61.635    0.334    0.496   11.167
  380.290   58.637    0.332    0.522   11.168
  380.540   57.866    0.327    0.503   11.169
  380.790   60.489    0.334    0.478   11.170
  381.040   62.254    0.329    0.460   11.170
  381.290   61.574    0.325    0.441   11.176
  381.540   61.754    0.329    0.470   11.305
  381.790   63.501    0.329    0.464   11.154
  382.040   63.982    0.325    0.468   11.179
  382.290   64.456    0.322    0.497   11.179
  382.540   65.070    0.323    0.522   11.182
  382.790   63.118    0.332    0.543   11.025
  383.040   60.388    0.340    0.531   10.984
  383.290   59.130    0.350    0.502   10.979
  383.540   58.102    0.353    0.490   11.002
  383.790   58.051    0.351    0.503   10.763
  384.040   59.659    0.352    0.514   10.785
  384.290   61.175    0.347    0.517   10.787
  384.540   59.688    0.342    0.513   10.790
  384.790   58.798    0.338    0.520   10.774
  385.040   57.743    0.342    0.510   11.008
  385.290   59.837    0.348    0.499   10.990
  385.540   61.792    0.351    0.493   10.985
  385.790   64.281    0.352    0.481   10.906
  386.040   63.899    0.350    0.468   10.788
  386.290   61.779    0.347    0.483   10.587
  386.540   62.095    0.348    0.515   10.600
  386.790   61.581    0.345    0.519   10.602
  387.040   63.284    0.334    0.505   10.598
  387.290   65.456    0.319    0.498   10.562
  387.540   64.789    0.323    0.508   10.410
  387.790   62.389    0.331    0.528   10.414
  388.040   61.506    0.336    0.536   10.417
  388.290   60.024    0.338    0.520   10.413
  388.540   57.986    0.334    0.501   10.333
  388.790   57.499    0.333    0.500   10.234
  389.040   58.295    0.321    0.516   10.233
  389.290   56.470    0.334    0.504   10.252
  389.540   56.194    0.347    0.488   10.050
  389.790   56.862    0.343    0.487   10.253
  390.040   59.606    0.341    0.489   10.239
  390.290   62.106    0.336    0.504   10.238
  390.540   64.486    0.333    0.521   10.239
  390.790   65.478    0.326    0.518   10.240
  391.040   64.327    0.321    0.505   10.241
  391.290   60.912    0.322    0.499   10.242
  391.540   59.977    0.330    0.522   10.243
  391.790   62.009    0.333    0.516   10.245
  392.040   62.670    0.332    0.515   10.262
  392.290   61.590    0.336    0.536   10.055
  392.540   59.525    0.337    0.535   10.060
  392.790   58.303    0.330    0.521   10.005
  393.040   56.242    0.330    0.508    9.882
  393.290   58.368    0.335    0.524    9.883
  393.540   60.740    0.336    0.530    9.885
  393.790   62.782    0.332    0.539    9.883
  394.040   63.753    0.338    0.525    9.787
  394.290   64.571    0.343    0.513    9.713
  394.540   62.482    0.344    0.521    9.710
  394.790   60.873    0.346    0.490    9.711
  395.040   62.410    0.341    0.500    9.713
  395.290   64.910    0.336    0.524    9.713
  395.540   66.142    0.336    0.530    9.711
  395.790   66.499    0.342    0.543    9.712
  396.040   64.665    0.337    0.579    9.528
  396.290   63.461    0.285    0.612    9.531
  396.540   64.058    0.208    0.587    9.709
  396.790   65.738    0.193    0.531    9.991
  397.040   65.694    0.238    0.512   10.561
  397.290   64.159    0.325    0.490   11.006
  397.540   64.692    0.324    0.556   11.467
  397.790   65.986    0.306    0.571   11.666
  398.040   67.518    0.297    0.577   11.272
  398.290   68.651    0.291    0.555   11.203
  398.540   68.992    0.288    0.547   10.633
  398.790   71.053    0.289    0.533   10.220
  399.040   71.788    0.279    0.520    9.368
  399.290   71.364    0.208    0.509    8.564
  399.540   71.257    0.205    0.512    7.673
  399.790   75.841    0.221    0.540    6.616
  400.040   80.759    0.220    0.560    5.879
  400.290   85.896    0.230    0.599    5.219
  400.540   88.642    0.234    0.596    4.510
  400.790   91.734    0.240    0.558    3.945
  401.040   92.467    0.225    0.557    3.478
  401.290   93.152    0.213    0.568    3.134
  401.540   94.155    0.217    0.559    3.119
  401.790   95.490    0.214    0.537    3.393
  402.040   98.550    0.219    0.514    3.785
  402.290   99.129    0.202    0.539    4.191
  402.540   97.818    0.192    0.557    4.595
  402.790   94.917    0.197    0.573    4.783
  403.040   95.498    0.209    0.580    4.881
  403.290   98.313    0.210    0.590    4.704
  403.540   99.126    0.214    0.603    4.101
  403.790   98.609    0.231    0.600    3.588
  404.040   96.599    0.253    0.589    3.372
  404.290   95.531    0.277    0.594    3.322
  404.540   95.915    0.250    0.591    3.439
  404.790   95.475    0.230    0.573    3.654
  405.040   93.116    0.244    0.562    3.956
  405.290   88.408    0.262    0.553    3.917
  405.540   87.102    0.284    0.564    3.780
  405.790   89.467    0.298    0.578    3.583
  406.040   90.119    0.309    0.602    3.751
  406.290   86.837    0.311    0.630    4.118
  406.540   75.856    0.300    0.509    4.795
  406.790   71.102    0.307    0.496    5.307
