~VERSION INFORMATION
 VERS.                 2.0:   CWLS LOG ASCII STANDARD -VERSION 2.0
 WRAP.                  NO:   ONE LINE PER DEPTH STEP
~WELL INFORMATION BLOCK
#MNEM.UNIT           DATA                    DESCRIPTION OF MNEMONIC
#---------    -------------------            -------------------------------
# Generated from Intellog Unique Number	CC_84_87/WELL/1183
NULL.         -999.25                        : NULL_VALUE
WELL.         SUNCOR CHEECHAM                : Well_name    - WELL              
LOC .         10-06-085-06W4                 : Location     - LOCATION          
UWI .         00/10-06-085-06W400            : Uwi          - UNIQUE WELL ID    
ENTR.         DW                             : Entered      - ENTERED BY        
SRVC.         SCHLUMBERGER                   : Scn          - SERVICE COMPANY   
DATE.         01 FEB 81                      : Date         - LOG DATE
STRT.M        138                            : top_depth    - START DEPTH       
STOP.M        275.1                          : bot_depth    - STOP DEPTH        
STEP.M        0.3                            : increment    - STEP LENGTH       
~CURVE INFORMATION BLOCK
#MNEM UNIT       ERCB CURVE CODE    CURVE DESCRIPTION
#-----------   ------------------   ----------------------------------
DEPT.M        00 001 00 00         : DEPTH        - DEPTH                       
DPHI.V/V      00 890 00 00         : PHID         - DENSITY POROSITY (LIMESTONE)
NPHI.V/V      00 330 00 00         : PHIN         - NEUTRON POROSITY (LIMESTONE)
GR  .API      00 310 00 00         : GR           - GAMMA RAY                   
ILD .OHMM     00 120 00 00         : RESD         - DEEP RESISTIVITY (DIL)      
~PARAMETER INFORMATION       
#MNEM.UNIT           DATA             DESCRIPTION OF MNEMONIC
#---------         -----------     ------------------------------
GL  .M        482.2                : gl           - GROUND LEVEL ELEVATION      
EREF.M        485.9                : kb           - ELEVATION OF DEPTH REFERENCE
DATM.M        485.9                : datum        - DATUM ELEVATION             
TDD .M        275                  : tdd          - TOTAL DEPTH DRILLER         
RUN .         ONE                  : Run          - RUN NUMBER                  
ENG .         BILL                 : Engineer     - RECORDING ENGINEER          
WIT .         JIM                  : Witness      - WITNESSED BY                
MUD .         GEL                  : Mud_type     - MUD TYPE                    
MATR.         LIMESTONE            : Logunit      - NEUTRON MATRIX              
TMAX.C        13                   : BHT          - MAXIMUM RECORDED TEMPERATURE
BHTD.M        275                  : BHTDEP       - MAXIMUM RECORDED TEMPERATURE
MATR.         1                    : LOGUNIT      - NEUTRON MATRIX              
RMT .C        25                   : MDTP         - TEMPERATURE OF MUD          
NEUT.         1                    : NEUTRON      - NEUTRON TYPE                
RESI.         0                    : RESIST       - RESISTIVITY TYPE            
RMC .OHMM     0.25                 : RMC          - RESISTIVITY OF MUD CAKE     
RMF .OHMM     0.25                 : RMF          - RESISTIVITY OF MUD FILTRATE 
SUFT.C        4                    : SUFT         - SURFACE TEMPERATURE         
~A  DEPTH     PHID     PHIN       GR     RESD
# ...
  190.201    0.183    0.506   92.736    5.046
  190.501    0.179    0.482   95.738    5.433
  190.801    0.177    0.470   96.247    5.522
  191.101    0.175    0.468   95.553    5.603
  191.401    0.176    0.484   96.686    5.597
  191.701    0.180    0.492   95.960    5.474
  192.001    0.191    0.487   97.740    5.359
  192.301    0.194    0.481  102.602    4.861
  192.601    0.189    0.559  100.626    4.403
  192.901    0.178    0.545   99.908    4.314
  193.201    0.179    0.510  101.665    4.303
  193.501    0.192    0.495  103.457    4.375
  193.801    0.200    0.457  107.687    4.446
  194.101    0.201    0.486  108.842    4.189
  194.401    0.198    0.520  106.251    3.870
  194.701    0.196    0.531  103.060    3.785
  195.001    0.200    0.522  104.809    3.777
  195.301    0.194    0.487  109.064    3.839
  195.601    0.204    0.483  109.593    3.830
  195.901    0.220    0.493  106.380    3.749
  196.201    0.184    0.523  104.429    3.666
  196.501    0.207    0.526  104.948    3.798
  196.801    0.187    0.514  105.483    3.936
  197.101    0.187    0.510  102.885    4.314
  197.401    0.186    0.504  104.037    4.643
  197.701    0.169    0.460  105.184    5.090
  198.001    0.188    0.467  104.454    5.275
  198.301    0.202    0.489  100.654    5.566
  198.601    0.199    0.478   94.350    5.876
  198.901    0.198    0.449   78.740    6.092
  199.201    0.215    0.348   79.257    6.554
  199.501    0.210    0.347   82.263    7.187
  199.801    0.204    0.359   82.171    7.731
  200.101    0.189    0.380   85.173    8.004
  200.401    0.187    0.392   90.652    7.836
  200.701    0.187    0.404   91.179    7.107
  201.001    0.194    0.422   92.940    6.208
  201.301    0.198    0.439   92.847    5.525
  201.601    0.194    0.459   88.413    5.408
  201.901    0.224    0.487   79.007    5.929
  202.201    0.232    0.465   72.077    7.424
  202.501    0.229    0.452   71.982    8.952
  202.801    0.221    0.448   76.853    9.452
  203.101    0.231    0.440   82.332    9.423
  203.401    0.235    0.434   80.375    9.752
  203.701    0.229    0.427   82.139   10.112
  204.001    0.228    0.419   87.630   10.278
  204.301    0.213    0.416   95.599    9.867
  204.601    0.189    0.441  107.279    9.298
  204.901    0.180    0.449  107.800    8.589
  205.201    0.184    0.451   97.789    8.572
  205.501    0.190    0.423   90.248    8.713
  205.801    0.203    0.367   84.553    9.198
  206.101    0.227    0.345   72.682    9.529
  206.401    0.258    0.328   60.169    9.503
  206.701    0.268    0.322   58.213    9.659
  207.001    0.249    0.334   61.223   10.004
  207.301    0.247    0.359   65.464   10.762
  207.601    0.244    0.372   74.046   11.367
  207.901    0.217    0.381   75.818   12.227
  208.201    0.223    0.388   74.478   12.667
  208.501    0.229    0.404   73.739   12.876
  208.801    0.235    0.414   75.521   13.082
  209.101    0.230    0.408   74.807   12.325
  209.401    0.193    0.398   71.585   11.618
  209.701    0.191    0.390   72.743   10.939
  210.001    0.209    0.394   73.276   10.917
  210.301    0.229    0.391   75.025   11.524
  210.601    0.220    0.373   78.655   11.941
  210.901    0.187    0.392   81.653   12.365
  211.201    0.192    0.407   82.190   12.096
  211.501    0.182    0.395   87.045   10.975
  211.801    0.182    0.389   94.389    9.231
  212.101    0.172    0.429   95.536    8.213
  212.401    0.170    0.424   96.037    8.039
  212.701    0.186    0.408   89.764    8.015
  213.001    0.208    0.402   80.354    8.620
  213.301    0.203    0.402   77.763    9.457
  213.601    0.194    0.384   78.287   10.774
  213.901    0.195    0.375   80.055   11.589
  214.201    0.201    0.370   83.691   11.129
  214.501    0.184    0.367   91.033   10.288
  214.801    0.199    0.388   85.965   10.658
  215.101    0.203    0.396   86.474   11.684
  215.401    0.204    0.376   85.139   13.312
  215.701    0.202    0.369   83.203   14.049
  216.001    0.207    0.388   80.004   14.004
  216.301    0.228    0.397   78.664   13.714
  216.601    0.234    0.389   83.527   11.310
  216.901    0.219    0.386   92.732    9.328
  217.201    0.177    0.403   88.918    8.958
  217.501    0.183    0.410   83.856    9.284
  217.801    0.187    0.409   79.418   10.368
  218.101    0.191    0.392   63.809   11.375
  218.401    0.212    0.394   63.093   12.473
  218.701    0.234    0.380   68.580   12.681
  219.001    0.219    0.395   75.298   11.947
  219.301    0.185    0.410   80.793    9.853
  219.601    0.184    0.415   84.414    9.111
  219.901    0.179    0.420   89.274    8.914
  220.201    0.175    0.418   91.042    8.719
  220.501    0.171    0.397   89.700    8.539
  220.801    0.168    0.395   89.598    7.893
  221.101    0.166    0.408   91.992    7.578
  221.401    0.166    0.421   95.606    7.416
  221.701    0.168    0.417   95.516    7.394
  222.001    0.165    0.424   93.558    7.514
  222.301    0.179    0.418   93.464    7.496
  222.601    0.169    0.426   93.359    7.622
  222.901    0.191    0.426   86.433    7.743
  223.201    0.208    0.404   75.799    8.020
  223.501    0.222    0.411   70.730    8.472
  223.801    0.225    0.421   73.108   10.018
  224.101    0.220    0.426   75.510   10.176
  224.401    0.193    0.411   78.506    9.958
  224.701    0.167    0.396   79.653    9.743
  225.001    0.174    0.401   77.074    9.544
  225.301    0.206    0.399   70.763    9.518
  225.601    0.199    0.374   66.949    9.667
  225.901    0.198    0.363   63.748   10.202
  226.201    0.203    0.365   59.298   10.380
  226.501    0.202    0.374   54.870   11.173
  226.801    0.198    0.384   49.814   11.795
  227.101    0.227    0.390   50.953   11.759
  227.401    0.228    0.398   52.100   12.418
  227.701    0.242    0.416   53.246   14.141
  228.001    0.232    0.387   66.791   14.928
  228.301    0.225    0.388   75.372   14.873
  228.601    0.230    0.403   82.098   14.281
  228.901    0.224    0.411   93.786   12.718
  229.201    0.168    0.388   93.691   10.108
  229.501    0.152    0.383   90.499    8.177
  229.801    0.158    0.391   89.155    8.005
  230.101    0.173    0.393   88.429    8.138
  230.401    0.187    0.391   85.862    8.593
  230.701    0.190    0.394   80.800    9.234
  231.001    0.192    0.406   75.734    9.569
  231.301    0.216    0.423   81.223    9.545
  231.601    0.229    0.421  103.453    9.340
  231.901    0.168    0.396  102.743    8.801
  232.201    0.160    0.408   97.685    7.984
  232.501    0.154    0.437   90.746    7.238
  232.801    0.140    0.440   86.930    7.090
  233.101    0.137    0.414   85.588    7.200
  233.401    0.165    0.393   80.524    7.455
  233.701    0.199    0.398   74.243    7.588
  234.001    0.217    0.402   61.121    9.140
  234.301    0.206    0.422   57.287   11.020
  234.601    0.227    0.449   55.961   12.325
  234.901    0.234    0.467   61.442   12.046
  235.201    0.225    0.454   71.266   12.025
  235.501    0.220    0.431   71.784   11.769
  235.801    0.223    0.422   72.934   11.738
  236.101    0.214    0.394   76.554   12.393
  236.401    0.213    0.394   77.066   13.845
  236.701    0.217    0.411   72.026   16.382
  237.001    0.243    0.447   61.994   20.503
  237.301    0.252    0.444   56.923   23.362
  237.601    0.257    0.420   53.116   26.614
  237.901    0.267    0.426   50.545   29.168
  238.201    0.271    0.427   49.829   29.657
  238.501    0.275    0.425   52.207   30.149
  238.801    0.282    0.399   64.520   30.647
  239.101    0.278    0.409   57.593   28.853
  239.401    0.253    0.408   53.765   24.724
  239.701    0.249    0.392   77.256   19.281
  240.001    0.180    0.397   85.220   10.882
  240.301    0.155    0.394   96.276    7.424
  240.601    0.142    0.387  111.685    6.128
  240.901    0.134    0.383  111.595    5.250
  241.201    0.125    0.408  107.141    4.855
  241.501    0.118    0.407  105.180    4.661
  241.801    0.105    0.408   93.941    4.648
  242.101    0.083    0.391   89.493    4.723
