~VERSION INFORMATION
 VERS.                 2.0:   CWLS LOG ASCII STANDARD -VERSION 2.0
 WRAP.                  NO:   ONE LINE PER DEPTH STEP
~WELL INFORMATION BLOCK
#MNEM.UNIT           DATA                    DESCRIPTION OF MNEMONIC
#---------    -------------------            -------------------------------
# Generated from Intellog Unique Number	CS_73_76/WELL/3236
WELL.         PACIFIC KIRBY                  : Well_name    - WELL
LOC .         00/10-16-075-06W4/0            : Location     - LOCATION
UWI .         00/10-16-075-06W4/0            : Uwi          - UNIQUE WELL ID
ENTR.         SP                             : Entered      - ENTERED BY
SRVC.         SCHLUMBERGER                   : Scn          - SERVICE COMPANY
STRT.M        230                            : top_depth    - START DEPTH
STOP.M        493                            : bot_depth    - STOP DEPTH
STEP.M        0.25                           : increment    - STEP LENGTH
 NULL. -999.2500:NULL Value
~CURVE INFORMATION BLOCK
#MNEM UNIT       ERCB CURVE CODE    CURVE DESCRIPTION
#-----------   ------------------   ----------------------------------
DEPT.M        00 001 00 00         : DEPTH        - DEPTH
GR  .API      00 310 00 00         : GR           - GAMMA RAY
NPHI.V/V      00 330 00 00         : PHIN         - NEUTRON POROSITY (LIMESTONE)
DPHI.V/V      00 890 00 00         : PHID         - DENSITY POROSITY (LIMESTONE)
ILD .OHMM     00 120 00 00         : RESD         - DEEP RESISTIVITY (DIL)
~PARAMETER INFORMATION
#MNEM.UNIT           DATA             DESCRIPTION OF MNEMONIC
#---------         -----------     ------------------------------
GL  .M        621.4                : gl           - GROUND LEVEL ELEVATION
EREF.M        625.6                : kb           - ELEVATION OF DEPTH REFERENCE
DATM.M        621.4                : datum        - DATUM ELEVATION
TDD .M        490                  : tdd          - TOTAL DEPTH DRILLER
RUN .         ONE                  : Run          - RUN NUMBER
ENG .         BILL                 : Engineer     - RECORDING ENGINEER
WIT .         JIM                  : Witness      - WITNESSED BY
MUD .         GEL                  : Mud_type     - MUD TYPE
MATR.         LIMESTONE            : Logunit      - NEUTRON MATRIX
TMAX.C        22                   : BHT          - MAXIMUM RECORDED TEMPERATURE
BHTD.M        490                  : BHTDEP       - MAXIMUM RECORDED TEMPERATURE
MATR.         1                    : LOGUNIT      - NEUTRON MATRIX
RMT .C        25                   : MDTP         - TEMPERATURE OF MUD
NEUT.         1                    : NEUTRON      - NEUTRON TYPE
RESI.         0                    : RESIST       - RESISTIVITY TYPE
RMC .OHMM     0.25                 : RMC          - RESISTIVITY OF MUD CAKE
RMF .OHMM     0.25                 : RMF          - RESISTIVITY OF MUD FILTRATE
SUFT.C        15                   : SUFT         - SURFACE TEMPERATURE
~A  DEPTH       GR     PHIN     PHID     RESD
# ...
  404.000   71.088    0.404    0.243   20.082
  404.250   74.126    0.420    0.228   16.980
  404.500   75.963    0.429    0.225   16.662
  404.750   75.982    0.407    0.243   18.271
  405.000   74.188    0.405    0.254   17.597
  405.250   74.810    0.400    0.260   15.159
  405.500   79.672    0.392    0.238   14.334
  405.750   85.133    0.382    0.206   12.581
  406.000   89.384    0.379    0.190   11.459
  406.250   86.378    0.375    0.195   11.886
  406.500   77.929    0.371    0.234   13.527
  406.750   67.069    0.397    0.265   14.036
  407.000   62.847    0.412    0.285   15.111
  407.250   63.470    0.420    0.306   13.764
  407.500   68.332    0.419    0.298   12.079
  407.750   74.400    0.414    0.292   11.420
  408.000   80.471    0.417    0.281   11.414
  408.250   84.720    0.449    0.279   12.518
  408.500   80.509    0.459    0.297   15.066
  408.750   73.874    0.432    0.305   18.469
  409.000   71.469    0.414    0.286   20.636
  409.250   71.490    0.414    0.258   22.630
  409.500   64.257    0.405    0.246   25.284
  409.750   60.036    0.402    0.263   29.317
  410.000   54.614    0.407    0.292   32.156
  410.250   54.033    0.409    0.292   38.694
  410.500   56.468    0.414    0.287   49.234
  410.750   57.694    0.420    0.279   59.255
  411.000   55.293    0.422    0.281   75.389
  411.250   51.079    0.421    0.281   90.732
  411.500   48.081    0.412    0.276  109.170
  411.750   48.098    0.404    0.294  115.386
  412.000   49.326    0.393    0.311  111.126
  412.250   52.376    0.412    0.315  109.004
  412.500   54.204    0.421    0.313  111.012
  412.750   56.038    0.430    0.305  117.288
  413.000   56.665    0.452    0.304  123.953
  413.250   56.076    0.464    0.314  128.593
  413.500   52.472    0.462    0.316  138.415
  413.750   50.072    0.457    0.309  140.972
  414.000   47.668    0.447    0.307  135.755
  414.250   46.477    0.435    0.312  125.980
  414.500   47.704    0.414    0.315  104.576
  414.750   50.145    0.407    0.315   85.213
  415.000   55.617    0.403    0.300   69.442
  415.250   58.658    0.397    0.291   47.875
  415.500   61.698    0.406    0.283   43.613
  415.750   64.740    0.412    0.284   40.469
  416.000   65.966    0.414    0.290   38.255
  416.250   67.200    0.424    0.291   34.207
  416.500   69.034    0.431    0.278   30.587
  416.750   71.474    0.431    0.273   25.863
  417.000   72.697    0.426    0.262   24.455
  417.250   73.931    0.424    0.275   22.276
  417.500   75.760    0.432    0.276   23.541
  417.750   74.578    0.442    0.267   31.666
  418.000   71.569    0.421    0.282   32.246
  418.250   67.956    0.404    0.258   19.161
  418.500   72.815    0.382    0.241   15.905
  418.750   86.141    0.405    0.228   14.491
  419.000   97.050    0.422    0.221   11.807
  419.250  102.512    0.426    0.215    9.801
  419.500  106.163    0.429    0.202    8.765
  419.750  109.209    0.422    0.195    7.551
  420.000  109.827    0.414    0.187    7.137
  420.250  109.847    0.421    0.188    7.004
  420.500  106.243    0.412    0.190    7.401
  420.750  101.418    0.394    0.161    8.118
  421.000   91.759    0.370    0.123    8.739
  421.250   89.365    0.321    0.090    9.584
  421.500   91.798    0.334    0.141    9.942
  421.750   96.054    0.346    0.168   10.503
  422.000   92.441    0.367    0.177   10.694
  422.250   87.017    0.386    0.196   10.889
  422.500   82.201    0.366    0.197   10.884
  422.750   85.246    0.363    0.183   10.879
  423.000   88.890    0.384    0.172   11.079
  423.250   91.328    0.407    0.183   10.867
  423.500   95.585    0.426    0.186   11.275
  423.750   98.627    0.400    0.185   11.064
  424.000   98.041    0.377    0.187   10.076
  424.250   97.459    0.371    0.201    9.706
  424.500   98.689    0.383    0.199    8.361
  424.750  100.520    0.413    0.193    7.905
  425.000  101.749    0.441    0.199    7.754
  425.250   97.534    0.424    0.212    7.752
  425.500   99.371    0.407    0.217    7.059
  425.750  106.645    0.429    0.197    6.675
  426.000  113.323    0.461    0.188    6.079
  426.250  116.972    0.465    0.183    5.856
  426.500  118.802    0.438    0.175    5.853
  426.750  115.197    0.421    0.165    6.072
  427.000  110.980    0.426    0.157    6.298
  427.250  104.348    0.414    0.145    6.906
  427.500   98.319    0.410    0.152    7.299
  427.750   93.496    0.388    0.161    7.714
  428.000   89.279    0.385    0.183    8.457
  428.250   85.067    0.390    0.177    8.937
  428.500   82.063    0.374    0.181    9.102
  428.750   83.895    0.364    0.184    9.269
  429.000   87.545    0.366    0.178    9.436
  429.250   89.980    0.364    0.178    9.433
  429.500   91.816    0.364    0.171    9.427
  429.750   94.868    0.360    0.167    9.424
  430.000   96.090    0.358    0.176    9.419
  430.250   97.930    0.357    0.173    9.240
  430.500   98.547    0.358    0.160    9.067
  430.750   96.763    0.352    0.183    8.895
  431.000   96.174    0.347    0.198    8.891
  431.250   96.184    0.344    0.214    8.887
  431.500   96.816    0.343    0.213    9.219
  431.750   97.443    0.353    0.202   10.300
  432.000   96.244    0.393    0.215   12.167
  432.250   89.012    0.403    0.234   14.109
  432.500   82.979    0.394    0.260   15.474
  432.750   73.321    0.403    0.272   16.657
  433.000   66.081    0.407    0.287   16.961
  433.250   61.864    0.395    0.292   16.335
  433.500   59.466    0.394    0.302   13.310
  433.750   61.906    0.394    0.293   11.684
  434.000   56.480    0.402    0.275    9.344
  434.250   51.664    0.395    0.297    8.202
  434.500   51.683    0.403    0.287    7.334
  434.750   52.304    0.407    0.282    6.557
  435.000   50.508    0.387    0.275    6.085
  435.250   45.090    0.364    0.282    5.646
  435.500   47.526    0.370    0.287    5.438
  435.750   54.802    0.388    0.276    5.140
  436.000   60.875    0.397    0.259    5.044
  436.250   62.704    0.399    0.282    4.768
  436.500   54.259    0.384    0.297    4.678
  436.750   51.853    0.364    0.288    4.505
  437.000   54.905    0.356    0.298    4.420
  437.250   57.335    0.353    0.293    4.418
  437.500   60.386    0.348    0.280    4.416
  437.750   61.004    0.345    0.270    4.497
  438.000   63.442    0.356    0.269    4.495
  438.250   63.462    0.380    0.282    4.662
  438.500   58.038    0.393    0.289    4.747
  438.750   47.779    0.378    0.288    4.745
  439.000   38.119    0.363    0.299    4.569
  439.250   31.481    0.355    0.303    4.401
  439.500   30.299    0.358    0.293    4.160
  439.750   32.126    0.359    0.285    3.933
  440.000   35.182    0.363    0.285    3.858
  440.250   35.798    0.379    0.291    3.785
  440.500   35.814    0.388    0.294    3.784
  440.750   34.624    0.390    0.300    3.713
  441.000   35.249    0.393    0.314    3.642
  441.250   35.273    0.391    0.312    3.574
  441.500   31.662    0.400    0.302    3.506
  441.750   29.259    0.395    0.308    3.504
  442.000   30.497    0.394    0.312    3.438
  442.250   31.722    0.407    0.322    3.436
  442.500   32.340    0.404    0.328    3.435
  442.750   34.179    0.409    0.333    3.432
  443.000   34.195    0.416    0.334    3.368
  443.250   34.215    0.399    0.325    3.367
  443.500   34.233    0.395    0.322    3.365
  443.750   31.228    0.386    0.323    3.301
  444.000   31.853    0.384    0.333    3.299
  444.250   31.266    0.403    0.339    3.237
  444.500   30.076    0.414    0.344    3.175
  444.750   30.710    0.421    0.333    3.174
  445.000   31.332    0.414    0.316    3.172
  445.250   31.949    0.402    0.310    3.171
  445.500   31.969    0.393    0.305    3.170
  445.750   32.602    0.382    0.306    3.168
  446.000   33.221    0.373    0.315    3.166
  446.250   34.452    0.371    0.316    3.165
  446.500   34.466    0.380    0.321    3.223
  446.750   33.279    0.383    0.327    3.221
  447.000   32.697    0.394    0.339    3.220
  447.250   32.719    0.394    0.329    3.159
