~VERSION INFORMATION
 VERS.                 2.0:   CWLS LOG ASCII STANDARD -VERSION 2.0
 WRAP.                  NO:   ONE LINE PER DEPTH STEP
~WELL INFORMATION BLOCK
#MNEM.UNIT           DATA                    DESCRIPTION OF MNEMONIC
#---------    -------------------            -------------------------------
# Generated from Intellog Unique Number	CS_73_76/WELL/3246
WELL.         STANDARD OIL COMPANY           : Well_name    - WELL
LOC .         00/10-27-076-11W4/0            : Location     - LOCATION
UWI .         00/10-27-076-11W4/0            : Uwi          - UNIQUE WELL ID
ENTR.         SP                             : Entered      - ENTERED BY
SRVC.         SCHLUMBERGER                   : Scn          - SERVICE COMPANY
STRT.M        268.224                        : top_depth    - START DEPTH
STOP.M        502.724                        : bot_depth    - STOP DEPTH
STEP.M        0.25                           : increment    - STEP LENGTH
 NULL. -999.2500:NULL Value
~CURVE INFORMATION BLOCK
#MNEM UNIT       ERCB CURVE CODE    CURVE DESCRIPTION
#-----------   ------------------   ----------------------------------
DEPT.M        00 001 00 00         : DEPTH        - DEPTH
GR  .API      00 310 00 00         : GR           - GAMMA RAY
DPHI.V/V      00 890 00 00         : PHID         - DENSITY POROSITY (SANDSTONE)
NPHI.V/V      00 330 00 00         : PHIN         - NEUTRON POROSITY (SANDSTONE)
ILD .OHMM     00 120 00 00         : RESD         - DEEP RESISTIVITY (DIL)
~PARAMETER INFORMATION
#MNEM.UNIT           DATA             DESCRIPTION OF MNEMONIC
#---------         -----------     ------------------------------
GL  .M        665.165              : gl           - GROUND LEVEL ELEVATION
EREF.M        668.426              : kb           - ELEVATION OF DEPTH REFERENCE
DATM.M        665.165              : datum        - DATUM ELEVATION
TDD .M        531.266              : tdd          - TOTAL DEPTH DRILLER
RUN .         ONE                  : Run          - RUN NUMBER
ENG .         BILL                 : Engineer     - RECORDING ENGINEER
WIT .         JIM                  : Witness      - WITNESSED BY
MUD .         GEL                  : Mud_type     - MUD TYPE
MATR.         SANDSTONE            : Logunit      - NEUTRON MATRIX
TMAX.C        22.7778              : BHT          - MAXIMUM RECORDED TEMPERATURE
BHTD.M        531.266              : BHTDEP       - MAXIMUM RECORDED TEMPERATURE
MATR.         1                    : LOGUNIT      - NEUTRON MATRIX
RMT .C        25                   : MDTP         - TEMPERATURE OF MUD
NEUT.         1                    : NEUTRON      - NEUTRON TYPE
RESI.         0                    : RESIST       - RESISTIVITY TYPE
RMC .OHMM     0.25                 : RMC          - RESISTIVITY OF MUD CAKE
RMF .OHMM     0.25                 : RMF          - RESISTIVITY OF MUD FILTRATE
SUFT.C        15                   : SUFT         - SURFACE TEMPERATURE
~A  DEPTH       GR     PHID     PHIN     RESD
# ...
  355.224   89.135    0.247    0.578    3.864
  355.474   90.185    0.236    0.568    3.975
  355.724   90.433    0.239    0.554    3.622
  355.974   91.340    0.237    0.538    3.249
  356.224   93.163    0.216    0.528    3.087
  356.474   94.112    0.210    0.556    2.941
  356.724   95.143    0.217    0.574    3.018
  356.974   95.222    0.204    0.568    3.212
  357.224   96.447    0.206    0.567    3.410
  357.474   98.743    0.220    0.561    3.810
  357.724   99.605    0.210    0.576    4.161
  357.974   98.459    0.220    0.586    4.202
  358.224   96.769    0.232    0.589    3.991
  358.474   95.879    0.234    0.594    3.878
  358.724   95.929    0.231    0.586    3.764
  358.974   94.212    0.235    0.585    3.847
  359.224   88.448    0.247    0.582    4.055
  359.474   85.421    0.268    0.534    4.384
  359.724   83.610    0.274    0.488    4.952
  359.974   83.342    0.266    0.486    6.073
  360.224   82.724    0.283    0.493    7.163
  360.474   82.929    0.294    0.502    8.126
  360.724   83.332    0.307    0.513    9.063
  360.974   85.238    0.311    0.508    9.966
  361.224   88.013    0.282    0.498   11.338
  361.474   90.705    0.264    0.493   10.415
  361.724   97.214    0.229    0.532    8.966
  361.974   99.106    0.209    0.554    6.524
  362.224  100.048    0.218    0.562    5.567
  362.474  101.011    0.234    0.564    4.660
  362.724  102.689    0.222    0.571    4.271
  362.974  103.737    0.252    0.589    3.794
  363.224  105.143    0.241    0.602    3.562
  363.474  105.013    0.255    0.605    3.379
  363.724  105.354    0.241    0.606    3.111
  363.974  106.405    0.252    0.600    3.000
  364.224  106.835    0.265    0.594    2.866
  364.474  106.653    0.265    0.582    2.870
  364.724  104.069    0.270    0.567    2.889
  364.974   98.672    0.264    0.554    3.107
  365.224   92.446    0.252    0.534    3.822
  365.474   88.752    0.242    0.515    4.852
  365.724   88.465    0.243    0.517    6.033
  365.974   87.437    0.248    0.524    7.663
  366.224   86.449    0.241    0.515    8.363
  366.474   83.547    0.252    0.510    8.899
  366.724   83.057    0.274    0.518    9.182
  366.974   81.143    0.283    0.502    9.164
  367.224   81.076    0.269    0.474    9.263
  367.474   81.840    0.252    0.466    9.223
  367.724   82.819    0.235    0.493    9.189
  367.974   83.851    0.277    0.513    9.374
  368.224   84.092    0.297    0.529    9.356
  368.474   84.154    0.301    0.519    9.360
  368.724   83.260    0.287    0.521    9.414
  368.974   82.309    0.279    0.524    9.715
  369.224   81.886    0.275    0.506    9.965
  369.474   81.746    0.273    0.483   10.267
  369.724   81.733    0.281    0.484   10.465
  369.974   81.805    0.278    0.502   10.456
  370.224   81.100    0.266    0.514   10.391
  370.474   80.645    0.260    0.509    9.925
  370.724   78.907    0.250    0.494    9.625
  370.974   73.990    0.229    0.481    9.593
  371.224   67.061    0.190    0.465    9.723
  371.474   61.194    0.171    0.432   10.289
  371.724   53.420    0.016    0.278   11.187
  371.974   59.660    0.029    0.285   14.025
  372.224   65.706    0.048    0.395   17.048
  372.474   72.955    0.118    0.473   16.591
  372.724   79.682    0.206    0.496   14.487
  372.974   84.299    0.248    0.500   12.863
  373.224   86.034    0.257    0.479   10.372
  373.474   83.686    0.241    0.483    9.114
  373.724   83.702    0.233    0.491    8.208
  373.974   84.766    0.239    0.496    7.868
  374.224   84.608    0.238    0.511    7.613
  374.474   82.896    0.225    0.531    7.558
  374.724   81.855    0.225    0.537    7.543
  374.974   84.037    0.241    0.512    7.701
  375.224   87.302    0.230    0.514    7.851
  375.474   89.148    0.223    0.510    7.845
  375.724   90.285    0.236    0.510    7.849
  375.974   90.251    0.237    0.516    7.852
  376.224   91.829    0.225    0.519    7.869
  376.474   93.490    0.236    0.518    7.696
  376.724   94.436    0.216    0.519    7.722
  376.974   94.458    0.202    0.532    7.565
  377.224   94.474    0.209    0.541    7.584
  377.474   94.484    0.230    0.535    7.460
  377.724   94.531    0.225    0.539    7.445
  377.974   93.807    0.216    0.538    7.435
  378.224   92.850    0.208    0.513    7.294
  378.474   92.060    0.211    0.516    7.465
  378.724   92.118    0.223    0.518    7.454
  378.974   93.129    0.219    0.516    7.456
  379.224   94.103    0.206    0.526    7.456
  379.474   95.103    0.213    0.530    7.462
  379.724   94.526    0.220    0.543    7.171
  379.974   91.766    0.244    0.554    5.705
  380.224   90.372    0.253    0.557    4.780
  380.474   90.565    0.254    0.573    4.021
  380.724   92.325    0.250    0.587    3.387
  380.974   94.830    0.250    0.599    2.949
  381.224   95.513    0.254    0.606    2.622
  381.474   95.175    0.255    0.606    2.381
  381.724   92.053    0.264    0.605    2.276
  381.974   87.171    0.272    0.602    2.236
  382.224   85.571    0.280    0.589    2.390
  382.474   86.858    0.265    0.580    2.577
  382.724   85.080    0.255    0.546    3.139
  382.974   86.722    0.247    0.509    3.766
  383.224   89.724    0.241    0.512    4.388
  383.474   90.952    0.251    0.516    5.190
  383.724   86.661    0.268    0.503    5.948
  383.974   82.924    0.274    0.500    6.381
  384.224   80.027    0.286    0.499    6.358
  384.474   77.106    0.279    0.499    6.347
  384.724   72.439    0.271    0.505    6.491
  384.974   70.623    0.276    0.497    6.480
  385.224   70.008    0.295    0.485    6.469
  385.474   65.329    0.297    0.492    6.617
  385.724   58.160    0.311    0.491    6.606
  385.974   55.576    0.315    0.464    6.622
  386.224   56.839    0.314    0.478    6.477
  386.474   57.372    0.320    0.486    6.492
  386.724   58.063    0.329    0.483    6.493
  386.974   58.846    0.326    0.480    6.494
  387.224   58.224    0.335    0.490    6.507
  387.474   58.993    0.343    0.503    6.368
  387.724   59.935    0.331    0.514    6.382
  387.974   60.981    0.329    0.507    6.385
  388.224   61.225    0.327    0.491    6.395
  388.474   62.290    0.332    0.503    6.270
  388.724   61.300    0.349    0.515    6.275
  388.974   60.478    0.349    0.509    6.275
  389.224   59.951    0.341    0.499    6.277
  389.474   59.208    0.350    0.495    6.279
  389.724   59.964    0.344    0.497    6.280
  389.974   59.918    0.340    0.504    6.282
  390.224   59.982    0.318    0.501    6.284
  390.474   59.288    0.326    0.470    6.286
  390.724   59.341    0.326    0.473    6.288
  390.974   59.336    0.317    0.491    6.290
  391.224   59.336    0.322    0.495    6.291
  391.474   59.783    0.319    0.488    6.294
  391.724   59.896    0.327    0.472    6.303
  391.974   60.547    0.312    0.479    6.183
  392.224   60.115    0.314    0.491    6.187
  392.474   59.609    0.329    0.502    6.187
  392.724   57.110    0.335    0.464    6.181
  392.974   54.753    0.336    0.456    6.319
  393.224   53.917    0.337    0.469    6.324
  393.474   54.467    0.328    0.479    6.429
  393.724   55.467    0.324    0.484    6.417
  393.974   56.458    0.314    0.483    6.555
  394.224   57.450    0.311    0.490    6.548
  394.474   58.479    0.326    0.490    6.542
  394.724   58.810    0.328    0.485    6.679
  394.974   58.378    0.325    0.493    6.676
  395.224   58.026    0.310    0.493    6.682
  395.474   58.200    0.318    0.487    6.679
  395.724   58.507    0.324    0.499    6.823
  395.974   59.467    0.334    0.512    6.836
  396.224   59.468    0.338    0.534    6.942
  396.474   58.584    0.324    0.454    6.946
  396.724   56.913    0.330    0.464    6.958
  396.974   55.994    0.316    0.479    7.077
  397.224   55.154    0.317    0.490    7.023
  397.474   55.889    0.321    0.500    6.951
  397.724   60.007    0.309    0.509    6.952
  397.974   58.781    0.317    0.494    6.963
  398.224   59.475    0.313    0.492    6.829
  398.474   59.095    0.319    0.497    6.847
