~VERSION INFORMATION
 VERS.                 2.0:   CWLS LOG ASCII STANDARD -VERSION 2.0
 WRAP.                  NO:   ONE LINE PER DEPTH STEP
~WELL INFORMATION BLOCK
#MNEM.UNIT           DATA                    DESCRIPTION OF MNEMONIC
#---------    -------------------            -------------------------------
# Generated from Intellog Unique Number	CS_73_76/WELL/3236
WELL.         PACIFIC KIRBY                  : Well_name    - WELL
LOC .         00/10-16-075-06W4/0            : Location     - LOCATION
UWI .         00/10-16-075-06W4/0            : Uwi          - UNIQUE WELL ID
ENTR.         SP                             : Entered      - ENTERED BY
SRVC.         SCHLUMBERGER                   : Scn          - SERVICE COMPANY
STRT.M        230                            : top_depth    - START DEPTH
STOP.M        493                            : bot_depth    - STOP DEPTH
STEP.M        0.25                           : increment    - STEP LENGTH
 NULL. -999.2500:NULL Value
~CURVE INFORMATION BLOCK
#MNEM UNIT       ERCB CURVE CODE    CURVE DESCRIPTION
#-----------   ------------------   ----------------------------------
DEPT.M        00 001 00 00         : DEPTH        - DEPTH
GR  .API      00 310 00 00         : GR           - GAMMA RAY
NPHI.V/V      00 330 00 00         : PHIN         - NEUTRON POROSITY (LIMESTONE)
DPHI.V/V      00 890 00 00         : PHID         - DENSITY POROSITY (LIMESTONE)
ILD .OHMM     00 120 00 00         : RESD         - DEEP RESISTIVITY (DIL)
~PARAMETER INFORMATION
#MNEM.UNIT           DATA             DESCRIPTION OF MNEMONIC
#---------         -----------     ------------------------------
GL  .M        621.4                : gl           - GROUND LEVEL ELEVATION
EREF.M        625.6                : kb           - ELEVATION OF DEPTH REFERENCE
DATM.M        621.4                : datum        - DATUM ELEVATION
TDD .M        490                  : tdd          - TOTAL DEPTH DRILLER
RUN .         ONE                  : Run          - RUN NUMBER
ENG .         BILL                 : Engineer     - RECORDING ENGINEER
WIT .         JIM                  : Witness      - WITNESSED BY
MUD .         GEL                  : Mud_type     - MUD TYPE
MATR.         LIMESTONE            : Logunit      - NEUTRON MATRIX
TMAX.C        22                   : BHT          - MAXIMUM RECORDED TEMPERATURE
BHTD.M        490                  : BHTDEP       - MAXIMUM RECORDED TEMPERATURE
MATR.         1                    : LOGUNIT      - NEUTRON MATRIX
RMT .C        25                   : MDTP         - TEMPERATURE OF MUD
NEUT.         1                    : NEUTRON      - NEUTRON TYPE
RESI.         0                    : RESIST       - RESISTIVITY TYPE
RMC .OHMM     0.25                 : RMC          - RESISTIVITY OF MUD CAKE
RMF .OHMM     0.25                 : RMF          - RESISTIVITY OF MUD FILTRATE
SUFT.C        15                   : SUFT         - SURFACE TEMPERATURE
~A  DEPTH       GR     PHIN     PHID     RESD
# ...
  317.000   68.865    0.466    0.327    6.250
  317.250   68.248    0.471    0.326    5.912
  317.500   68.850    0.473    0.321    5.696
  317.750   69.450    0.450    0.310    5.696
  318.000   69.441    0.440    0.309    6.020
  318.250   68.218    0.428    0.305    6.132
  318.500   67.604    0.423    0.285    6.132
  318.750   68.201    0.452    0.266    5.486
  319.000   76.695    0.463    0.292    4.643
  319.250   85.795    0.481    0.302    3.718
  319.500   90.040    0.510    0.287    3.147
  319.750   88.210    0.525    0.282    4.154
  320.000   83.345    0.543    0.289    5.383
  320.250   74.833    0.503    0.308    6.975
  320.500   73.005    0.468    0.320    9.039
  320.750   71.782    0.449    0.315    9.914
  321.000   72.988    0.460    0.300    9.913
  321.250   76.624    0.469    0.286    8.870
  321.500   79.651    0.461    0.285    8.235
  321.750   80.251    0.456    0.302    8.235
  322.000   79.636    0.450    0.293    8.704
  322.250   79.022    0.474    0.291    9.547
  322.500   78.404    0.492    0.299   10.092
  322.750   79.006    0.498    0.305   10.472
  323.000   78.998    0.473    0.307   11.069
  323.250   78.381    0.455    0.312   11.274
  323.500   75.334    0.467    0.314   11.698
  323.750   74.115    0.460    0.325   11.697
  324.000   70.461    0.469    0.330   11.696
  324.250   69.241    0.484    0.327   10.860
  324.500   70.445    0.474    0.310   10.083
  324.750   74.687    0.467    0.309    8.224
  325.000   77.716    0.465    0.310    7.091
  325.250   79.533    0.461    0.296    6.114
  325.500   84.379    0.448    0.273    5.175
  325.750   86.803    0.470    0.267    4.545
  326.000   91.042    0.487    0.285    4.220
  326.250   92.858    0.502    0.306    3.991
  326.500   95.281    0.520    0.291    3.918
  326.750   95.881    0.530    0.317    3.845
  327.000   96.480    0.531    0.325    3.917
  327.250   96.472    0.533    0.330    3.990
  327.500   97.674    0.530    0.324    4.064
  327.750   98.276    0.537    0.294    4.217
  328.000   98.876    0.552    0.307    4.375
  328.250   99.476    0.536    0.302    4.457
  328.500   99.468    0.516    0.274    4.624
  328.750   98.851    0.531    0.270    4.798
  329.000   98.842    0.545    0.272    4.887
  329.250   98.836    0.527    0.254    4.797
  329.500   97.612    0.503    0.241    4.622
  329.750   96.999    0.475    0.232    4.537
  330.000   93.953    0.481    0.235    4.537
  330.250   92.124    0.495    0.248    4.621
  330.500   92.116    0.494    0.259    4.707
  330.750   92.716    0.489    0.262    4.884
  331.000   95.137    0.478    0.265    5.067
  331.250   95.736    0.503    0.249    5.161
  331.500   95.728    0.487    0.221    5.356
  331.750   96.934    0.470    0.209    5.455
  332.000   96.927    0.464    0.224    5.557
  332.250   92.668    0.466    0.238    5.660
  332.500   93.267    0.470    0.235    5.765
  332.750   93.257    0.476    0.229    5.764
  333.000   93.858    0.481    0.226    5.764
  333.250   96.885    0.494    0.225    5.657
  333.500   99.305    0.508    0.217    5.657
  333.750   99.300    0.503    0.214    5.350
  334.000   98.077    0.500    0.229    5.061
  334.250   97.462    0.499    0.234    4.876
  334.500   95.630    0.496    0.214    4.786
  334.750   94.410    0.494    0.199    4.444
  335.000   95.008    0.484    0.212    4.362
  335.250   96.822    0.491    0.229    4.126
  335.500   98.636    0.526    0.242    3.831
  335.750   99.233    0.538    0.263    3.623
  336.000   98.011    0.560    0.266    3.303
  336.250   97.397    0.567    0.290    3.010
  336.500   96.781    0.579    0.320    2.744
  336.750   98.595    0.600    0.342    2.548
  337.000   99.803    0.608    0.357    2.455
  337.250   99.187    0.604    0.320    2.409
  337.500   99.786    0.595    0.309    2.500
  337.750  100.386    0.579    0.303    2.546
  338.000  100.983    0.575    0.280    2.594
  338.250  100.371    0.579    0.253    2.642
  338.500   98.540    0.587    0.267    2.793
  338.750   97.316    0.595    0.275    2.952
  339.000   97.916    0.602    0.287    3.120
  339.250   99.729    0.598    0.284    3.298
  339.500  100.936    0.526    0.264    3.422
  339.750   99.106    0.508    0.250    3.551
  340.000   96.062    0.503    0.262    3.753
  340.250   91.195    0.496    0.263    3.753
  340.500   86.330    0.496    0.279    3.752
  340.750   75.996    0.512    0.291    3.683
  341.000   68.702    0.511    0.295    3.615
  341.250   63.230    0.511    0.302    3.357
  341.500   59.578    0.483    0.313    3.059
  341.750   58.355    0.456    0.315    2.948
  342.000   58.953    0.435    0.319    2.788
  342.250   59.554    0.439    0.305    2.788
  342.500   62.580    0.443    0.302    2.788
  342.750   63.790    0.454    0.306    2.736
  343.000   61.350    0.458    0.306    2.736
  343.250   59.521    0.454    0.301    2.736
  343.500   58.907    0.437    0.306    2.735
  343.750   59.504    0.432    0.307    2.735
  344.000   60.106    0.436    0.307    2.735
  344.250   61.311    0.432    0.307    2.734
  344.500   63.733    0.435    0.310    2.734
  344.750   64.940    0.440    0.322    2.684
  345.000   65.539    0.449    0.323    2.683
  345.250   64.925    0.449    0.325    2.683
  345.500   60.057    0.448    0.335    2.733
  345.750   58.836    0.447    0.333    2.733
  346.000   60.041    0.455    0.328    2.682
  346.250   61.249    0.459    0.319    2.682
  346.500   61.848    0.465    0.315    2.682
  346.750   61.233    0.468    0.316    2.681
  347.000   60.617    0.463    0.317    2.681
  347.250   61.824    0.459    0.317    2.681
  347.500   63.638    0.464    0.316    2.680
  347.750   64.237    0.469    0.316    2.730
  348.000   63.012    0.453    0.323    2.781
  348.250   63.006    0.448    0.328    2.781
  348.500   62.994    0.450    0.327    2.832
  348.750   64.204    0.444    0.307    2.885
  349.000   66.625    0.436    0.304    2.885
  349.250   69.046    0.435    0.312    2.993
  349.500   70.251    0.436    0.326    3.049
  349.750   71.459    0.438    0.328    3.049
  350.000   72.059    0.439    0.325    3.048
  350.250   74.474    0.447    0.320    2.992
  350.500   75.685    0.462    0.321    2.992
  350.750   76.892    0.465    0.320    3.047
  351.000   78.096    0.458    0.313    3.162
  351.250   78.698    0.451    0.309    3.221
  351.500   79.903    0.451    0.290    3.281
  351.750   79.290    0.479    0.282    3.404
  352.000   77.459    0.492    0.285    3.467
  352.250   75.628    0.493    0.290    3.467
  352.500   74.406    0.481    0.299    3.403
  352.750   73.793    0.477    0.294    3.340
  353.000   72.569    0.483    0.292    3.340
  353.250   73.170    0.495    0.280    3.402
  353.500   75.589    0.489    0.284    3.465
  353.750   77.401    0.483    0.286    3.662
  354.000   79.823    0.473    0.286    3.731
  354.250   81.032    0.465    0.282    3.943
  354.500   82.846    0.467    0.273    4.016
  354.750   84.656    0.473    0.268    4.091
  355.000   85.864    0.477    0.249    4.016
  355.250   88.282    0.489    0.234    3.399
  355.500   90.707    0.495    0.224    2.824
  355.750   94.342    0.500    0.230    2.303
  356.000   95.550    0.485    0.221    2.061
  356.250   94.326    0.478    0.220    1.878
  356.500   93.105    0.479    0.218    1.744
  356.750   93.097    0.487    0.218    1.744
  357.000   93.694    0.490    0.221    1.776
  357.250   95.510    0.499    0.218    1.776
  357.500   97.931    0.513    0.206    1.877
  357.750   96.707    0.520    0.214    1.948
  358.000   91.842    0.522    0.220    2.059
  358.250   93.046    0.502    0.206    2.217
  358.500   96.075    0.494    0.209    2.343
  358.750   99.102    0.505    0.220    2.523
  359.000  100.919    0.515    0.226    2.618
  359.250  100.912    0.535    0.216    2.717
  359.500  103.333    0.545    0.221    2.767
  359.750  101.500    0.557    0.225    2.925
  360.000  102.099    0.580    0.234    3.035
  360.250  100.269    0.567    0.245    3.149
