~VERSION INFORMATION
 VERS.                 2.0:   CWLS LOG ASCII STANDARD -VERSION 2.0
 WRAP.                  NO:   ONE LINE PER DEPTH STEP
~WELL INFORMATION BLOCK
#MNEM.UNIT           DATA                    DESCRIPTION OF MNEMONIC
#---------    -------------------            -------------------------------
# Generated from Intellog Unique Number	CW_76_78/WELL/1030
WELL.         PCP MARTIN HILLS 11-33         : Well_name    - WELL
LOC .         00/11-33-076-04W5/0            : Location     - LOCATION
UWI .         00/11-33-076-04W5/0            : Uwi          - UNIQUE WELL ID
ENTR.         JAYE                           : Entered      - ENTERED BY
SRVC.         SCHLUMBERGER                   : Scn          - SERVICE COMPANY
DATE.         11 FEB 74                      : Date         - LOG DATE
STRT.M        426.72                         : top_depth    - START DEPTH
STOP.M        670.47                         : bot_depth    - STOP DEPTH
STEP.M        0.25                           : increment    - STEP LENGTH
 NULL. -999.2500:NULL Value
~CURVE INFORMATION BLOCK
#MNEM UNIT       ERCB CURVE CODE    CURVE DESCRIPTION
#-----------   ------------------   ----------------------------------
DEPT.M        00 001 00 00         : DEPTH        - DEPTH
ILD .OHMM     00 120 00 00         : RESD         - DEEP RESISTIVITY (DIL)
NPHI.V/V      00 330 00 00         : PHIN         - NEUTRON POROSITY (SANDSTONE)
DPHI.V/V      00 890 00 00         : PHID         - DENSITY POROSITY (SANDSTONE)
GR  .API      00 310 00 00         : GR           - GAMMA RAY
CALI.MM       00 280 01 00         : CAL          - CALIPER
~PARAMETER INFORMATION
#MNEM.UNIT           DATA             DESCRIPTION OF MNEMONIC
#---------         -----------     ------------------------------
GL  .M        741.578              : gl           - GROUND LEVEL ELEVATION
EREF.M        745.541              : kb           - ELEVATION OF DEPTH REFERENCE
DATM.M        741.578              : datum        - DATUM ELEVATION
TDD .M        684.276              : tdd          - TOTAL DEPTH DRILLER
RUN .         ONE                  : Run          - RUN NUMBER
MATR.         SANDSTONE            : Logunit      - NEUTRON MATRIX
TMAX.C        26.6667              : BHT          - MAXIMUM RECORDED TEMPERATURE
BHTD.M        684.276              : BHTDEP       - MAXIMUM RECORDED TEMPERATURE
RMT .C        16.6667              : MDTP         - TEMPERATURE OF MUD
MUDD.KG/M     0                    : MWT          - MUD DENSITY
NEUT.         1                    : NEUTRON      - NEUTRON TYPE
RESI.         0                    : RESIST       - RESISTIVITY TYPE
RM  .OHMM     5.95                 : RM           - RESISTIVITY OF MUD
RMC .OHMM     0                    : RMC          - RESISTIVITY OF MUD CAKE
RMF .OHMM     4.61                 : RMF          - RESISTIVITY OF MUD FILTRATE
SUFT.C        -17.7778             : SUFT         - SURFACE TEMPERATURE
~A  DEPTH     RESD     PHIN     PHID       GR      CAL
# ...
  463.220    7.844    0.419    0.293   53.542  200.122
  463.470    7.779    0.423    0.322   54.549  200.450
  463.720    7.728    0.417    0.321   55.367  200.567
  463.970    7.650    0.414    0.320   55.750  200.476
  464.220    7.600    0.420    0.324   55.819  200.487
  464.470    7.524    0.433    0.328   56.014  200.498
  464.720    7.503    0.427    0.321   56.334  200.510
  464.970    7.469    0.411    0.309   56.715  200.416
  465.220    7.474    0.424    0.318   56.971  200.431
  465.470    7.466    0.441    0.326   57.228  200.440
  465.720    7.474    0.423    0.320   56.673  200.558
  465.970    7.494    0.414    0.322   53.996  200.785
  466.220    7.528    0.412    0.326   52.505  200.902
  466.470    7.507    0.426    0.321   52.637  201.019
  466.720    7.499    0.432    0.310   52.020  201.242
  466.970    7.479    0.419    0.298   52.776  201.571
  467.220    7.308    0.434    0.297   54.407  201.797
  467.470    7.024    0.427    0.319   57.035  201.913
  467.720    6.676    0.420    0.308   57.480  202.029
  467.970    6.208    0.425    0.315   54.741  201.937
  468.220    5.890    0.436    0.327   51.690  201.844
  468.470    5.650    0.447    0.344   50.135  201.855
  468.720    5.481    0.456    0.344   48.832  201.554
  468.970    5.537    0.449    0.336   47.715  201.460
  469.220    5.655    0.421    0.321   46.599  201.366
  469.470    5.829    0.402    0.320   46.044  201.273
  469.720    6.031    0.393    0.322   46.302  201.071
  469.970    6.194    0.389    0.326   47.557  200.976
  470.220    6.374    0.399    0.320   48.564  200.992
  470.470    6.485    0.436    0.305   48.009  201.002
  470.720    6.444    0.437    0.327   46.954  201.014
  470.970    6.296    0.440    0.334   46.150  201.025
  471.220    6.108    0.447    0.330   46.094  201.037
  471.470    5.946    0.462    0.336   46.913  201.049
  471.720    5.853    0.475    0.333   48.231  200.851
  471.970    5.762    0.456    0.321   49.425  200.862
  472.220    5.693    0.447    0.329   50.056  200.769
  472.470    5.595    0.439    0.306   50.501  200.571
  472.720    5.538    0.441    0.327   50.569  200.476
  472.970    5.533    0.455    0.325   50.639  200.279
  473.220    5.537    0.466    0.320   50.585  200.082
  473.470    5.552    0.454    0.302   50.530  199.879
  473.720    5.567    0.439    0.295   50.537  199.678
  473.970    5.593    0.427    0.323   50.480  199.691
  474.220    5.639    0.425    0.325   50.302  199.388
  474.470    5.686    0.430    0.318   49.933  199.398
  474.720    5.733    0.434    0.327   48.692  198.990
  474.970    5.748    0.440    0.330   47.201  198.999
  475.220    5.721    0.460    0.319   45.898  199.119
  475.470    5.726    0.440    0.300   44.532  199.235
  475.720    5.838    0.403    0.306   42.916  199.354
  475.970    6.119    0.394    0.283   40.739  199.155
  476.220    6.544    0.385    0.261   40.558  199.271
  476.470    6.948    0.361    0.240   43.873  200.235
  476.720    7.280    0.387    0.242   47.313  200.247
  476.970    7.010    0.408    0.306   50.192  200.364
  477.220    6.202    0.408    0.327   49.575  200.271
  477.470    5.798    0.413    0.312   46.648  200.179
  477.720    5.492    0.435    0.313   45.096  199.875
  477.970    5.337    0.446    0.300   45.227  199.780
  478.220    5.168    0.443    0.280   45.797  199.581
  478.470    5.040    0.430    0.296   46.428  199.174
  478.720    4.925    0.423    0.305   46.747  198.865
  478.970    4.821    0.420    0.299   46.568  198.454
  479.220    4.764    0.419    0.295   45.887  198.466
  479.470    4.795    0.407    0.300   45.270  198.481
  479.720    4.834    0.412    0.286   44.029  198.599
  479.970    4.965    0.391    0.291   43.288  198.820
  480.220    5.251    0.391    0.299   43.169  198.937
  480.470    5.669    0.405    0.320   43.426  199.267
  480.720    5.832    0.392    0.338   44.057  200.019
  480.970    5.837    0.389    0.323   45.313  200.139
  481.220    5.726    0.412    0.322   47.818  200.150
  481.470    5.657    0.420    0.329   50.384  200.055
  481.720    5.589    0.407    0.314   53.387  199.963
  481.970    5.595    0.397    0.318   55.204  199.868
  482.220    5.599    0.398    0.313   53.901  199.565
  482.470    5.604    0.412    0.294   52.347  199.469
  482.720    5.609    0.418    0.293   52.667  199.481
  482.970    5.645    0.415    0.308   53.423  199.387
  483.220    5.702    0.423    0.315   50.434  199.295
  483.470    5.749    0.441    0.309   44.324  199.412
  483.720    5.786    0.471    0.315   42.334  199.323
  483.970    5.899    0.450    0.333   45.898  199.229
  484.220    6.014    0.423    0.340   53.272  199.135
  484.470    5.974    0.363    0.284   60.144  199.041
  484.720    5.524    0.366    0.277   68.017  199.157
  484.970    5.222    0.384    0.263   74.017  199.381
  485.220    4.372    0.417    0.243   77.707  199.497
  485.470    4.013    0.427    0.212   80.085  200.146
  485.720    3.793    0.426    0.204   78.283  200.367
  485.970    3.619    0.431    0.253   76.730  200.698
  486.220    3.786    0.452    0.268   73.928  201.029
  486.470    4.020    0.459    0.286   73.186  201.144
  486.720    4.275    0.456    0.285   74.505  201.369
  486.970    4.431    0.458    0.263   76.009  201.485
  487.220    4.181    0.471    0.232   77.951  201.603
  487.470    3.909    0.482    0.232   79.019  201.616
  487.720    3.503    0.478    0.238   77.841  201.522
  487.970    3.076    0.470    0.275   70.919  201.216
  488.220    2.865    0.463    0.285   61.001  200.809
  488.470    3.121    0.456    0.320   55.016  200.502
  488.720    3.489    0.450    0.305   51.715  200.301
  488.970    4.092    0.440    0.286   47.290  199.892
  489.220    4.694    0.398    0.263   42.055  199.693
  489.470    5.494    0.421    0.282   38.753  199.386
  489.720    5.963    0.445    0.330   39.322  199.293
  489.970    6.034    0.430    0.325   41.327  198.990
  490.220    5.897    0.402    0.318   43.394  198.683
  490.470    5.773    0.394    0.327   38.220  198.589
  490.720    5.663    0.379    0.331   35.606  198.285
  490.970    5.585    0.387    0.322   38.484  198.296
  491.220    5.578    0.404    0.326   40.364  198.204
  491.470    5.573    0.418    0.352   40.809  198.004
  491.720    5.578    0.430    0.347   40.504  197.806
  491.970    5.604    0.438    0.335   40.448  197.605
  492.220    5.639    0.425    0.315   40.768  197.407
  492.470    5.687    0.409    0.323   41.024  197.418
  492.720    5.786    0.416    0.336   42.592  197.326
  492.970    5.921    0.430    0.353   44.846  197.443
  493.220    6.025    0.458    0.369   46.726  197.562
  493.470    6.087    0.447    0.351   46.296  197.997
  493.720    6.137    0.410    0.331   45.991  198.430
  493.970    6.199    0.382    0.313   51.304  198.759
  494.220    6.390    0.392    0.300   55.556  198.879
  494.470    6.672    0.445    0.328   62.241  199.208
  494.720    6.653    0.462    0.360   60.065  199.324
  494.970    6.164    0.450    0.335   52.270  199.338
  495.220    5.783    0.437    0.330   47.345  199.455
  495.470    5.498    0.423    0.347   43.857  199.363
  495.720    5.413    0.412    0.338   41.804  199.375
  495.970    5.478    0.406    0.324   40.938  199.494
  496.220    5.573    0.401    0.326   41.194  199.611
  496.470    5.787    0.392    0.336   41.638  199.515
  496.720    6.010    0.379    0.332   41.708  199.316
  496.970    6.207    0.361    0.329   40.904  199.328
  497.220    6.433    0.339    0.330   40.099  199.658
  497.470    6.620    0.317    0.323   39.545  200.094
  497.720    6.650    0.371    0.326   38.990  200.527
  497.970    6.380    0.386    0.345   38.937  200.858
  498.220    6.019    0.404    0.357   39.254  201.186
  498.470    5.669    0.415    0.330   39.699  201.304
  498.720    5.281    0.425    0.340   39.644  201.317
  498.970    5.085    0.410    0.364   39.213  200.905
  499.220    5.108    0.395    0.359   39.157  199.861
  499.470    5.208    0.393    0.348   40.101  200.507
