~VERSION INFORMATION
 VERS.                 2.0:   CWLS LOG ASCII STANDARD -VERSION 2.0
 WRAP.                  NO:   ONE LINE PER DEPTH STEP
~WELL INFORMATION BLOCK
#MNEM.UNIT           DATA                    DESCRIPTION OF MNEMONIC
#---------    -------------------            -------------------------------
# Generated from Intellog Unique Number	CW_70_72/WELL/1067
NULL.         -999.25                        : NULL_VALUE
WELL.         WINCAN ET AL CALL W 12-30      : Well_name    - WELL              
LOC .         12-30-071-19W4                 : Location     - LOCATION          
UWI .         00/12-30-071-19W4/0            : Uwi          - UNIQUE WELL ID    
ENTR.         JAYE                           : Entered      - ENTERED BY        
SRVC.         SCHLUMBERGER                   : Scn          - SERVICE COMPANY   
DATE.         19 FEB 80                      : Date         - LOG DATE          
STRT.M        305                            : top_depth    - START DEPTH       
STOP.M        495                            : bot_depth    - STOP DEPTH        
STEP.M        0.25                           : increment    - STEP LENGTH       
~CURVE INFORMATION BLOCK
#MNEM UNIT       ERCB CURVE CODE    CURVE DESCRIPTION
#-----------   ------------------   ----------------------------------
DEPT.M        00 001 00 00         : DEPTH        - DEPTH                       
DPHI.V/V      00 890 00 00         : PHID         - DENSITY POROSITY (SANDSTONE)
NPHI.V/V      00 330 00 00         : PHIN         - NEUTRON POROSITY (SANDSTONE)
GR  .API      00 310 00 00         : GR           - GAMMA RAY                   
CALI.MM       00 280 01 00         : CAL          - CALIPER                     
ILD .OHMM     00 120 00 00         : RESD         - DEEP RESISTIVITY (DIL)      
~PARAMETER INFORMATION       
#MNEM.UNIT           DATA             DESCRIPTION OF MNEMONIC
#---------         -----------     ------------------------------
GL  .M        592.17               : gl           - GROUND LEVEL ELEVATION      
EREF.M        596.27               : kb           - ELEVATION OF DEPTH REFERENCE
DATM.M        592.17               : datum        - DATUM ELEVATION             
TDD .M        498                  : tdd          - TOTAL DEPTH DRILLER         
RUN .         ONE                  : Run          - RUN NUMBER                  
ENG .         HOOK                 : Engineer     - RECORDING ENGINEER          
WIT .         WAUNCH               : Witness      - WITNESSED BY                
BASE.         EDM                  : Branch       - HOME BASE OF LOGGING UNIT   
MUD .         GEL CHEM             : Mud_type     - MUD TYPE                    
MATR.         SANDSTONE            : Logunit      - NEUTRON MATRIX              
TMAX.C        27.5                 : BHT          - MAXIMUM RECORDED TEMPERATURE
BHTD.M        498                  : BHTDEP       - MAXIMUM RECORDED TEMPERATURE
RMT .C        18.9                 : MDTP         - TEMPERATURE OF MUD          
MUDD.KG/M     9.5                  : MWT          - MUD DENSITY                 
NEUT.         1                    : NEUTRON      - NEUTRON TYPE                
RESI.         0                    : RESIST       - RESISTIVITY TYPE            
RM  .OHMM     4.68                 : RM           - RESISTIVITY OF MUD          
RMC .OHMM     0                    : RMC          - RESISTIVITY OF MUD CAKE     
RMF .OHMM     4.03                 : RMF          - RESISTIVITY OF MUD FILTRATE 
SUFT.C        0                    : SUFT         - SURFACE TEMPERATURE         
~A  DEPTH     PHID     PHIN       GR      CAL     RESD
  305.000    0.198    0.515   92.215  189.182    3.054
  305.250    0.208    0.508   90.942  191.010    3.128
  305.500    0.216    0.502   87.792  192.225    3.186
  305.750    0.209    0.490   85.331  192.605    3.245
  306.000    0.206    0.482   84.804  192.673    3.292
  306.250    0.216    0.480   85.657  192.630    3.298
  306.500    0.229    0.500   87.007  193.103    3.200
  306.750    0.233    0.506   88.796  194.319    3.058
  307.000    0.236    0.489   89.898  195.528    2.870
  307.250    0.244    0.472   89.498  197.254    2.728
  307.500    0.234    0.483   90.476  198.261    2.697
  307.750    0.227    0.497   91.451  198.223    2.741
  308.000    0.218    0.492   90.924  197.140    2.813
  308.250    0.218    0.477   89.838  195.642    2.892
  308.500    0.219    0.469   88.437  193.100    2.956
  308.750    0.222    0.473   86.412  185.557    3.005
  309.000    0.256    0.484   84.202  178.747    3.010
  309.250    0.243    0.492   81.427  177.034    2.986
  309.500    0.253    0.498   77.777  179.185    2.953
  309.750    0.262    0.505   73.751  182.582    2.967
  310.000    0.275    0.519   70.476  184.213    3.079
  310.250    0.297    0.519   67.139  180.838    3.393
  310.500    0.312    0.484   64.427  171.833    3.901
  310.750    0.308    0.459   63.149  163.982    4.833
  311.000    0.276    0.431   60.877  156.961    5.496
  311.250    0.288    0.404   58.914  152.746    5.650
  311.500    0.280    0.420   59.703  151.667    5.649
  311.750    0.267    0.437   62.867  152.250    5.522
  312.000    0.254    0.443   66.531  153.356    5.317
  312.250    0.235    0.446   68.384  155.300    5.073
  312.500    0.212    0.450   64.921  157.027    4.868
  312.750    0.215    0.452   60.769  157.512    4.644
  313.000    0.272    0.456   59.683  155.593    4.424
  313.250    0.285    0.458   61.845  153.678    4.292
  313.500    0.298    0.457   65.449  152.480    4.171
  313.750    0.305    0.452   68.738  152.341    4.101
  314.000    0.299    0.449   71.776  152.621    4.146
  314.250    0.288    0.444   75.004  153.310    4.239
  314.500    0.276    0.438   78.168  155.562    4.237
  314.750    0.252    0.432   80.457  158.541    4.173
  315.000    0.233    0.455   83.245  162.565    4.155
  315.250    0.208    0.451   85.973  169.299    4.209
  315.500    0.200    0.435   87.699  177.594    4.360
  315.750    0.208    0.418   86.488  185.266    4.583
  316.000    0.222    0.401   84.777  179.911    4.827
  316.250    0.246    0.392   84.501  164.759    5.124
  316.500    0.238    0.388   83.353  159.508    5.337
  316.750    0.228    0.387   81.515  158.319    5.435
  317.000    0.220    0.385   79.490  157.439    5.536
  317.250    0.227    0.382   76.716  156.666    5.638
  317.500    0.238    0.387   72.688  156.640    5.701
  317.750    0.246    0.385   69.351  156.492    5.730
  318.000    0.245    0.376   66.575  156.550    5.760
  318.250    0.232    0.364   69.679  157.240    5.801
  318.500    0.220    0.375   71.780  157.728    5.864
  318.750    0.209    0.381   72.944  158.421    5.918
  319.000    0.230    0.386   73.233  159.318    5.917
  319.250    0.234    0.402   72.769  160.414    5.870
  319.500    0.241    0.411   71.684  160.801    5.792
  319.750    0.257    0.417   69.908  160.342    5.619
  320.000    0.278    0.412   70.633  157.072    5.291
  320.250    0.284    0.412   73.298  154.318    4.992
  320.500    0.273    0.414   76.776  151.991    4.755
  320.750    0.261    0.417   80.254  149.026    4.562
  321.000    0.256    0.421   83.416  147.837    4.417
  321.250    0.254    0.427   87.019  148.119    4.238
  321.500    0.250    0.442   90.684  150.055    4.021
  321.750    0.219    0.462   90.910  152.101    3.738
  322.000    0.194    0.495   90.629  154.041    3.494
  322.250    0.185    0.489   90.424  155.877    3.175
  322.500    0.180    0.485   89.397  155.618    2.913
  322.750    0.169    0.484   88.749  155.483    2.780
  323.000    0.188    0.498   89.038  155.435    2.732
  323.250    0.197    0.520   91.076  154.776    2.762
  323.500    0.224    0.522   95.117  154.519    2.813
  323.750    0.207    0.510   97.657  156.357    2.802
  324.000    0.226    0.492   97.383  161.847    2.764
  324.250    0.239    0.482   95.796  172.120    2.805
  324.500    0.229    0.472   92.206  169.999    3.027
  324.750    0.221    0.457   88.870  162.140    3.580
  325.000    0.231    0.425   84.844  161.473    4.109
  325.250    0.228    0.413   80.817  163.199    4.663
  325.500    0.219    0.410   77.669  165.353    5.023
  325.750    0.216    0.403   73.456  165.836    5.351
  326.000    0.250    0.398   69.618  163.400    5.994
  326.250    0.268    0.392   66.155  160.438    6.944
  326.500    0.285    0.380   62.880  158.213    8.136
  326.750    0.305    0.378   60.918  156.189    9.426
  327.000    0.290    0.388   61.267  155.104   10.898
  327.250    0.281    0.402   60.869  154.647   11.142
  327.500    0.290    0.410   62.658  154.396   10.300
  327.750    0.300    0.413   66.322  154.366    9.590
  328.000    0.274    0.419   68.860  154.320    8.865
  328.250    0.278    0.424   68.463  154.377    8.473
  328.500    0.281    0.430   65.249  154.240    8.891
  328.750    0.277    0.436   59.037  154.092   10.399
  329.000    0.287    0.441   55.135  153.843   12.047
  329.250    0.309    0.432   52.360  153.807   13.903
  329.500    0.310    0.442   50.397  153.663   16.782
  329.750    0.296    0.456   49.935  153.622   18.662
  330.000    0.287    0.457   51.663  153.791   19.953
  330.250    0.294    0.448   54.203  153.648   21.370
  330.500    0.286    0.438   54.302  153.089   22.848
  330.750    0.273    0.428   53.277  152.625   24.204
  331.000    0.262    0.421   53.566  152.799   25.019
  331.250    0.258    0.423   54.727  154.426   24.188
  331.500    0.251    0.432   56.391  154.900   22.690
  331.750    0.258    0.439   57.370  154.550   19.758
  332.000    0.266    0.450   57.846  154.300   16.448
  332.250    0.268    0.467   57.947  154.161   13.319
  332.500    0.272    0.476   58.923  153.803   11.594
  332.750    0.283    0.481   60.463  153.764   10.818
  333.000    0.279    0.468   57.687  153.718   11.017
  333.250    0.285    0.460   54.787  153.580   11.540
  333.500    0.299    0.467   54.385  153.440   12.977
  333.750    0.317    0.456   54.861  153.285   14.950
  334.000    0.329    0.455   56.652  153.035   16.041
  334.250    0.330    0.459   59.565  152.899   15.511
  334.500    0.322    0.465   61.730  152.960   14.254
  334.750    0.312    0.468   64.080  153.019   12.668
  335.000    0.299    0.461   67.434  153.293   10.968
  335.250    0.280    0.450   72.597  153.469    9.513
  335.500    0.261    0.452   76.263  153.732    8.409
  335.750    0.250    0.458   80.304  154.012    7.254
  336.000    0.242    0.449   85.279  155.117    6.316
  336.250    0.226    0.453   90.259  156.744    5.238
  336.500    0.229    0.456   97.049  158.478    4.394
  336.750    0.229    0.438   95.023  159.479    4.450
  337.000    0.231    0.430   93.812  160.168    4.600
  337.250    0.233    0.428   92.349  160.544    4.910
  337.500    0.242    0.426   91.451  160.401    5.124
  337.750    0.243    0.426   94.177  160.044    5.218
  338.000    0.222    0.423  100.405  160.008    5.178
  338.250    0.209    0.432  101.444  160.587    5.080
  338.500    0.204    0.456   97.982  161.902    4.829
  338.750    0.216    0.471   92.769  164.368    4.456
  339.000    0.221    0.492   89.744  167.033    4.118
  339.250    0.251    0.515   93.156  166.471    3.708
  339.500    0.240    0.530   98.385  164.975    3.326
  339.750    0.225    0.541  102.484  163.789    2.979
  340.000    0.229    0.513  104.525  163.748    2.768
  340.250    0.225    0.493  103.938  164.848    2.656
  340.500    0.219    0.483  102.099  165.541    2.592
  340.750    0.221    0.476  101.639  166.848    2.620
  341.000    0.232    0.471   99.303  167.752    2.780
  341.250    0.246    0.466   94.463  168.548    2.961
