~VERSION INFORMATION
 VERS.                 2.0:   CWLS LOG ASCII STANDARD -VERSION 2.0
 WRAP.                  NO:   ONE LINE PER DEPTH STEP
~WELL INFORMATION BLOCK
#MNEM.UNIT           DATA                    DESCRIPTION OF MNEMONIC
#---------    -------------------            -------------------------------
# Generated from Intellog Unique Number	CW_82_90/WELL/913
WELL.         PARAMOUNT ET AL GRANOR 10-25   : Well_name    - WELL
LOC .         00/10-25-083-19W4/0            : Location     - LOCATION
UWI .         00/10-25-083-19W400            : Uwi          - UNIQUE WELL ID
ENTR.         JAYE                           : Entered      - ENTERED BY
SRVC.         COMPUTALOG                     : Scn          - SERVICE COMPANY
DATE.         4 MAR 77                       : Date         - LOG DATE
STRT.M        183.185                        : top_depth    - START DEPTH
STOP.M        336.685                        : bot_depth    - STOP DEPTH
STEP.M        0.25                           : increment    - STEP LENGTH
 NULL. -999.2500:NULL Value
~CURVE INFORMATION BLOCK
#MNEM UNIT       ERCB CURVE CODE    CURVE DESCRIPTION
#-----------   ------------------   ----------------------------------
DEPT.M        00 001 00 00         : DEPTH        - DEPTH
ILD .OHMM     00 120 00 00         : RESD         - DEEP RESISTIVITY (DIL)
CALI.MM       00 280 01 00         : CAL          - CALIPER
GR  .API      00 310 00 00         : GR           - GAMMA RAY
NPHI.V/V      00 330 00 00         : PHIN         - NEUTRON POROSITY (SANDSTONE)
DPHI.V/V      00 890 00 00         : PHID         - DENSITY POROSITY (SANDSTONE)
~PARAMETER INFORMATION
#MNEM.UNIT           DATA             DESCRIPTION OF MNEMONIC
#---------         -----------     ------------------------------
GL  .M        570.89               : gl           - GROUND LEVEL ELEVATION
EREF.M        573.938              : kb           - ELEVATION OF DEPTH REFERENCE
DATM.M        570.89               : datum        - DATUM ELEVATION
TDD .M        336.499              : tdd          - TOTAL DEPTH DRILLER
RUN .         ONE                  : Run          - RUN NUMBER
ENG .         KING/HALL            : Engineer     - RECORDING ENGINEER
WIT .         CONNELLY             : Witness      - WITNESSED BY
BASE.         MEDICINE HAT         : Branch       - HOME BASE OF LOGGING UNIT
MUD .         GEL CHEM             : Mud_type     - MUD TYPE
MATR.         SANDSTONE            : Logunit      - NEUTRON MATRIX
TMAX.C        0                    : BHT          - MAXIMUM RECORDED TEMPERATURE
BHTD.M        62                   : BHTDEP       - MAXIMUM RECORDED TEMPERATURE
RMT .C        1104                 : MDTP         - TEMPERATURE OF MUD
MUDD.KG/M     58                   : MWT          - MUD DENSITY
NEUT.         9.1                  : NEUTRON      - NEUTRON TYPE
RM  .OHMM     1                    : RM           - RESISTIVITY OF MUD
RMC .OHMM     4.1                  : RMC          - RESISTIVITY OF MUD CAKE
RMF .OHMM     0                    : RMF          - RESISTIVITY OF MUD FILTRATE
SUFT.C        3.5                  : SUFT         - SURFACE TEMPERATURE
SUFT.C        0                    : SUFT         - SURFACE TEMPERATURE
~A  DEPTH     RESD      CAL       GR     PHIN     PHID
# ...
  219.685   10.727  153.784   49.606    0.396    0.320
  219.935   10.597  154.944   48.249    0.373    0.316
  220.185   10.385  155.688   47.265    0.370    0.307
  220.435   10.231  155.908   46.960    0.392    0.302
  220.685   10.149  155.709   45.047    0.391    0.307
  220.935   10.075  155.401   44.928    0.379    0.313
  221.185   10.058  154.990   47.471    0.374    0.317
  221.435   10.041  155.421   48.529    0.390    0.316
  221.685   10.016  155.638   47.915    0.412    0.308
  221.935    9.990  155.647   48.601    0.422    0.297
  222.185    9.941  155.759   47.616    0.424    0.297
  222.435    9.939  156.399   46.508    0.425    0.300
  222.685    9.914  157.036   46.451    0.407    0.304
  222.935    9.889  157.779   46.518    0.392    0.299
  223.185    9.855  158.416   49.123    0.410    0.297
  223.435    9.830  157.586   49.748    0.404    0.300
  223.685    9.789  157.700   48.576    0.390    0.306
  223.935    9.675  159.282   43.755    0.391    0.308
  224.185    9.593  159.709   43.760    0.392    0.307
  224.435    9.511  159.298   47.664    0.379    0.303
  224.685    9.461  159.309   48.969    0.373    0.304
  224.935    9.355  159.631   47.923    0.378    0.303
  225.185    9.201  157.651   47.247    0.405    0.301
  225.435    9.135  157.241   46.200    0.387    0.292
  225.685    9.182  156.621   42.059    0.371    0.292
  225.935    9.214  156.314   40.023    0.358    0.293
  226.185    9.172  157.269   44.112    0.409    0.290
  226.435    9.058  158.010   45.850    0.405    0.292
  226.685    8.944  158.230   47.960    0.417    0.293
  226.935    8.830  158.342   48.708    0.416    0.287
  227.185    8.723  158.563   51.931    0.410    0.280
  227.435    8.779  158.570   53.855    0.393    0.291
  227.685    8.931  158.683   54.478    0.419    0.296
  227.935    9.245  158.798   55.227    0.410    0.281
  228.185    9.664  157.967   55.727    0.409    0.274
  228.435    8.290  158.501   56.723    0.433    0.270
  228.685    4.786  159.242   63.350    0.470    0.239
  228.935    4.018  160.823   73.813    0.470    0.215
  229.185    3.758  162.194   73.261    0.462    0.213
  229.435    3.749  161.995   70.420    0.437    0.187
  229.685    3.901  162.214   68.879    0.430    0.137
  229.935    3.965  163.793   74.515    0.439    0.202
  230.185    3.988  166.110   83.060    0.513    0.209
  230.435    4.100  166.955   83.251    0.512    0.201
  230.685    4.333  166.547   77.068    0.507    0.200
  230.935    4.655  165.821   70.761    0.503    0.210
  231.185    5.114  165.098   73.366    0.492    0.230
  231.435    5.613  164.583   73.742    0.481    0.219
  231.685    6.129  164.068   65.208    0.471    0.199
  231.935    6.886  164.391   65.585    0.429    0.188
  232.185    7.377  163.037   66.518    0.423    0.172
  232.435    7.764  159.484   70.732    0.423    0.160
  232.685    8.207  159.073   76.864    0.424    0.210
  232.935    8.545  159.920   74.208    0.428    0.212
  233.185    8.834  159.618   70.252    0.436    0.209
  233.435    9.059  158.996   71.619    0.430    0.200
  233.685    9.219  157.434   73.791    0.428    0.209
  233.935    9.339  156.498   74.786    0.427    0.209
  234.185    9.459  156.822   74.296    0.426    0.210
  234.435    9.587  157.669   69.660    0.425    0.210
  234.685    9.570  159.566   68.738    0.427    0.198
  234.935    9.472  160.517   69.424    0.444    0.208
  235.185    9.293  160.945   72.028    0.444    0.207
  235.435    9.139  161.164   74.818    0.431    0.201
  235.685    8.976  161.173   77.856    0.422    0.213
  235.935    8.572  161.705   80.708    0.407    0.213
  236.185    8.280  162.659   81.641    0.420    0.210
  236.435    8.255  162.771   74.530    0.439    0.206
  236.685    8.294  162.570   71.688    0.421    0.198
  236.935    8.486  161.114   65.258    0.411    0.205
  237.185    8.768  159.550   64.212    0.403    0.211
  237.435    9.178  157.359   63.041    0.400    0.224
  237.685    9.379  155.900   61.933    0.432    0.224
  237.935    9.467  155.910   63.918    0.434    0.218
  238.185    9.498  156.549   64.604    0.429    0.227
  238.435    9.440  156.871   63.557    0.422    0.228
  238.685    9.423  157.824   61.830    0.409    0.215
  238.935    9.406  158.146   61.773    0.400    0.190
  239.185    9.372  157.841   61.779    0.396    0.109
  239.435    9.396  157.955   62.774    0.398    0.157
  239.685    9.322  158.908   64.203    0.413    0.210
  239.935    9.111  158.184   64.271    0.416    0.229
  240.185    8.795  157.667   63.347    0.416    0.218
  240.435    8.463  158.622   61.806    0.412    0.197
  240.685    8.131  160.200   64.905    0.409    0.159
  240.935    7.637  164.298   68.871    0.407    0.143
  241.185    7.249  167.239   70.175    0.451    0.208
  241.435    7.030  163.370   68.448    0.444    0.235
  241.685    7.004  160.236   69.320    0.434    0.228
  241.935    6.890  161.923   68.211    0.428    0.221
  242.185    6.413  160.359   67.165    0.428    0.236
  242.435    5.621  163.931   67.913    0.451    0.238
  242.685    4.877  163.940   68.351    0.457    0.240
  242.935    4.262  159.338   68.419    0.472    0.242
  243.185    3.769  160.292   68.919    0.459    0.240
  243.435    3.864  158.308   68.429    0.473    0.242
  243.685    4.283  155.489   68.434    0.466    0.250
  243.935    5.025  153.507   66.954    0.458    0.259
  244.185    6.041  152.259   58.977    0.454    0.263
  244.435    7.622  151.954   55.888    0.445    0.258
  244.685    8.266  150.915   58.679    0.432    0.240
  244.935    8.596  151.238   60.293    0.432    0.243
  245.185    8.789  151.770   59.617    0.424    0.250
  245.435    8.739  153.036   60.118    0.411    0.246
  245.685    8.657  156.819   61.236    0.406    0.239
  245.935    8.527  157.770   63.470    0.406    0.250
  246.185    8.413  158.409   65.209    0.438    0.254
  246.435    8.073  159.256   65.586    0.434    0.238
  246.685    7.595  159.264   65.837    0.433    0.224
  246.935    7.344  159.275   65.781    0.437    0.237
  247.185    7.230  159.282   65.415    0.448    0.231
  247.435    7.148  161.074   67.400    0.455    0.222
  247.685    7.147  161.920   74.027    0.452    0.218
  247.935    7.251  161.510   73.167    0.441    0.214
  248.185    7.395  160.472   72.801    0.434    0.206
  248.435    7.491  161.947   73.239    0.431    0.209
  248.685    7.457  163.528   69.284    0.432    0.197
  248.935    7.287  162.700   67.062    0.437    0.188
  249.185    6.971  161.451   71.213    0.438    0.194
  249.435    6.687  163.453   75.240    0.442    0.195
  249.685    6.444  164.509   82.239    0.449    0.200
  249.935    6.273  164.202   77.726    0.442    0.210
  250.185    6.232  163.687   69.130    0.431    0.207
  250.435    6.360  162.755   69.754    0.433    0.203
  250.685    6.625  162.657   72.854    0.438    0.206
  250.935    7.003  161.514   71.498    0.438    0.201
  251.185    7.390  160.790   70.451    0.408    0.196
  251.435    7.889  160.065   70.332    0.407    0.200
  251.685    8.332  157.244   70.833    0.409    0.253
  251.935    8.888  154.948   72.201    0.444    0.247
  252.185    9.597  156.110   72.454    0.408    0.229
  252.435   10.129  158.005   71.406    0.399    0.213
  252.685   10.685  158.330   69.369    0.390    0.195
  252.935   11.345  158.234   60.339    0.378    0.141
  253.185   12.474  158.033   54.837    0.204    0.127
  253.435   13.385  157.938   47.293    0.093    0.108
  253.685   12.973  158.051   54.105    0.046    0.119
  253.935   12.624  158.165   60.113    0.318    0.165
  254.185   12.454  158.278   60.675    0.320    0.177
  254.435   12.009  158.497   58.762    0.257    0.177
  254.685   12.411  158.610   53.879    0.164    0.177
  254.935   13.314  158.515   48.005    0.112    0.183
  255.185   13.660  158.419   51.415    0.116    0.195
  255.435   13.304  158.113   55.566    0.292    0.201
  255.685   12.455  157.599   59.965    0.380    0.198
  255.935   11.832  157.922   62.322    0.412    0.191
