~VERSION INFORMATION
 VERS.                 2.0:   CWLS LOG ASCII STANDARD -VERSION 2.0
 WRAP.                  NO:   ONE LINE PER DEPTH STEP
~WELL INFORMATION BLOCK
#MNEM.UNIT           DATA                    DESCRIPTION OF MNEMONIC
#---------    -------------------            -------------------------------
# Generated from Intellog Unique Number	CS_77_79/WELL/1023
WELL.         AMOCO CANADA PETROLEUM         : Well_name    - WELL
LOC .         00/15-26-077-09W4/0            : Location     - LOCATION
UWI .         00/15-26-077-09W4/0            : Uwi          - UNIQUE WELL ID
ENTR.         SP                             : Entered      - ENTERED BY
SRVC.         SCHLUMBERGER                   : Scn          - SERVICE COMPANY
STRT.M        150                            : top_depth    - START DEPTH
STOP.M        360                            : bot_depth    - STOP DEPTH
STEP.M        0.25                           : increment    - STEP LENGTH
 NULL. -999.2500:NULL Value
~CURVE INFORMATION BLOCK
#MNEM UNIT       ERCB CURVE CODE    CURVE DESCRIPTION
#-----------   ------------------   ----------------------------------
DEPT.M        00 001 00 00         : DEPTH        - DEPTH
GR  .API      00 310 00 00         : GR           - GAMMA RAY
NPHI.V/V      00 330 00 00         : PHIN         - NEUTRON POROSITY (SANDSTONE)
DPHI.V/V      00 890 00 00         : PHID         - DENSITY POROSITY (SANDSTONE)
ILD .OHMM     00 120 00 00         : RESD         - DEEP RESISTIVITY (DIL)
~PARAMETER INFORMATION
#MNEM.UNIT           DATA             DESCRIPTION OF MNEMONIC
#---------         -----------     ------------------------------
GL  .M        578.5                : gl           - GROUND LEVEL ELEVATION
EREF.M        582.7                : kb           - ELEVATION OF DEPTH REFERENCE
DATM.M        582.7                : datum        - DATUM ELEVATION
TDD .M        358                  : tdd          - TOTAL DEPTH DRILLER
RUN .         ONE                  : Run          - RUN NUMBER
ENG .         BILL                 : Engineer     - RECORDING ENGINEER
WIT .         JIM                  : Witness      - WITNESSED BY
MUD .         GEL                  : Mud_type     - MUD TYPE
MATR.         SANDSTONE            : Logunit      - NEUTRON MATRIX
TMAX.C        19                   : BHT          - MAXIMUM RECORDED TEMPERATURE
BHTD.M        359                  : BHTDEP       - MAXIMUM RECORDED TEMPERATURE
MATR.         1                    : LOGUNIT      - NEUTRON MATRIX
RMT .C        19                   : MDTP         - TEMPERATURE OF MUD
NEUT.         1                    : NEUTRON      - NEUTRON TYPE
RESI.         3.81                 : RESIST       - RESISTIVITY TYPE
RMC .OHMM     3.14                 : RMC          - RESISTIVITY OF MUD CAKE
RMF .OHMM     3.14                 : RMF          - RESISTIVITY OF MUD FILTRATE
SUFT.C        15                   : SUFT         - SURFACE TEMPERATURE
~A  DEPTH       GR     PHIN     PHID     RESD
# ...
  280.500   61.066    0.462    0.340    7.804
  280.750   60.400    0.467    0.336    7.650
  281.000   60.957    0.477    0.334    7.638
  281.250   61.550    0.477    0.333    7.487
  281.500   63.342    0.466    0.333    7.339
  281.750   65.158    0.457    0.334    7.328
  282.000   68.802    0.476    0.334    7.180
  282.250   72.458    0.487    0.335    7.175
  282.500   76.114    0.478    0.336    7.159
  282.750   77.313    0.469    0.336    7.148
  283.000   72.326    0.470    0.336    7.140
  283.250   67.956    0.476    0.336    6.996
  283.500   64.204    0.482    0.336    6.991
  283.750   61.069    0.485    0.336    6.980
  284.000   59.168    0.485    0.336    6.714
  284.250   58.503    0.485    0.337    6.699
  284.500   59.677    0.491    0.338    6.692
  284.750   60.864    0.494    0.339    6.687
  285.000   61.445    0.488    0.339    6.677
  285.250   62.002    0.475    0.339    6.789
  285.500   61.966    0.473    0.338    6.905
  285.750   61.906    0.469    0.337    6.893
  286.000   62.475    0.471    0.334    6.880
  286.250   63.637    0.479    0.332    6.875
  286.500   63.601    0.482    0.331    6.859
  286.750   64.170    0.470    0.327    6.849
  287.000   66.579    0.468    0.325    6.964
  287.250   67.161    0.481    0.323    6.959
  287.500   68.965    0.489    0.323    6.951
  287.750   70.163    0.475    0.323    7.068
  288.000   70.103    0.463    0.324    7.058
  288.250   66.956    0.461    0.329    7.179
  288.500   65.697    0.462    0.334    7.166
  288.750   63.179    0.460    0.339    7.160
  289.000   60.662    0.456    0.339    7.147
  289.250   59.367    0.457    0.336    7.136
  289.500   58.701    0.460    0.335    7.123
  289.750   58.665    0.481    0.331    7.115
  290.000   59.840    0.491    0.330    7.107
  290.250   60.421    0.491    0.330    7.094
  290.500   61.607    0.481    0.332    7.086
  290.750   62.176    0.473    0.334    7.070
  291.000   62.745    0.478    0.335    7.065
  291.250   62.673    0.479    0.336    7.054
  291.500   63.267    0.479    0.337    7.044
  291.750   63.218    0.473    0.337    7.031
  292.000   63.763    0.467    0.336    7.020
  292.250   64.345    0.464    0.333    7.007
  292.500   64.296    0.463    0.331    7.002
  292.750   63.643    0.471    0.326    6.989
  293.000   62.977    0.490    0.324    6.979
  293.250   64.152    0.497    0.319    6.971
  293.500   65.968    0.495    0.315    6.961
  293.750   67.154    0.491    0.313    6.950
  294.000   68.329    0.485    0.311    6.937
  294.250   67.663    0.478    0.313    6.927
  294.500   65.763    0.471    0.319    6.917
  294.750   64.480    0.466    0.324    6.906
  295.000   64.420    0.462    0.324    6.894
  295.250   65.001    0.462    0.321    7.012
  295.500   65.570    0.466    0.316    7.002
  295.750   64.892    0.471    0.316    6.991
  296.000   64.856    0.474    0.322    6.981
  296.250   64.808    0.475    0.325    6.973
  296.500   65.377    0.480    0.326    6.960
  296.750   67.169    0.486    0.321    6.820
  297.000   67.750    0.495    0.318    6.815
  297.250   69.530    0.499    0.312    6.804
  297.500   70.123    0.499    0.302    6.792
  297.750   71.927    0.494    0.290    6.784
  298.000   75.571    0.492    0.277    6.774
  298.250   77.387    0.486    0.274    6.764
  298.500   81.031    0.478    0.276    6.754
  298.750   82.230    0.474    0.275    6.744
  299.000   83.997    0.469    0.267    6.731
  299.250   84.591    0.468    0.260    6.721
  299.500   84.554    0.468    0.252    6.711
  299.750   83.272    0.474    0.251    6.578
  300.000   81.371    0.481    0.256    6.571
  300.250   80.076    0.473    0.263    6.561
  300.500   79.399    0.465    0.274    6.549
  300.750   79.374    0.466    0.283    6.539
  301.000   78.080    0.472    0.289    6.527
  301.250   77.402    0.477    0.288    6.644
  301.500   76.748    0.482    0.284    6.753
  301.750   76.700    0.485    0.281    6.746
  302.000   74.800    0.488    0.270    6.738
  302.250   71.665    0.482    0.262    6.849
  302.500   69.147    0.476    0.256    6.841
  302.750   69.099    0.470    0.248    6.956
  303.000   70.274    0.465    0.243    6.951
  303.250   71.472    0.461    0.246    7.068
  303.500   72.659    0.462    0.257    7.057
  303.750   73.845    0.468    0.261    7.050
  304.000   75.649    0.472    0.255    7.168
  304.250   78.070    0.471    0.252    7.157
  304.500   79.269    0.464    0.251    7.144
  304.750   81.073    0.461    0.251    7.133
  305.000   82.259    0.458    0.251    7.123
  305.250   84.063    0.457    0.251    7.115
  305.500   85.238    0.458    0.250    6.846
  305.750   87.659    0.453    0.249    6.710
  306.000   90.710    0.448    0.244    6.338
  306.250   92.501    0.450    0.242    5.663
  306.500   94.317    0.458    0.243    5.060
  306.750   96.121    0.493    0.251    4.692
  307.000   92.974    0.504    0.256    4.513
  307.250   91.691    0.506    0.261    4.506
  307.500   93.483    0.501    0.260    4.583
  307.750   94.064    0.497    0.258    4.751
  308.000   94.645    0.493    0.254    5.107
  308.250   96.437    0.486    0.245    5.393
  308.500   97.007    0.470    0.238    6.017
  308.750   96.970    0.457    0.233    6.712
  309.000   96.293    0.467    0.227    7.088
  309.250   94.998    0.476    0.225    7.207
  309.500   93.097    0.469    0.221    6.682
  309.750   92.444    0.459    0.234    5.753
  310.000   90.544    0.445    0.242    5.239
  310.250   88.631    0.452    0.246    4.590
  310.500   87.336    0.460    0.247    4.338
  310.750   87.312    0.472    0.254    4.023
  311.000   86.635    0.480    0.261    3.593
  311.250   85.352    0.486    0.273    3.269
  311.500   84.081    0.507    0.286    3.148
  311.750   81.539    0.548    0.293    2.865
  312.000   80.886    0.584    0.295    2.656
  312.250   80.232    0.598    0.302    2.556
  312.500   80.184    0.600    0.303    2.550
  312.750   81.346    0.595    0.308    2.546
  313.000   81.940    0.594    0.308    2.544
  313.250   84.954    0.598    0.302    2.586
  313.500   87.387    0.601    0.290    2.631
  313.750   89.179    0.604    0.267    2.676
  314.000   89.143    0.609    0.260    2.722
  314.250   89.107    0.605    0.254    2.769
  314.500   89.059    0.598    0.249    2.977
  314.750   88.999    0.586    0.244    3.201
  315.000   88.950    0.580    0.238    3.510
  315.250   89.531    0.580    0.228    4.064
  315.500   89.471    0.564    0.217    4.620
  315.750   88.806    0.486    0.208    5.061
  316.000   85.041    0.469    0.194    5.753
  316.250   82.536    0.453    0.177    6.299
  316.500   83.722    0.435    0.169    6.290
  316.750   85.514    0.440    0.186    6.280
  317.000   88.553    0.448    0.200    6.158
  317.250   90.962    0.468    0.210    5.812
  317.500   92.172    0.475    0.218    5.699
  317.750   92.742    0.489    0.226    5.381
  318.000   92.064    0.502    0.226    5.279
  318.250   91.398    0.499    0.226    5.079
  318.500   92.585    0.476    0.226    4.708
  318.750   94.389    0.482    0.227    4.363
  319.000   94.970    0.490    0.230    4.120
  319.250   94.910    0.500    0.230    4.041
  319.500   94.862    0.508    0.230    3.887
  319.750   94.813    0.504    0.230    3.811
  320.000   95.371    0.498    0.229    3.736
  320.250   95.334    0.496    0.229    3.662
  320.500   94.657    0.508    0.230    3.589
  320.750   93.386    0.531    0.230    3.584
  321.000   92.103    0.531    0.231    3.579
  321.250   90.191    0.531    0.229    3.640
  321.500   88.920    0.521    0.228    3.772
  321.750   87.649    0.512    0.221    4.132
  322.000   86.354    0.492    0.211    4.697
  322.250   84.430    0.463    0.191    5.540
  322.500   83.788    0.429    0.173    6.536
  322.750   81.270    0.394    0.138    7.429
  323.000   76.283    0.369    0.121    8.767
  323.250   69.444    0.366    0.184   10.342
  323.500   66.915    0.363    0.213   12.200
  323.750   68.113    0.367    0.244   13.864
