~VERSION INFORMATION
 VERS.                 2.0:   CWLS LOG ASCII STANDARD -VERSION 2.0
 WRAP.                  NO:   ONE LINE PER DEPTH STEP
~WELL INFORMATION BLOCK
#MNEM.UNIT           DATA                    DESCRIPTION OF MNEMONIC
#---------    -------------------            -------------------------------
# Generated from Intellog Unique Number	CS_69_70/WELL/2902
WELL.         12-30-069-07W4                 : Well_name    - WELL
LOC .         00/12-30-069-07W4/0            : Location     - LOCATION
UWI .         00/12-30-069-07W4/0            : Uwi          - UNIQUE WELL ID
ENTR.         ANDERSEN                       : Entered      - ENTERED BY
SRVC.         SCHLUMBERGER                   : Scn          - SERVICE COMPANY
STRT.M        350                            : top_depth    - START DEPTH
STOP.M        540                            : bot_depth    - STOP DEPTH
STEP.M        0.25                           : increment    - STEP LENGTH
 NULL. -999.2500:NULL Value
~CURVE INFORMATION BLOCK
#MNEM UNIT       ERCB CURVE CODE    CURVE DESCRIPTION
#-----------   ------------------   ----------------------------------
DEPT.M        00 001 00 00         : DEPTH        - DEPTH
GR  .API      00 310 00 00         : GR           - GAMMA RAY
CALI.MM       00 280 01 00         : CAL          - CALIPER
NPHI.V/V      00 330 00 00         : PHIN         - NEUTRON POROSITY (SANDSTONE)
DPHI.V/V      00 890 00 00         : PHID         - DENSITY POROSITY (SANDSTONE)
ILD .OHMM     00 120 00 00         : RESD         - DEEP RESISTIVITY (DIL)
~PARAMETER INFORMATION
#MNEM.UNIT           DATA             DESCRIPTION OF MNEMONIC
#---------         -----------     ------------------------------
GL  .M        656.9                : gl           - GROUND LEVEL ELEVATION
EREF.M        660.6                : kb           - ELEVATION OF DEPTH REFERENCE
DATM.M        660.6                : datum        - DATUM ELEVATION
TDD .M        543                  : tdd          - TOTAL DEPTH DRILLER
RUN .         ONE                  : Run          - RUN NUMBER
ENG .         BILL                 : Engineer     - RECORDING ENGINEER
WIT .         JIM                  : Witness      - WITNESSED BY
MUD .         GEL                  : Mud_type     - MUD TYPE
MATR.         SANDSTONE            : Logunit      - NEUTRON MATRIX
TMAX.C        23                   : BHT          - MAXIMUM RECORDED TEMPERATURE
BHTD.M        543                  : BHTDEP       - MAXIMUM RECORDED TEMPERATURE
MATR.         1                    : LOGUNIT      - NEUTRON MATRIX
RMT .C        17                   : MDTP         - TEMPERATURE OF MUD
NEUT.         1                    : NEUTRON      - NEUTRON TYPE
RESI.         0                    : RESIST       - RESISTIVITY TYPE
RMC .OHMM     3.24                 : RMC          - RESISTIVITY OF MUD CAKE
RMF .OHMM     8.92                 : RMF          - RESISTIVITY OF MUD FILTRATE
SUFT.C        15                   : SUFT         - SURFACE TEMPERATURE
~A  DEPTH       GR      CAL     PHIN     PHID     RESD
# ...
  496.000   25.695  218.245    0.384    0.330  112.979
  496.250   24.608  221.151    0.372    0.336  103.237
  496.500   24.652  224.076    0.386    0.342   80.065
  496.750   25.837  225.099    0.397    0.343   59.867
  497.000   29.291  227.073    0.386    0.340   51.788
  497.250   30.476  230.985    0.362    0.323   47.340
  497.500   28.819  233.891    0.367    0.316   49.197
  497.750   26.011  235.884    0.379    0.316   55.994
  498.000   24.914  237.858    0.386    0.318   64.905
  498.250   23.247  238.881    0.411    0.321   67.425
  498.500   25.001  240.855    0.419    0.327   70.042
  498.750   31.319  240.910    0.419    0.337   71.471
  499.000   38.218  241.951    0.417    0.333   71.582
  499.250   35.981  242.024    0.414    0.323   71.693
  499.500   28.598  242.097    0.405    0.326   71.804
  499.750   25.790  239.318    0.396    0.335   70.614
  500.000   25.866  236.539    0.397    0.340   68.186
  500.250   25.318  234.710    0.406    0.338   65.842
  500.500   25.362  231.949    0.411    0.334   63.578
  500.750   26.546  229.170    0.395    0.328   58.118
  501.000   29.442  226.391    0.374    0.323   53.148
  501.250   36.911  222.661    0.363    0.318   50.392
  501.500   36.955  218.950    0.372    0.320   48.641
  501.750   30.154  218.035    0.390    0.326   47.834
  502.000   26.786  214.306    0.378    0.320   45.371
  502.250   30.823  208.711    0.367    0.310   43.002
  502.500   29.715  205.914    0.372    0.322   38.627
  502.750   33.751  202.184    0.372    0.322   37.270
  503.000   35.506  195.620    0.378    0.315   35.351
  503.250   32.708  190.940    0.380    0.319   32.911
  503.500   35.034  185.309    0.380    0.321   30.085
  503.750   37.359  180.628    0.387    0.317   26.505
  504.000   39.695  176.880    0.389    0.312   20.184
  504.250   44.291  170.317    0.377    0.301   12.572
  504.500   48.897  167.520    0.355    0.284    8.269
  504.750   46.100  160.024    0.340    0.272    6.531
  505.000   35.866  157.208    0.347    0.287    5.862
  505.250   35.910  153.496    0.351    0.308    5.460
  505.500   42.809  150.717    0.334    0.308    5.272
  505.750   40.001  150.808    0.333    0.297    5.091
  506.000   34.351  150.845    0.341    0.295    5.005
  506.250   32.102  150.917    0.355    0.304    5.012
  506.500   31.576  150.990    0.355    0.308    4.929
  506.750   31.619  151.081    0.359    0.310    4.853
  507.000   32.233  151.172    0.364    0.310    4.857
  507.250   32.847  151.227    0.369    0.311    4.776
  507.500   30.050  151.318    0.358    0.316    4.787
  507.750   27.801  151.390    0.358    0.319    4.704
  508.000   26.134  151.445    0.365    0.322    4.628
  508.250   29.040  151.536    0.372    0.325    4.637
  508.500   35.358  151.627    0.368    0.321    4.557
  508.750   41.687  151.663    0.354    0.315    4.483
  509.000   38.298  151.754    0.347    0.315    4.492
  509.250   27.504  151.827    0.348    0.318    4.495
  509.500   33.252  151.900    0.346    0.317    4.506
  509.750   40.162  151.973    0.354    0.306    4.513
  510.000   33.350  152.045    0.360    0.294    4.518
  510.250   27.108  152.136    0.360    0.299    4.525
  510.500   23.730  152.191    0.355    0.319    4.452
  510.750   30.629  152.282    0.345    0.330    4.458
  511.000   36.376  152.355    0.336    0.328    4.464
  511.250   36.420  152.428    0.351    0.317    4.472
  511.500   27.348  152.519    0.383    0.305    4.400
  511.750   25.100  152.609    0.392    0.312    4.405
  512.000   21.721  153.615    0.392    0.328    4.410
  512.250   21.194  153.687    0.378    0.344    4.340
  512.500   20.668  153.742    0.383    0.348    4.345
  512.750   20.722  153.815    0.387    0.345    4.277
  513.000   20.766  153.906    0.384    0.333    4.280
  513.250   22.542  153.997    0.371    0.330    4.211
  513.500   24.857  154.070    0.363    0.332    4.215
  513.750   25.471  155.093    0.375    0.331    4.147
  514.000   22.081  155.184    0.382    0.333    4.155
  514.250   18.713  155.220    0.373    0.343    4.158
  514.500   18.176  155.329    0.355    0.347    4.165
  514.750   18.220  154.433    0.359    0.345    4.173
  515.000   19.404  154.506    0.376    0.333    4.105
  515.250   22.881  154.597    0.384    0.328    4.110
  515.500   24.076  154.670    0.367    0.332    4.116
  515.750   22.398  154.743    0.359    0.324    4.124
  516.000   19.019  153.847    0.358    0.329    4.132
  516.250   19.063  153.919    0.352    0.324    4.136
  516.500   22.529  154.010    0.343    0.324    4.144
  516.750   28.287  154.065    0.355    0.328    4.150
  517.000   28.331  154.156    0.379    0.332    4.155
  517.250   19.808  154.229    0.389    0.333    4.161
  517.500   15.859  153.351    0.359    0.324    4.250
  517.750   19.906  152.491    0.341    0.315    4.335
  518.000   27.365  152.564    0.325    0.309    4.340
  518.250   28.549  151.686    0.323    0.309    4.346
  518.500   22.319  150.790    0.341    0.317    4.353
  518.750   22.933  150.863    0.352    0.321    4.358
  519.000   28.121  151.886    0.346    0.314    4.445
  519.250   33.298  153.860    0.330    0.303    4.454
  519.500   40.186  154.884    0.323    0.304    4.543
  519.750   49.937  154.993    0.342    0.300    4.550
  520.000   47.699  154.115    0.382    0.306    4.641
  520.250   39.187  153.237    0.406    0.316    4.734
  520.500   39.231  153.310    0.404    0.336    4.829
  520.750   44.978  153.383    0.380    0.327    4.836
  521.000   47.874  154.406    0.363    0.308    4.935
  521.250   47.918  155.448    0.363    0.293    4.941
  521.500   44.539  155.521    0.372    0.285    4.771
  521.750   38.879  155.593    0.382    0.302    4.607
  522.000   34.359  155.666    0.377    0.322    4.450
  522.250   30.410  155.739    0.372    0.339    4.297
  522.500   30.465  155.812    0.379    0.349    4.226
  522.750   29.368  155.884    0.382    0.349    4.156
  523.000   31.693  154.988    0.382    0.349    4.087
  523.250   32.878  155.061    0.378    0.354    4.093
  523.500   33.492  155.134    0.374    0.361    4.100
  523.750   34.106  154.274    0.380    0.361    4.106
  524.000   33.579  155.316    0.380    0.356    4.112
  524.250   33.074  155.370    0.371    0.349    4.044
  524.500   33.096  155.370    0.363    0.338    3.977
  524.750   33.140  152.700    0.370    0.336    3.985
  525.000   34.346  151.786    0.385    0.347    3.991
  525.250   34.949  151.859    0.389    0.347    3.997
  525.500   33.852  151.950    0.389    0.342    3.793
  525.750   29.914  152.005    0.390    0.343    3.796
  526.000   28.235  152.077    0.396    0.353    3.733
  526.250   27.138  152.186    0.394    0.360    3.810
  526.500   29.463  153.192    0.376    0.362    3.813
  526.750   34.641  154.215    0.379    0.355    3.961
  527.000   47.244  154.288    0.374    0.323    4.115
  527.250   52.991  154.397    0.384    0.306    4.275
  527.500   53.616  154.433    0.387    0.303    4.610
  527.750   56.512  154.506    0.366    0.283    4.789
  528.000   64.541  153.628    0.363    0.263    4.975
  528.250   76.584  151.818    0.367    0.248    5.072
  528.500   72.054  152.841    0.374    0.258    4.722
  528.750   67.534  153.865    0.377    0.258    4.396
  529.000   63.586  154.888    0.386    0.266    4.093
  529.250   56.774  153.078    0.400    0.300    3.952
  529.500   44.839  152.200    0.397    0.343    3.747
  529.750   33.475  151.322    0.388    0.361    3.685
  530.000   32.378  152.346    0.387    0.336    3.558
  530.250   34.133  153.351    0.388    0.352    3.564
  530.500   35.317  152.509    0.391    0.369    3.636
  530.750   34.220  151.650    0.393    0.368    3.709
  531.000   30.282  150.754    0.391    0.356    3.783
  531.250   26.893  149.876    0.385    0.341    3.789
  531.500   32.081  149.949    0.388    0.335    3.865
  531.750   39.539  150.972    0.391    0.345    3.871
  532.000   43.005  151.977    0.389    0.337    3.949
  532.250   38.486  153.019    0.384    0.346    4.102
