~VERSION INFORMATION
 VERS.                 2.0:   CWLS LOG ASCII STANDARD -VERSION 2.0
 WRAP.                  NO:   ONE LINE PER DEPTH STEP
~WELL INFORMATION BLOCK
#MNEM.UNIT           DATA                    DESCRIPTION OF MNEMONIC
#---------    -------------------            -------------------------------
# Generated from Intellog Unique Number	CW_79_81/WELL/2471
WELL.         GULF AMOCO HOOLE               : Well_name    - WELL
LOC .         00/10-21-081-24W4/0            : Location     - LOCATION
UWI .         00/10-21-081-24W4/0            : Uwi          - UNIQUE WELL ID
ENTR.         MAX                            : Entered      - ENTERED BY
SRVC.         COMPUTALOG                     : Scn          - SERVICE COMPANY
STRT.M        245                            : top_depth    - START DEPTH
STOP.M        482                            : bot_depth    - STOP DEPTH
STEP.M        0.25                           : increment    - STEP LENGTH
 NULL. -999.2500:NULL Value
~CURVE INFORMATION BLOCK
#MNEM UNIT       ERCB CURVE CODE    CURVE DESCRIPTION
#-----------   ------------------   ----------------------------------
DEPT.M        00 001 00 00         : DEPTH        - DEPTH
ILD .OHMM     00 120 00 00         : RESD         - DEEP RESISTIVITY (DIL)
NPHI.V/V      00 330 00 00         : PHIN         - NEUTRON POROSITY (SANDSTONE)
DPHI.V/V      00 890 00 00         : PHID         - DENSITY POROSITY (SANDSTONE)
GR  .API      00 310 00 00         : GR           - GAMMA RAY
CALI.MM       00 280 01 00         : CAL          - CALIPER
~PARAMETER INFORMATION
#MNEM.UNIT           DATA             DESCRIPTION OF MNEMONIC
#---------         -----------     ------------------------------
GL  .M        596.1                : gl           - GROUND LEVEL ELEVATION
EREF.M        600.35               : kb           - ELEVATION OF DEPTH REFERENCE
DATM.M        596.1                : datum        - DATUM ELEVATION
TDD .M        502                  : tdd          - TOTAL DEPTH DRILLER
RUN .         ONE                  : Run          - RUN NUMBER
ENG .         BILL                 : Engineer     - RECORDING ENGINEER
WIT .         JIM                  : Witness      - WITNESSED BY
MUD .         GEL                  : Mud_type     - MUD TYPE
MATR.         SANDSTONE            : Logunit      - NEUTRON MATRIX
TMAX.C        16                   : BHT          - MAXIMUM RECORDED TEMPERATURE
BHTD.M        502                  : BHTDEP       - MAXIMUM RECORDED TEMPERATURE
MATR.         1                    : LOGUNIT      - NEUTRON MATRIX
RMT .C        14                   : MDTP         - TEMPERATURE OF MUD
NEUT.         1                    : NEUTRON      - NEUTRON TYPE
RESI.         0                    : RESIST       - RESISTIVITY TYPE
RMC .OHMM     4.2                  : RMC          - RESISTIVITY OF MUD CAKE
RMF .OHMM     5.2                  : RMF          - RESISTIVITY OF MUD FILTRATE
SUFT.C        -15                  : SUFT         - SURFACE TEMPERATURE
~A  DEPTH     RESD     PHIN     PHID       GR      CAL
# ...
  318.000   10.185    0.419    0.351   51.322  223.517
  318.250   11.309    0.415    0.347   51.426  223.526
  318.500   12.305    0.408    0.344   51.930  223.533
  318.750   12.485    0.401    0.348   49.297  223.141
  319.000   12.256    0.396    0.356   50.260  223.048
  319.250   11.634    0.399    0.356   53.620  223.055
  319.500   10.322    0.407    0.344   58.298  223.063
  319.750    8.085    0.409    0.316   64.385  223.072
  320.000    7.440    0.406    0.286   69.632  223.080
  320.250    7.014    0.431    0.272   74.910  223.086
  320.500    6.763    0.444    0.268   75.693  223.093
  320.750    6.665    0.449    0.266   75.578  223.100
  321.000    6.689    0.448    0.259   76.960  223.006
  321.250    6.848    0.445    0.251   81.040  222.449
  321.500    7.169    0.444    0.250   81.044  221.625
  321.750    7.327    0.444    0.255   78.172  221.232
  322.000    7.327    0.443    0.257   76.020  221.140
  322.250    7.193    0.440    0.248   75.305  221.147
  322.500    6.959    0.435    0.235   76.687  221.154
  322.750    6.610    0.429    0.241   81.415  221.162
  323.000    6.363    0.425    0.249   84.666  221.169
  323.250    6.317    0.439    0.251   86.107  221.975
  323.500    6.478    0.446    0.256   75.866  223.081
  323.750    6.838    0.447    0.273   65.563  224.086
  324.000    7.359    0.444    0.323   59.157  224.992
  324.250    8.016    0.439    0.445   52.231  226.450
  324.500    8.522    0.436    0.472   48.740  227.706
  324.750    9.096    0.440    0.479   47.306  228.910
  325.000    9.711    0.445    0.486   46.052  230.116
  325.250   10.407    0.442    0.496   44.619  231.522
  325.500   11.083    0.430    0.528   43.125  233.326
  325.750   11.447    0.413    0.622   42.371  236.979
  326.000   11.622    0.401    0.602   43.375  243.228
  326.250   11.621    0.400    0.560   45.295  234.848
  326.500   11.684    0.405    0.503   46.498  230.060
  326.750   11.812    0.411    0.442   46.981  227.670
  327.000   12.007    0.415    0.392   47.345  226.579
  327.250   12.365    0.413    0.367   49.138  225.788
  327.500   12.845    0.409    0.352   50.890  225.796
  327.750   12.939    0.402    0.351   50.655  226.602
  328.000   12.962    0.394    0.345   49.881  227.408
  328.250   12.961    0.387    0.337   49.165  228.014
  328.500   12.960    0.386    0.331   49.169  228.321
  328.750   12.959    0.402    0.331   50.812  228.247
  329.000   12.958    0.410    0.327   51.816  227.837
  329.250   12.957    0.412    0.323   51.580  227.845
  329.500   12.956    0.397    0.319   50.625  227.852
  329.750   13.050    0.378    0.319   49.671  227.659
  330.000   13.241    0.358    0.327   49.136  227.066
  330.250   13.536    0.334    0.350   48.492  225.544
  330.500   14.063    0.313    0.343   45.251  223.887
  330.750   15.010    0.293    0.325   44.056  222.296
  331.000   16.196    0.279    0.239   44.300  217.709
  331.250   17.551    0.275    0.194   45.983  212.723
  331.500   18.765    0.283    0.227   48.324  209.834
  331.750   19.062    0.308    0.300   49.218  213.853
  332.000   18.491    0.337    0.350   46.475  225.929
  332.250   17.823    0.360    0.364   44.083  226.335
  332.500   16.989    0.370    0.369   44.746  226.143
  332.750   16.201    0.376    0.369   46.668  225.750
  333.000   15.477    0.384    0.364   48.590  225.256
  333.250   14.548    0.395    0.358   49.294  224.383
  333.500   13.796    0.395    0.353   46.801  223.976
  333.750   13.005    0.398    0.348   47.764  223.982
  334.000   12.471    0.404    0.347   48.368  223.689
  334.250   12.068    0.409    0.346   48.972  223.497
  334.500   11.785    0.411    0.341   49.516  223.404
  334.750   11.698    0.407    0.331   49.320  222.929
  335.000   11.698    0.403    0.319   48.326  222.520
  335.250   11.697    0.381    0.291   48.570  221.729
  335.500   11.632    0.374    0.249   49.893  221.237
  335.750   11.376    0.385    0.250   53.252  221.044
  336.000   10.926    0.413    0.297   57.690  221.051
  336.250   10.270    0.451    0.332   61.581  221.144
  336.500    9.739    0.466    0.342   67.827  221.566
  336.750    8.979    0.464    0.347   66.633  221.573
  337.000    8.470    0.455    0.347   63.821  221.580
  337.250    8.169    0.446    0.344   62.267  221.787
  337.500    8.021    0.441    0.339   62.691  222.193
  337.750    7.974    0.432    0.331   63.505  222.685
  338.000    8.035    0.424    0.327   62.760  223.108
  338.250    8.093    0.454    0.334   63.483  223.515
  338.500    8.107    0.461    0.332   64.746  223.623
  338.750    8.077    0.456    0.328   64.510  223.430
  339.000    8.018    0.449    0.325   63.136  223.137
  339.250    7.959    0.447    0.324   63.581  223.145
  339.500    7.958    0.450    0.324   64.584  223.152
  339.750    7.957    0.455    0.321   67.225  223.161
  340.000    7.957    0.456    0.316   68.967  223.167
  340.250    7.985    0.452    0.313   68.852  222.374
  340.500    8.043    0.443    0.314   67.178  220.784
  340.750    8.102    0.436    0.320   66.004  219.860
  341.000    8.101    0.450    0.319   68.505  223.196
  341.250    8.042    0.453    0.318   69.468  224.801
  341.500    7.851    0.448    0.308   69.172  225.208
  341.750    7.567    0.444    0.297   70.375  225.215
  342.000    7.256    0.442    0.284   73.316  225.222
  342.250    6.964    0.440    0.266   76.017  225.232
  342.500    6.807    0.436    0.263   77.520  225.238
  342.750    6.561    0.438    0.263   78.961  225.645
  343.000    6.360    0.443    0.261   79.864  225.752
  343.250    6.268    0.452    0.258   80.108  225.758
  343.500    6.290    0.458    0.254   79.873  225.765
  343.750    6.421    0.451    0.248   79.439  225.774
  344.000    6.620    0.449    0.241   78.445  225.781
  344.250    6.766    0.453    0.238   77.970  225.390
  344.500    6.840    0.449    0.245   78.214  225.296
  344.750    6.814    0.447    0.264   78.818  225.502
  345.000    6.690    0.447    0.283   79.480  226.508
  345.250    6.467    0.437    0.278   80.064  230.313
  345.500    6.321    0.427    0.264   80.569  235.312
  345.750    6.183    0.421    0.245   80.334  242.509
  346.000    6.082    0.435    0.248   79.199  251.505
  346.250    5.993    0.452    0.259   76.447  256.905
  346.500    5.895    0.462    0.266   72.796  252.120
  346.750    5.749    0.459    0.266   70.254  229.274
  347.000    5.662    0.447    0.289   69.510  228.865
  347.250    5.662    0.436    0.337   67.597  229.272
  347.500    5.755    0.422    0.327   66.582  228.481
  347.750    6.050    0.414    0.258   68.384  227.289
  348.000    6.602    0.416    0.179   72.163  226.197
  348.250    7.518    0.428    0.199   72.778  225.324
  348.500    8.308    0.432    0.246   65.042  224.914
  348.750    9.190    0.429    0.279   63.368  225.720
  349.000    9.596    0.430    0.274   64.211  227.726
  349.250    9.667    0.431    0.254   68.171  229.331
  349.500    9.470    0.432    0.239   73.388  229.837
  349.750    8.780    0.433    0.248   75.550  229.280
  350.000    8.080    0.432    0.253   75.555  228.454
  350.250    7.962    0.432    0.245   75.799  226.466
  350.500    8.151    0.432    0.242   75.324  225.073
  350.750    8.363    0.433    0.240   75.088  224.281
  351.000    8.471    0.439    0.237   75.332  224.089
  351.250    8.545    0.456    0.233   75.976  224.579
  351.500    8.610    0.466    0.240   77.978  225.004
  351.750    8.672    0.458    0.246   78.701  225.010
  352.000    8.687    0.449    0.247   76.908  225.017
  352.250    8.655    0.442    0.248   75.355  225.025
  352.500    8.592    0.437    0.247   75.180  224.933
  352.750    8.502    0.435    0.242   76.003  224.541
  353.000    8.373    0.442    0.231   76.506  224.547
  353.250    8.372    0.438    0.232   76.990  224.555
  353.500    8.372    0.419    0.229   78.193  224.562
  353.750    8.371    0.414    0.229   79.635  224.370
  354.000    8.371    0.423    0.232   81.377  224.077
  354.250    8.383    0.425    0.238   84.069  224.085
