~VERSION INFORMATION
 VERS.                 2.0:   CWLS LOG ASCII STANDARD -VERSION 2.0
 WRAP.                  NO:   ONE LINE PER DEPTH STEP
~WELL INFORMATION BLOCK
#MNEM.UNIT           DATA                    DESCRIPTION OF MNEMONIC
#---------    -------------------            -------------------------------
# Generated from Intellog Unique Number	CS_73_76/WELL/2186
WELL.         TOTAL PETROLEUM (N.A.) LT      : Well_name    - WELL
LOC .         00/10-09-074-07W4/0            : Location     - LOCATION
UWI .         00/10-09-074-07W4/0            : Uwi          - UNIQUE WELL ID
ENTR.         SP                             : Entered      - ENTERED BY
SRVC.         SCHLUMBERGER                   : Scn          - SERVICE COMPANY
STRT.M        304.8                          : top_depth    - START DEPTH
STOP.M        530.05                         : bot_depth    - STOP DEPTH
STEP.M        0.25                           : increment    - STEP LENGTH
 NULL. -999.2500:NULL Value
~CURVE INFORMATION BLOCK
#MNEM UNIT       ERCB CURVE CODE    CURVE DESCRIPTION
#-----------   ------------------   ----------------------------------
DEPT.M        00 001 00 00         : DEPTH        - DEPTH
GR  .API      00 310 00 00         : GR           - GAMMA RAY
DPHI.V/V      00 890 00 00         : PHID         - DENSITY POROSITY (SANDSTONE)
NPHI.V/V      00 330 00 00         : PHIN         - NEUTRON POROSITY (SANDSTONE)
ILD .OHMM     00 120 00 00         : RESD         - DEEP RESISTIVITY (DIL)
~PARAMETER INFORMATION
#MNEM.UNIT           DATA             DESCRIPTION OF MNEMONIC
#---------         -----------     ------------------------------
GL  .M        692.81               : gl           - GROUND LEVEL ELEVATION
EREF.M        696.163              : kb           - ELEVATION OF DEPTH REFERENCE
DATM.M        692.81               : datum        - DATUM ELEVATION
TDD .M        357.226              : tdd          - TOTAL DEPTH DRILLER
RUN .         ONE                  : Run          - RUN NUMBER
ENG .         BILL                 : Engineer     - RECORDING ENGINEER
WIT .         JIM                  : Witness      - WITNESSED BY
MUD .         GEL                  : Mud_type     - MUD TYPE
MATR.         SANDSTONE            : Logunit      - NEUTRON MATRIX
TMAX.C        21.1111              : BHT          - MAXIMUM RECORDED TEMPERATURE
BHTD.M        357.226              : BHTDEP       - MAXIMUM RECORDED TEMPERATURE
MATR.         1                    : LOGUNIT      - NEUTRON MATRIX
RMT .C        25                   : MDTP         - TEMPERATURE OF MUD
NEUT.         1                    : NEUTRON      - NEUTRON TYPE
RESI.         0                    : RESIST       - RESISTIVITY TYPE
RMC .OHMM     0.25                 : RMC          - RESISTIVITY OF MUD CAKE
RMF .OHMM     0.25                 : RMF          - RESISTIVITY OF MUD FILTRATE
SUFT.C        15                   : SUFT         - SURFACE TEMPERATURE
~A  DEPTH       GR     PHID     PHIN     RESD
# ...
  348.300   68.890    0.246    0.401   13.888
  348.550   66.901    0.259    0.406   14.149
  348.800   64.306    0.291    0.412   13.868
  349.050   66.855    0.287    0.424   13.873
  349.300   70.552    0.275    0.409   13.887
  349.550   70.682    0.260    0.390   13.384
  349.800   69.334    0.251    0.394   12.791
  350.050   71.620    0.238    0.404   12.455
  350.300   74.726    0.234    0.407   11.812
  350.550   74.539    0.234    0.407   11.751
  350.800   73.036    0.228    0.404   11.745
  351.050   74.150    0.217    0.400   11.748
  351.300   75.339    0.215    0.395   11.759
  351.550   73.776    0.217    0.407   11.974
  351.800   73.177    0.214    0.423   12.032
  352.050   74.273    0.224    0.413   12.167
  352.300   74.591    0.226    0.406   11.953
  352.550   76.489    0.234    0.408   11.665
  352.800   77.826    0.238    0.403   11.117
  353.050   79.481    0.230    0.396   10.567
  353.300   80.495    0.221    0.407   10.290
  353.550   79.363    0.221    0.410   10.288
  353.800   77.937    0.217    0.414   10.512
  354.050   76.508    0.212    0.426   10.505
  354.300   75.875    0.203    0.420   10.851
  354.550   78.354    0.213    0.410   10.867
  354.800   78.523    0.226    0.416   10.865
  355.050   78.334    0.230    0.423   10.527
  355.300   79.336    0.242    0.432   10.179
  355.550   80.967    0.231    0.439    9.379
  355.800   82.355    0.195    0.438    8.815
  356.050   83.679    0.193    0.440    8.501
  356.300   85.071    0.207    0.432    8.388
  356.550   85.597    0.204    0.431    8.430
  356.800   83.423    0.211    0.446    9.102
  357.050   84.962    0.211    0.458    9.804
  357.300   84.265    0.232    0.475   10.819
  357.550   81.020    0.243    0.484   11.930
  357.800   80.116    0.238    0.487   12.459
  358.050   78.568    0.257    0.492   12.905
  358.300   75.695    0.269    0.480   13.035
  358.550   72.788    0.264    0.459   13.287
  358.800   70.765    0.263    0.440   13.269
  359.050   69.203    0.256    0.431   13.263
  359.300   76.817    0.243    0.427   13.248
  359.550   79.948    0.236    0.438   13.169
  359.800   80.663    0.248    0.449   12.558
  360.050   81.452    0.255    0.458   12.072
  360.300   83.855    0.241    0.472   11.600
  360.550   85.705    0.233    0.484   10.731
  360.800   87.009    0.233    0.474   10.156
  361.050   86.578    0.229    0.477    9.657
  361.300   85.987    0.227    0.479    9.364
  361.550   86.069    0.235    0.486    9.319
  361.800   85.453    0.215    0.484    9.498
  362.050   84.584    0.230    0.487    9.756
  362.300   83.066    0.243    0.490   10.585
  362.550   82.043    0.249    0.482   11.392
  362.800   80.122    0.266    0.463   11.998
  363.050   77.260    0.290    0.445   12.572
  363.300   73.227    0.269    0.434   13.397
  363.550   73.315    0.268    0.432   13.721
  363.800   75.017    0.275    0.424   13.703
  364.050   75.502    0.271    0.423   13.698
  364.300   75.321    0.265    0.430   13.681
  364.550   74.312    0.268    0.429   13.673
  364.800   73.398    0.276    0.437   12.624
  365.050   72.942    0.277    0.442   11.610
  365.300   76.674    0.264    0.434   10.399
  365.550   80.583    0.247    0.443   10.246
  365.800   84.426    0.259    0.473   11.425
  366.050   83.040    0.266    0.487   13.283
  366.300   77.154    0.295    0.491   15.295
  366.550   68.315    0.311    0.466   17.642
  366.800   59.522    0.317    0.449   20.572
  367.050   54.630    0.318    0.445   22.709
  367.300   55.578    0.325    0.443   22.778
  367.550   56.135    0.325    0.430   20.766
  367.800   55.931    0.314    0.426   18.805
  368.050   55.558    0.307    0.441   17.658
  368.300   57.621    0.296    0.449   15.241
  368.550   60.469    0.293    0.457   13.401
  368.800   63.158    0.299    0.464   11.233
  369.050   66.843    0.296    0.469    9.911
  369.300   69.453    0.309    0.476    9.648
  369.550   68.873    0.316    0.481   10.291
  369.800   68.204    0.315    0.483   11.016
  370.050   66.015    0.330    0.493   12.095
  370.300   62.104    0.333    0.473   13.435
  370.550   59.312    0.315    0.476   14.934
  370.800   57.421    0.306    0.465   15.805
  371.050   57.236    0.304    0.455   16.129
  371.300   58.005    0.318    0.449   15.307
  371.550   56.934    0.328    0.450   13.883
  371.800   56.836    0.325    0.457   12.557
  372.050   58.370    0.327    0.463   11.861
  372.300   59.273    0.323    0.473   11.916
  372.550   60.077    0.313    0.477   12.644
  372.800   58.509    0.323    0.484   13.402
  373.050   54.964    0.324    0.478   13.790
  373.300   53.865    0.330    0.468   14.129
  373.550   52.155    0.337    0.461   13.791
  373.800   50.981    0.318    0.462   13.008
  374.050   52.816    0.330    0.461   11.652
  374.300   54.113    0.339    0.449   10.670
  374.550   54.238    0.331    0.452    9.901
  374.800   52.786    0.325    0.432    9.041
  375.050   50.660    0.329    0.427    8.911
  375.300   50.301    0.334    0.448    8.209
  375.550   50.126    0.336    0.446    7.733
  375.800   51.187    0.339    0.445    7.302
  376.050   51.505    0.339    0.457    6.641
  376.300   52.619    0.341    0.453    6.329
  376.550   55.730    0.349    0.462    5.960
  376.800   56.891    0.329    0.457    5.599
  377.050   53.532    0.321    0.439    5.380
  377.300   53.044    0.332    0.427    5.120
  377.550   53.830    0.338    0.422    4.972
  377.800   52.540    0.339    0.422    4.824
  378.050   52.186    0.343    0.432    4.682
  378.300   53.962    0.351    0.448    4.559
  378.550   54.822    0.350    0.460    4.483
  378.800   57.488    0.346    0.465    4.487
  379.050   58.614    0.338    0.463    4.387
  379.300   56.700    0.330    0.458    4.393
  379.550   52.649    0.319    0.466    4.392
  379.800   48.743    0.307    0.474    4.391
  380.050   45.331    0.310    0.466    4.390
  380.300   43.480    0.329    0.458    4.388
  380.550   43.211    0.337    0.445    4.388
  380.800   46.227    0.338    0.437    4.387
  381.050   49.487    0.356    0.434    4.386
  381.300   52.639    0.343    0.445    4.384
  381.550   54.791    0.323    0.438    4.335
  381.800   61.546    0.328    0.453    4.305
  382.050   60.504    0.344    0.455    4.301
  382.300   59.453    0.353    0.448    4.299
  382.550   59.934    0.354    0.462    4.290
  382.800   59.970    0.348    0.479    4.217
  383.050   58.156    0.349    0.493    4.219
  383.300   56.946    0.338    0.490    4.218
  383.550   56.986    0.327    0.480    4.217
  383.800   57.069    0.331    0.467    4.216
  384.050   59.375    0.338    0.474    4.215
  384.300   61.308    0.340    0.464    4.215
  384.550   63.220    0.336    0.459    4.214
  384.800   63.042    0.326    0.471    4.212
  385.050   62.527    0.324    0.460    4.203
  385.300   60.398    0.332    0.449    4.295
  385.550   59.580    0.343    0.447    4.289
  385.800   58.874    0.337    0.461    4.324
  386.050   58.212    0.341    0.466    4.363
  386.300   57.328    0.333    0.459    4.423
  386.550   55.664    0.330    0.450    4.772
  386.800   54.772    0.326    0.447    5.456
  387.050   54.370    0.302    0.438    6.695
  387.300   54.087    0.264    0.414    7.864
  387.550   53.063    0.215    0.386    9.573
  387.800   50.272    0.158    0.263   12.118
  388.050   49.300    0.028    0.181   16.592
  388.300   48.367    0.003    0.156   19.466
  388.550   44.889    0.000    0.149   22.158
  388.800   43.037    0.000    0.147   22.241
  389.050   42.994   -0.001    0.152   18.423
  389.300   43.819    0.016    0.164   15.129
  389.550   46.156    0.038    0.204   10.551
  389.800   48.555    0.074    0.268    8.232
  390.050   49.522    0.103    0.358    6.500
  390.300   51.419    0.143    0.420    5.837
  390.550   54.463    0.311    0.460    5.275
  390.800   55.897    0.311    0.472    5.125
  391.050   57.300    0.305    0.488    5.127
  391.300   59.929    0.317    0.506    5.280
  391.550   60.902    0.333    0.501    5.438
