~VERSION INFORMATION
 VERS.                 2.0:   CWLS LOG ASCII STANDARD -VERSION 2.0
 WRAP.                  NO:   ONE LINE PER DEPTH STEP
~WELL INFORMATION BLOCK
#MNEM.UNIT           DATA                    DESCRIPTION OF MNEMONIC
#---------    -------------------            -------------------------------
# Generated from Intellog Unique Number	CW_70_72/WELL/1070
NULL.         -999.25                        : NULL_VALUE
WELL.         CNW PETER 15-13                : Well_name    - WELL              
LOC .         15-13-072-01W5                 : Location     - LOCATION          
UWI .         00/15-13-072-01W5/0            : Uwi          - UNIQUE WELL ID    
ENTR.         JAYE                           : Entered      - ENTERED BY        
SRVC.         COMPUTALOG                     : Scn          - SERVICE COMPANY   
DATE.         5 DEC 88                       : Date         - LOG DATE          
STRT.M        415                            : top_depth    - START DEPTH       
STOP.M        650                            : bot_depth    - STOP DEPTH        
STEP.M        0.25                           : increment    - STEP LENGTH       
~CURVE INFORMATION BLOCK
#MNEM UNIT       ERCB CURVE CODE    CURVE DESCRIPTION
#-----------   ------------------   ----------------------------------
DEPT.M        00 001 00 00         : DEPTH        - DEPTH                       
DPHI.V/V      00 890 00 00         : PHID         - DENSITY POROSITY (SANDSTONE)
NPHI.V/V      00 330 00 00         : PHIN         - NEUTRON POROSITY (SANDSTONE)
GR  .API      00 310 00 00         : GR           - GAMMA RAY                   
CALI.MM       00 280 01 00         : CAL          - CALIPER                     
ILD .OHMM     00 120 00 00         : RESD         - DEEP RESISTIVITY (DIL)      
~PARAMETER INFORMATION       
#MNEM.UNIT           DATA             DESCRIPTION OF MNEMONIC
#---------         -----------     ------------------------------
GL  .M        631.9                : gl           - GROUND LEVEL ELEVATION      
EREF.M        636.2                : kb           - ELEVATION OF DEPTH REFERENCE
DATM.M        631.9                : datum        - DATUM ELEVATION             
TDD .M        667                  : tdd          - TOTAL DEPTH DRILLER         
RUN .         ONE                  : Run          - RUN NUMBER                  
ENG .         HOMER                : Engineer     - RECORDING ENGINEER          
WIT .         TOPIC                : Witness      - WITNESSED BY                
BASE.         EDM                  : Branch       - HOME BASE OF LOGGING UNIT   
MUD .         GEL CHEM             : Mud_type     - MUD TYPE                    
MATR.         SANDSTONE            : Logunit      - NEUTRON MATRIX              
TMAX.C        30                   : BHT          - MAXIMUM RECORDED TEMPERATURE
BHTD.M        667                  : BHTDEP       - MAXIMUM RECORDED TEMPERATURE
RMT .C        17                   : MDTP         - TEMPERATURE OF MUD          
MUDD.KG/M     1180                 : MWT          - MUD DENSITY                 
NEUT.         1                    : NEUTRON      - NEUTRON TYPE                
RESI.         0                    : RESIST       - RESISTIVITY TYPE            
RM  .OHMM     4                    : RM           - RESISTIVITY OF MUD          
RMC .OHMM     3.3                  : RMC          - RESISTIVITY OF MUD CAKE     
RMF .OHMM     4.3                  : RMF          - RESISTIVITY OF MUD FILTRATE 
SUFT.C        0                    : SUFT         - SURFACE TEMPERATURE         
~A  DEPTH     PHID     PHIN       GR      CAL     RESD
# ...
  524.500    0.235    0.373   69.789  194.249    4.788
  524.750    0.255    0.381   68.876  195.172    4.658
  525.000    0.235    0.397   66.251  196.097    4.583
  525.250    0.249    0.407   62.650  196.613    4.492
  525.500    0.271    0.405   60.514  196.925    4.346
  525.750    0.292    0.396   58.256  197.238    4.205
  526.000    0.285    0.410   59.177  197.550    3.964
  526.250    0.277    0.420   65.110  197.963    3.758
  526.500    0.269    0.413   73.122  198.276    3.663
  526.750    0.283    0.423   74.532  198.385    3.768
  527.000    0.288    0.438   66.651  198.595    3.912
  527.250    0.278    0.385   60.420  198.500    4.184
  527.500    0.239    0.352   57.062  198.506    4.525
  527.750    0.190    0.320   57.800  198.716    4.912
  528.000    0.161    0.292   61.715  198.725    5.293
  528.250    0.116    0.290   63.431  198.629    5.455
  528.500    0.164    0.316   61.601  198.431    4.819
  528.750    0.229    0.340   62.033  198.030    4.241
  529.000    0.279    0.395   64.971  197.529    3.774
  529.250    0.293    0.423   63.936  197.332    3.334
  529.500    0.282    0.446   61.067  197.338    3.114
  529.750    0.267    0.438   64.127  197.446    3.035
  530.000    0.251    0.424   69.511  197.352    3.071
  530.250    0.244    0.424   75.688  197.357    3.212
  530.500    0.247    0.427   75.448  197.364    3.467
  530.750    0.254    0.432   73.862  197.371    3.547
  531.000    0.267    0.434   71.666  197.378    3.522
  531.250    0.280    0.442   68.552  197.385    3.465
  531.500    0.293    0.450   65.683  197.493    3.618
  531.750    0.301    0.465   62.937  197.702    3.891
  532.000    0.303    0.387   63.491  198.118    4.392
  532.250    0.210    0.320   66.368  198.328    5.173
  532.500    0.075    0.257   59.832  198.334    6.600
  532.750    0.046    0.178   53.662  198.544    7.674
  533.000    0.020    0.148   47.798  198.857    8.923
  533.250    0.010    0.168   44.319  199.169   10.128
  533.500    0.085    0.221   43.650  199.787    9.199
  533.750    0.160    0.254   48.054  200.304    7.615
  534.000    0.200    0.291   53.499  200.717    6.753
  534.250    0.222    0.282   59.554  201.132    6.179
  534.500    0.194    0.278   59.925  200.934    5.602
  534.750    0.171    0.291   60.663  200.534    5.080
  535.000    0.184    0.324   63.417  199.930    4.683
  535.250    0.239    0.355   67.638  199.121    4.366
  535.500    0.232    0.382   72.777  197.905    4.138
  535.750    0.234    0.402   74.920  196.791    4.012
  536.000    0.246    0.407   77.553  196.390    4.126
  536.250    0.255    0.389   73.401  196.397    4.340
  536.500    0.227    0.364   69.492  197.117    4.703
  536.750    0.176    0.339   66.623  197.938    5.318
  537.000    0.141    0.313   63.388  198.964    5.892
  537.250    0.124    0.363   60.641  199.378    5.565
  537.500    0.171    0.400   65.352  199.588    5.008
  537.750    0.237    0.415   71.957  199.493    4.490
  538.000    0.264    0.427   74.284  199.194    4.117
  538.250    0.242    0.434   74.105  198.692    3.831
  538.500    0.243    0.437   73.925  198.495    3.734
  538.750    0.247    0.442   75.091  198.399    3.708
  539.000    0.240    0.435   76.073  198.203    3.793
  539.250    0.227    0.427   76.627  198.310    3.989
  539.500    0.215    0.421   76.814  198.318    4.204
  539.750    0.218    0.419   74.985  198.528    4.397
  540.000    0.226    0.431   73.155  198.534    4.432
  540.250    0.226    0.432   73.893  198.643    4.360
  540.500    0.224    0.421   75.608  198.853    4.219
  540.750    0.224    0.417   77.201  198.962    4.166
  541.000    0.225    0.423   79.283  199.070    4.137
  541.250    0.225    0.425   81.366  199.281    4.108
  541.500    0.221    0.431   82.837  199.391    4.094
  541.750    0.212    0.448   84.430  199.396    4.111
  542.000    0.227    0.452   83.701  199.506    4.112
  542.250    0.239    0.443   80.709  199.511    4.091
  542.500    0.246    0.437   77.412  199.825    4.093
  542.750    0.246    0.437   76.439  199.933    4.102
  543.000    0.235    0.436   78.765  200.144    4.127
  543.250    0.248    0.441   76.324  200.251    4.136
  543.500    0.250    0.446   78.590  200.462    4.122
  543.750    0.240    0.438   81.895  200.570    4.101
  544.000    0.230    0.431   87.400  200.578    4.118
  544.250    0.221    0.436   89.054  200.787    4.166
  544.500    0.211    0.429   83.129  200.998    4.222
  544.750    0.203    0.418   78.304  201.106    4.279
  545.000    0.205    0.417   77.025  201.420    4.329
  545.250    0.210    0.427   79.841  201.425    4.387
  545.500    0.211    0.432   83.390  201.535    4.413
  545.750    0.207    0.429   82.966  201.540    4.448
  546.000    0.203    0.434   80.831  201.344    4.491
  546.250    0.202    0.453   82.302  201.046    4.552
  546.500    0.207    0.451   83.650  201.051    4.639
  546.750    0.212    0.439   80.537  201.160    4.772
  547.000    0.201    0.432   79.563  201.268    4.927
  547.250    0.202    0.422   83.785  201.175    5.096
  547.500    0.210    0.421   86.906  201.282    5.262
  547.750    0.211    0.427   81.898  201.186    5.423
  548.000    0.202    0.437   79.151  201.092    5.526
  548.250    0.192    0.451   82.639  201.200    5.664
  548.500    0.183    0.463   84.783  201.105    5.572
  548.750    0.184    0.467   85.948  201.622    5.503
  549.000    0.199    0.453   85.341  201.933    5.484
  549.250    0.215    0.443   83.511  203.061    5.435
  549.500    0.224    0.427   82.293  204.086    5.418
  549.750    0.211    0.412   82.358  204.806    5.380
  550.000    0.206    0.416   83.462  205.322    5.263
  550.250    0.211    0.423   84.077  205.532    5.036
  550.500    0.217    0.429   83.898  205.640    4.964
  550.750    0.216    0.437   84.330  205.750    5.154
  551.000    0.207    0.443   85.740  205.654    5.482
  551.250    0.202    0.436   82.687  205.662    5.787
  551.500    0.200    0.433   77.557  205.871    6.109
  551.750    0.184    0.430   72.915  205.879    6.169
  552.000    0.187    0.428   72.553  206.090    6.024
  552.250    0.195    0.432   80.503  206.299    5.585
  552.500    0.193    0.442   89.003  206.611    5.063
  552.750    0.188    0.450   94.692  206.618    4.608
  553.000    0.185    0.446   92.068  205.606    4.475
  553.250    0.179    0.439   89.566  204.084    4.724
  553.500    0.172    0.430   87.308  202.461    4.997
  553.750    0.202    0.444   83.889  201.245    5.295
  554.000    0.233    0.452   81.753  200.538    5.426
  554.250    0.246    0.441   86.647  200.036    5.500
  554.500    0.208    0.439   84.635  200.451    5.461
  554.750    0.185    0.438   82.927  200.661    5.264
  555.000    0.163    0.424   88.310  201.381    5.662
  555.250    0.137    0.333   78.717  202.202    6.180
  555.500    0.112    0.294   61.667  203.126    7.253
  555.750    0.095    0.274   54.642  203.845    8.688
  556.000    0.077    0.266   48.595  204.565   10.720
  556.250    0.106    0.270   50.188  205.082   14.011
  556.500    0.129    0.295   57.772  205.292   17.777
  556.750    0.115    0.310   61.382  205.605   18.389
  557.000    0.146    0.328   64.932  205.917   15.082
  557.250    0.183    0.350   67.503  206.025   11.831
  557.500    0.204    0.379   69.890  206.337   10.490
  557.750    0.209    0.405   72.767  206.344    9.546
  558.000    0.201    0.408   75.277  206.452    8.417
  558.250    0.191    0.406   76.809  206.868    7.803
  558.500    0.178    0.397   74.674  207.078    7.592
  558.750    0.164    0.387   70.338  207.593    7.681
  559.000    0.153    0.387   69.853  208.110    7.886
  559.250    0.162    0.392   70.957  208.321    8.233
  559.500    0.184    0.401   69.922  208.429    8.612
  559.750    0.194    0.406   71.088  208.333    8.583
  560.000    0.195    0.409   74.637  208.238    8.243
  560.250    0.186    0.416   72.502  207.939    7.857
  560.500    0.175    0.430   72.567  207.843    7.311
  560.750    0.188    0.424   75.016  207.647    6.778
