~VERSION INFORMATION
 VERS.                 2.0:   CWLS LOG ASCII STANDARD -VERSION 2.0
 WRAP.                  NO:   ONE LINE PER DEPTH STEP
~WELL INFORMATION BLOCK
#MNEM.UNIT           DATA                    DESCRIPTION OF MNEMONIC
#---------    -------------------            -------------------------------
# Generated from Intellog Unique Number	CS_77_79/WELL/948
LOC .         00/10-11-079-07W4/0            : Location     - LOCATION
UWI .         00/10-11-079-07W4/0            : Uwi          - UNIQUE WELL ID
ENTR.         JHS                            : Entered      - ENTERED BY
SRVC.         SCHLUMBERGER                   : Scn          - SERVICE COMPANY
STRT.M        110                            : top_depth    - START DEPTH
STOP.M        345                            : bot_depth    - STOP DEPTH
STEP.M        0.25                           : increment    - STEP LENGTH
 NULL. -999.2500:NULL Value
~CURVE INFORMATION BLOCK
#MNEM UNIT       ERCB CURVE CODE    CURVE DESCRIPTION
#-----------   ------------------   ----------------------------------
DEPT.M        00 001 00 00         : DEPTH        - DEPTH
DPHI.V/V      00 890 00 00         : PHID         - DENSITY POROSITY (LIMESTONE)
NPHI.V/V      00 330 00 00         : PHIN         - NEUTRON POROSITY (LIMESTONE)
GR  .API      00 310 00 00         : GR           - GAMMA RAY
ILD .OHMM     00 120 00 00         : RESD         - DEEP RESISTIVITY (DIL)
RHOB.KG/M3    00 350 00 00         : DENS         - BULK DENSITY
~PARAMETER INFORMATION
#MNEM.UNIT           DATA             DESCRIPTION OF MNEMONIC
#---------         -----------     ------------------------------
GL  .M        550.24               : gl           - GROUND LEVEL ELEVATION
EREF.M        553.62               : kb           - ELEVATION OF DEPTH REFERENCE
DATM.M        553.62               : datum        - DATUM ELEVATION
TDD .M        349                  : tdd          - TOTAL DEPTH DRILLER
RUN .         ONE                  : Run          - RUN NUMBER
ENG .         BILL                 : Engineer     - RECORDING ENGINEER
WIT .         JIM                  : Witness      - WITNESSED BY
MUD .         GEL                  : Mud_type     - MUD TYPE
MATR.         LIMESTONE            : Logunit      - NEUTRON MATRIX
TMAX.C        15                   : BHT          - MAXIMUM RECORDED TEMPERATURE
BHTD.M        349                  : BHTDEP       - MAXIMUM RECORDED TEMPERATURE
MATR.         1                    : LOGUNIT      - NEUTRON MATRIX
RMT .C        25                   : MDTP         - TEMPERATURE OF MUD
NEUT.         1                    : NEUTRON      - NEUTRON TYPE
RESI.         0                    : RESIST       - RESISTIVITY TYPE
RMC .OHMM     0.25                 : RMC          - RESISTIVITY OF MUD CAKE
RMF .OHMM     0.25                 : RMF          - RESISTIVITY OF MUD FILTRATE
SUFT.C        15                   : SUFT         - SURFACE TEMPERATURE
~A  DEPTH     PHID     PHIN       GR     RESD     DENS
# ...
  256.000    0.353    0.576  106.651    5.364    0.000
  256.250    0.370    0.564  104.793    5.162    0.000
  256.500    0.384    0.554   96.737    5.063    0.000
  256.750    0.406    0.475   97.358    4.965    0.000
  257.000    0.289    0.424  105.418    5.056    0.000
  257.250    0.276    0.406  101.700    5.150    0.000
  257.500    0.267    0.402   93.644    5.655    0.000
  257.750    0.268    0.426   93.646    6.447    0.000
  258.000    0.276    0.454   88.689    7.632 2238.250
  258.250    0.278    0.455   84.352    8.225 2234.020
  258.500    0.273    0.438   91.171    9.201 2242.480
  258.750    0.268    0.437   93.652    9.550 2250.940
  259.000    0.270    0.440  100.472    9.543 2248.830
  259.250    0.281    0.455  105.432    9.186 2229.790
  259.500    0.299    0.465   96.756    8.841 2198.060
  259.750    0.380    0.485   94.898    8.196 2060.550
  260.000    0.417    0.504  101.098    7.455 1997.090
  260.250    0.365    0.432  105.439    6.290 2085.940
  260.500    0.285    0.400  109.779    5.510 2223.440
  260.750    0.266    0.380  109.161    5.013 2255.180
  261.000    0.241    0.366  106.063    4.734 2297.480
  261.250    0.226    0.344  101.727    5.006 2322.870
  261.500    0.215    0.320  109.786    5.816 2341.910
  261.750    0.135    0.287   99.870    6.757 2479.420
  262.000    0.100    0.257   71.979    7.561 2538.650
  262.250    0.216    0.344   80.659    8.785 2339.790
  262.500    0.252    0.388   92.437    9.829 2278.450
  262.750    0.262    0.403  102.356   10.394 2261.520
  263.000    0.257    0.421   99.878   10.386 2269.980
  263.250    0.249    0.407  100.500   10.187 2284.790
  263.500    0.247    0.442   96.163    9.806 2286.910
  263.750    0.249    0.449   91.825    9.087 2284.790
  264.000    0.244    0.445   96.786    8.746 2293.250
  264.250    0.249    0.453   98.027    8.908 2284.790
  264.500    0.273    0.473   89.971    8.902 2242.480
  264.750    0.299    0.458   92.452    8.898 2198.060
  265.000    0.320    0.492  102.371    8.564 2162.100
  265.250    0.308    0.531  111.050    8.090 2183.250
  265.500    0.304    0.562  116.010    7.086 2189.600
  265.750    0.312    0.588  120.351    6.092 2176.900
  266.000    0.308    0.596  128.410    5.439 2183.250
  266.250    0.307    0.570  125.313    4.419 2185.370
  266.500    0.319    0.558  108.579    4.020 2164.210
  266.750    0.327    0.543   98.663    3.869 2151.520
  267.000    0.309    0.531  108.582    4.169 2181.130
  267.250    0.306    0.502  111.063    4.843 2187.480
  267.500    0.314    0.506  110.445    5.419 2172.670
  267.750    0.291    0.466  118.504    5.951 2212.870
  268.000    0.228    0.445  117.886    6.658 2320.750
  268.250    0.220    0.442  113.549    7.311 2333.450
  268.500    0.229    0.455  117.889    7.878 2318.640
  268.750    0.239    0.470  110.453    8.175 2301.720
  269.000    0.249    0.481  109.215    8.170 2284.790
  269.250    0.239    0.504  112.316    7.574 2301.720
  269.500    0.260    0.518  107.978    6.389 2265.750
  269.750    0.303    0.580  103.641    5.494 2191.710
  270.000    0.328    0.624  101.163    4.548 2149.400
  270.250    0.372    0.636   95.587    3.837 2073.250
  270.500    0.349    0.641   91.869    3.362 2113.440
  270.750    0.313    0.643   86.912    2.783 2174.790
  271.000    0.313    0.642   94.972    2.532 2174.790
  271.250    0.317    0.640   87.535    2.391 2168.440
  271.500    0.327    0.633   91.256    2.345 2151.520
  271.750    0.333    0.630   88.778    2.300 2140.940
  272.000    0.325    0.625   96.838    2.299 2153.630
  272.250    0.314    0.622   96.219    2.385 2172.670
  272.500    0.304    0.605   98.700    2.384 2189.600
  272.750    0.318    0.584  104.901    2.474 2166.330
  273.000    0.338    0.527   95.605    2.616 2132.480
  273.250    0.345    0.492   95.606    2.873 2119.780
  273.500    0.344    0.520  105.525    3.155 2121.900
  273.750    0.344    0.496  106.147    3.734 2121.900
  274.000    0.350    0.486   96.231    4.339 2111.320
  274.250    0.334    0.459   95.613    5.041 2138.820
  274.500    0.276    0.421   99.953    5.968 2238.250
  274.750    0.246    0.413   96.236    6.678 2289.020
  275.000    0.113    0.372   89.419    7.758 2517.490
  275.250    0.118    0.353   85.082    8.519 2509.030
  275.500    0.262    0.479   92.521    7.749 2261.520
  275.750    0.265    0.495  116.697    6.788 2257.290
  276.000    0.257    0.452   98.723    6.175 2269.980
  276.250    0.256    0.459  111.741    5.112 2272.100
  276.500    0.262    0.474  117.941    4.650 2261.520
  276.750    0.271    0.485  108.025    4.311 2246.710
  277.000    0.268    0.510  111.746    3.996 2250.940
  277.250    0.272    0.518  111.748    3.846 2244.600
  277.500    0.280    0.533  108.030    3.771 2231.900
  277.750    0.283    0.554  107.412    3.700 2225.560
  278.000    0.282    0.538  114.852    3.697 2227.670
  278.250    0.288    0.552  108.655    3.695 2217.100
  278.500    0.308    0.534  111.136    3.624 2183.250
  278.750    0.311    0.520  111.138    3.554 2179.020
  279.000    0.303    0.533  114.239    3.552 2191.710
  279.250    0.306    0.544  115.480    3.756 2187.480
  279.500    0.317    0.518  113.622    4.124 2168.440
  279.750    0.343    0.502  103.087    4.445 2124.020
  280.000    0.396    0.486   97.510    5.261 2033.050
  280.250    0.382    0.466   93.172    5.778 2056.320
  280.500    0.267    0.432   99.992    6.343 2253.060
  280.750    0.308    0.428  109.911    6.338 2183.250
  281.000    0.291    0.455  116.731    6.337 2212.870
  281.250    0.275    0.443  108.675    6.333 2240.370
  281.500    0.257    0.393  106.817    6.572 2269.980
  281.750    0.212    0.353  103.099    7.081 2348.260
  282.000    0.124    0.317   91.324    7.630 2498.450
  282.250    0.216    0.304   88.847    8.537 2339.790
  282.500    0.259    0.298   92.567    9.374 2267.870
  282.750    0.276    0.286   83.271    9.913 2238.250
  283.000    0.280    0.275   82.653   10.288 2231.900
  283.250    0.264    0.265   80.795   10.475 2259.410
  283.500    0.249    0.256   82.656   10.670 2284.790
  283.750    0.236    0.286   84.517   10.866 2305.950
  284.000    0.234    0.266   85.759   11.065 2310.180
  284.250    0.245    0.230   88.860   10.853    0.000
  284.500    0.267    0.182   90.101   11.694 2253.060
  284.750    0.293    0.144   80.805   13.085 2208.630
  285.000    0.320    0.121   72.749   17.673 2162.100
  285.250    0.354    0.114   60.354   27.747 2104.980
  285.500    0.353    0.100   57.256   45.237 2107.090
  285.750    0.334    0.150   46.720   90.711 2138.820
  286.000    0.311    0.195   36.185  227.990 2179.020
  286.250    0.297    0.193   41.145  227.850 2202.290
  286.500    0.292    0.186   45.486  144.947 2210.750
  286.750    0.293    0.189   41.148  165.255 2208.630
  287.000    0.298    0.194   38.671  162.089 2200.170
  287.250    0.301    0.200   43.011  117.638 2195.940
  287.500    0.298    0.199   45.492   69.409 2200.170
  287.750    0.301    0.194   50.453   45.851 2195.940
  288.000    0.301    0.202   52.934   33.276 2195.940
  288.250    0.293    0.228   49.216   25.554 2208.630
  288.500    0.280    0.282   69.672   18.895 2231.900
  288.750    0.271    0.303   80.211   15.943 2246.710
  289.000    0.270    0.294   64.097   13.967 2248.830
  289.250    0.276    0.317   49.222   12.006 2238.250
  289.500    0.273    0.341   50.464   10.520 2242.480
  289.750    0.282    0.367   70.920    9.214 2227.670
  290.000    0.278    0.393   90.136    9.210 2234.020
  290.250    0.278    0.375   80.841   10.903 2234.020
  290.500    0.276    0.370   75.884   11.973 2238.250
  290.750    0.268    0.411   96.340   13.650 2250.940
  291.000    0.278    0.395  106.879   15.273 2234.020
  291.250    0.283    0.382  100.062   17.089 2225.560
  291.500    0.278    0.374   99.444   18.764 2234.020
  291.750    0.272    0.387   93.247   19.470 2244.600
  292.000    0.262    0.379   90.150   19.098 2261.520
  292.250    0.251    0.380  112.465   17.046 2280.560
