~VERSION INFORMATION
 VERS.                 2.0:   CWLS LOG ASCII STANDARD -VERSION 2.0
 WRAP.                  NO:   ONE LINE PER DEPTH STEP
~WELL INFORMATION BLOCK
#MNEM.UNIT           DATA                    DESCRIPTION OF MNEMONIC
#---------    -------------------            -------------------------------
# Generated from Intellog Unique Number	CW_79_81/WELL/2486
WELL.         11-26-080-24W4                 : Well_name    - WELL
LOC .         00/11-26-080-24W4/0            : Location     - LOCATION
UWI .         00/11-26-080-24W4/0            : Uwi          - UNIQUE WELL ID
ENTR.         MAX                            : Entered      - ENTERED BY
SRVC.         COMPUTALOG                     : Scn          - SERVICE COMPANY
STRT.M        225                            : top_depth    - START DEPTH
STOP.M        450                            : bot_depth    - STOP DEPTH
STEP.M        0.25                           : increment    - STEP LENGTH
 NULL. -999.2500:NULL Value
~CURVE INFORMATION BLOCK
#MNEM UNIT       ERCB CURVE CODE    CURVE DESCRIPTION
#-----------   ------------------   ----------------------------------
DEPT.M        00 001 00 00         : DEPTH        - DEPTH
ILD .OHMM     00 120 00 00         : RESD         - DEEP RESISTIVITY (DIL)
NPHI.V/V      00 330 00 00         : PHIN         - NEUTRON POROSITY (SANDSTONE)
DPHI.V/V      00 890 00 00         : PHID         - DENSITY POROSITY (SANDSTONE)
GR  .API      00 310 00 00         : GR           - GAMMA RAY
CALI.MM       00 280 01 00         : CAL          - CALIPER
~PARAMETER INFORMATION
#MNEM.UNIT           DATA             DESCRIPTION OF MNEMONIC
#---------         -----------     ------------------------------
GL  .M        568.3                : gl           - GROUND LEVEL ELEVATION
EREF.M        572.95               : kb           - ELEVATION OF DEPTH REFERENCE
DATM.M        568.3                : datum        - DATUM ELEVATION
TDD .M        450                  : tdd          - TOTAL DEPTH DRILLER
RUN .         ONE                  : Run          - RUN NUMBER
ENG .         BILL                 : Engineer     - RECORDING ENGINEER
WIT .         JIM                  : Witness      - WITNESSED BY
MUD .         GEL                  : Mud_type     - MUD TYPE
MATR.         SANDSTONE            : Logunit      - NEUTRON MATRIX
TMAX.C        34                   : BHT          - MAXIMUM RECORDED TEMPERATURE
BHTD.M        450                  : BHTDEP       - MAXIMUM RECORDED TEMPERATURE
MATR.         1                    : LOGUNIT      - NEUTRON MATRIX
RMT .C        15.5                 : MDTP         - TEMPERATURE OF MUD
NEUT.         1                    : NEUTRON      - NEUTRON TYPE
RESI.         0                    : RESIST       - RESISTIVITY TYPE
RMC .OHMM     1.9                  : RMC          - RESISTIVITY OF MUD CAKE
RMF .OHMM     4.5                  : RMF          - RESISTIVITY OF MUD FILTRATE
SUFT.C        -20                  : SUFT         - SURFACE TEMPERATURE
~A  DEPTH     RESD     PHIN     PHID       GR      CAL
# ...
  407.500   12.438    0.364    0.166   78.152  232.466
  407.750   13.030    0.351    0.143   78.395  232.458
  408.000   12.732    0.371    0.126   79.629  232.452
  408.250   11.913    0.397    0.156   82.241  233.237
  408.500   10.649    0.415    0.175   85.388  234.320
  408.750    9.849    0.425    0.180   88.713  235.504
  409.000    9.669    0.420    0.173   90.730  236.588
  409.250   10.174    0.372    0.154   87.734  237.124
  409.500   10.982    0.340    0.130   82.281  235.881
  409.750   12.057    0.354    0.112   79.899  231.911
  410.000   12.222    0.373    0.132   84.115  228.535
  410.250   11.637    0.387    0.153   89.462  226.746
  410.500   10.845    0.395    0.163   93.440  226.542
  410.750   10.532    0.402    0.175   96.131  227.013
  411.000   11.367    0.401    0.182   94.146  227.418
  411.250   13.486    0.386    0.160   80.115  227.413
  411.500   15.717    0.365    0.139   74.640  226.813
  411.750   18.244    0.348    0.121   73.329  225.617
  412.000   20.084    0.345    0.116   73.919  224.224
  412.250   17.940    0.372    0.150   78.274  223.424
  412.500   15.904    0.380    0.176   88.177  223.416
  412.750   15.101    0.379    0.177   88.412  223.014
  413.000   15.319    0.376    0.182   81.156  222.909
  413.250   16.826    0.372    0.196   72.473  222.902
  413.500   19.134    0.367    0.221   64.029  222.796
  413.750   20.039    0.363    0.256   50.659  222.310
  414.000   23.936    0.358    0.279   38.519  221.892
  414.250   25.909    0.338    0.297   32.571  221.488
  414.500   28.500    0.327    0.303   28.584  221.383
  414.750   31.131    0.323    0.303   26.559  221.377
  415.000   32.540    0.320    0.301   26.377  221.470
  415.250   30.703    0.319    0.300   28.145  221.693
  415.500   28.674    0.334    0.299   29.875  220.862
  415.750   26.432    0.341    0.298   30.823  220.062
  416.000   24.236    0.342    0.296   31.056  219.858
  416.250   20.886    0.339    0.294   31.171  220.050
  416.500   18.076    0.335    0.292   31.524  220.638
  416.750   17.586    0.327    0.289   32.530  221.900
  417.000   16.549    0.331    0.287   34.012  222.306
  417.250   15.831    0.331    0.287   35.197  221.904
  417.500   15.230    0.333    0.289   36.561  220.908
  417.750   14.789    0.343    0.290   38.460  220.307
  418.000   14.518    0.357    0.290   40.893  220.399
  418.250   14.451    0.363    0.293   44.197  220.954
  418.500   14.668    0.372    0.294   47.661  221.772
  418.750   15.317    0.379    0.292   49.084  222.162
  419.000   15.739    0.383    0.289   50.685  222.850
  419.250   15.734    0.384    0.284   53.654  223.438
  419.500   15.418    0.383    0.279   56.919  223.926
  419.750   15.257    0.375    0.268   56.954  224.794
  420.000   15.605    0.352    0.243   55.960  225.201
  420.250   16.771    0.329    0.195   53.816  225.987
  420.500   17.274    0.309    0.144   52.028  226.476
  420.750   16.819    0.307    0.121   54.640  226.668
  421.000   15.718    0.322    0.141   59.927  226.661
  421.250   14.593    0.344    0.201   59.853  226.489
  421.500   14.478    0.347    0.219   57.124  225.656
  421.750   14.900    0.345    0.218   52.841  224.857
  422.000   15.502    0.340    0.215   50.162  224.356
  422.250   16.248    0.337    0.215   49.207  224.151
  422.500   17.128    0.338    0.222   49.382  224.046
  422.750   18.375    0.351    0.235   48.981  223.559
  423.000   19.529    0.374    0.247   46.995  223.139
  423.250   20.988    0.383    0.267   44.138  223.133
  423.500   22.563    0.376    0.279   41.816  222.830
  423.750   24.013    0.364    0.286   40.386  222.824
  424.000   25.181    0.354    0.290   40.085  223.114
  424.250   26.152    0.356    0.291   41.427  223.107
  424.500   26.342    0.363    0.293   43.404  223.100
  424.750   25.951    0.356    0.292   44.590  223.094
  425.000   25.286    0.351    0.289   46.667  223.088
  425.250   24.550    0.350    0.283   48.922  223.082
  425.500   23.792    0.352    0.272   51.057  223.174
  425.750   22.500    0.348    0.247   53.837  223.562
  426.000   20.548    0.338    0.215   57.054  223.557
  426.250   15.425    0.325    0.147   61.329  223.946
  426.500   13.418    0.338    0.121   67.389  224.336
  426.750   11.774    0.360    0.129   74.281  224.528
  427.000   10.300    0.377    0.152   81.707  224.522
  427.250    9.339    0.377    0.165   91.114  224.514
  427.500    8.854    0.371    0.174   96.559  224.507
  427.750    8.659    0.374    0.179   92.276  224.501
  428.000    8.610    0.389    0.182   88.706  224.495
  428.250    8.670    0.400    0.189   85.491  224.489
  428.500    8.779    0.397    0.203   81.981  224.482
  428.750    8.826    0.377    0.235   73.407  224.391
  429.000    8.756    0.365    0.271   54.331  223.971
  429.250    8.754    0.349    0.277   38.636  223.569
  429.500    8.799    0.335    0.280   34.350  223.465
  429.750    9.053    0.326    0.272   34.703  223.458
  430.000    9.748    0.319    0.251   36.542  223.550
  430.250   11.778    0.308    0.220   42.917  224.021
  430.500   14.178    0.323    0.195   55.794  224.428
  430.750   18.893    0.322    0.176   59.594  224.422
  431.000   21.511    0.314    0.133   57.866  224.415
  431.250   21.585    0.308    0.096   55.722  224.408
  431.500   19.720    0.313    0.088   57.205  224.402
  431.750   15.534    0.346    0.123   66.721  224.395
  432.000   12.339    0.402    0.127   73.900  224.388
  432.250   10.236    0.393    0.130   79.840  224.383
  432.500    8.355    0.382    0.148   79.896  224.674
  432.750    7.291    0.372    0.167   78.109  224.865
  433.000    6.661    0.369    0.183   77.154  224.759
  433.250    5.898    0.378    0.200   78.685  224.355
  433.500    5.720    0.367    0.208   80.415  224.350
  433.750    5.760    0.437    0.201   85.641  224.343
  434.000    5.896    0.448    0.178   87.303  224.634
  434.250    6.198    0.433    0.167   88.963  224.826
  434.500    6.690    0.407    0.177   91.990  224.918
  434.750    7.415    0.380    0.196   96.197  225.389
  435.000    8.003    0.408    0.192   99.412  225.795
  435.250    8.417    0.414    0.184   99.171  225.790
  435.500    8.854    0.407    0.178   94.472  225.784
  435.750    9.447    0.380    0.170   87.097  225.380
  436.000   10.323    0.345    0.146   78.772  224.680
  436.250   11.949    0.324    0.075   69.078  224.194
  436.500   13.940    0.298    0.065   58.671  223.776
  436.750   14.139    0.271    0.060   53.674  223.372
  437.000   13.417    0.314    0.112   59.911  223.563
  437.250   12.131    0.355    0.160   68.111  223.954
  437.500   10.958    0.369    0.182   73.813  224.245
  437.750   10.565    0.383    0.195   77.326  224.237
  438.000   10.972    0.391    0.219   77.073  224.230
  438.250   11.792    0.413    0.259   74.455  224.224
  438.500   14.168    0.441    0.286   69.696  224.218
  438.750   18.169    0.450    0.306   64.341  224.014
  439.000   23.710    0.437    0.317   59.820  223.611
  439.250   30.719    0.411    0.311   58.032  223.207
  439.500   35.555    0.368    0.297   61.001  223.201
  439.750   35.286    0.360    0.290   66.702  223.193
  440.000   24.979    0.381    0.285   70.623  222.890
  440.250   18.894    0.405    0.296   72.521  222.686
  440.500   15.621    0.422    0.320   73.290  222.680
  440.750   12.425    0.442    0.348   75.544  222.672
  441.000   10.538    0.496    0.376   78.513  222.665
  441.250    9.287    0.541    0.411   78.747  222.659
  441.500    8.287    0.551    0.432   75.771  222.652
  441.750    7.425    0.553    0.428   73.745  222.646
  442.000    6.671    0.555    0.401   75.465  222.640
  442.250    5.990    0.546    0.356   83.942  222.715
  442.500    5.810    0.514    0.289   91.864  223.121
  442.750    5.723    0.491    0.285   91.622  223.907
  443.000    5.608    0.493    0.276   91.915  224.990
  443.250    5.403    0.505    0.251   92.149  225.776
  443.500    5.172    0.517    0.218   91.552  226.067
  443.750    5.051    0.522    0.200   89.021  226.143
