~VERSION INFORMATION
 VERS.                 2.0:   CWLS LOG ASCII STANDARD -VERSION 2.0
 WRAP.                  NO:   ONE LINE PER DEPTH STEP
~WELL INFORMATION BLOCK
#MNEM.UNIT           DATA                    DESCRIPTION OF MNEMONIC
#---------    -------------------            -------------------------------
# Generated from Intellog Unique Number	CC_80_83/WELL/2366
NULL.         -999.25                        : NULL_VALUE
WELL.         CHEVRON CAN OXY LGAR           : Well_name    - WELL              
LOC .         10-23-082-16W4                 : Location     - LOCATION          
UWI .         00/10-23-082-16W400            : Uwi          - UNIQUE WELL ID    
ENTR.         RJA                            : Entered      - ENTERED BY        
SRVC.         SCHLUMBERGER                   : Scn          - SERVICE COMPANY   
DATE.         18 FEB 74                      : Date         - LOG DATE
STRT.M        94.488                         : top_depth    - START DEPTH       
STOP.M        286.511                        : bot_depth    - STOP DEPTH        
STEP.M        0.3048                         : increment    - STEP LENGTH       
~CURVE INFORMATION BLOCK
#MNEM UNIT       ERCB CURVE CODE    CURVE DESCRIPTION
#-----------   ------------------   ----------------------------------
DEPT.M        00 001 00 00         : DEPTH        - DEPTH                       
DPHI.V/V      00 890 00 00         : PHID         - DENSITY POROSITY (LIMESTONE)
NPHI.V/V      00 330 00 00         : PHIN         - NEUTRON POROSITY (LIMESTONE)
GR  .API      00 310 00 00         : GR           - GAMMA RAY                   
ILD .OHMM     00 120 00 00         : RESD         - DEEP RESISTIVITY (DIL)      
~PARAMETER INFORMATION       
#MNEM.UNIT           DATA             DESCRIPTION OF MNEMONIC
#---------         -----------     ------------------------------
GL  .M        550.774              : gl           - GROUND LEVEL ELEVATION      
EREF.M        554.126              : kb           - ELEVATION OF DEPTH REFERENCE
DATM.M        554.126              : datum        - DATUM ELEVATION             
TDD .M        287.731              : tdd          - TOTAL DEPTH DRILLER         
RUN .         ONE                  : Run          - RUN NUMBER                  
ENG .         BILL                 : Engineer     - RECORDING ENGINEER          
WIT .         JIM                  : Witness      - WITNESSED BY                
MUD .         GEL                  : Mud_type     - MUD TYPE                    
MATR.         LIMESTONE            : Logunit      - NEUTRON MATRIX              
TMAX.C        18.3333              : BHT          - MAXIMUM RECORDED TEMPERATURE
BHTD.M        287.731              : BHTDEP       - MAXIMUM RECORDED TEMPERATURE
MATR.         1                    : LOGUNIT      - NEUTRON MATRIX              
RMT .C        25                   : MDTP         - TEMPERATURE OF MUD          
NEUT.         1                    : NEUTRON      - NEUTRON TYPE                
RESI.         0                    : RESIST       - RESISTIVITY TYPE            
RMC .OHMM     0.25                 : RMC          - RESISTIVITY OF MUD CAKE     
RMF .OHMM     0.25                 : RMF          - RESISTIVITY OF MUD FILTRATE 
SUFT.C        4                    : SUFT         - SURFACE TEMPERATURE         
~A  DEPTH     PHID     PHIN       GR     RESD
# ...
  147.523    0.293    0.479   63.696   10.848
  147.828    0.279    0.507   62.219    9.671
  148.133    0.295    0.536   59.898    9.521
  148.437    0.297    0.538   58.667   10.722
  148.742    0.287    0.529   55.374   12.321
  149.047    0.308    0.503   55.535   13.373
  149.352    0.328    0.482   56.359   13.093
  149.657    0.321    0.493   57.847   12.110
  149.961    0.304    0.509   62.660   11.597
  150.266    0.286    0.512   64.088   12.245
  150.571    0.251    0.442   61.039   12.856
  150.876    0.204    0.323   57.391   12.921
  151.181    0.116    0.365   59.726   12.059
  151.485    0.229    0.484   66.049   10.174
  151.790    0.303    0.471   68.442    8.004
  152.095    0.282    0.449   69.757    7.294
  152.400    0.255    0.484   73.001    7.341
  152.705    0.254    0.494   73.097    7.794
  153.009    0.257    0.440   71.505    8.336
  153.314    0.265    0.466   71.782    8.361
  153.619    0.266    0.469   75.568    8.217
  153.924    0.250    0.460   80.265    8.486
  154.229    0.271    0.490   83.691    8.542
  154.533    0.273    0.476   84.813    7.435
  154.838    0.271    0.517   83.941    6.543
  155.143    0.292    0.560   93.842    6.337
  155.448    0.271    0.578  102.228    6.343
  155.752    0.244    0.567  107.409    6.759
  156.057    0.275    0.558  103.995    7.866
  156.362    0.311    0.565   99.800    8.586
  156.667    0.289    0.558   94.996    9.233
  156.972    0.299    0.541   92.131   10.246
  157.276    0.319    0.469   88.595   11.389
  157.581    0.335    0.447   85.669   12.545
  157.886    0.311    0.514   84.380   12.560
  158.191    0.291    0.500   87.800   10.832
  158.496    0.281    0.505   87.658    9.854
  158.800    0.284    0.481   81.769   10.233
  159.105    0.286    0.419   72.429   11.651
  159.410    0.387    0.312   59.399   16.787
  159.715    0.415    0.234   49.699   26.274
  160.020    0.403    0.230   50.878   38.276
  160.324    0.386    0.250   51.647   43.183
  160.629    0.377    0.284   51.680   34.219
  160.934    0.359    0.363   52.204   23.927
  161.239    0.351    0.459   50.062   17.679
  161.544    0.337    0.492   50.405   15.648
  161.848    0.300    0.491   53.099   13.721
  162.153    0.290    0.524   54.048   13.411
  162.458    0.312    0.511   49.670   15.016
  162.763    0.348    0.489   47.833   15.480
  163.068    0.351    0.463   48.653   15.754
  163.372    0.338    0.455   45.664   16.303
  163.677    0.332    0.442   45.699   16.561
  163.982    0.338    0.476   47.676   16.549
  164.287    0.330    0.471   52.249   16.503
  164.592    0.337    0.481   54.408   16.855
  164.896    0.341    0.480   57.832   17.182
  165.201    0.335    0.486   54.963   17.457
  165.506    0.330    0.477   53.185   17.447
  165.811    0.353    0.490   55.639   17.239
  166.115    0.355    0.494   57.005   17.099
  166.420    0.342    0.498   56.199   16.928
  166.725    0.341    0.494   53.273   16.576
  167.030    0.358    0.541   50.225   16.376
  167.335    0.359    0.530   48.447   16.456
  167.639    0.345    0.514   49.393   16.382
  167.944    0.337    0.505   51.609   16.156
  168.249    0.342    0.488   52.673   15.969
  168.554    0.323    0.524   55.371   15.665
  168.859    0.339    0.555   56.379   15.335
  169.163    0.343    0.602   55.327   15.102
  169.468    0.335    0.559   52.212   15.144
  169.773    0.330    0.549   52.016   15.353
  170.078    0.321    0.561   55.616   15.572
  170.383    0.329    0.529   55.475   15.875
  170.687    0.335    0.513   52.728   15.777
  170.992    0.346    0.542   52.703   15.532
  171.297    0.317    0.517   54.676   15.692
  171.602    0.326    0.523   56.592   16.296
  171.907    0.330    0.510   59.534   16.075
  172.211    0.332    0.500   63.377    9.490
  172.516    0.313    0.471   69.160    7.412
  172.821    0.240    0.548   75.737    5.830
  173.126    0.205    0.580   92.651    5.009
  173.431    0.243    0.553   98.012    4.932
  173.735    0.234    0.503   91.453    5.038
  174.040    0.204    0.495   91.070    5.175
  174.345    0.225    0.523   93.521    5.324
  174.650    0.204    0.559   97.977    5.438
  174.955    0.189    0.551   99.529    5.424
  175.259    0.232    0.560   98.715    5.361
  175.564    0.235    0.632   97.243    5.125
  175.869    0.230    0.656   98.610    5.072
  176.174    0.226    0.633   98.160    5.078
  176.479    0.226    0.609   97.165    5.140
  176.783    0.196    0.589   97.391    5.213
  177.088    0.227    0.573  100.571    5.305
  177.393    0.220    0.587  102.123    5.388
  177.698    0.220    0.638   99.559    5.393
  178.002    0.246    0.645   96.694    5.499
  178.307    0.209    0.608   87.957    5.425
  178.612    0.204    0.510   83.884    5.311
  178.917    0.218    0.536   75.029    5.327
  179.222    0.271    0.605   79.422    5.331
  179.526    0.277    0.622   84.718    5.211
  179.831    0.279    0.593   87.118    5.483
  180.136    0.338    0.573   80.983    6.475
  180.441    0.321    0.559   76.304    7.678
  180.746    0.306    0.583   81.724    9.444
  181.050    0.264    0.570   99.967   11.830
  181.355    0.277    0.579  119.727   11.801
  181.660    0.266    0.632  139.241   11.681
  181.965    0.250    0.644  149.443   11.955
  182.270    0.230    0.636  149.357   14.384
  182.574    0.198    0.579  151.753   12.823
  182.879    0.159    0.550  152.639   11.881
  183.184    0.161    0.523   89.040   15.788
  183.489    0.277    0.527   85.144   15.317
  183.794    0.261    0.441   79.129   14.036
  184.098    0.232    0.366   73.480   16.339
  184.403    0.170    0.344   73.157   15.736
  184.708    0.222    0.591   79.544   14.416
  185.013    0.316    0.577   81.453   13.710
  185.318    0.310    0.533   79.797   12.819
  185.622    0.309    0.526   76.210   12.483
  185.927    0.319    0.551   69.955   12.243
  186.232    0.326    0.548   65.397   12.169
  186.537    0.333    0.525   68.337   12.048
  186.842    0.328    0.509   71.757   12.125
  187.146    0.322    0.517   70.952   12.088
  187.451    0.320    0.555   65.363   12.060
  187.756    0.325    0.580   66.791   11.984
  188.061    0.323    0.537   64.227   11.865
  188.365    0.340    0.519   60.330   11.791
  188.670    0.330    0.533   59.398   11.087
  188.975    0.322    0.553   59.923   11.703
  189.280    0.317    0.557   59.293   11.546
  189.585    0.334    0.552   62.357   11.161
  189.889    0.329    0.544   67.471   11.276
  190.194    0.332    0.545   64.907   11.245
  190.499    0.322    0.583   61.676   11.175
  190.804    0.321    0.590   60.568   11.185
  191.109    0.322    0.567   61.818   11.341
  191.413    0.330    0.551   65.906   11.479
  191.718    0.328    0.542   67.456   11.448
  192.023    0.336    0.517   65.436   11.086
  192.328    0.330    0.543   65.408   10.717
  192.633    0.319    0.551   65.451   10.283
  192.937    0.301    0.529   64.335    9.995
  193.242    0.276    0.519   63.348   10.323
  193.547    0.250    0.326   60.176   11.329
  193.852    0.121    0.283   56.344   12.525
  194.157    0.076    0.532   65.329   12.912
  194.461    0.241    0.563   71.600   11.832
  194.766    0.300    0.566   76.113   10.038
  195.071    0.280    0.543   79.541    8.688
  195.376    0.272    0.558   85.626    8.051
  195.681    0.263    0.552   88.749    7.337
  195.985    0.248    0.566   87.456    7.014
  196.290    0.249    0.607   88.884    6.868
  196.595    0.251    0.591   91.580    6.761
  196.900    0.243    0.581   92.468    6.731
  197.205    0.268    0.535   84.819    6.763
  197.509    0.251    0.485   80.197    6.985
  197.814    0.259    0.497   76.244    7.108
  198.119    0.299    0.533   76.572    7.704
  198.424    0.294    0.547   77.292    7.482
  198.728    0.283    0.597   78.701    6.763
  199.033    0.310    0.560   78.116    6.412
  199.338    0.285    0.548   80.139    6.461
  199.643    0.262    0.568   84.532    6.766
  199.948    0.296    0.570   85.059    7.047
  200.252    0.286    0.551   77.395    7.180
