~VERSION INFORMATION
 VERS.                 2.0:   CWLS LOG ASCII STANDARD -VERSION 2.0
 WRAP.                  NO:   ONE LINE PER DEPTH STEP
~WELL INFORMATION BLOCK
#MNEM.UNIT           DATA                    DESCRIPTION OF MNEMONIC
#---------    -------------------            -------------------------------
# Generated from Intellog Unique Number	CS_71_72/WELL/3248
WELL.         AEC KIRBY                      : Well_name    - WELL
LOC .         00/15-32-071-04W4/0            : Location     - LOCATION
UWI .         00/15-32-071-04W4/0            : Uwi          - UNIQUE WELL ID
ENTR.         T                              : Entered      - ENTERED BY
SRVC.         COMPUTALOG                     : Scn          - SERVICE COMPANY
DATE.         03/24/92                       : Date         - LOG DATE
STRT.M        300                            : top_depth    - START DEPTH
STOP.M        500                            : bot_depth    - STOP DEPTH
STEP.M        0.25                           : increment    - STEP LENGTH
 NULL. -999.2500:NULL Value
~CURVE INFORMATION BLOCK
#MNEM UNIT       ERCB CURVE CODE    CURVE DESCRIPTION
#-----------   ------------------   ----------------------------------
DEPT.M        00 001 00 00         : DEPTH        - DEPTH
NPHI.V/V      00 330 00 00         : PHIN         - NEUTRON POROSITY (SANDSTONE)
GR  .API      00 310 00 00         : GR           - GAMMA RAY
DPHI.V/V      00 890 00 00         : PHID         - DENSITY POROSITY (SANDSTONE)
ILD .OHMM     00 120 00 00         : RESD         - DEEP RESISTIVITY (DIL)
~PARAMETER INFORMATION
#MNEM.UNIT           DATA             DESCRIPTION OF MNEMONIC
#---------         -----------     ------------------------------
GL  .M        679                  : gl           - GROUND LEVEL ELEVATION
EREF.M        682.5                : kb           - ELEVATION OF DEPTH REFERENCE
DATM.M        682.5                : datum        - DATUM ELEVATION
TDD .M        503                  : tdd          - TOTAL DEPTH DRILLER
RUN .         ONE                  : Run          - RUN NUMBER
ENG .         BILL                 : Engineer     - RECORDING ENGINEER
WIT .         JIM                  : Witness      - WITNESSED BY
MUD .         GEL                  : Mud_type     - MUD TYPE
MATR.         SANDSTONE            : Logunit      - NEUTRON MATRIX
TMAX.C        18                   : BHT          - MAXIMUM RECORDED TEMPERATURE
BHTD.M        503                  : BHTDEP       - MAXIMUM RECORDED TEMPERATURE
RMT .C        17                   : MDTP         - TEMPERATURE OF MUD
MUDD.KG/M     1100                 : MWT          - MUD DENSITY
NEUT.         1                    : NEUTRON      - NEUTRON TYPE
RESI.         0                    : RESIST       - RESISTIVITY TYPE
RM  .OHMM     4.4                  : RM           - RESISTIVITY OF MUD
RMC .OHMM     5.2                  : RMC          - RESISTIVITY OF MUD CAKE
RMF .OHMM     4.2                  : RMF          - RESISTIVITY OF MUD FILTRATE
SUFT.C        4                    : SUFT         - SURFACE TEMPERATURE
~A  DEPTH     PHIN       GR     PHID     RESD
# ...
  387.000    0.435   65.140    0.342    1.688
  387.250    0.430   59.595    0.346    1.628
  387.500    0.422   54.667    0.351    1.600
  387.750    0.419   54.062    0.352    1.602
  388.000    0.416   54.076    0.353    1.603
  388.250    0.415   53.470    0.357    1.635
  388.500    0.415   52.246    0.358    1.667
  388.750    0.414   52.258    0.358    1.733
  389.000    0.415   53.507    0.361    1.768
  389.250    0.415   54.747    0.361    1.803
  389.500    0.414   55.994    0.361    1.874
  389.750    0.409   56.005    0.359    1.876
  390.000    0.411   56.019    0.359    1.913
  390.250    0.418   56.648    0.357    1.915
  390.500    0.428   60.984    0.355    1.917
  390.750    0.433   62.227    0.355    1.884
  391.000    0.437   64.094    0.355    1.885
  391.250    0.439   65.340    0.357    1.886
  391.500    0.445   65.969    0.358    1.889
  391.750    0.449   65.980    0.359    1.927
  392.000    0.448   64.757    0.359    1.928
  392.250    0.445   64.765    0.358    2.004
  392.500    0.440   64.159    0.356    2.044
  392.750    0.438   69.113    0.354    2.085
  393.000    0.425   69.741    0.348    2.126
  393.250    0.401   68.518    0.344    2.128
  393.500    0.395   70.382    0.349    2.131
  393.750    0.413   71.008    0.354    2.133
  394.000    0.422   75.344    0.348    2.135
  394.250    0.409   82.761    0.323    2.178
  394.500    0.407   95.740    0.282    2.179
  394.750    0.425  101.308    0.278    2.224
  395.000    0.420  105.641    0.283    2.269
  395.250    0.421  108.122    0.287    2.357
  395.500    0.428  112.455    0.288    2.496
  395.750    0.444  108.145    0.289    2.693
  396.000    0.456  101.982    0.292    2.799
  396.250    0.460   99.527    0.289    2.855
  396.500    0.457  102.628    0.284    2.805
  396.750    0.446  103.869    0.278    2.755
  397.000    0.434  107.587    0.277    2.758
  397.250    0.431  108.216    0.276    2.761
  397.500    0.432  109.462    0.276    2.924
  397.750    0.442  111.946    0.278    3.214
  398.000    0.456  113.186    0.283    3.404
  398.250    0.456  115.050    0.284    3.673
  398.500    0.447  110.743    0.283    3.747
  398.750    0.438  105.818    0.271    3.895
  399.000    0.438  101.508    0.263    3.897
  399.250    0.433   99.049    0.264    3.975
  399.500    0.427   98.443    0.266    4.053
  399.750    0.423   97.223    0.265    4.060
  400.000    0.421   96.611    0.264    4.062
  400.250    0.413   96.005    0.263    4.067
  400.500    0.406   96.019    0.263    4.072
  400.750    0.416   92.327    0.263    4.076
  401.000    0.431   88.631    0.262    4.005
  401.250    0.438   91.729    0.257    3.932
  401.500    0.431   97.297    0.257    3.864
  401.750    0.417  102.868    0.257    3.796
  402.000    0.414  104.114    0.249    3.729
  402.250    0.419  103.508    0.249    3.664
  402.500    0.423  104.140    0.253    3.599
  402.750    0.421  105.383    0.254    3.536
  403.000    0.421  106.009    0.254    3.472
  403.250    0.416  107.258    0.254    3.412
  403.500    0.414  107.267    0.254    3.290
  403.750    0.411  107.281    0.253    3.056
  404.000    0.414  107.292    0.253    2.946
  404.250    0.419  107.306    0.254    2.840
  404.500    0.420  107.315    0.254    2.739
  404.750    0.422  107.326    0.253    2.741
  405.000    0.418  107.341    0.250    2.850
  405.250    0.425  108.584    0.250    2.905
  405.500    0.452  110.448    0.249    3.076
  405.750    0.466  108.607    0.249    3.197
  406.000    0.460  104.297    0.249    3.261
  406.250    0.435  106.777    0.252    3.389
  406.500    0.429  109.258    0.258    3.394
  406.750    0.426  110.507    0.257    3.396
  407.000    0.424  112.371    0.251    3.400
  407.250    0.419  115.469    0.253    3.340
  407.500    0.421  116.716    0.260    3.282
  407.750    0.427  113.643    0.267    3.223
  408.000    0.437  112.414    0.280    3.168
  408.250    0.440  110.573    0.289    3.229
  408.500    0.443  106.269    0.294    3.358
  408.750    0.453  104.422    0.289    3.424
  409.000    0.473  100.732    0.278    3.694
  409.250    0.475   97.039    0.272    3.986
  409.500    0.432   95.813    0.269    4.222
  409.750    0.416   93.355    0.269    4.227
  410.000    0.415   94.601    0.268    4.231
  410.250    0.415   97.702    0.267    4.234
  410.500    0.416  101.418    0.264    4.162
  410.750    0.427  103.287    0.264    4.087
  411.000    0.441  100.209    0.267    3.939
  411.250    0.449   95.898    0.269    3.799
  411.500    0.432   92.203    0.273    3.732
  411.750    0.438   87.275    0.278    3.735
  412.000    0.449   82.347    0.284    3.811
  412.250    0.453   77.420    0.291    3.959
  412.500    0.405   71.878    0.300    4.437
  412.750    0.387   67.564    0.313    4.697
  413.000    0.356   58.933    0.186    5.164
  413.250    0.301   50.301    0.159    5.469
  413.500    0.253   45.373    0.082    5.578
  413.750    0.276   50.941    0.165    5.689
  414.000    0.333   65.769    0.258    5.589
  414.250    0.369   75.662    0.292    5.290
  414.500    0.396   71.969    0.311    5.099
  414.750    0.429   70.125    0.315    4.827
  415.000    0.420   71.377    0.319    4.652
  415.250    0.419   72.000    0.322    4.571
  415.500    0.417   72.012    0.325    4.575
  415.750    0.423   70.791    0.328    4.756
  416.000    0.428   70.185    0.334    4.759
  416.250    0.430   70.814    0.339    4.857
  416.500    0.436   73.295    0.347    4.952
  416.750    0.447   77.628    0.345    4.956
  417.000    0.450   81.344    0.321    5.056
  417.250    0.443   83.828    0.318    5.060
  417.500    0.437   85.074    0.308    5.163
  417.750    0.446   86.317    0.297    5.265
  418.000    0.456   87.566    0.287    5.269
  418.250    0.467   86.960    0.279    5.275
  418.500    0.454   88.206    0.275    5.182
  418.750    0.426   90.070    0.273    5.188
  419.000    0.412   87.609    0.273    5.003
  419.250    0.402   88.240    0.275    4.734
  419.500    0.397   91.339    0.280    4.395
  419.750    0.395   95.675    0.283    3.786
  420.000    0.410   98.150    0.289    3.516
  420.250    0.433  101.866    0.291    3.086
  420.500    0.449  101.877    0.289    2.711
  420.750    0.466  101.277    0.290    2.613
  421.000    0.429  101.291    0.299    2.472
  421.250    0.426  101.297    0.307    2.254
  421.500    0.453  100.691    0.305    2.172
  421.750    0.471   97.618    0.290    2.134
  422.000    0.470   96.395    0.282    2.218
  422.250    0.419   99.496    0.274    2.349
  422.500    0.424  101.974    0.271    2.441
  422.750    0.449  104.452    0.271    2.585
  423.000    0.453  105.698    0.271    2.789
  423.250    0.451  106.327    0.271    3.010
  423.500    0.440  106.339    0.271    3.127
  423.750    0.427  102.646    0.272    3.440
  424.000    0.419   97.718    0.274    3.507
  424.250    0.420   91.556    0.278    3.714
  424.500    0.419   89.097    0.282    3.859
  424.750    0.414   90.344    0.292    3.936
  425.000    0.420   89.741    0.302    4.171
  425.250    0.429   86.045    0.315    4.252
  425.500    0.441   82.355    0.324    4.419
  425.750    0.452   80.511    0.326    4.592
  426.000    0.441   78.056    0.318    4.957
  426.250    0.439   76.218    0.319    5.054
  426.500    0.439   74.989    0.320    5.352
  426.750    0.442   73.151    0.321    5.563
  427.000    0.447   75.015    0.321    5.673
  427.250    0.438   78.730    0.319    5.898
  427.500    0.427   82.446    0.314    5.903
  427.750    0.432   86.779    0.311    5.907
  428.000    0.424   88.643    0.308    5.916
  428.250    0.416   89.892    0.304    5.920
  428.500    0.416   90.518    0.304    5.819
  428.750    0.411   90.529    0.303    5.822
  429.000    0.412   86.839    0.300    5.616
  429.250    0.416   85.621    0.295    5.620
  429.500    0.421   86.245    0.291    5.519
  429.750    0.423   86.871    0.286    5.424
  430.000    0.431   87.499    0.280    5.327
  430.250    0.436   88.748    0.278    5.234
