~VERSION INFORMATION
 VERS.                 2.0:   CWLS LOG ASCII STANDARD -VERSION 2.0
 WRAP.                  NO:   ONE LINE PER DEPTH STEP
~WELL INFORMATION BLOCK
#MNEM.UNIT           DATA                    DESCRIPTION OF MNEMONIC
#---------    -------------------            -------------------------------
# Generated from Intellog Unique Number	CW_82_90/WELL/903
WELL.         10-24-083-19W4                 : Well_name    - WELL
LOC .         00/10-24-083-19W4/0            : Location     - LOCATION
UWI .         00/10-24-083-19W400            : Uwi          - UNIQUE WELL ID
ENTR.         JAYE                           : Entered      - ENTERED BY
SRVC.         SCHLUMBERGER                   : Scn          - SERVICE COMPANY
DATE.         20 JAN 80                      : Date         - LOG DATE
STRT.M        95                             : top_depth    - START DEPTH
STOP.M        311                            : bot_depth    - STOP DEPTH
STEP.M        0.25                           : increment    - STEP LENGTH
 NULL. -999.2500:NULL Value
~CURVE INFORMATION BLOCK
#MNEM UNIT       ERCB CURVE CODE    CURVE DESCRIPTION
#-----------   ------------------   ----------------------------------
DEPT.M        00 001 00 00         : DEPTH        - DEPTH
CALI.MM       00 280 01 00         : CAL          - CALIPER
GR  .API      00 310 00 00         : GR           - GAMMA RAY
NPHI.V/V      00 330 00 00         : PHIN         - NEUTRON POROSITY (SANDSTONE)
DPHI.V/V      00 890 00 00         : PHID         - DENSITY POROSITY (SANDSTONE)
ILD .OHMM     00 120 00 00         : RESD         - DEEP RESISTIVITY (DIL)
~PARAMETER INFORMATION
#MNEM.UNIT           DATA             DESCRIPTION OF MNEMONIC
#---------         -----------     ------------------------------
GL  .M        567.28               : gl           - GROUND LEVEL ELEVATION
EREF.M        570.48               : kb           - ELEVATION OF DEPTH REFERENCE
DATM.M        567.28               : datum        - DATUM ELEVATION
TDD .M        314                  : tdd          - TOTAL DEPTH DRILLER
RUN .         ONE                  : Run          - RUN NUMBER
ENG .         MIDDLETON            : Engineer     - RECORDING ENGINEER
WIT .         COLLET               : Witness      - WITNESSED BY
BASE.         EDMONTON             : Branch       - HOME BASE OF LOGGING UNIT
MUD .         GEL                  : Mud_type     - MUD TYPE
MATR.         SANDSTONE            : Logunit      - NEUTRON MATRIX
TMAX.C        29                   : BHT          - MAXIMUM RECORDED TEMPERATURE
BHTD.M        314                  : BHTDEP       - MAXIMUM RECORDED TEMPERATURE
RMT .C        11.1                 : MDTP         - TEMPERATURE OF MUD
MUDD.KG/M     1125                 : MWT          - MUD DENSITY
NEUT.         1                    : NEUTRON      - NEUTRON TYPE
RESI.         0                    : RESIST       - RESISTIVITY TYPE
RM  .OHMM     4.12                 : RM           - RESISTIVITY OF MUD
RMC .OHMM     0                    : RMC          - RESISTIVITY OF MUD CAKE
RMF .OHMM     16.7                 : RMF          - RESISTIVITY OF MUD FILTRATE
SUFT.C        0                    : SUFT         - SURFACE TEMPERATURE
~A  DEPTH      CAL       GR     PHIN     PHID     RESD
# ...
  131.500  234.850   91.950    0.501   -0.320    2.403
  131.750  237.619   91.076    0.500   -0.317    2.398
  132.000  236.779   89.768    0.515   -0.313    2.402
  132.250  235.836   89.388    0.521   -0.319    2.411
  132.500  233.968   89.503    0.520   -0.336    2.426
  132.750  232.303   91.351    0.521   -0.347    2.454
  133.000  231.876   92.516    0.518   -0.331    2.489
  133.250  233.098   91.333    0.519   -0.349    2.533
  133.500  235.043   91.140    0.525   -0.356    2.579
  133.750  238.738   92.677    0.529   -0.357    2.668
  134.000  239.755   91.863    0.531   -0.381    2.766
  134.250  239.536   90.000    0.523   -0.409    2.861
  134.500  236.118   87.207    0.483   -0.433    2.972
  134.750  231.569   87.694    0.487   -0.455    3.124
  135.000  230.417   89.417    0.496   -0.440    3.225
  135.250  233.293   93.367    0.509   -0.408    3.330
  135.500  239.358   94.841    0.521   -0.349    3.390
  135.750  240.068   95.142    0.530   -0.348    3.409
  136.000  239.640   95.568    0.525   -0.346    3.429
  136.250  240.451   94.445    0.516   -0.356    3.498
  136.500  247.138   93.385    0.506   -0.336    3.626
  136.750  246.093   91.831    0.504   -0.323    3.897
  137.000  242.778   90.399    0.503   -0.347    4.121
  137.250  242.145   89.524    0.506   -0.353    4.350
  137.500  239.040   87.536    0.501   -0.365    4.591
  137.750  234.280   87.218    0.489   -0.362    4.855
  138.000  234.780   86.838    0.474   -0.351    5.166
  138.250  231.882   83.923    0.459   -0.343    5.791
  138.500  228.879   77.482    0.442   -0.320    7.352
  138.750  226.798   57.432    0.426   -0.300   12.019
  139.000  225.858   48.021    0.382   -0.285   19.413
  139.250  225.021   45.908    0.391   -0.274   25.195
  139.500  224.902   46.147    0.396   -0.279   28.873
  139.750  224.372   46.634    0.388   -0.277   31.092
  140.000  224.256   47.490    0.379   -0.276   31.588
  140.250  224.241   47.235    0.379   -0.278   31.709
  140.500  224.020   46.485    0.392   -0.271   31.260
  140.750  224.004   45.918    0.400   -0.266   30.818
  141.000  224.713   45.725    0.394   -0.268   29.958
  141.250  225.112   45.468    0.393   -0.267   28.831
  141.500  226.539   46.265    0.396   -0.265   27.635
  141.750  229.411   47.864    0.408   -0.272   27.244
  142.000  234.656   48.659    0.452   -0.283   27.846
  142.250  241.854   48.527    0.462   -0.282   28.807
  142.500  242.358   47.405    0.457   -0.260   29.860
  142.750  232.654   45.602    0.436   -0.252   30.826
  143.000  224.392   45.592    0.416   -0.242   31.320
  143.250  220.770   45.647    0.401   -0.250   31.630
  143.500  221.884   45.577    0.401   -0.274   31.878
  143.750  224.555   45.566    0.433   -0.286   32.064
  144.000  229.283   45.744    0.425   -0.287   32.121
  144.250  228.133   46.601    0.413   -0.278   31.858
  144.500  226.467   47.519    0.395   -0.282   31.407
  144.750  227.074   48.069    0.395   -0.278   30.838
  145.000  228.604   49.298    0.401   -0.269   30.218
  145.250  228.590   49.661    0.409   -0.267   29.611
  145.500  228.162   49.960    0.416   -0.274   29.605
  145.750  227.636   50.569    0.416   -0.267   29.481
  146.000  226.279   51.613    0.415   -0.268   28.948
  146.250  225.133   51.729    0.411   -0.272   28.423
  146.500  223.258   50.853    0.399   -0.276   28.134
  146.750  222.010   50.102    0.388   -0.273   26.967
  147.000  220.757   50.155    0.390   -0.247   25.953
  147.250  220.227   50.271    0.399   -0.227   25.381
  147.500  220.213   48.469    0.444   -0.226   25.324
  147.750  220.818   46.914    0.436   -0.233   25.833
  148.000  222.553   45.420    0.422   -0.264   26.348
  148.250  223.571   44.732    0.433   -0.259   26.610
  148.500  223.867   45.032    0.439   -0.254   26.927
  148.750  223.029   47.187    0.425   -0.257   27.247
  149.000  221.261   48.911    0.422   -0.254   26.594
  149.250  219.801   49.893    0.442   -0.269   27.019
  149.500  218.655   51.366    0.455   -0.283   27.068
  149.750  217.712   53.091    0.450   -0.296   24.825
  150.000  216.976   56.177    0.443   -0.300   22.091
  150.250  217.166   64.332    0.443   -0.340   20.261
  150.500  217.258   75.395    0.450   -0.358   15.480
  150.750  218.786   77.367    0.460   -0.376   12.213
  151.000  220.424   74.387    0.468   -0.393   10.275
  151.250  221.234   72.338    0.482   -0.400    8.926
  151.500  221.116   72.515    0.494   -0.355    7.708
  151.750  220.794   74.115    0.502   -0.325    6.394
  152.000  220.572   80.663    0.512   -0.344    5.158
  152.250  219.527   83.809    0.522   -0.338    4.069
  152.500  220.748   85.902    0.532   -0.331    3.650
  152.750  224.962   88.184    0.547   -0.322    3.534
  153.000  229.382   90.711    0.535   -0.341    3.663
  153.250  235.035   90.331    0.514   -0.343    3.929
  153.500  239.456   86.177    0.497   -0.344    4.197
  153.750  244.079   86.291    0.490   -0.346    4.493
  154.000  245.406   87.646    0.494   -0.359    4.897
  154.250  238.278   88.318    0.479   -0.354    5.467
  154.500  228.366   86.391    0.451   -0.352    6.228
  154.750  226.497   79.145    0.422   -0.353    7.252
  155.000  225.038   75.487    0.416   -0.356    7.794
  155.250  225.332   77.581    0.419   -0.359    9.004
  155.500  226.350   77.388    0.437   -0.342   10.806
  155.750  226.540   75.709    0.446   -0.330   12.285
  156.000  226.732   74.587    0.446   -0.333   12.940
  156.250  226.925   75.073    0.437   -0.342   13.494
  156.500  226.807   73.394    0.421   -0.358   14.129
  156.750  226.483   70.601    0.414   -0.368   14.882
  157.000  226.265   70.284    0.397   -0.359   15.740
  157.250  226.558   71.698    0.401   -0.336   16.646
  157.500  227.265   74.781    0.401   -0.323   17.604
  157.750  228.178   73.226    0.400   -0.313   18.212
  158.000  229.195   74.022    0.398   -0.305   17.739
  158.250  229.594   75.990    0.390   -0.310   16.171
  158.500  230.301   77.778    0.391   -0.316   15.102
  158.750  233.687   82.099    0.399   -0.334   13.493
  159.000  237.489   88.462    0.418   -0.347   11.936
  159.250  241.289   95.257    0.433   -0.368    8.831
  159.500  246.120   98.032    0.455   -0.383    6.926
  159.750  248.784   95.364    0.445   -0.381    6.314
  160.000  246.400   94.860    0.431   -0.372    6.677
  160.250  236.489   96.459    0.414   -0.375    7.234
  160.500  231.421   97.441    0.404   -0.393    8.273
  160.750  230.274   95.267    0.407   -0.411    9.219
  161.000  230.568   92.661    0.409   -0.400   10.068
  161.250  233.336   93.270    0.418   -0.397   10.562
  161.500  235.695   97.096    0.443   -0.402   10.904
  161.750  235.886   95.912    0.439   -0.398   11.012
  162.000  234.223   92.750    0.431   -0.378   11.099
  162.250  231.939   89.957    0.414   -0.384   11.412
  162.500  229.658   89.761    0.438   -0.363   11.900
  162.750  226.549   88.455    0.441   -0.354   12.361
  163.000  225.092   85.849    0.433   -0.360   13.258
  163.250  223.736   81.943    0.423   -0.363   14.191
  163.500  222.278   77.727    0.389   -0.331   15.498
  163.750  220.926   73.699    0.364   -0.318   17.303
  164.000  219.673   67.443    0.377   -0.324   18.299
  164.250  221.101   65.455    0.380   -0.325   17.824
  164.500  225.211   67.921    0.379   -0.329   16.779
  164.750  229.939   75.396    0.388   -0.357   14.519
  165.000  233.327   91.904    0.420   -0.376   12.264
  165.250  232.487  108.038    0.455   -0.375    9.314
  165.500  228.041  116.010    0.492   -0.375    6.515
  165.750  221.840  119.339    0.480   -0.399    5.844
  166.000  222.545  118.218    0.490   -0.409    5.961
  166.250  223.458  116.291    0.512   -0.418    6.008
  166.500  224.581  115.604    0.504   -0.392    5.995
  166.750  224.773  112.194    0.503   -0.400    5.934
  167.000  222.800  110.143    0.503   -0.395    5.586
  167.250  220.826  111.062    0.497   -0.397    5.092
  167.500  219.468  112.043    0.492   -0.384    4.577
  167.750  219.251  113.211    0.499   -0.404    4.344
