~VERSION INFORMATION
 VERS.                 2.0:   CWLS LOG ASCII STANDARD -VERSION 2.0
 WRAP.                  NO:   ONE LINE PER DEPTH STEP
~WELL INFORMATION BLOCK
#MNEM.UNIT           DATA                    DESCRIPTION OF MNEMONIC
#---------    -------------------            -------------------------------
# Generated from Intellog Unique Number	CS_77_79/WELL/980
WELL.         MESA H. B. THORNBURY           : Well_name    - WELL
LOC .         00/10-33-078-11W4/0            : Location     - LOCATION
UWI .         00/10-33-078-11W4/0            : Uwi          - UNIQUE WELL ID
ENTR.         JHS                            : Entered      - ENTERED BY
SRVC.         SCHLUMBERGER                   : Scn          - SERVICE COMPANY
STRT.M        275                            : top_depth    - START DEPTH
STOP.M        501                            : bot_depth    - STOP DEPTH
STEP.M        0.25                           : increment    - STEP LENGTH
 NULL. -999.2500:NULL Value
~CURVE INFORMATION BLOCK
#MNEM UNIT       ERCB CURVE CODE    CURVE DESCRIPTION
#-----------   ------------------   ----------------------------------
DEPT.M        00 001 00 00         : DEPTH        - DEPTH
DPHI.V/V      00 890 00 00         : PHID         - DENSITY POROSITY (LIMESTONE)
NPHI.V/V      00 330 00 00         : PHIN         - NEUTRON POROSITY (LIMESTONE)
GR  .API      00 310 00 00         : GR           - GAMMA RAY
ILD .OHMM     00 120 00 00         : RESD         - DEEP RESISTIVITY (DIL)
RHOB.KG/M3    00 350 00 00         : DENS         - BULK DENSITY
~PARAMETER INFORMATION
#MNEM.UNIT           DATA             DESCRIPTION OF MNEMONIC
#---------         -----------     ------------------------------
GL  .M        695.6                : gl           - GROUND LEVEL ELEVATION
EREF.M        699.7                : kb           - ELEVATION OF DEPTH REFERENCE
DATM.M        699.7                : datum        - DATUM ELEVATION
TDD .M        502                  : tdd          - TOTAL DEPTH DRILLER
RUN .         ONE                  : Run          - RUN NUMBER
ENG .         BILL                 : Engineer     - RECORDING ENGINEER
WIT .         JIM                  : Witness      - WITNESSED BY
MUD .         GEL                  : Mud_type     - MUD TYPE
MATR.         LIMESTONE            : Logunit      - NEUTRON MATRIX
TMAX.C        22                   : BHT          - MAXIMUM RECORDED TEMPERATURE
BHTD.M        502                  : BHTDEP       - MAXIMUM RECORDED TEMPERATURE
MATR.         1                    : LOGUNIT      - NEUTRON MATRIX
RMT .C        25                   : MDTP         - TEMPERATURE OF MUD
NEUT.         1                    : NEUTRON      - NEUTRON TYPE
RESI.         0                    : RESIST       - RESISTIVITY TYPE
RMC .OHMM     0.25                 : RMC          - RESISTIVITY OF MUD CAKE
RMF .OHMM     0.25                 : RMF          - RESISTIVITY OF MUD FILTRATE
SUFT.C        15                   : SUFT         - SURFACE TEMPERATURE
~A  DEPTH     PHID     PHIN       GR     RESD     DENS
# ...
  348.000    0.363    0.445   49.031   18.120    0.000
  348.250    0.357    0.439   50.250   18.124    0.000
  348.500    0.351    0.433   49.632   18.469    0.000
  348.750    0.347    0.429   45.952   18.477    0.000
  349.000    0.350    0.434   42.884   18.480    0.000
  349.250    0.368    0.440   40.429   18.484    0.000
  349.500    0.374    0.444   39.198   18.491    0.000
  349.750    0.361    0.447   39.804   18.494    0.000
  350.000    0.354    0.440   43.471   18.158    0.000
  350.250    0.349    0.435   45.303   18.164    0.000
  350.500    0.354    0.441   48.357   17.831    0.000
  350.750    0.368    0.447   48.962   17.507    0.000
  351.000    0.374    0.447   47.730   17.511    0.000
  351.250    0.370    0.455   46.503   17.190    0.000
  351.500    0.363    0.443   45.273   17.198    0.000
  351.750    0.359    0.438   44.653   17.201    0.000
  352.000    0.363    0.430   44.647   16.887    0.000
  352.250    0.374    0.416   44.641   16.891    0.000
  352.500    0.368    0.416   43.411   16.894    0.000
  352.750    0.368    0.428   45.241   16.901    0.000
  353.000    0.355    0.438   47.683   16.904    0.000
  353.250    0.354    0.445   47.676   16.908    0.000
  353.500    0.364    0.446   47.672   16.603    0.000
  353.750    0.367    0.443   45.829   16.607    0.000
  354.000    0.373    0.435   44.600   16.611    0.000
  354.250    0.368    0.437   43.369   16.616    0.000
  354.500    0.366    0.450   43.362   16.620    0.000
  354.750    0.379    0.443   43.357   16.624    0.000
  355.000    0.379    0.444   45.799   16.321    0.000
  355.250    0.373    0.440   48.242   16.323    0.000
  355.500    0.368    0.448   50.071   16.329    0.000
  355.750    0.381    0.444   51.902   16.332    0.000
  356.000    0.379    0.461   52.508   16.338    0.000
  356.250    0.386    0.451   51.277   16.343    0.000
  356.500    0.377    0.445   49.435   16.346    0.000
  356.750    0.372    0.446   45.144   16.349    0.000
  357.000    0.372    0.451   41.464   16.356    0.000
  357.250    0.367    0.455   45.744   16.668    0.000
  357.500    0.361    0.435   48.187   16.671    0.000
  357.750    0.354    0.435   48.180   16.675    0.000
  358.000    0.349    0.449   46.949   16.680    0.000
  358.250    0.337    0.453   48.169   16.999    0.000
  358.500    0.352    0.460   49.999   17.005    0.000
  358.750    0.360    0.466   54.278   17.007    0.000
  359.000    0.354    0.468   57.945   17.013    0.000
  359.250    0.355    0.467   61.000   17.337    0.000
  359.500    0.350    0.472   60.383   17.343    0.000
  359.750    0.341    0.477   64.050   17.675    0.000
  360.000    0.330    0.461   68.942   18.011    0.000
  360.250    0.303    0.458   71.995   20.152    0.000
  360.500    0.255    0.444   71.377   22.546    0.000
  360.750    0.010    0.425   65.249   27.694    0.000
  361.000    0.000    0.174   56.673   35.311    0.000
  361.250    0.000    0.161   44.422   48.514    0.000
  361.500    0.001    0.158   49.314   60.715    0.000
  361.750    0.052    0.187   55.430   59.611    0.000
  362.000    0.176    0.226   62.770   50.401    0.000
  362.250    0.286    0.303   69.499   40.295    0.000
  362.500    0.277    0.386   77.451   28.269    0.000
  362.750    0.250    0.414   80.507   23.904    0.000
  363.000    0.256    0.407   81.724   22.609    0.000
  363.250    0.313    0.435   79.269   23.041    0.000
  363.500    0.316    0.480   74.366   22.618    0.000
  363.750    0.318    0.487   70.075   21.392    0.000
  364.000    0.318    0.495   66.395   21.002    0.000
  364.250    0.324    0.475   63.939   21.010    0.000
  364.500    0.330    0.471   61.485   21.014    0.000
  364.750    0.331    0.470   60.866   20.250    0.000
  365.000    0.345    0.465   60.859   19.881    0.000
  365.250    0.352    0.459   59.629   19.516    0.000
  365.500    0.340    0.467   57.175   18.459    0.000
  365.750    0.343    0.471   54.720   17.459    0.000
  366.000    0.348    0.474   56.550   16.824    0.000
  366.250    0.349    0.481   58.994   16.516    0.000
  366.500    0.354    0.472   61.435   15.914    0.000
  366.750    0.349    0.474   62.653   15.335    0.000
  367.000    0.362    0.488   61.424   14.776    0.000
  367.250    0.374    0.487   58.968   14.239    0.000
  367.500    0.360    0.489   59.575   13.979    0.000
  367.750    0.360    0.494   62.017   13.471    0.000
  368.000    0.360    0.496   64.459   13.226    0.000
  368.250    0.358    0.486   66.903   12.983    0.000
  368.500    0.369    0.486   67.510   12.512    0.000
  368.750    0.353    0.492   66.891   12.283    0.000
  369.000    0.346    0.508   63.824   11.837    0.000
  369.250    0.368    0.516   60.143   11.839    0.000
  369.500    0.378    0.508   60.751   11.623    0.000
  369.750    0.384    0.497   64.417   11.201    0.000
  370.000    0.376    0.493   65.636   10.996    0.000
  370.250    0.376    0.508   66.240   10.596    0.000
  370.500    0.384    0.498   65.624   10.210    0.000
  370.750    0.375    0.487   66.230    9.657    0.000
  371.000    0.372    0.487   68.060    9.305    0.000
  371.250    0.376    0.485   71.116    7.034    0.000
  371.500    0.329    0.476   77.232    5.837    0.000
  371.750    0.297    0.479   82.123    4.844    0.000
  372.000    0.325    0.535   82.730    4.332    0.000
  372.250    0.323    0.522   76.600    4.669    0.000
  372.500    0.331    0.492   72.920    5.423    0.000
  372.750    0.327    0.479   71.077    6.787    0.000
  373.000    0.335    0.465   70.460    8.816    0.000
  373.250    0.345    0.454   72.903   11.669    0.000
  373.500    0.330    0.447   77.795   11.893    0.000
  373.750    0.310    0.443   80.850   10.635    0.000
  374.000    0.289    0.442   86.354    7.187    0.000
  374.250    0.277    0.456   93.694    5.640    0.000
  374.500    0.271    0.514   99.810    4.344    0.000
  374.750    0.262    0.538  100.414    3.473    0.000
  375.000    0.261    0.554  100.410    2.936    0.000
  375.250    0.265    0.569  100.403    2.675    0.000
  375.500    0.252    0.577   98.561    2.530    0.000
  375.750    0.246    0.610   96.107    2.484    0.000
  376.000    0.277    0.602   97.325    2.580    0.000
  376.250    0.265    0.597   99.155    2.629    0.000
  376.500    0.253    0.592   95.476    2.887    0.000
  376.750    0.239    0.584   94.246    3.290    0.000
  377.000    0.222    0.543   92.403    3.967    0.000
  377.250    0.218    0.500   93.621    4.783    0.000
  377.500    0.256    0.497   98.512    5.555    0.000
  377.750    0.251    0.504   95.444    5.767    0.000
  378.000    0.231    0.514   93.603    5.662    0.000
  378.250    0.234    0.508   96.044    5.355    0.000
  378.500    0.249    0.523   95.426    4.971    0.000
  378.750    0.250    0.542   94.809    4.615    0.000
  379.000    0.256    0.546   97.864    4.365    0.000
  379.250    0.237    0.520   97.858    4.366    0.000
  379.500    0.242    0.505   97.851    4.449    0.000
  379.750    0.259    0.506   92.948    4.620    0.000
  380.000    0.264    0.518   86.820    4.887    0.000
  380.250    0.279    0.503   87.425    5.367    0.000
  380.500    0.298    0.481   84.358    5.678    0.000
  380.750    0.299    0.473   80.066    6.006    0.000
  381.000    0.310    0.505   78.836    6.121    0.000
  381.250    0.312    0.467   81.279    6.123    0.000
  381.500    0.320    0.436   84.945    5.791    0.000
  381.750    0.261    0.460   89.838    5.178    0.000
  382.000    0.234    0.502   97.178    4.378    0.000
  382.250    0.225    0.539  101.458    3.843    0.000
  382.500    0.238    0.525   99.003    3.703    0.000
  382.750    0.244    0.505   94.100    3.704    0.000
  383.000    0.230    0.502   98.991    3.775    0.000
  383.250    0.227    0.508  102.046    3.847    0.000
  383.500    0.250    0.516  102.040    3.848    0.000
  383.750    0.249    0.525  102.644    3.778    0.000
  384.000    0.260    0.534  103.252    3.640    0.000
  384.250    0.247    0.546   99.572    3.443    0.000
