~VERSION INFORMATION
 VERS.                 2.0:   CWLS LOG ASCII STANDARD -VERSION 2.0
 WRAP.                  NO:   ONE LINE PER DEPTH STEP
~WELL INFORMATION BLOCK
#MNEM.UNIT           DATA                    DESCRIPTION OF MNEMONIC
#---------    -------------------            -------------------------------
# Generated from Intellog Unique Number	CS_67_68/WELL/852
WELL.         GLOBAL ARTIC ISLAND            : Well_name    - WELL
LOC .         00/12-18-068-17W4/0            : Location     - LOCATION
UWI .         00/12-18-068-17W4/0            : Uwi          - UNIQUE WELL ID
ENTR.         SP                             : Entered      - ENTERED BY
SRVC.         SCHLUMBERGER                   : Scn          - SERVICE COMPANY
STRT.M        385                            : top_depth    - START DEPTH
STOP.M        525                            : bot_depth    - STOP DEPTH
STEP.M        0.25                           : increment    - STEP LENGTH
 NULL. -999.2500:NULL Value
~CURVE INFORMATION BLOCK
#MNEM UNIT       ERCB CURVE CODE    CURVE DESCRIPTION
#-----------   ------------------   ----------------------------------
DEPT.M        00 001 00 00         : DEPTH        - DEPTH
ILD .OHMM     00 120 00 00         : RESD         - DEEP RESISTIVITY (DIL)
DPHI.V/V      00 890 00 00         : PHID         - DENSITY POROSITY (LIMESTONE)
NPHI.V/V      00 330 00 00         : PHIN         - NEUTRON POROSITY (LIMESTONE)
GR  .API      00 310 00 00         : GR           - GAMMA RAY
~PARAMETER INFORMATION
#MNEM.UNIT           DATA             DESCRIPTION OF MNEMONIC
#---------         -----------     ------------------------------
GL  .M        568                  : gl           - GROUND LEVEL ELEVATION
EREF.M        571.3                : kb           - ELEVATION OF DEPTH REFERENCE
DATM.M        568                  : datum        - DATUM ELEVATION
TDD .M        538                  : tdd          - TOTAL DEPTH DRILLER
RUN .         ONE                  : Run          - RUN NUMBER
ENG .         BILL                 : Engineer     - RECORDING ENGINEER
WIT .         JIM                  : Witness      - WITNESSED BY
MUD .         GEL                  : Mud_type     - MUD TYPE
MATR.         LIMESTONE            : Logunit      - NEUTRON MATRIX
TMAX.C        26                   : BHT          - MAXIMUM RECORDED TEMPERATURE
BHTD.M        538                  : BHTDEP       - MAXIMUM RECORDED TEMPERATURE
MATR.         1                    : LOGUNIT      - NEUTRON MATRIX
RMT .C        25                   : MDTP         - TEMPERATURE OF MUD
NEUT.         1                    : NEUTRON      - NEUTRON TYPE
RESI.         0                    : RESIST       - RESISTIVITY TYPE
RMC .OHMM     0.25                 : RMC          - RESISTIVITY OF MUD CAKE
RMF .OHMM     0.25                 : RMF          - RESISTIVITY OF MUD FILTRATE
SUFT.C        15                   : SUFT         - SURFACE TEMPERATURE
~A  DEPTH     RESD     PHID     PHIN       GR
# ...
  428.500    2.676    0.149    0.379  111.370
  428.750    2.641    0.161    0.394  111.787
  429.000    2.593    0.189    0.358  106.803
  429.250    2.588    0.214    0.374  100.909
  429.500    2.638    0.235    0.413   96.714
  429.750    2.694    0.229    0.406   94.097
  430.000    2.766    0.209    0.363   92.692
  430.250    2.845    0.191    0.344   92.685
  430.500    2.977    0.181    0.379   94.862
  430.750    3.115    0.169    0.394   99.829
  431.000    3.104    0.167    0.387  102.853
  431.250    3.012    0.167    0.380  103.149
  431.500    2.902    0.179    0.386   98.893
  431.750    2.806    0.202    0.400   95.002
  432.000    2.713    0.216    0.412   90.928
  432.250    2.599    0.224    0.379   87.037
  432.500    2.490    0.230    0.354   83.690
  432.750    2.439    0.239    0.363   82.772
  433.000    2.368    0.247    0.421   83.007
  433.250    2.413    0.252    0.492   84.880
  433.500    2.534    0.246    0.373   85.783
  433.750    2.651    0.202    0.209   84.318
  434.000    2.521    0.166    0.179   77.757
  434.250    2.392    0.205    0.261   70.831
  434.500    2.270    0.240    0.381   66.938
  434.750    2.106    0.283    0.441   65.838
  435.000    1.980    0.293    0.410   65.467
  435.250    1.908    0.286    0.394   64.549
  435.500    1.933    0.283    0.400   65.633
  435.750    2.069    0.115    0.409   63.864
  436.000    2.414    0.095    0.169   63.128
  436.250    2.525    0.109    0.145   64.273
  436.500    2.795    0.181    0.332   64.447
  436.750    3.002    0.214    0.369   66.077
  437.000    3.088    0.237    0.408   69.163
  437.250    3.032    0.266    0.431   68.365
  437.500    2.877    0.077    0.267   65.504
  437.750    2.840    0.049    0.171   62.099
  438.000    3.319    0.024    0.109   59.239
  438.250    3.737    0.106    0.094   57.836
  438.500    3.946    0.182    0.279   56.736
  438.750    3.035    0.230    0.353   57.577
  439.000    2.573    0.271    0.393   60.541
  439.250    2.215    0.282    0.406   62.415
  439.500    1.935    0.281    0.402   62.831
  439.750    1.812    0.283    0.396   62.155
  440.000    1.720    0.286    0.377   61.359
  440.250    1.673    0.284    0.364   61.289
  440.500    1.670    0.283    0.392   62.191
  440.750    1.689    0.289    0.404   64.914
  441.000    1.804    0.295    0.387   68.001
  441.250    1.811    0.298    0.380   69.752
  441.500    1.829    0.295    0.398   69.803
  441.750    1.836    0.294    0.412   69.552
  442.000    1.836    0.296    0.398   69.363
  442.250    1.847    0.298    0.382   73.238
  442.500    1.879    0.299    0.381   75.596
  442.750    1.907    0.300    0.398   75.467
  443.000    1.944    0.299    0.397   74.063
  443.250    1.978    0.297    0.389   73.811
  443.500    2.015    0.294    0.381   74.349
  443.750    2.046    0.285    0.361   74.827
  444.000    2.101    0.274    0.338   75.789
  444.250    2.202    0.249    0.320   77.662
  444.500    2.384    0.234    0.334   82.569
  444.750    2.560    0.217    0.350   87.658
  445.000    2.740    0.189    0.355   93.352
  445.250    2.965    0.143    0.365   96.319
  445.500    3.155    0.148    0.385   99.344
  445.750    3.283    0.161    0.402   99.639
  446.000    3.345    0.166    0.382   96.718
  446.250    3.409    0.163    0.345   95.132
  446.500    3.468    0.158    0.331   97.308
  446.750    3.541    0.164    0.338  101.609
  447.000    3.589    0.171    0.350  106.637
  447.250    3.644    0.177    0.372  107.660
  447.500    3.686    0.181    0.400  107.105
  447.750    3.707    0.185    0.424  106.855
  448.000    3.750    0.176    0.418  107.028
  448.250    3.772    0.163    0.375  107.142
  448.500    3.794    0.157    0.345  107.255
  448.750    3.795    0.163    0.313  106.336
  449.000    3.824    0.170    0.333  105.113
  449.250    3.853    0.172    0.354  104.378
  449.500    3.876    0.167    0.334  103.460
  449.750    3.869    0.161    0.320  103.269
  450.000    3.870    0.159    0.326  103.626
  450.250    3.863    0.162    0.336  103.253
  450.500    3.835    0.167    0.334  106.704
  450.750    3.800    0.173    0.344  111.125
  451.000    3.682    0.177    0.369  114.211
  451.250    3.573    0.176    0.382  114.325
  451.500    3.272    0.183    0.342  108.552
  451.750    3.042    0.196    0.324  101.626
  452.000    2.754    0.207    0.377  106.047
  452.250    2.555    0.217    0.455  111.379
  452.500    2.420    0.205    0.429  116.830
  452.750    2.349    0.201    0.414  118.098
  453.000    2.345    0.205    0.481  116.512
  453.250    2.315    0.205    0.571  116.807
  453.500    2.324    0.200    0.591  117.285
  453.750    2.320    0.198    0.469  114.789
  454.000    2.325    0.197    0.437  113.081
  454.250    2.308    0.197    0.426  114.468
  454.500    2.304    0.197    0.438  118.405
  454.750    2.448    0.167    0.451  116.576
  455.000    2.504    0.109    0.393  108.559
  455.250    2.689    0.058    0.360  101.572
  455.500    2.856    0.093    0.343   97.378
  455.750    2.983    0.118    0.376  100.281
  456.000    3.046    0.144    0.427  107.857
  456.250    3.058    0.163    0.457  112.825
  456.500    3.035    0.163    0.386  115.426
  456.750    3.002    0.151    0.369  112.869
  457.000    2.991    0.146    0.358  110.798
  457.250    3.009    0.142    0.362  111.943
  457.500    3.078    0.155    0.378  110.661
  457.750    3.137    0.176    0.380  102.583
  458.000    3.227    0.202    0.371   94.625
  458.250    3.283    0.217    0.358   87.336
  458.500    3.339    0.177    0.340   85.264
  458.750    3.480    0.144    0.361   88.654
  459.000    3.683    0.114    0.343   93.500
  459.250    3.803    0.129    0.321   95.616
  459.500    3.840    0.162    0.315   90.753
  459.750    3.826    0.188    0.363   87.162
  460.000    3.748    0.209    0.400   85.334
  460.250    3.604    0.206    0.377   83.506
  460.500    3.282    0.215    0.359   82.043
  460.750    3.132    0.214    0.361   80.883
  461.000    3.162    0.211    0.361   85.668
  461.250    3.284    0.192    0.361   91.485
  461.500    3.475    0.169    0.376   96.149
  461.750    3.608    0.151    0.384  100.327
  462.000    3.691    0.149    0.353  104.567
  462.250    3.769    0.153    0.323  102.192
  462.500    3.834    0.154    0.308   98.906
  462.750    3.856    0.155    0.299  100.902
  463.000    3.886    0.161    0.303  104.170
  463.250    3.908    0.161    0.310  106.164
  463.500    3.931    0.152    0.321  105.488
  463.750    3.977    0.148    0.308  104.994
  464.000    4.091    0.148    0.299  103.894
  464.250    4.161    0.132    0.302  101.762
  464.500    4.186    0.125    0.311  100.662
  464.750    4.218    0.137    0.313  103.020
  465.000    4.219    0.151    0.301  106.590
  465.250    4.141    0.161    0.296  108.222
  465.500    4.050    0.159    0.289  108.821
  465.750    4.028    0.157    0.289  107.537
  466.000    3.998    0.156    0.320  105.526
  466.250    3.984    0.158    0.336  103.880
  466.500    3.978    0.145    0.333  102.719
  466.750    4.009    0.136    0.323  102.105
  467.000    4.062    0.125    0.312  106.829
  467.250    4.086    0.121    0.303  109.976
  467.500    4.094    0.131    0.301  104.143
  467.750    4.095    0.146    0.291  102.436
  468.000    4.065    0.151    0.315  108.738
  468.250    4.058    0.149    0.350  109.155
  468.500    4.036    0.146    0.347  107.812
  468.750    4.007    0.141    0.346  108.956
  469.000    3.985    0.141    0.343  112.346
  469.250    3.912    0.141    0.320  115.978
  469.500    3.876    0.139    0.299  118.155
  469.750    3.833    0.138    0.283  117.358
  470.000    3.777    0.139    0.277  113.042
  470.250    3.714    0.142    0.338  106.175
  470.500    3.673    0.118    0.360  100.646
  470.750    3.632    0.103    0.351   94.996
  471.000    3.512    0.107    0.323   91.043
  471.250    3.180    0.136    0.305  101.532
  471.500    2.891    0.155    0.351  109.108
  471.750    2.667    0.167    0.388  113.893
