~VERSION INFORMATION
 VERS.                 2.0:   CWLS LOG ASCII STANDARD -VERSION 2.0
 WRAP.                  NO:   ONE LINE PER DEPTH STEP
~WELL INFORMATION BLOCK
#MNEM.UNIT           DATA                    DESCRIPTION OF MNEMONIC
#---------    -------------------            -------------------------------
# Generated from Intellog Unique Number	CC_80_83/WELL/2368
NULL.         -999.25                        : NULL_VALUE
WELL.         GULF RESDELN                   : Well_name    - WELL              
LOC .         10-23-083-07W4                 : Location     - LOCATION          
UWI .         00/10-23-083-07W4/0            : Uwi          - UNIQUE WELL ID    
ENTR.         DW                             : Entered      - ENTERED BY        
SRVC.         SCHLUMBERGER                   : Scn          - SERVICE COMPANY   
DATE.         14 JAN 79                      : Date         - LOG DATE
STRT.M        150                            : top_depth    - START DEPTH       
STOP.M        414.895                        : bot_depth    - STOP DEPTH        
STEP.M        0.3                            : increment    - STEP LENGTH       
~CURVE INFORMATION BLOCK
#MNEM UNIT       ERCB CURVE CODE    CURVE DESCRIPTION
#-----------   ------------------   ----------------------------------
DEPT.M        00 001 00 00         : DEPTH        - DEPTH                       
DPHI.V/V      00 890 00 00         : PHID         - DENSITY POROSITY (LIMESTONE)
NPHI.V/V      00 330 00 00         : PHIN         - NEUTRON POROSITY (LIMESTONE)
GR  .API      00 310 00 00         : GR           - GAMMA RAY                   
ILD .OHMM     00 120 00 00         : RESD         - DEEP RESISTIVITY (DIL)      
~PARAMETER INFORMATION       
#MNEM.UNIT           DATA             DESCRIPTION OF MNEMONIC
#---------         -----------     ------------------------------
GL  .M        611.12               : gl           - GROUND LEVEL ELEVATION      
EREF.M        614.5                : kb           - ELEVATION OF DEPTH REFERENCE
DATM.M        614.5                : datum        - DATUM ELEVATION             
TDD .M        418                  : tdd          - TOTAL DEPTH DRILLER         
RUN .         ONE                  : Run          - RUN NUMBER                  
ENG .         BILL                 : Engineer     - RECORDING ENGINEER          
WIT .         JIM                  : Witness      - WITNESSED BY                
MUD .         GEL                  : Mud_type     - MUD TYPE                    
MATR.         LIMESTONE            : Logunit      - NEUTRON MATRIX              
TMAX.C        23                   : BHT          - MAXIMUM RECORDED TEMPERATURE
BHTD.M        418                  : BHTDEP       - MAXIMUM RECORDED TEMPERATURE
MATR.         1                    : LOGUNIT      - NEUTRON MATRIX              
RMT .C        25                   : MDTP         - TEMPERATURE OF MUD          
NEUT.         1                    : NEUTRON      - NEUTRON TYPE                
RESI.         0                    : RESIST       - RESISTIVITY TYPE            
RMC .OHMM     0.25                 : RMC          - RESISTIVITY OF MUD CAKE     
RMF .OHMM     0.25                 : RMF          - RESISTIVITY OF MUD FILTRATE 
SUFT.C        4                    : SUFT         - SURFACE TEMPERATURE         
~A  DEPTH     PHID     PHIN       GR     RESD
# ...
  358.797    0.333    0.418   53.491   48.967
  359.097    0.332    0.435   44.843   63.737
  359.397    0.337    0.409   38.645   62.393
  359.697    0.340    0.415   36.148   57.755
  359.997    0.313    0.389   26.882   52.439
  360.297    0.324    0.405   26.223   51.368
  360.597    0.323    0.422   30.481   57.444
  360.897    0.328    0.405   28.597   61.852
  361.197    0.338    0.383   33.467   60.550
  361.497    0.324    0.387   35.894   56.051
  361.797    0.321    0.390   36.466   48.098
  362.097    0.309    0.388   39.493   36.810
  362.397    0.288    0.408   45.605   30.397
  362.697    0.299    0.439   45.557   34.008
  362.997    0.309    0.418   33.832   40.257
  363.297    0.319    0.400   35.017   39.433
  363.597    0.292    0.391   41.744   33.181
  363.897    0.262    0.395   55.843   24.930
  364.197    0.267    0.432   74.249   16.083
  364.497    0.295    0.470   73.592   14.335
  364.797    0.308    0.442   60.017   12.062
  365.097    0.314    0.413   56.291   10.153
  365.397    0.351    0.409   35.957    9.392
  365.697    0.359    0.402   26.067    9.552
  365.997    0.332    0.401   29.716   10.889
  366.297    0.326    0.402   29.059   13.142
  366.597    0.317    0.375   29.632   16.470
  366.897    0.339    0.380   35.123   19.138
  367.197    0.335    0.402   35.702   25.383
  367.497    0.329    0.425   35.040   33.043
  367.797    0.331    0.405   33.150   43.002
  368.097    0.332    0.399   33.729   52.888
  368.397    0.319    0.398   34.299   61.444
  368.697    0.320    0.392   34.867   67.433
  368.996    0.335    0.395   33.582   69.855
  369.296    0.355    0.424   33.556   69.784
  369.596    0.328    0.421   35.348   68.325
  369.896    0.324    0.420   36.548   63.244
  370.196    0.332    0.424   32.194   57.384
  370.496    0.325    0.386   30.922   56.206
  370.796    0.319    0.391   35.191   57.199
  371.096    0.324    0.443   38.832   63.978
  371.396    0.343    0.471   36.953   78.675
  371.696    0.364    0.426   30.761   86.336
  371.996    0.372    0.409   31.322   86.192
  372.296    0.357    0.414   37.437   72.545
  372.596    0.333    0.416   45.999   52.471
  372.896    0.317    0.404   51.493   25.973
  373.196    0.237    0.405   76.043   20.647
  373.496    0.257    0.436   72.312   21.410
  373.796    0.321    0.451   48.909   24.405
  374.096    0.339    0.443   32.879   35.584
  374.396    0.334    0.427   30.985   61.559
  374.696    0.337    0.419   32.162   67.561
  374.996    0.332    0.418   32.136   70.039
  375.296    0.322    0.407   31.472   69.868
  375.596    0.315    0.418   33.279   69.786
  375.896    0.318    0.404   36.296   68.312
  376.196    0.314    0.405   37.495   68.242
  376.496    0.320    0.415   38.063   70.741
  376.796    0.329    0.408   36.799   76.155
  377.096    0.335    0.389   32.453   82.001
  377.396    0.339    0.366   33.016   85.067
  377.696    0.343    0.383   32.365   89.881
  377.996    0.329    0.390   30.484   91.427
  378.296    0.327    0.397   32.881   89.495
  378.596    0.323    0.386   33.455   87.721
  378.896    0.326    0.394   33.419   85.878
  379.196    0.322    0.396   34.617   85.767
  379.496    0.321    0.395   35.806   87.189
  379.796    0.331    0.395   36.376   87.083
  380.096    0.329    0.400   33.253   86.901
  380.396    0.305    0.399   32.600   85.114
  380.696    0.308    0.415   31.941   83.357
  380.996    0.308    0.410   36.202   81.627
  381.296    0.304    0.405   40.455   81.534
  381.596    0.311    0.415   39.812   81.369
  381.896    0.326    0.399   37.906   78.211
  382.196    0.331    0.408   36.648   75.161
  382.496    0.339    0.429   34.756   73.629
  382.796    0.349    0.417   31.631   69.413
  383.096    0.352    0.417   30.363   65.451
  383.396    0.348    0.415   30.928   64.105
  383.696    0.340    0.407   31.512   64.027
  383.996    0.327    0.399   32.691   61.513
  384.296    0.323    0.395   34.507   58.024
  384.596    0.325    0.415   36.918   51.677
  384.896    0.333    0.413   38.109   37.385
  385.196    0.318    0.405   42.374   17.156
  385.496    0.253    0.378   57.706    8.654
  385.796    0.238    0.373   82.871    6.752
  386.096    0.233    0.430   85.283    5.368
  386.396    0.249    0.427   86.471    4.433
  386.696    0.231    0.418   90.121    3.947
  386.996    0.200    0.401   88.851    3.865
  387.296    0.224    0.410   85.737    3.933
  387.596    0.271    0.404   80.149    4.155
  387.896    0.235    0.396   73.969    4.735
  388.196    0.252    0.399   61.015    5.103
  388.496    0.273    0.400   57.894    5.707
  388.796    0.264    0.398   64.005    6.030
  389.096    0.267    0.390   67.028    6.135
  389.396    0.266    0.391   64.531    6.124
  389.696    0.231    0.398   70.024    5.886
  389.996    0.265    0.401   67.520    5.765
  390.296    0.264    0.386   66.861    5.644
  390.596    0.279    0.386   62.520    5.852
  390.896    0.317    0.392   49.562    6.184
  391.196    0.291    0.371   48.907    6.411
  391.496    0.272    0.380   55.626    6.164
  391.796    0.235    0.383   61.735    5.286
  392.096    0.229    0.378   77.676    4.984
  392.396    0.243    0.374   78.858    4.881
  392.696    0.256    0.368   76.981    5.059
  392.996    0.297    0.395   68.943    5.150
  393.296    0.296    0.383   43.076    5.340
  393.595    0.273    0.386   47.330    5.131
  393.895    0.228    0.373   57.741    4.658
  394.195    0.235    0.351   66.305    4.229
  394.495    0.237    0.369   66.884    4.063
  394.795    0.231    0.382   64.376    3.906
  395.095    0.232    0.390   64.332    3.973
  395.395    0.228    0.378   64.297    4.045
  395.695    0.220    0.374   55.648    4.354
  395.995    0.240    0.364   51.303    4.345
  396.295    0.248    0.369   49.416    4.177
  396.595    0.294    0.384   45.067    3.937
  396.895    0.298    0.395   44.402    3.933
  397.195    0.282    0.381   45.589    3.779
  397.495    0.240    0.373   53.550    3.564
  397.795    0.238    0.387   54.731    3.492
  398.095    0.282    0.405   52.235    3.485
  398.395    0.289    0.415   46.660    3.545
  398.695    0.316    0.441   34.310    4.196
  398.995    0.333    0.439   26.898    5.160
  399.295    0.323    0.419   28.075    6.226
  399.595    0.316    0.403   31.096    6.705
  399.895    0.314    0.392   33.522    6.953
  400.195    0.318    0.399   30.413    6.809
  400.495    0.323    0.401   25.456    6.422
  400.795    0.321    0.400   28.488    5.942
  401.095    0.320    0.390   40.738    5.395
  401.395    0.317    0.411   40.086    4.988
  401.695    0.327    0.410   28.361    4.984
  401.995    0.328    0.400   34.462    5.165
  402.295    0.300    0.388   36.266    5.778
  402.595    0.312    0.419   28.224    7.376
  402.895    0.344    0.415   22.650    8.097
  403.195    0.344    0.403   21.383    8.398
  403.495    0.348    0.402   21.338    8.226
  403.795    0.333    0.405   21.906    7.328
  404.095    0.325    0.404   23.093    6.400
  404.395    0.332    0.402   25.516    6.040
  404.695    0.339    0.410   29.162    5.382
  404.995    0.304    0.367   35.273    4.885
  405.295    0.223    0.342   52.447    4.521
  405.595    0.226    0.356   75.144    3.952
  405.895    0.259    0.397   70.191    3.026
  406.195    0.264    0.428   58.465    2.595
  406.495    0.257    0.362   55.959    2.494
  406.795    0.174    0.358   57.152    2.736
  407.095    0.181    0.365   58.949    3.003
  407.395    0.199    0.397   58.905    3.694
  407.695    0.146    0.407   55.180    4.808
  407.995    0.160    0.352   34.848    5.377
  408.295    0.206    0.249   29.269    5.680
  408.595    0.197    0.234   26.144    5.779
  408.895    0.163    0.180   31.029    5.767
  409.195    0.133    0.144   51.889    5.758
  409.495    0.092    0.142   61.687    5.641
  409.795    0.132    0.184   73.329    5.630
  410.095    0.147    0.261   96.039    5.621
  410.395    0.180    0.357   97.222    5.718
  410.695    0.161    0.422   85.500    6.040
