~VERSION INFORMATION
 VERS.                 2.0:   CWLS LOG ASCII STANDARD -VERSION 2.0
 WRAP.                  NO:   ONE LINE PER DEPTH STEP
~WELL INFORMATION BLOCK
#MNEM.UNIT           DATA                    DESCRIPTION OF MNEMONIC
#---------    -------------------            -------------------------------
# Generated from Intellog Unique Number	CW_73_75/WELL/913
WELL.         GULF POC DROWNED 10-15         : Well_name    - WELL
LOC .         00/10-15-075-20W4/0            : Location     - LOCATION
UWI .         00/10-15-075-20W4/0            : Uwi          - UNIQUE WELL ID
ENTR.         JAYE                           : Entered      - ENTERED BY
SRVC.         SCHLUMBERGER                   : Scn          - SERVICE COMPANY
DATE.         18 JAN 77                      : Date         - LOG DATE
STRT.M        292.608                        : top_depth    - START DEPTH
STOP.M        478.608                        : bot_depth    - STOP DEPTH
STEP.M        0.25                           : increment    - STEP LENGTH
 NULL. -999.2500:NULL Value
~CURVE INFORMATION BLOCK
#MNEM UNIT       ERCB CURVE CODE    CURVE DESCRIPTION
#-----------   ------------------   ----------------------------------
DEPT.M        00 001 00 00         : DEPTH        - DEPTH
ILD .OHMM     00 120 00 00         : RESD         - DEEP RESISTIVITY (DIL)
CALI.MM       00 280 01 00         : CAL          - CALIPER
GR  .API      00 310 00 00         : GR           - GAMMA RAY
NPHI.V/V      00 330 00 00         : PHIN         - NEUTRON POROSITY (SANDSTONE)
DPHI.V/V      00 890 00 00         : PHID         - DENSITY POROSITY (SANDSTONE)
~PARAMETER INFORMATION
#MNEM.UNIT           DATA             DESCRIPTION OF MNEMONIC
#---------         -----------     ------------------------------
GL  .M        609.6                : gl           - GROUND LEVEL ELEVATION
EREF.M        613.867              : kb           - ELEVATION OF DEPTH REFERENCE
DATM.M        609.6                : datum        - DATUM ELEVATION
TDD .M        504.444              : tdd          - TOTAL DEPTH DRILLER
RUN .         ONE                  : Run          - RUN NUMBER
MATR.         SANDSTONE            : Logunit      - NEUTRON MATRIX
TMAX.C        13.0556              : BHT          - MAXIMUM RECORDED TEMPERATURE
BHTD.M        504.139              : BHTDEP       - MAXIMUM RECORDED TEMPERATURE
RMT .C        13.3333              : MDTP         - TEMPERATURE OF MUD
MUDD.KG/M     0                    : MWT          - MUD DENSITY
NEUT.         1                    : NEUTRON      - NEUTRON TYPE
RESI.         0                    : RESIST       - RESISTIVITY TYPE
RM  .OHMM     2.61                 : RM           - RESISTIVITY OF MUD
RMC .OHMM     0                    : RMC          - RESISTIVITY OF MUD CAKE
RMF .OHMM     5.13                 : RMF          - RESISTIVITY OF MUD FILTRATE
SUFT.C        -17.7778             : SUFT         - SURFACE TEMPERATURE
~A  DEPTH     RESD      CAL       GR     PHIN     PHID
# ...
  365.608    5.549  164.936   80.362    0.481    0.368
  365.858    5.548  165.150   78.840    0.487    0.365
  366.108    5.547  165.573   75.302    0.509    0.358
  366.358    5.516  165.889   75.062    0.527    0.357
  366.608    5.525  165.999   74.395    0.507    0.366
  366.858    5.524  165.904   75.987    0.491    0.368
  367.108    5.534  165.703   77.763    0.475    0.361
  367.358    5.533  165.608   77.645    0.486    0.359
  367.608    5.563  165.926   72.702    0.499    0.363
  367.858    5.644  166.036   71.057    0.504    0.365
  368.108    5.717  165.939   69.779    0.485    0.361
  368.358    5.769  165.947   67.707    0.468    0.370
  368.608    5.779  165.748   68.200    0.463    0.370
  368.858    5.767  165.755   68.143    0.474    0.364
  369.108    5.756  165.556   66.559    0.466    0.362
  369.358    5.787  165.253   64.549    0.454    0.359
  369.608    5.797  165.158   63.209    0.464    0.355
  369.858    5.817  165.267   61.443    0.479    0.363
  370.108    5.773  165.275   59.248    0.487    0.368
  370.358    5.741  165.282   57.237    0.480    0.372
  370.608    5.751  165.602   55.226    0.470    0.377
  370.858    5.750  165.608   52.482    0.460    0.368
  371.108    5.792  165.408   52.975    0.458    0.361
  371.358    5.877  165.415   55.239    0.465    0.352
  371.608    5.985  165.319   55.854    0.460    0.360
  371.858    5.940  165.740   55.553    0.460    0.361
  372.108    5.907  165.954   53.725    0.458    0.348
  372.358    5.982  166.170   52.080    0.447    0.343
  372.608    6.059  166.280   51.352    0.437    0.352
  372.858    6.080  166.184   50.990    0.430    0.354
  373.108    6.080  166.088   51.544    0.430    0.343
  373.358    6.079  166.405   53.625    0.448    0.357
  373.608    6.033  166.412   54.301    0.452    0.362
  373.858    5.999  166.419   54.245    0.449    0.356
  374.108    5.954  166.116   53.943    0.457    0.352
  374.358    5.899  165.815   54.069    0.475    0.350
  374.608    5.855  165.511   54.685    0.472    0.346
  374.858    5.886  165.208   55.055    0.453    0.340
  375.108    5.907  165.216   55.060    0.438    0.337
  375.358    5.907  165.016   54.881    0.443    0.346
  375.608    5.906  164.919   54.885    0.451    0.345
  375.858    5.872  164.824   55.806    0.454    0.358
  376.108    5.850  164.727   57.398    0.454    0.355
  376.358    5.870  164.736   57.586    0.459    0.346
  376.608    5.848  164.742   56.307    0.467    0.336
  376.858    5.847  165.061   55.579    0.465    0.350
  377.108    5.868  165.481   56.255    0.457    0.340
  377.358    5.921  165.799   54.305    0.454    0.324
  377.608    5.964  165.909   53.943    0.461    0.347
  377.858    5.996  166.125   54.924    0.457    0.350
  378.108    6.040  166.235   56.334    0.451    0.335
  378.358    6.072  166.035   57.743    0.457    0.335
  378.608    6.094  165.940   59.090    0.447    0.334
  378.858    6.115  166.049   57.324    0.440    0.333
  379.108    6.137  166.471   56.534    0.438    0.336
  379.358    6.159  166.685   58.065    0.436    0.346
  379.608    6.169  166.693   59.596    0.437    0.351
  379.858    6.157  166.596   58.074    0.441    0.354
  380.108    6.156  166.399   57.406    0.447    0.360
  380.358    6.155  166.509   57.655    0.450    0.361
  380.608    6.154  166.309   58.087    0.450    0.342
  380.858    6.154  166.212   58.519    0.442    0.337
  381.108    6.187  166.324   59.439    0.434    0.333
  381.358    6.209  166.226   59.994    0.433    0.331
  381.608    6.219  166.337   60.303    0.440    0.339
  381.858    6.207  166.448   61.834    0.453    0.347
  382.108    6.161  166.559   63.793    0.464    0.333
  382.358    6.103  166.464   66.057    0.466    0.342
  382.608    5.947  166.367   68.810    0.456    0.348
  382.858    5.784  166.478   71.379    0.442    0.352
  383.108    5.647  166.693   73.888    0.432    0.334
  383.358    5.492  167.010   74.686    0.432    0.325
  383.608    5.362  167.432   76.157    0.432    0.324
  383.858    5.206  167.644   79.337    0.425    0.315
  384.108    5.072  167.860   83.677    0.417    0.306
  384.358    4.970  168.073   85.025    0.431    0.281
  384.608    4.825  168.391   82.831    0.463    0.261
  384.858    4.650  168.398   87.294    0.477    0.257
  385.108    4.432  168.612   92.917    0.459    0.274
  385.358    4.271  169.033   97.258    0.454    0.298
  385.608    4.117  169.971   98.667    0.473    0.264
  385.858    3.960  175.667   99.465    0.488    0.247
  386.108    3.845  182.707  100.935    0.496    0.222
  386.358    3.753  186.334  103.077    0.489    0.227
  386.608    3.677  182.411  101.921    0.488    0.249
  386.858    3.650  181.799  101.132    0.516    0.248
  387.108    3.731  184.288  102.846    0.540    0.244
  387.358    4.023  187.812  104.499    0.519    0.239
  387.608    4.426  192.265  102.733    0.495    0.246
  387.858    5.080  189.274   95.957    0.464    0.273
  388.108    5.559  179.249   90.282    0.464    0.281
  388.358    5.852  171.811   82.408    0.464    0.284
  388.608    5.927  166.440   77.465    0.449    0.309
  388.858    5.893  165.414   78.324    0.431    0.327
  389.108    5.817  165.835   81.077    0.444    0.354
  389.358    5.668  166.256   83.585    0.454    0.362
  389.608    5.554  167.090   87.255    0.453    0.356
  389.858    5.265  168.029   90.740    0.443    0.340
  390.108    4.954  170.208   96.424    0.430    0.322
  390.358    4.739  173.731  103.025    0.442    0.300
  390.608    4.517  177.462  108.220    0.470    0.222
  390.858    4.297  178.710  110.057    0.479    0.212
  391.108    4.119  178.821  107.618    0.488    0.217
  391.358    3.999  178.208  105.851    0.503    0.229
  391.608    3.925  177.905  106.955    0.509    0.260
  391.858    3.832  178.119  106.349    0.509    0.256
  392.108    3.652  178.437  104.155    0.514    0.268
  392.358    3.083  178.858  103.242    0.508    0.274
  392.608    2.532  178.451  103.980    0.499    0.270
  392.858    2.041  176.597  102.274    0.479    0.259
  393.108    1.758  174.537   98.737    0.461    0.252
  393.358    2.063  173.717   96.420    0.449    0.249
  393.608    2.659  174.137   94.958    0.472    0.244
  393.858    3.504  175.386   95.024    0.474    0.228
  394.108    4.353  176.635   95.272    0.465    0.216
  394.358    5.061  177.159   94.544    0.467    0.246
  394.608    4.851  177.373   91.434    0.477    0.263
  394.858    4.288  177.484   88.751    0.471    0.256
  395.108    4.505  175.837   85.640    0.465    0.241
  395.358    4.760  172.637   77.216    0.466    0.262
  395.608    4.974  167.268   73.189    0.480    0.273
  395.858    4.992  164.378   70.873    0.494    0.282
  396.108    4.909  162.629   69.717    0.487    0.316
  396.358    4.801  161.911   68.866    0.475    0.336
  396.608    4.696  161.608   68.504    0.480    0.356
  396.858    4.670  161.619   68.752    0.484    0.350
  397.108    4.703  161.831   68.085    0.489    0.355
  397.358    4.843  162.148   66.501    0.494    0.359
  397.608    5.146  162.466   65.774    0.473    0.348
  397.858    6.173  163.301   65.595    0.452    0.322
  398.108    7.585  163.617   64.499    0.435    0.268
  398.358    8.966  164.349   60.839    0.347    0.202
  398.608   10.272  166.321   58.767    0.243    0.150
  398.858   10.656  169.018   58.283    0.232    0.129
  399.108    9.112  171.714   58.226    0.239    0.133
  399.358    7.663  171.514   56.886    0.253    0.153
  399.608    6.626  169.557   58.723    0.293    0.179
  399.858    5.792  167.910   61.476    0.320    0.258
  400.108    5.214  166.882   63.923    0.436    0.353
  400.358    4.773  166.167   64.111    0.459    0.357
  400.608    4.508  165.554   64.176    0.471    0.357
  400.858    4.524  165.457   64.425    0.469    0.348
  401.108    4.675  165.464   65.101    0.455    0.333
  401.358    5.201  165.782   65.228    0.442    0.330
  401.608    5.992  167.031   66.209    0.439    0.328
  401.858    7.241  168.383   64.564    0.432    0.317
