~VERSION INFORMATION
 VERS.                 2.0:   CWLS LOG ASCII STANDARD -VERSION 2.0
 WRAP.                  NO:   ONE LINE PER DEPTH STEP
~WELL INFORMATION BLOCK
#MNEM.UNIT           DATA                    DESCRIPTION OF MNEMONIC
#---------    -------------------            -------------------------------
# Generated from Intellog Unique Number	CS_69_70/WELL/2879
WELL.         HUSKY OIL PRODUCTION LTD.      : Well_name    - WELL
LOC .         00/12-28-069-08W4/0            : Location     - LOCATION
UWI .         00/12-28-069-08W4/0            : Uwi          - UNIQUE WELL ID
ENTR.         JOETTE                         : Entered      - ENTERED BY
SRVC.         SCHLUMBERGER                   : Scn          - SERVICE COMPANY
DATE.         05/15/92                       : Date         - LOG DATE
STRT.M        325                            : top_depth    - START DEPTH
STOP.M        575                            : bot_depth    - STOP DEPTH
STEP.M        0.25                           : increment    - STEP LENGTH
 NULL. -999.2500:NULL Value
~CURVE INFORMATION BLOCK
#MNEM UNIT       ERCB CURVE CODE    CURVE DESCRIPTION
#-----------   ------------------   ----------------------------------
DEPT.M        00 001 00 00         : DEPTH        - DEPTH
GR  .API      00 310 00 00         : GR           - GAMMA RAY
CALI.MM       00 280 01 00         : CAL          - CALIPER
ILD .OHMM     00 120 00 00         : RESD         - DEEP RESISTIVITY (DIL)
DPHI.V/V      00 890 00 00         : PHID         - DENSITY POROSITY (SANDSTONE)
NPHI.V/V      00 330 00 00         : PHIN         - NEUTRON POROSITY (SANDSTONE)
~PARAMETER INFORMATION
#MNEM.UNIT           DATA             DESCRIPTION OF MNEMONIC
#---------         -----------     ------------------------------
GL  .M        662.9                : gl           - GROUND LEVEL ELEVATION
EREF.M        666.9                : kb           - ELEVATION OF DEPTH REFERENCE
DATM.M        666.9                : datum        - DATUM ELEVATION
TDD .M        580                  : tdd          - TOTAL DEPTH DRILLER
RUN .         ONE                  : Run          - RUN NUMBER
ENG .         BILL                 : Engineer     - RECORDING ENGINEER
WIT .         JIM                  : Witness      - WITNESSED BY
MUD .         GEL                  : Mud_type     - MUD TYPE
MATR.         SANDSTONE            : Logunit      - NEUTRON MATRIX
TMAX.C        26                   : BHT          - MAXIMUM RECORDED TEMPERATURE
BHTD.M        580                  : BHTDEP       - MAXIMUM RECORDED TEMPERATURE
RMT .C        18                   : MDTP         - TEMPERATURE OF MUD
MUDD.KG/M     1080                 : MWT          - MUD DENSITY
NEUT.         1                    : NEUTRON      - NEUTRON TYPE
RESI.         0                    : RESIST       - RESISTIVITY TYPE
RM  .OHMM     8.55                 : RM           - RESISTIVITY OF MUD
RMC .OHMM     8.57                 : RMC          - RESISTIVITY OF MUD CAKE
RMF .OHMM     8.57                 : RMF          - RESISTIVITY OF MUD FILTRATE
SUFT.C        4                    : SUFT         - SURFACE TEMPERATURE
~A  DEPTH       GR      CAL     RESD     PHID     PHIN
# ...
  361.500  104.925  164.994    6.384    0.269    0.437
  361.750   99.562  162.090    6.274    0.257    0.436
  362.000   95.389  162.175    6.282    0.253    0.441
  362.250   96.060  160.305    6.286    0.263    0.446
  362.500   97.335  158.406    6.410    0.259    0.446
  362.750   97.403  157.514    6.537    0.259    0.457
  363.000   93.263  156.649    6.792    0.264    0.474
  363.250   90.901  156.734    7.058    0.263    0.496
  363.500   92.192  155.870    7.062    0.261    0.482
  363.750   94.088  155.983    7.067    0.262    0.462
  364.000   94.122  156.068    6.945    0.268    0.456
  364.250   93.603  155.175    6.701    0.276    0.460
  364.500   93.671  155.289    6.466    0.280    0.467
  364.750   94.946  155.458    6.469    0.281    0.463
  365.000   95.014  155.543    6.602    0.272    0.457
  365.250   95.685  155.713    6.730    0.266    0.454
  365.500   93.339  155.770    6.863    0.267    0.453
  365.750   87.959  154.849    6.996    0.274    0.441
  366.000   80.786  150.967    7.134    0.285    0.429
  366.250   80.250  149.069    7.277    0.297    0.420
  366.500   82.145  148.148    7.284    0.305    0.412
  366.750   88.248  148.261    7.290    0.305    0.418
  367.000   94.953  151.420    7.299    0.274    0.414
  367.250   95.021  153.545    7.304    0.266    0.409
  367.500   89.055  155.669    7.315    0.263    0.409
  367.750   83.692  157.822    7.321    0.275    0.417
  368.000   77.725  157.935    7.328    0.287    0.414
  368.250   75.966  158.048    7.473    0.297    0.414
  368.500   80.292  158.133    7.481    0.307    0.429
  368.750   83.997  158.275    7.490    0.299    0.454
  369.000   85.255  158.416    7.358    0.264    0.485
  369.250   85.926  158.501    7.098    0.270    0.489
  369.500   85.994  158.586    7.240    0.276    0.475
  369.750   88.476  158.699    7.383    0.278    0.459
  370.000   90.975  159.846    7.390    0.276    0.451
  370.250   88.025  157.948    7.127    0.274    0.441
  370.500   85.662  157.027    6.877    0.274    0.436
  370.750   86.937  157.169    6.756    0.275    0.439
  371.000   88.229  158.288    6.765    0.272    0.446
  371.250   88.900  159.406    6.900    0.270    0.468
  371.500   87.761  160.582    7.032    0.282    0.464
  371.750   85.415  159.633    7.582    0.291    0.452
  372.000   83.070  156.729    7.876    0.241    0.437
  372.250   81.931  154.830    7.737    0.219    0.439
  372.500   84.412  160.001    7.327    0.228    0.453
  372.750   86.877  164.108    7.068    0.246    0.463
  373.000   88.755  166.261    7.209    0.241    0.436
  373.250   76.151  166.374    7.771    0.230    0.370
  373.500   63.530  162.436    8.376    0.261    0.341
  373.750   52.753  158.527    8.541    0.303    0.388
  374.000   52.217  154.645    7.798    0.321    0.410
  374.250   51.078  154.758    7.521    0.337    0.423
  374.500   51.146  154.900    7.253    0.338    0.422
  374.750   51.197  154.985    7.127    0.339    0.418
  375.000   51.265  154.092    7.007    0.339    0.415
  375.250   51.350  154.205    7.014    0.340    0.422
  375.500   51.401  154.318    7.149    0.341    0.433
  375.750   52.692  154.460    7.292    0.342    0.428
  376.000   55.174  155.579    7.436    0.342    0.404
  376.250   55.845  156.726    7.580    0.340    0.394
  376.500   55.930  156.811    7.592    0.335    0.382
  376.750   55.395  156.924    7.597    0.327    0.378
  377.000   55.480  157.037    7.331    0.329    0.382
  377.250   56.117  156.116    7.075    0.337    0.391
  377.500   57.392  155.224    6.951    0.343    0.414
  377.750   73.769  154.359    6.954    0.342    0.421
  378.000   80.475  152.461    6.963    0.331    0.408
  378.250   81.750  150.563    7.100    0.321    0.398
  378.500   73.973  150.648    7.240    0.310    0.411
  378.750   69.817  152.801    7.521    0.315    0.401
  379.000   68.695  154.954    7.527    0.321    0.395
  379.250   71.160  156.101    7.675    0.315    0.402
  379.500   75.452  156.157    7.828    0.305    0.417
  379.750   76.743  156.271    7.981    0.301    0.424
  380.000   75.604  156.412    7.989    0.299    0.414
  380.250   75.069  156.497    7.999    0.303    0.418
  380.500   75.137  156.610    8.007    0.304    0.404
  380.750   77.032  156.723    8.013    0.298    0.381
  381.000   79.497  156.865    8.021    0.290    0.397
  381.250   80.168  157.006    8.031    0.285    0.402
  381.500   74.236  157.063    7.896    0.289    0.403
  381.750   74.873  158.210    7.902    0.296    0.414
  382.000   79.182  162.374    7.763    0.295    0.421
  382.250   85.284  167.516    7.631    0.288    0.414
  382.500   90.800  171.624    7.496    0.282    0.411
  382.750   93.868  174.754    7.368    0.253    0.438
  383.000   94.539  173.890    7.374    0.248    0.459
  383.250   95.831  169.980    7.248    0.246    0.452
  383.500   97.089  166.042    7.124    0.252    0.428
  383.750   81.467  162.132    7.128    0.265    0.418
  384.000   65.829  158.279    7.139    0.307    0.407
  384.250   60.466  156.324    7.142    0.335    0.397
  384.500   65.965  154.454    7.421    0.323    0.392
  384.750   75.705  152.584    7.708    0.295    0.373
  385.000   81.204  151.692    7.858    0.266    0.359
  385.250   83.719  151.748    8.165    0.263    0.373
  385.500   82.580  151.890    8.326    0.276    0.390
  385.750   82.614  151.975    8.494    0.294    0.404
  386.000   70.613  153.122    8.501    0.294    0.379
  386.250   76.112  153.207    8.353    0.271    0.365
  386.500   83.438  154.382    8.360    0.261    0.365
  386.750   80.523  154.524    8.215    0.255    0.372
  387.000   80.557  154.580    8.223    0.259    0.378
  387.250   83.055  154.722    8.232    0.262    0.375
  387.500   86.141  154.835    8.242    0.254    0.375
  387.750   88.605  154.948    8.248    0.254    0.384
  388.000   87.483  157.073    8.261    0.257    0.391
  388.250   86.344  160.203    8.116    0.258    0.390
  388.500   86.412  159.311    7.687    0.252    0.390
  388.750   85.256  157.441    7.414    0.247    0.392
  389.000   82.910  155.514    7.283    0.238    0.395
  389.250   79.961  154.593    7.161    0.238    0.393
  389.500   79.442  154.735    7.164    0.248    0.380
  389.750   83.114  154.819    7.171    0.257    0.373
  390.000   86.250  154.961    7.316    0.256    0.392
  390.250   85.077  155.102    7.322    0.252    0.400
  390.500   83.335  155.216    7.330    0.262    0.403
  390.750   87.627  155.329    7.337    0.264    0.413
  391.000   93.729  155.442    7.079    0.228    0.408
  391.250   95.004  155.527    6.958    0.223    0.421
  391.500   96.312  156.702    7.092    0.222    0.430
  391.750   98.174  157.765    7.371    0.224    0.421
  392.000  101.862  161.957    7.514    0.231    0.390
  392.250   97.706  163.020    7.662    0.237    0.375
  392.500   89.326  163.133    7.668    0.241    0.364
  392.750   83.359  161.234    7.399    0.247    0.386
  393.000   82.220  159.336    7.137    0.253    0.404
  393.250   78.668  157.466    6.885    0.255    0.409
  393.500   79.942  158.585    6.764    0.243    0.420
  393.750   78.803  161.715    6.408    0.249    0.427
  394.000   75.234  163.840    6.413    0.266    0.452
  394.250   63.836  161.942    6.304    0.280    0.416
  394.500   69.335  161.077    6.308    0.295    0.398
  394.750   76.041  161.162    6.088    0.306    0.379
  395.000   83.367  164.293    5.870    0.282    0.391
  395.250   87.055  168.429    5.458    0.279    0.406
  395.500   91.364  171.559    4.890    0.282    0.438
  395.750   94.450  175.752    4.299    0.288    0.452
  396.000   92.707  175.865    4.303    0.291    0.463
  396.250   90.965  175.978    4.904    0.286    0.500
  396.500   88.636  174.051    5.692    0.294    0.525
  396.750   85.669  171.147    6.366    0.318    0.525
  397.000   79.083  167.238    6.864    0.349    0.489
  397.250   74.323  162.322    7.263    0.341    0.469
  397.500   74.994  158.469    7.405    0.315    0.448
  397.750   70.838  156.514    7.837    0.313    0.458
