~VERSION INFORMATION
 VERS.                 2.0:   CWLS LOG ASCII STANDARD -VERSION 2.0
 WRAP.                  NO:   ONE LINE PER DEPTH STEP
~WELL INFORMATION BLOCK
#MNEM.UNIT           DATA                    DESCRIPTION OF MNEMONIC
#---------    -------------------            -------------------------------
# Generated from Intellog Unique Number	CW_82_90/WELL/3455
WELL.         NUMAC LIEGE                    : Well_name    - WELL
LOC .         00/11-25-088-21W4/0            : Location     - LOCATION
UWI .         00/11-25-088-21W4/0            : Uwi          - UNIQUE WELL ID
ENTR.         MAX                            : Entered      - ENTERED BY
SRVC.         WESTERN ATLAS                  : Scn          - SERVICE COMPANY
STRT.M        125                            : top_depth    - START DEPTH
STOP.M        281                            : bot_depth    - STOP DEPTH
STEP.M        0.25                           : increment    - STEP LENGTH
 NULL. -999.2500:NULL Value
~CURVE INFORMATION BLOCK
#MNEM UNIT       ERCB CURVE CODE    CURVE DESCRIPTION
#-----------   ------------------   ----------------------------------
DEPT.M        00 001 00 00         : DEPTH        - DEPTH
ILD .OHMM     00 120 00 00         : RESD         - DEEP RESISTIVITY (DIL)
NPHI.V/V      00 330 00 00         : PHIN         - NEUTRON POROSITY (SANDSTONE)
DPHI.V/V      00 890 00 00         : PHID         - DENSITY POROSITY (SANDSTONE)
CALI.MM       00 280 01 00         : CAL          - CALIPER
GR  .API      00 310 00 00         : GR           - GAMMA RAY
~PARAMETER INFORMATION
#MNEM.UNIT           DATA             DESCRIPTION OF MNEMONIC
#---------         -----------     ------------------------------
GL  .M        530.14               : gl           - GROUND LEVEL ELEVATION
EREF.M        533.79               : kb           - ELEVATION OF DEPTH REFERENCE
DATM.M        530.14               : datum        - DATUM ELEVATION
TDD .M        285.8                : tdd          - TOTAL DEPTH DRILLER
RUN .         ONE                  : Run          - RUN NUMBER
ENG .         BILL                 : Engineer     - RECORDING ENGINEER
WIT .         JIM                  : Witness      - WITNESSED BY
MUD .         GEL                  : Mud_type     - MUD TYPE
MATR.         SANDSTONE            : Logunit      - NEUTRON MATRIX
TMAX.C        25                   : BHT          - MAXIMUM RECORDED TEMPERATURE
BHTD.M        285.8                : BHTDEP       - MAXIMUM RECORDED TEMPERATURE
MATR.         1                    : LOGUNIT      - NEUTRON MATRIX
RMT .C        16                   : MDTP         - TEMPERATURE OF MUD
NEUT.         1                    : NEUTRON      - NEUTRON TYPE
RESI.         0                    : RESIST       - RESISTIVITY TYPE
RMC .OHMM     4                    : RMC          - RESISTIVITY OF MUD CAKE
RMF .OHMM     2.7                  : RMF          - RESISTIVITY OF MUD FILTRATE
SUFT.C        -5                   : SUFT         - SURFACE TEMPERATURE
~A  DEPTH     RESD     PHIN     PHID      CAL       GR
  125.000   11.412    0.444    0.413  221.734   78.013
  125.250   10.411    0.449    0.407  222.248   78.021
  125.500   10.320    0.449    0.385  225.753   77.731
  125.750   10.617    0.443    0.347  225.269   69.671
  126.000   10.528    0.416    0.323  224.787   57.129
  126.250   10.246    0.335    0.313  224.308   56.838
  126.500   10.252    0.359    0.307  220.341   45.191
  126.750   10.355    0.361    0.309  218.360   32.946
  127.000   12.355    0.354    0.315  216.384   29.968
  127.250   21.543    0.362    0.323  215.407   34.759
  127.500   33.619    0.367    0.348  214.923   38.953
  127.750   46.512    0.374    0.356  214.439   35.675
  128.000   51.532    0.373    0.358  213.458   33.592
  128.250   51.091    0.385    0.351  212.976   32.407
  128.500   50.196    0.391    0.354  212.992   32.714
  128.750   49.767    0.392    0.363  213.008   35.116
  129.000   49.804    0.388    0.371  213.526   35.423
  129.250   49.830    0.383    0.363  214.045   37.825
  129.500   50.331    0.376    0.359  215.546   36.339
  129.750   50.833    0.373    0.362  214.071   33.658
  130.000   51.340    0.391    0.363  213.589   36.957
  130.250   52.339    0.396    0.360  214.599   39.956
  130.500   54.345    0.360    0.347  215.113   40.563
  130.750   58.021    0.320    0.168  215.627   38.779
  131.000   61.376    0.280    0.083  214.647   38.190
  131.250   63.146    0.265    0.134  214.663   36.108
  131.500   63.781    0.301    0.216  214.180   35.223
  131.750   63.824    0.353    0.275  212.204   35.231
  132.000   61.551    0.401    0.326  212.219   37.630
  132.250   59.343    0.395    0.354  213.730   41.227
  132.500   56.702    0.411    0.368  213.749   40.937
  132.750   55.182    0.422    0.383  213.765   42.145
  133.000   54.710    0.421    0.396  213.781   41.256
  133.250   54.251    0.408    0.390  213.797   39.174
  133.500   54.279    0.408    0.373  213.811   37.989
  133.750   54.319    0.407    0.390  213.829   37.698
  134.000   54.351    0.408    0.404  213.845   38.008
  134.250   54.388    0.410    0.403  215.355   41.902
  134.500   54.424    0.407    0.398  216.863   45.499
  134.750   54.465    0.404    0.388  217.879   44.613
  135.000   54.502    0.405    0.392  217.891   43.724
  135.250   54.543    0.413    0.393  217.411   41.641
  135.500   58.228    0.429    0.393  217.425   38.962
  135.750   58.809    0.428    0.388  216.444   35.084
  136.000   58.853    0.406    0.382  214.968   33.599
  136.250   59.445    0.409    0.378  215.482   38.093
  136.500   59.475    0.394    0.382  216.994   40.195
  136.750   58.972    0.426    0.390  216.510   38.413
  137.000   58.468    0.413    0.393  214.533   39.918
  137.250   57.968    0.401    0.392  212.558   38.730
  137.500   57.472    0.411    0.393  209.085   37.843
  137.750   57.515    0.419    0.395  206.612   36.059
  138.000   57.554    0.421    0.397  207.128   36.367
  138.250   57.593    0.418    0.397  208.635   37.573
  138.500   57.631    0.403    0.395  211.141   37.883
  138.750   57.143    0.371    0.392  213.150   37.890
  139.000   56.655    0.398    0.390  213.665   37.301
  139.250   55.648    0.369    0.393  214.680   38.508
  139.500   54.660    0.372    0.388  215.192   38.520
  139.750   53.203    0.392    0.387  214.711   35.837
  140.000   52.262    0.378    0.389  214.725   35.248
  140.250   51.815    0.407    0.387  215.739   39.442
  140.500   51.846    0.369    0.384  215.259   38.855
  140.750   51.880    0.357    0.384  213.776   36.474
  141.000   51.919    0.348    0.384  214.292   37.081
  141.250   51.954    0.387    0.385  215.303   39.183
  141.500   54.958    0.437    0.389  217.313   38.596
  141.750   55.506    0.429    0.393  216.829   38.305
  142.000   55.036    0.381    0.398  216.845   41.302
  142.250   54.059    0.340    0.399  216.862   40.119
  142.500   53.103    0.352    0.401  216.878   39.530
  142.750   52.168    0.366    0.404  216.396   43.723
  143.000   51.718    0.376    0.407  216.412   43.135
  143.250   50.807    0.428    0.409  216.926   41.052
  143.500   50.846    0.442    0.408  217.940   38.073
  143.750   50.871    0.416    0.403  217.954   39.876
  144.000   50.910    0.394    0.396  217.472   40.186
  144.250   50.009    0.383    0.385  215.993   39.596
  144.500   48.232    0.364    0.389  215.515   38.112
  144.750   46.939    0.375    0.393  216.027   37.225
  145.000   45.680    0.370    0.394  218.531   38.131
  145.250   43.241    0.353    0.397  221.042   40.234
  145.500   42.879    0.346    0.396  220.558   44.129
  145.750   42.900    0.354    0.374  219.079   45.632
  146.000   42.929    0.354    0.344  217.602   46.538
  146.250   42.170    0.367    0.343  217.616   46.846
  146.500   41.043    0.348    0.308  218.130   47.156
  146.750   41.841    0.336    0.307  218.646   47.764
  147.000   38.878    0.403    0.339  218.660   48.369
  147.250   35.141    0.426    0.408  219.178   49.275
  147.500   30.321    0.410    0.394  218.196   49.883
  147.750   23.852    0.395    0.380  218.209   52.582
  148.000   14.479    0.397    0.354  220.716   60.364
  148.250   10.005    0.416    0.239  230.697   75.019
  148.500    7.870    0.421    0.272  233.701   86.386
  148.750    6.307    0.445    0.272  233.221  107.021
  149.000    5.007    0.462    0.268  233.735  107.927
  149.250    4.164    0.469    0.285  233.751  111.522
  149.500    4.090    0.475    0.286  232.272  115.716
  149.750    4.248    0.446    0.298  232.788  109.748
  150.000    4.452    0.425    0.311  233.298  109.459
  150.250    4.580    0.454    0.310  235.307  111.859
  150.500    4.669    0.463    0.291  237.813  110.674
  150.750    4.716    0.474    0.293  239.328  112.177
  151.000    4.719    0.469    0.301  236.851  112.485
  151.250    4.722    0.450    0.304  233.880  110.701
  151.500    4.769    0.466    0.299  236.884  110.412
  151.750    4.773    0.491    0.282  236.900  109.526
  152.000    4.775    0.463    0.308  233.429   99.971
  152.250    4.735    0.451    0.323  231.949   99.982
  152.500    4.695    0.438    0.313  231.964  105.071
  152.750    4.654    0.496    0.290  232.478  105.977
  153.000    4.658    0.516    0.268  231.000   99.713
  153.250    4.704    0.467    0.280  231.514  100.019
  153.500    4.795    0.451    0.284  232.528  103.316
  153.750    4.888    0.456    0.288  233.040  104.522
  154.000    4.983    0.459    0.308  233.558  103.934
  154.250    5.079    0.460    0.329  233.572   98.562
  154.500    5.083    0.467    0.344  234.086   87.513
  154.750    5.086    0.440    0.348  233.107   92.604
  155.000    4.996    0.456    0.347  231.629   89.624
  155.250    5.000    0.481    0.351  229.152   99.499
  155.500    5.003    0.491    0.347  225.185   93.530
  155.750    5.100    0.458    0.310  224.700   86.665
  156.000    5.445    0.429    0.130  225.214   80.696
  156.250    5.759    0.403    0.180  225.732   77.120
  156.500    6.323    0.376    0.235  225.746   82.808
  156.750    7.006    0.359    0.277  226.758   88.797
  157.000    7.549    0.375    0.291  227.270   86.115
  157.250    7.767    0.409    0.314  227.784   84.032
  157.500    7.917    0.412    0.318  227.306   83.444
  157.750    7.922    0.389    0.300  227.822   83.454
  158.000    7.640    0.395    0.295  227.834   76.888
  158.250    7.300    0.443    0.287  227.352   76.299
  158.500    6.974    0.468    0.249  227.370   83.482
  158.750    6.073    0.454    0.243  226.889  102.024
  159.000    4.867    0.421    0.288  225.905  110.702
  159.250    4.440    0.422    0.275  223.928  111.608
  159.500    4.126    0.468    0.249  223.446  112.214
  159.750    4.128    0.466    0.243  222.966  113.721
  160.000    4.247    0.445    0.258  222.979  111.338
  160.250    4.535    0.434    0.244  221.505  111.347
  160.500    4.753    0.464    0.225  221.519  109.264
  160.750    4.756    0.484    0.234  222.533  107.481
  161.000    4.545    0.483    0.267  222.549  108.685
  161.250    4.223    0.481    0.308  222.564  103.314
