~VERSION INFORMATION
 VERS.                 2.0:   CWLS LOG ASCII STANDARD -VERSION 2.0
 WRAP.                  NO:   ONE LINE PER DEPTH STEP
~WELL INFORMATION BLOCK
#MNEM.UNIT           DATA                    DESCRIPTION OF MNEMONIC
#---------    -------------------            -------------------------------
# Generated from Intellog Unique Number	CS_73_76/WELL/3254
WELL.         10-34-075-09W4                 : Well_name    - WELL
LOC .         00/10-34-075-09W4/0            : Location     - LOCATION
UWI .         00/10-34-075-09W4/0            : Uwi          - UNIQUE WELL ID
ENTR.         SP                             : Entered      - ENTERED BY
SRVC.         SCHLUMBERGER                   : Scn          - SERVICE COMPANY
STRT.M        270                            : top_depth    - START DEPTH
STOP.M        500                            : bot_depth    - STOP DEPTH
STEP.M        0.25                           : increment    - STEP LENGTH
 NULL. -999.2500:NULL Value
~CURVE INFORMATION BLOCK
#MNEM UNIT       ERCB CURVE CODE    CURVE DESCRIPTION
#-----------   ------------------   ----------------------------------
DEPT.M        00 001 00 00         : DEPTH        - DEPTH
ILD .OHMM     00 120 00 00         : RESD         - DEEP RESISTIVITY (DIL)
DPHI.V/V      00 890 00 00         : PHID         - DENSITY POROSITY (LIMESTONE)
NPHI.V/V      00 330 00 00         : PHIN         - NEUTRON POROSITY (LIMESTONE)
GR  .API      00 310 00 00         : GR           - GAMMA RAY
~PARAMETER INFORMATION
#MNEM.UNIT           DATA             DESCRIPTION OF MNEMONIC
#---------         -----------     ------------------------------
GL  .M        673.46               : gl           - GROUND LEVEL ELEVATION
EREF.M        676.81               : kb           - ELEVATION OF DEPTH REFERENCE
DATM.M        673.46               : datum        - DATUM ELEVATION
TDD .M        515                  : tdd          - TOTAL DEPTH DRILLER
RUN .         ONE                  : Run          - RUN NUMBER
ENG .         BILL                 : Engineer     - RECORDING ENGINEER
WIT .         JIM                  : Witness      - WITNESSED BY
MUD .         GEL                  : Mud_type     - MUD TYPE
MATR.         LIMESTONE            : Logunit      - NEUTRON MATRIX
TMAX.C        17.4                 : BHT          - MAXIMUM RECORDED TEMPERATURE
BHTD.M        515                  : BHTDEP       - MAXIMUM RECORDED TEMPERATURE
MATR.         1                    : LOGUNIT      - NEUTRON MATRIX
RMT .C        25                   : MDTP         - TEMPERATURE OF MUD
NEUT.         1                    : NEUTRON      - NEUTRON TYPE
RESI.         0                    : RESIST       - RESISTIVITY TYPE
RMC .OHMM     0.25                 : RMC          - RESISTIVITY OF MUD CAKE
RMF .OHMM     0.25                 : RMF          - RESISTIVITY OF MUD FILTRATE
SUFT.C        15                   : SUFT         - SURFACE TEMPERATURE
~A  DEPTH     RESD     PHID     PHIN       GR
# ...
  357.000   17.221    0.326    0.419   58.663
  357.250   17.877    0.332    0.418   58.652
  357.500   18.558    0.341    0.423   58.640
  357.750   19.265    0.353    0.416   58.631
  358.000   19.264    0.359    0.407   58.621
  358.250   18.555    0.347    0.404   58.610
  358.500   17.540    0.348    0.402   57.989
  358.750   15.972    0.353    0.402   59.197
  359.000   14.275    0.346    0.419   59.801
  359.250   11.191    0.340    0.435   61.617
  359.500    8.294    0.344    0.438   62.221
  359.750    4.910    0.353    0.435   65.257
  360.000    3.505    0.348    0.426   69.510
  360.250    3.018    0.327    0.415   72.550
  360.500    2.800    0.293    0.441   75.590
  360.750    2.748    0.268    0.479   78.631
  361.000    2.697    0.254    0.506   83.495
  361.250    2.646    0.257    0.523   85.320
  361.500    2.696    0.268    0.529   88.967
  361.750    2.696    0.279    0.515   92.006
  362.000    2.696    0.276    0.510   95.044
  362.250    2.747    0.272    0.503   98.082
  362.500    2.852    0.265    0.505   99.293
  362.750    2.960    0.251    0.517   98.060
  363.000    3.016    0.241    0.509   98.660
  363.250    3.131    0.245    0.501  100.478
  363.500    3.131    0.244    0.491  101.082
  363.750    3.311    0.246    0.514   99.240
  364.000    3.437    0.253    0.528   98.012
  364.250    3.636    0.240    0.534   99.220
  364.500    3.992    0.252    0.542  101.037
  364.750    4.637    0.277    0.556  101.638
  365.000    5.188    0.289    0.566   99.187
  365.250    6.026    0.284    0.539   97.962
  365.500    6.256    0.273    0.507   94.902
  365.750    6.616    0.253    0.475   91.840
  366.000    6.616    0.260    0.437   90.613
  366.250    6.616    0.258    0.413   88.774
  366.500    6.493    0.265    0.418   86.932
  366.750    6.024    0.267    0.425   87.535
  367.000    5.384    0.251    0.437   89.354
  367.250    4.722    0.245    0.455   87.506
  367.500    4.142    0.266    0.464   86.276
  367.750    3.435    0.262    0.443   86.269
  368.000    3.013    0.255    0.453   86.265
  368.250    2.643    0.262    0.457   89.911
  368.500    2.406    0.265    0.478   95.999
  368.750    2.406    0.283    0.508  100.865
  369.000    2.545    0.283    0.525  102.687
  369.250    2.847    0.304    0.539  103.281
  369.500    3.246    0.305    0.548  102.666
  369.750    3.988    0.303    0.556  100.213
  370.000    4.720    0.317    0.567   98.377
  370.250    5.380    0.307    0.557   94.706
  370.500    6.249    0.309    0.528   92.260
  370.750    7.124    0.298    0.492   88.592
  371.000    7.677    0.314    0.474   87.362
  371.250    7.395    0.286    0.448   88.572
  371.500    7.123    0.270    0.448   84.900
  371.750    6.608    0.253    0.455   83.063
  372.000    6.365    0.262    0.451   84.272
  372.250    6.131    0.261    0.442   87.916
  372.500    6.017    0.254    0.439   89.129
  372.750    6.130    0.253    0.446   90.335
  373.000    6.246    0.242    0.453   90.939
  373.250    6.363    0.237    0.450   91.539
  373.500    6.483    0.243    0.444   90.920
  373.750    6.606    0.257    0.457   91.519
  374.000    6.857    0.269    0.473   90.900
  374.250    6.857    0.278    0.466   87.838
  374.500    6.856    0.269    0.452   86.610
  374.750    6.856    0.272    0.450   86.598
  375.000    6.728    0.271    0.449   87.804
  375.250    6.728    0.264    0.446   88.405
  375.500    6.603    0.258    0.454   89.004
  375.750    6.603    0.253    0.459   89.605
  376.000    6.727    0.242    0.462   90.206
  376.250    6.727    0.257    0.450   90.806
  376.500    6.726    0.262    0.460   92.014
  376.750    6.853    0.262    0.462   92.613
  377.000    6.853    0.260    0.456   93.213
  377.250    6.853    0.267    0.450   92.594
  377.500    6.852    0.273    0.450   90.144
  377.750    6.852    0.265    0.447   88.917
  378.000    6.851    0.270    0.440   88.905
  378.250    6.851    0.256    0.444   90.727
  378.500    6.851    0.261    0.449   93.765
  378.750    6.850    0.278    0.453   93.753
  379.000    6.850    0.261    0.458   91.914
  379.250    6.850    0.259    0.449   91.296
  379.500    6.849    0.248    0.447   90.674
  379.750    6.849    0.234    0.450   91.882
  380.000    6.722    0.235    0.453   93.094
  380.250    6.474    0.237    0.448   94.301
  380.500    6.236    0.237    0.442   94.904
  380.750    6.120    0.239    0.455   96.112
  381.000    5.895    0.239    0.454   94.883
  381.250    5.785    0.250    0.455   93.043
  381.500    5.785    0.249    0.468   94.251
  381.750    5.677    0.234    0.480   95.458
  382.000    5.572    0.221    0.492   95.453
  382.250    5.267    0.243    0.499   96.051
  382.500    3.904    0.235    0.460   95.433
  382.750    2.893    0.228    0.447   96.638
  383.000    2.399    0.257    0.465   97.847
  383.250    2.144    0.293    0.482   98.446
  383.500    2.065    0.307    0.506   99.049
  383.750    2.027    0.311    0.531   97.821
  384.000    2.144    0.310    0.567   99.028
  384.250    2.354    0.307    0.579   97.189
  384.500    2.585    0.307    0.570   95.349
  384.750    2.838    0.299    0.561   93.510
  385.000    3.359    0.285    0.550   91.670
  385.250    3.688    0.273    0.543   91.053
  385.500    4.448    0.268    0.514   87.991
  385.750    5.166    0.277    0.483   86.153
  386.000    5.672    0.282    0.462   86.143
  386.250    6.113    0.283    0.444   87.353
  386.500    6.466    0.294    0.452   87.952
  386.750    6.588    0.301    0.450   86.114
  387.000    6.712    0.305    0.446   78.786
  387.250    6.838    0.309    0.425   71.457
  387.500    6.838    0.299    0.410   65.349
  387.750    6.838    0.309    0.402   59.854
  388.000    6.710    0.312    0.396   55.577
  388.250    6.586    0.319    0.393   53.737
  388.500    6.585    0.323    0.402   54.335
  388.750    6.463    0.336    0.417   53.106
  389.000    6.463    0.338    0.430   51.878
  389.250    6.342    0.339    0.433   51.256
  389.500    6.462    0.347    0.422   51.856
  389.750    6.584    0.347    0.416   53.066
  390.000    6.834    0.342    0.415   53.664
  390.250    6.963    0.333    0.406   53.654
  390.500    7.094    0.327    0.395   54.865
  390.750    7.228    0.322    0.393   56.075
  391.000    7.364    0.319    0.389   58.502
  391.250    7.503    0.316    0.388   57.270
  391.500    7.644    0.314    0.401   55.431
  391.750    7.644    0.315    0.406   54.814
  392.000    7.788    0.320    0.406   56.631
  392.250    7.788    0.337    0.403   57.232
  392.500    7.643    0.342    0.397   57.833
  392.750    7.642    0.341    0.393   57.823
  393.000    7.500    0.338    0.390   57.810
  393.250    7.361    0.334    0.389   57.802
  393.500    7.224    0.327    0.399   57.177
  393.750    7.224    0.328    0.414   56.556
  394.000    6.958    0.334    0.410   55.937
  394.250    6.957    0.340    0.403   55.319
  394.500    6.828    0.341    0.408   55.309
  394.750    6.828    0.332    0.411   55.300
  395.000    6.827    0.335    0.415   57.119
  395.250    6.956    0.337    0.417   57.719
  395.500    6.956    0.339    0.418   58.321
  395.750    6.955    0.341    0.413   58.916
  396.000    6.955    0.339    0.414   58.297
  396.250    6.955    0.334    0.414   57.678
  396.500    6.954    0.333    0.413   57.669
  396.750    6.954    0.335    0.413   57.660
  397.000    6.953    0.331    0.410   57.649
  397.250    6.953    0.330    0.402   57.028
  397.500    6.953    0.330    0.405   57.630
  397.750    6.952    0.329    0.402   59.445
  398.000    6.952    0.333    0.395   60.659
  398.250    6.952    0.339    0.398   62.478
  398.500    6.951    0.336    0.421   63.077
  398.750    6.951    0.328    0.431   62.457
  399.000    6.951    0.347    0.424   61.837
  399.250    6.950    0.352    0.417   61.217
  399.500    6.950    0.361    0.413   61.207
  399.750    6.821    0.346    0.415   62.417
  400.000    6.570    0.334    0.417   64.842
  400.250    6.447    0.323    0.415   66.662
