~VERSION INFORMATION
 VERS.                 2.0:   CWLS LOG ASCII STANDARD -VERSION 2.0
 WRAP.                  NO:   ONE LINE PER DEPTH STEP
~WELL INFORMATION BLOCK
#MNEM.UNIT           DATA                    DESCRIPTION OF MNEMONIC
#---------    -------------------            -------------------------------
# Generated from Intellog Unique Number	CW_76_78/WELL/928
WELL.         CHIEFLO SUNNYDAKE DROWND 10-34 : Well_name    - WELL
LOC .         00/10-34-076-22W4/0            : Location     - LOCATION
UWI .         00/10-34-076-22W4/0            : Uwi          - UNIQUE WELL ID
ENTR.         JAYE                           : Entered      - ENTERED BY
SRVC.         SCHLUMBERGER                   : Scn          - SERVICE COMPANY
DATE.         25 MAR 75                      : Date         - LOG DATE
STRT.M        527.304                        : top_depth    - START DEPTH
STOP.M        743.804                        : bot_depth    - STOP DEPTH
STEP.M        0.25                           : increment    - STEP LENGTH
 NULL. -999.2500:NULL Value
~CURVE INFORMATION BLOCK
#MNEM UNIT       ERCB CURVE CODE    CURVE DESCRIPTION
#-----------   ------------------   ----------------------------------
DEPT.M        00 001 00 00         : DEPTH        - DEPTH
ILD .OHMM     00 120 00 00         : RESD         - DEEP RESISTIVITY (DIL)
NPHI.V/V      00 330 00 00         : PHIN         - NEUTRON POROSITY (SANDSTONE)
DPHI.V/V      00 890 00 00         : PHID         - DENSITY POROSITY (SANDSTONE)
GR  .API      00 310 00 00         : GR           - GAMMA RAY
CALI.MM       00 280 01 00         : CAL          - CALIPER
~PARAMETER INFORMATION
#MNEM.UNIT           DATA             DESCRIPTION OF MNEMONIC
#---------         -----------     ------------------------------
GL  .M        811.073              : gl           - GROUND LEVEL ELEVATION
EREF.M        814.578              : kb           - ELEVATION OF DEPTH REFERENCE
DATM.M        811.073              : datum        - DATUM ELEVATION
TDD .M        748.436              : tdd          - TOTAL DEPTH DRILLER
RUN .         ONE                  : Run          - RUN NUMBER
ENG .         BERNIISKY            : Engineer     - RECORDING ENGINEER
WIT .         BROWN                : Witness      - WITNESSED BY
BASE.         EDM                  : Branch       - HOME BASE OF LOGGING UNIT
MUD .         GEL                  : Mud_type     - MUD TYPE
MATR.         SANDSTONE            : Logunit      - NEUTRON MATRIX
TMAX.C        27.7778              : BHT          - MAXIMUM RECORDED TEMPERATURE
BHTD.M        748.894              : BHTDEP       - MAXIMUM RECORDED TEMPERATURE
RMT .C        -17.7778             : MDTP         - TEMPERATURE OF MUD
MUDD.KG/M     1188                 : MWT          - MUD DENSITY
NEUT.         1                    : NEUTRON      - NEUTRON TYPE
RESI.         0                    : RESIST       - RESISTIVITY TYPE
RM  .OHMM     3.82                 : RM           - RESISTIVITY OF MUD
RMC .OHMM     0                    : RMC          - RESISTIVITY OF MUD CAKE
RMF .OHMM     4.9                  : RMF          - RESISTIVITY OF MUD FILTRATE
SUFT.C        -17.7778             : SUFT         - SURFACE TEMPERATURE
~A  DEPTH     RESD     PHIN     PHID       GR      CAL
# ...
  709.804    4.819    0.395    0.170   92.417  173.381
  710.054    4.721    0.400    0.165   88.746  174.419
  710.304    5.338    0.390    0.151   85.267  175.349
  710.554    6.912    0.385    0.164   76.218  175.464
  710.804    8.757    0.402    0.170   67.225  174.443
  711.054   10.912    0.380    0.197   59.401  171.235
  711.304   11.212    0.371    0.247   53.476  166.490
  711.554   10.666    0.360    0.263   60.512  165.241
  711.804   10.222    0.350    0.225   68.712  166.699
  712.054   10.199    0.347    0.188   76.795  169.206
  712.304   11.404    0.376    0.156   75.642  171.381
  712.554   13.179    0.381    0.173   71.357  171.910
  712.804   15.600    0.371    0.198   61.821  171.499
  713.054   17.346    0.364    0.216   55.165  166.011
  713.304   16.931    0.356    0.234   54.559  165.396
  713.554   15.440    0.348    0.237   54.993  168.007
  713.804   14.500    0.342    0.235   54.382  170.604
  714.054   13.820    0.337    0.230   53.890  171.536
  714.304   14.436    0.337    0.217   54.695  171.131
  714.554   15.588    0.343    0.207   55.184  170.614
  714.804   17.527    0.349    0.197   53.175  170.002
  715.054   20.405    0.348    0.214   49.262  169.700
  715.304   25.100    0.354    0.228   46.941  169.603
  715.554   28.325    0.368    0.241   47.187  169.620
  715.804   29.319    0.364    0.242   48.539  170.041
  716.054   28.618    0.358    0.225   51.178  170.265
  716.304   26.242    0.352    0.234   54.974  169.860
  716.554   22.318    0.346    0.235   56.995  169.332
  716.804   20.617    0.344    0.232   56.998  168.624
  717.054   19.756    0.348    0.229   57.313  167.901
  717.304   19.248    0.352    0.225   58.542  167.604
  717.554   18.891    0.351    0.213   60.317  167.308
  717.804   18.473    0.349    0.199   63.262  167.404
  718.054   17.899    0.347    0.204   66.385  167.307
  718.304   16.933    0.347    0.211   68.107  167.442
  718.554   16.198    0.353    0.206   67.251  167.636
  718.804   15.240    0.345    0.198   66.582  167.770
  719.054   14.392    0.338    0.193   67.994  167.970
  719.304   13.441    0.331    0.184   70.631  168.488
  719.554   12.577    0.327    0.179   74.060  168.710
  719.804   12.053    0.323    0.176   77.124  168.827
  720.054   11.635    0.315    0.165   79.090  168.940
  720.304   12.022    0.305    0.148   80.258  169.369
  720.554   12.629    0.288    0.112   80.502  169.783
  720.804   12.953    0.257    0.086   78.179  170.193
  721.054   12.504    0.240    0.057   78.929  170.411
  721.304   11.466    0.242    0.053   80.577  170.121
  721.554   10.476    0.268    0.083   85.232  169.904
  721.804    9.553    0.320    0.105   92.880  169.520
  722.054    8.874    0.342    0.142   97.963  169.829
  722.304    8.212    0.334    0.135   97.238  170.462
  722.554    7.670    0.326    0.146   95.158  171.187
  722.804    7.163    0.330    0.154   97.549  171.605
  723.054    6.865    0.349    0.147  100.489  171.935
  723.304    6.774    0.352    0.153   99.883  171.931
  723.554    6.810    0.347    0.135   95.850  171.836
  723.804    6.997    0.336    0.151   90.046  171.235
  724.054    7.404    0.326    0.166   85.708  170.603
  724.304    7.864    0.320    0.160   83.820  169.177
  724.554    8.570    0.317    0.150   82.166  168.360
  724.804    9.635    0.312    0.142   76.359  167.748
  725.054   12.162    0.301    0.126   66.515  167.321
  725.304   16.734    0.270    0.107   53.792  167.047
  725.554   21.434    0.252    0.094   39.543  166.528
  725.804   27.758    0.257    0.147   40.041  166.005
  726.054   28.998    0.304    0.202   44.207  165.191
  726.304   19.533    0.332    0.227   54.124  164.669
  726.554   11.422    0.371    0.255   63.302  164.060
  726.804    5.746    0.426    0.275   71.746  163.755
  727.054    4.516    0.534    0.300   92.244  163.977
  727.304    4.095    0.585    0.289  105.525  164.724
  727.554    4.124    0.613    0.260  106.513  165.537
  727.804    4.285    0.544    0.275  107.554  166.592
  728.054    4.559    0.518    0.261  109.759  167.320
  728.304    4.824    0.522    0.277  109.032  167.637
  728.554    5.068    0.595    0.321  102.062  167.643
  728.804    5.412    0.622    0.362   99.068  167.336
  729.054    5.769    0.525    0.323  101.763  167.487
  729.304    6.139    0.495    0.244  100.059  167.172
  729.554    6.331    0.450    0.239   99.633  166.548
  729.804    6.482    0.448    0.239  101.290  166.661
  730.054    6.373    0.457    0.244  102.584  166.858
  730.304    6.063    0.451    0.233  103.445  167.594
  730.554    5.757    0.447    0.214  104.121  168.660
  730.804    5.436    0.444    0.181  106.019  169.277
  731.054    5.375    0.422    0.194  102.721  169.798
  731.304    5.793    0.424    0.225   95.445  169.390
  731.554    7.048    0.451    0.269   87.435  168.669
  731.804    8.389    0.555    0.352   75.571  167.958
  732.054    9.731    0.561    0.422   62.421  167.142
  732.304   12.555    0.535    0.492   53.984  166.827
  732.554   17.988    0.450    0.316   51.605  166.637
  732.804   20.597    0.392    0.297   51.242  166.324
  733.054   21.479    0.386    0.297   53.266  166.135
  733.304   21.589    0.382    0.291   55.416  165.721
  733.554   21.073    0.399    0.296   60.746  164.799
  733.804   19.754    0.418    0.296   69.064  163.974
  734.054   16.893    0.407    0.291   77.448  166.268
  734.304   14.634    0.391    0.298   94.461  167.514
  734.554   12.584    0.400    0.289   99.483  167.330
  734.804   11.062    0.417    0.280  105.603  167.115
  735.054    9.425    0.436    0.270  110.813  167.018
  735.304    8.691    0.450    0.257  112.223  166.814
  735.554    8.222    0.414    0.232  113.576  166.927
  735.804    7.996    0.392    0.209  115.715  166.127
  736.054    7.690    0.380    0.193  124.837  164.888
  736.304    7.289    0.371    0.137  136.892  164.055
  736.554    6.820    0.415    0.097  146.257  168.004
  736.804    6.382    0.437    0.173  154.401  169.974
  737.054    6.321    0.468    0.226  158.321  171.754
  737.304    6.436    0.499    0.257  161.687  172.166
  737.554    6.687    0.542    0.308  156.983  172.273
  737.804    7.024    0.566    0.331  147.260  171.244
  738.054    7.311    0.527    0.342  138.824  169.082
  738.304    7.513    0.464    0.317  140.538  167.432
  738.554    7.733    0.413    0.259  134.002  166.721
  738.804    7.860    0.400    0.270  122.807  166.213
  739.054    7.843    0.383    0.264  120.430  165.900
  739.304    7.529    0.385    0.252  146.801  165.285
  739.554    6.866    0.400    0.248  158.609  164.796
  739.804    6.425    0.428    0.263  169.933  164.679
  740.054    6.123    0.462    0.285  180.338  164.893
  740.304    5.954    0.556    0.211  183.033  165.022
  740.554    5.931    0.591    0.157  168.479  165.235
  740.804    5.961    0.589    0.138  155.212  165.437
  741.054    6.003    0.560    0.141  139.732  165.547
  741.304    6.067    0.536    0.144  120.651  165.559
  741.554    6.143    0.452    0.136  106.161  166.085
  741.804    6.209    0.376    0.139  101.882  166.405
  742.054    6.253    0.352    0.135   98.704  165.896
  742.304    6.228    0.347    0.131   96.999  165.799
  742.554    6.202    0.337    0.143   97.794  165.288
  742.804    6.167    0.330    0.111  100.681  163.218
  743.054    6.119    0.319    0.107  103.069  163.864
  743.304    6.017    0.314    0.110  101.542  165.617
  743.554    5.776    0.330    0.136   98.118  165.010
  743.804    5.576    0.352    0.139   98.551  164.403
