~VERSION INFORMATION
 VERS.                 2.0:   CWLS LOG ASCII STANDARD -VERSION 2.0
 WRAP.                  NO:   ONE LINE PER DEPTH STEP
~WELL INFORMATION BLOCK
#MNEM.UNIT           DATA                    DESCRIPTION OF MNEMONIC
#---------    -------------------            -------------------------------
# Generated from Intellog Unique Number	CW_82_90/WELL/2595
WELL.         13-20-082-03W5                 : Well_name    - WELL
LOC .         00/13-20-082-03W5/0            : Location     - LOCATION
UWI .         00/13-20-082-03W5/0            : Uwi          - UNIQUE WELL ID
ENTR.         JJ                             : Entered      - ENTERED BY
SRVC.         SCHLUMBERGER                   : Scn          - SERVICE COMPANY
DATE.         24 JAN 72                      : Date         - LOG DATE
STRT.M        352.958                        : top_depth    - START DEPTH
STOP.M        480.458                        : bot_depth    - STOP DEPTH
STEP.M        0.25                           : increment    - STEP LENGTH
 NULL. -999.2500:NULL Value
~CURVE INFORMATION BLOCK
#MNEM UNIT       ERCB CURVE CODE    CURVE DESCRIPTION
#-----------   ------------------   ----------------------------------
DEPT.M        00 001 00 00         : DEPTH        - DEPTH
DELT.US/F     00 520 00 00         : DELT         - SONIC TRAVEL TIME
GR  .API      00 310 00 00         : GR           - GAMMA RAY
DPHI.V/V      00 890 00 00         : PHID         - DENSITY POROSITY (LIMESTONE)
ILD .OHMM     00 120 00 00         : RESD         - DEEP RESISTIVITY (DIL)
~PARAMETER INFORMATION
#MNEM.UNIT           DATA             DESCRIPTION OF MNEMONIC
#---------         -----------     ------------------------------
GL  .M        583.875              : gl           - GROUND LEVEL ELEVATION
EREF.M        588.264              : kb           - ELEVATION OF DEPTH REFERENCE
DATM.M        588.264              : datum        - DATUM ELEVATION
TDD .M        664.464              : tdd          - TOTAL DEPTH DRILLER
RUN .         ONE                  : Run          - RUN NUMBER
ENG .         MCLEAN               : Engineer     - RECORDING ENGINEER
WIT .         CLARK & ROTA         : Witness      - WITNESSED BY
BASE.         EDM                  : Branch       - HOME BASE OF LOGGING UNIT
MUD .         GEL                  : Mud_type     - MUD TYPE
MATR.         LIMESTONE            : Logunit      - NEUTRON MATRIX
TMAX.C        27.7778              : BHT          - MAXIMUM RECORDED TEMPERATURE
BHTD.M        664.464              : BHTDEP       - MAXIMUM RECORDED TEMPERATURE
RMT .C        14.4444              : MDTP         - TEMPERATURE OF MUD
MUDD.KG/M     1200                 : MWT          - MUD DENSITY
NEUT.         1                    : NEUTRON      - NEUTRON TYPE
RESI.         0                    : RESIST       - RESISTIVITY TYPE
RM  .OHMM     5.22                 : RM           - RESISTIVITY OF MUD
RMC .OHMM     0                    : RMC          - RESISTIVITY OF MUD CAKE
RMF .OHMM     5.19                 : RMF          - RESISTIVITY OF MUD FILTRATE
SUFT.C        5                    : SUFT         - SURFACE TEMPERATURE
~A  DEPTH     DELT       GR     PHID     RESD
# ...
  396.458   83.697   55.185    0.135   12.518
  396.708  101.947   57.387    0.184   10.361
  396.958  128.228   60.565    0.208    8.592
  397.208  138.844   64.720    0.192    7.392
  397.458  163.200   67.166    0.194    6.920
  397.708  178.596   73.641    0.195    6.759
  397.958  189.876   75.111    0.192    7.184
  398.208  180.780   69.253    0.201    8.511
  398.458  148.652   67.181    0.205    9.899
  398.708  133.649   68.955    0.193   10.736
  398.958  113.933   64.381    0.187   10.447
  399.208   98.996   71.954    0.170    9.853
  399.458  122.754   73.118    0.172    9.677
  399.708  134.764   71.535    0.186    9.609
  399.958  156.001   69.402    0.172    9.507
  400.208  154.803   69.711    0.154    9.301
  400.458  124.866   73.561    0.172    8.870
  400.708  123.601   74.603    0.203    8.381
  400.958  148.024   78.086    0.202    7.978
  401.208  163.817   76.259    0.192    7.664
  401.458  169.721   77.362    0.193    7.526
  401.708  189.299   80.418    0.197    7.391
  401.958  205.424   87.748    0.218    7.299
  402.208  174.225   78.838    0.203    7.129
  402.458  176.811   74.446    0.207    6.873
  402.708  196.454   73.962    0.220    6.494
  402.958  213.642   68.349    0.221    6.204
  403.208  209.855   74.885    0.202    5.884
  403.458  206.932   86.672    0.178    5.864
  403.708  216.553   81.242    0.203    6.053
  403.958  226.040   81.063    0.215    6.386
  404.208  223.980   83.448    0.201    6.603
  404.458  207.119   78.628    0.173    6.865
  404.708  180.566   75.580    0.194    7.046
  404.958  188.461   75.156    0.222    6.996
  405.208  207.441   75.404    0.207    6.934
  405.458  193.101   73.394    0.189    7.065
  405.708  188.651   68.880    0.184    7.185
  405.958  184.798   68.517    0.188    6.992
  406.208  179.685   73.710    0.208    6.754
  406.458  188.775   77.195    0.242    6.347
  406.708  213.197   78.175    0.225    6.030
  406.958  218.769   77.263    0.210    5.771
  407.208  232.107   77.267    0.183    5.699
  407.458  223.077   78.309    0.178    6.250
  407.708  204.954   78.190    0.208    7.150
  407.958  217.495   76.484    0.236    8.195
  408.208  219.218   73.313    0.229    9.549
  408.458  148.726   67.273    0.198   11.005
  408.708  138.236   62.515    0.177   11.913
  408.958  129.405   68.807    0.214   12.732
  409.208  154.425   64.233    0.224   10.873
  409.458  215.353   67.471    0.221    8.393
  409.708  240.306   84.020    0.213    6.972
  409.958  233.334   85.977    0.215    5.867
  410.208  214.746   79.815    0.233    7.041
  410.458  210.362   75.485    0.214    8.606
  410.708  222.041   72.619    0.245   10.328
  410.958  214.338   66.457    0.234   12.953
  411.208  186.459   61.699    0.177   15.745
  411.458   75.744   57.490    0.137   18.312
  411.708  126.584   58.959    0.156   21.575
  411.958  152.997   61.771    0.265   24.682
  412.208  203.504   64.766    0.285   26.282
  412.458  186.974   62.084    0.295   21.794
  412.708  195.400   58.669    0.266   17.548
  412.958  205.154   59.956    0.244   14.822
  413.208  215.903   63.195    0.226   13.674
  413.458  224.861   69.426    0.237   13.208
  413.708  209.127   73.520    0.261   12.690
  413.958  165.782   69.922    0.237   12.348
  414.208  198.966   63.698    0.207   11.949
  414.458  216.618   63.214    0.245   11.004
  414.708  186.149   66.149    0.235    9.589
  414.958  208.381   68.044    0.191    8.944
  415.208  210.966   71.895    0.228    9.214
  415.458  190.587   75.195    0.235   10.776
  415.708  165.030   70.803    0.173   12.283
  415.958   89.892   64.397    0.126   13.924
  416.208    5.462   59.883    0.099   13.574
  416.458   83.381   58.116    0.077   12.004
  416.708  125.725   60.806    0.124    9.954
  416.958  163.156   71.371    0.177    7.927
  417.208  162.024   72.475    0.194    7.153
  417.458  176.358   69.365    0.189    6.600
  417.708  189.430   70.162    0.199    6.363
  417.958  195.866   76.210    0.220    6.203
  418.208  203.960   83.601    0.207    6.069
  418.458  211.457   87.024    0.196    6.038
  418.708  218.689   81.899    0.185    6.007
  418.958  218.752   74.882    0.184    5.888
  419.208  197.177   72.078    0.210    5.625
  419.458  205.006   79.469    0.227    5.374
  419.708  218.742   80.816    0.202    5.327
  419.958  231.019   79.782    0.196    5.518
  420.208  239.246   79.969    0.180    5.865
  420.458  247.207   89.313    0.202    6.384
  420.708  224.372   80.892    0.207    6.989
  420.958  113.260   66.243    0.177    7.678
  421.208  130.912   61.607    0.137    8.420
  421.458  145.511   73.883    0.136    9.065
  421.708  153.141   72.055    0.172    9.814
  421.958   27.359   62.290    0.177   10.566
  422.208   45.941   59.059    0.132   11.046
  422.458   85.298   57.903    0.108   11.505
  422.708  106.600   61.569    0.149   11.874
  422.958   70.225   61.696    0.169   12.076
  423.208   84.823   59.074    0.181   12.124
  423.458   53.160   58.406    0.170   11.886
  423.708   67.693   64.760    0.148   11.715
  423.958   82.624   64.275    0.110   11.131
  424.208  145.742   65.316    0.057   10.175
  424.458  166.115   68.678    0.083    8.406
  424.708  192.396   73.505    0.179    6.524
  424.958  202.415   77.722    0.195    5.953
  425.208  209.514   81.083    0.211    6.076
  425.458  200.617   77.912    0.210    6.447
  425.708  181.764   81.824    0.196    6.727
  425.958  179.438   80.240    0.178    6.994
  426.208  171.934   75.054    0.163    7.353
  426.458  175.449   71.822    0.159    7.492
  426.708  192.836   71.033    0.181    7.479
  426.958  204.714   79.156    0.172    7.359
  427.208  200.662   75.925    0.191    7.241
  427.458  202.052   76.905    0.176    7.072
  427.708  199.858   78.252    0.177    7.022
  427.958  196.869   80.942    0.192    7.011
  428.208  197.197   80.946    0.194    7.026
  428.458  200.181   78.019    0.193    7.094
  428.708  190.488   73.567    0.196    7.135
  428.958  202.100   79.980    0.184    7.256
  429.208  206.345   84.197    0.171    7.352
  429.458  193.598   71.380    0.172    7.395
  429.708  188.550   79.198    0.179    7.209
  429.958  191.070   77.920    0.190    6.675
  430.208  189.009   77.619    0.199    6.181
  430.458  207.922   80.553    0.204    6.126
  430.708  219.932   95.392    0.214    6.464
  430.958  228.558  103.149    0.200    7.602
  431.208  174.195   85.998    0.198    8.290
  431.458  122.686   74.402    0.203    9.931
  431.708   87.571   70.437    0.200   11.852
  431.958   96.861   72.151    0.181   13.887
  432.208  109.667   65.927    0.175   15.115
  432.458  104.354   72.036    0.158   17.356
  432.708   76.142   71.551    0.132   20.225
  432.958  -25.876   62.887    0.101   22.426
  433.208  -47.318   59.288    0.057   21.305
  433.458  -28.272   57.949    0.021   15.677
  433.708   79.183   57.587    0.119   12.123
  433.958  127.036   58.201    0.178   10.016
  434.208  155.440   58.022    0.258   10.111
  434.458  148.866   55.950    0.257   11.588
  434.708  162.801   53.756    0.227   13.579
  434.958  105.916   53.088    0.190   14.143
  435.208   89.917   53.947    0.203   10.717
  435.458  119.716   55.171    0.234   10.800
  435.708  138.098   57.495    0.237   13.396
  435.958  161.591   60.125    0.171   16.224
  436.208  -51.073   59.883    0.073   19.722
  436.458  -68.068   50.302    0.052   22.687
  436.708  -55.394   43.224    0.044   18.881
  436.958  -40.529   46.647    0.056   11.245
  437.208   96.861   53.794    0.090    9.172
  437.458  128.386   60.391    0.175    7.704
  437.708  150.020   65.707    0.189    6.953
  437.958  162.031   68.030    0.184    6.309
  438.208  134.947   70.171    0.175    6.105
  438.458  138.993   72.433    0.179    6.186
  438.708  168.858   77.809    0.208    6.479
  438.958  190.293   81.843    0.205    7.277
  439.208  185.910   77.085    0.181    7.428
  439.458  146.215   73.914    0.145    7.006
  439.708  101.012   70.072    0.125    6.755
