~VERSION INFORMATION
 VERS.                 2.0:   CWLS LOG ASCII STANDARD -VERSION 2.0
 WRAP.                  NO:   ONE LINE PER DEPTH STEP
~WELL INFORMATION BLOCK
#MNEM.UNIT           DATA                    DESCRIPTION OF MNEMONIC
#---------    -------------------            -------------------------------
# Generated from Intellog Unique Number	CS_71_72/WELL/851
WELL.         PEX PHILLIPS AEC KIRBY         : Well_name    - WELL
LOC .         00/10-08-072-07W4/0            : Location     - LOCATION
UWI .         00/10-08-072-07W4/0            : Uwi          - UNIQUE WELL ID
ENTR.         SP                             : Entered      - ENTERED BY
SRVC.         SCHLUMBERGER                   : Scn          - SERVICE COMPANY
STRT.M        310                            : top_depth    - START DEPTH
STOP.M        525                            : bot_depth    - STOP DEPTH
STEP.M        0.25                           : increment    - STEP LENGTH
 NULL. -999.2500:NULL Value
~CURVE INFORMATION BLOCK
#MNEM UNIT       ERCB CURVE CODE    CURVE DESCRIPTION
#-----------   ------------------   ----------------------------------
DEPT.M        00 001 00 00         : DEPTH        - DEPTH
ILD .OHMM     00 120 00 00         : RESD         - DEEP RESISTIVITY (DIL)
DPHI.V/V      00 890 00 00         : PHID         - DENSITY POROSITY (LIMESTONE)
NPHI.V/V      00 330 00 00         : PHIN         - NEUTRON POROSITY (LIMESTONE)
GR  .API      00 310 00 00         : GR           - GAMMA RAY
~PARAMETER INFORMATION
#MNEM.UNIT           DATA             DESCRIPTION OF MNEMONIC
#---------         -----------     ------------------------------
GL  .M        672.83               : gl           - GROUND LEVEL ELEVATION
EREF.M        675.83               : kb           - ELEVATION OF DEPTH REFERENCE
DATM.M        672.83               : datum        - DATUM ELEVATION
TDD .M        540                  : tdd          - TOTAL DEPTH DRILLER
RUN .         ONE                  : Run          - RUN NUMBER
ENG .         BILL                 : Engineer     - RECORDING ENGINEER
WIT .         JIM                  : Witness      - WITNESSED BY
MUD .         GEL                  : Mud_type     - MUD TYPE
MATR.         LIMESTONE            : Logunit      - NEUTRON MATRIX
TMAX.C        20                   : BHT          - MAXIMUM RECORDED TEMPERATURE
BHTD.M        540                  : BHTDEP       - MAXIMUM RECORDED TEMPERATURE
MATR.         1                    : LOGUNIT      - NEUTRON MATRIX
RMT .C        25                   : MDTP         - TEMPERATURE OF MUD
NEUT.         1                    : NEUTRON      - NEUTRON TYPE
RESI.         0                    : RESIST       - RESISTIVITY TYPE
RMC .OHMM     0.25                 : RMC          - RESISTIVITY OF MUD CAKE
RMF .OHMM     0.25                 : RMF          - RESISTIVITY OF MUD FILTRATE
SUFT.C        15                   : SUFT         - SURFACE TEMPERATURE
~A  DEPTH     RESD     PHID     PHIN       GR
# ...
  353.500   13.506    0.215    0.338  107.149
  353.750   13.252    0.214    0.343  111.439
  354.000   12.760    0.199    0.333  116.341
  354.250   12.520    0.193    0.321  118.794
  354.500   12.285    0.188    0.320  121.245
  354.750   12.280    0.207    0.328  123.085
  355.000   12.278    0.221    0.338  123.089
  355.250   12.274    0.238    0.339  115.135
  355.500   12.044    0.207    0.336  109.015
  355.750   11.382    0.194    0.322  104.732
  356.000   10.758    0.192    0.316  104.123
  356.250    9.978    0.204    0.309  118.823
  356.500    9.792    0.189    0.317  124.335
  356.750    9.083    0.180    0.321  132.298
  357.000    8.584    0.169    0.330  137.199
  357.250    7.962    0.158    0.350  140.876
  357.500    7.960    0.178    0.358  131.085
  357.750    8.109    0.187    0.360  128.639
  358.000    8.735    0.187    0.355  126.805
  358.250    9.238    0.188    0.353  124.359
  358.500    9.769    0.189    0.359  120.690
  358.750   10.138    0.200    0.362  113.347
  359.000   10.721    0.233    0.377  115.187
  359.250   11.127    0.235    0.391  117.640
  359.500   11.767    0.178    0.375  113.357
  359.750   11.986    0.156    0.353  108.463
  360.000   12.673    0.180    0.340  113.977
  360.250   12.909    0.189    0.333  117.653
  360.500   13.150    0.196    0.332  109.698
  360.750   13.147    0.215    0.331  111.539
  361.000   13.144    0.211    0.331  115.216
  361.250   13.139    0.202    0.336  118.280
  361.500   13.136    0.196    0.342  117.671
  361.750   13.381    0.189    0.343  119.512
  362.000   13.376    0.189    0.337  119.515
  362.250   13.373    0.183    0.334  115.846
  362.500   13.122    0.189    0.339  113.400
  362.750   12.874    0.194    0.346  109.731
  363.000   13.114    0.190    0.343  111.570
  363.250   13.610    0.184    0.340  117.696
  363.500   13.353    0.199    0.357  121.373
  363.750   12.620    0.189    0.351  110.356
  364.000   12.155    0.199    0.338  104.851
  364.250   11.487    0.205    0.332  103.629
  364.500   10.655    0.202    0.344  101.796
  364.750    9.700    0.210    0.350  104.860
  365.000    8.667    0.218    0.362  110.987
  365.250    8.192    0.184    0.356  114.663
  365.500    7.458    0.168    0.356  118.952
  365.750    7.049    0.183    0.365  111.610
  366.000    7.179    0.186    0.370  118.960
  366.250    7.881    0.176    0.373  126.311
  366.500    8.493    0.163    0.376  128.150
  366.750    9.499    0.164    0.365  117.134
  367.000   10.234    0.195    0.355  107.953
  367.250   10.426    0.213    0.345  105.508
  367.500   10.422    0.247    0.360  103.675
  367.750   10.226    0.266    0.355   94.496
  368.000   10.222    0.273    0.349   94.499
  368.250   10.220    0.192    0.356  101.849
  368.500   10.607    0.181    0.361  103.077
  368.750   11.216    0.170    0.366  104.305
  369.000   12.312    0.181    0.358  101.860
  369.250   13.022    0.198    0.356   94.517
  369.500   13.770    0.201    0.366   89.010
  369.750   14.561    0.209    0.358   85.952
  370.000   14.831    0.219    0.354   84.731
  370.250   15.108    0.226    0.347   84.734
  370.500   15.387    0.234    0.341   79.228
  370.750   15.384    0.231    0.330   78.620
  371.000   15.096    0.229    0.328   81.685
  371.250   14.267    0.223    0.325   84.136
  371.500   13.483    0.203    0.325   92.101
  371.750   12.985    0.196    0.334   95.776
  372.000   12.045    0.186    0.336  102.514
  372.250   11.383    0.184    0.333  101.905
  372.500   11.170    0.191    0.347   95.175
  372.750   10.755    0.191    0.356   90.892
  373.000   10.553    0.179    0.350   95.794
  373.250   10.355    0.171    0.345  100.695
  373.500   10.352    0.182    0.340   95.802
  373.750   10.157    0.188    0.333   92.132
  374.000   10.346    0.188    0.329  100.095
  374.250   10.343    0.196    0.351  104.383
  374.500   10.147    0.203    0.358  101.326
  374.750   10.146    0.208    0.355  105.004
  375.000   10.142    0.219    0.358  106.843
  375.250   10.139    0.217    0.368  106.234
  375.500   10.137    0.207    0.368  100.727
  375.750    9.761    0.201    0.366   95.834
  376.000    9.577    0.197    0.359  100.123
  376.250    9.575    0.192    0.356  103.188
  376.500    9.220    0.210    0.352  106.252
  376.750    9.218    0.214    0.348  104.419
  377.000    9.044    0.223    0.369  103.198
  377.250    8.874    0.216    0.378  101.364
  377.500    8.871    0.209    0.372   95.246
  377.750    9.036    0.204    0.362   95.861
  378.000    9.204    0.199    0.357  102.600
  378.250    9.376    0.203    0.352  101.379
  378.500    9.730    0.212    0.372  103.220
  378.750    9.912    0.234    0.383  105.673
  379.000    9.909    0.251    0.374  102.615
  379.250   10.094    0.286    0.370   96.496
  379.500   10.282    0.240    0.362   95.274
  379.750   10.471    0.211    0.357   85.483
  380.000   10.667    0.202    0.367   83.649
  380.250   10.665    0.222    0.370   86.713
  380.500   11.068    0.229    0.365   89.780
  380.750   11.275    0.238    0.363   90.394
  381.000   12.377    0.254    0.362   97.745
  381.250   13.336    0.271    0.384  100.197
  381.500   14.368    0.293    0.379   92.243
  381.750   14.636    0.318    0.362   85.511
  382.000   14.908    0.305    0.345   80.004
  382.250   15.186    0.294    0.338   73.885
  382.500   15.181    0.298    0.331   72.052
  382.750   15.178    0.301    0.331   69.606
  383.000   14.893    0.309    0.335   68.997
  383.250   14.888    0.308    0.340   71.451
  383.500   15.164    0.304    0.332   72.066
  383.750   15.160    0.302    0.325   72.070
  384.000   14.875    0.291    0.327   70.848
  384.250   14.325    0.275    0.338   76.363
  384.500   13.042    0.266    0.347   79.428
  384.750   11.437    0.247    0.358   81.880
  385.000    9.660    0.237    0.352   84.332
  385.250    8.472    0.249    0.351   86.172
  385.500    7.429    0.272    0.366   89.850
  385.750    6.637    0.294    0.368   93.526
  386.000    6.157    0.291    0.381   97.816
  386.250    5.929    0.285    0.379  102.717
  386.500    5.928    0.277    0.366  105.170
  386.750    6.152    0.267    0.369  104.561
  387.000    6.504    0.260    0.387  103.340
  387.250    6.751    0.253    0.390   99.059
  387.500    7.006    0.274    0.385   96.612
  387.750    7.137    0.297    0.377   93.555
  388.000    7.270    0.287    0.370   91.110
  388.250    7.406    0.277    0.359   92.338
  388.500    7.686    0.270    0.376   95.403
  388.750    7.684    0.264    0.370   97.242
  389.000    7.539    0.262    0.368   96.634
  389.250    7.260    0.262    0.369   91.740
  389.500    6.862    0.261    0.370   89.294
  389.750    6.364    0.259    0.374   85.624
  390.000    6.245    0.251    0.382   92.362
  390.250    5.902    0.247    0.394   99.714
  390.500    5.578    0.247    0.399  102.166
  390.750    5.175    0.236    0.403  102.781
  391.000    4.453    0.234    0.391  102.785
  391.250    4.054    0.239    0.363   97.891
  391.500    3.691    0.232    0.352   96.057
  391.750    3.555    0.220    0.378   97.898
  392.000    3.297    0.207    0.387  107.084
  392.250    3.175    0.199    0.385  115.659
  392.500    3.295    0.200    0.378  113.214
  392.750    3.618    0.202    0.372  119.953
  393.000    4.123    0.206    0.389  118.732
  393.250    4.787    0.213    0.394  117.511
  393.500    5.159    0.218    0.383  112.004
  393.750    6.336    0.206    0.377  106.497
  394.000    7.358    0.211    0.370  100.379
  394.250    8.077    0.229    0.355  101.608
  394.500    8.542    0.228    0.350  102.222
  394.750    8.865    0.229    0.358  103.452
  395.000    8.862    0.233    0.364  103.456
  395.250    8.695    0.213    0.367  102.848
  395.500    8.532    0.207    0.358  103.464
  395.750    8.217    0.199    0.347  100.405
  396.000    7.911    0.195    0.342  102.857
  396.250    7.762    0.195    0.361  107.146
  396.500    7.617    0.199    0.360  108.373
  396.750    7.615    0.197    0.348   97.969
