~VERSION INFORMATION
 VERS.                 2.0:   CWLS LOG ASCII STANDARD -VERSION 2.0
 WRAP.                  NO:   ONE LINE PER DEPTH STEP
~WELL INFORMATION BLOCK
#MNEM.UNIT           DATA                    DESCRIPTION OF MNEMONIC
#---------    -------------------            -------------------------------
# Generated from Intellog Unique Number	CS_77_79/WELL/977
WELL.         UNEX ET AL CHARD               : Well_name    - WELL
LOC .         00/10-31-079-05W4/0            : Location     - LOCATION
UWI .         00/10-31-079-05W4/0            : Uwi          - UNIQUE WELL ID
ENTR.         JHS                            : Entered      - ENTERED BY
SRVC.         SCHLUMBERGER                   : Scn          - SERVICE COMPANY
STRT.M        105                            : top_depth    - START DEPTH
STOP.M        280                            : bot_depth    - STOP DEPTH
STEP.M        0.25                           : increment    - STEP LENGTH
 NULL. -999.2500:NULL Value
~CURVE INFORMATION BLOCK
#MNEM UNIT       ERCB CURVE CODE    CURVE DESCRIPTION
#-----------   ------------------   ----------------------------------
DEPT.M        00 001 00 00         : DEPTH        - DEPTH
DPHI.V/V      00 890 00 00         : PHID         - DENSITY POROSITY (LIMESTONE)
NPHI.V/V      00 330 00 00         : PHIN         - NEUTRON POROSITY (LIMESTONE)
GR  .API      00 310 00 00         : GR           - GAMMA RAY
ILD .OHMM     00 120 00 00         : RESD         - DEEP RESISTIVITY (DIL)
RHOB.KG/M3    00 350 00 00         : DENS         - BULK DENSITY
~PARAMETER INFORMATION
#MNEM.UNIT           DATA             DESCRIPTION OF MNEMONIC
#---------         -----------     ------------------------------
GL  .M        457.3                : gl           - GROUND LEVEL ELEVATION
EREF.M        460.8                : kb           - ELEVATION OF DEPTH REFERENCE
DATM.M        460.8                : datum        - DATUM ELEVATION
TDD .M        329                  : tdd          - TOTAL DEPTH DRILLER
RUN .         ONE                  : Run          - RUN NUMBER
ENG .         BILL                 : Engineer     - RECORDING ENGINEER
WIT .         JIM                  : Witness      - WITNESSED BY
MUD .         GEL                  : Mud_type     - MUD TYPE
MATR.         LIMESTONE            : Logunit      - NEUTRON MATRIX
TMAX.C        19                   : BHT          - MAXIMUM RECORDED TEMPERATURE
BHTD.M        329                  : BHTDEP       - MAXIMUM RECORDED TEMPERATURE
MATR.         1                    : LOGUNIT      - NEUTRON MATRIX
RMT .C        25                   : MDTP         - TEMPERATURE OF MUD
NEUT.         1                    : NEUTRON      - NEUTRON TYPE
RESI.         0                    : RESIST       - RESISTIVITY TYPE
RMC .OHMM     0.25                 : RMC          - RESISTIVITY OF MUD CAKE
RMF .OHMM     0.25                 : RMF          - RESISTIVITY OF MUD FILTRATE
SUFT.C        15                   : SUFT         - SURFACE TEMPERATURE
~A  DEPTH     PHID     PHIN       GR     RESD     DENS
# ...
  251.000    0.372    0.396   36.979    3.076 2073.960
  251.250    0.352    0.378   39.453    2.912 2107.380
  251.500    0.310    0.385   51.764    2.915 2180.420
  251.750    0.297    0.428   58.542    3.028 2201.330
  252.000    0.332    0.411   49.950    3.147 2142.990
  252.250    0.313    0.385   58.575    3.395 2174.330
  252.500    0.273    0.368   71.501    3.594 2243.210
  252.750    0.239    0.380   80.735    3.877 2301.640
  253.000    0.233    0.433   86.898    4.030 2312.120
  253.250    0.272    0.417   79.534    4.033 2245.440
  253.500    0.296    0.414   69.715    3.963 2203.800
  253.750    0.289    0.405   69.727    3.820 2216.350
  254.000    0.272    0.390   65.440    3.684 2245.600
  254.250    0.292    0.418   58.077    3.552 2210.210
  254.500    0.326    0.395   43.953    3.425 2151.880
  254.750    0.289    0.365   55.034    3.302 2216.570
  255.000    0.269    0.421   56.892    3.185 2249.990
  255.250    0.328    0.390   45.227    3.187 2149.950
  255.500    0.345    0.347   50.773    3.130 2120.800
  255.750    0.279    0.346   71.077    3.254 2233.470
  256.000    0.262    0.435   77.856    3.318 2262.720
  256.250    0.304    0.412   71.722    3.448 2189.780
  256.500    0.309    0.388   64.358    3.516 2181.490
  256.750    0.280    0.391   72.982    3.653 2231.590
  257.000    0.268    0.453   76.684    3.727 2252.500
  257.250    0.293    0.414   68.706    3.801 2208.760
  257.500    0.272    0.386   62.577    3.804 2244.270
  257.750    0.258    0.382   69.354    3.807 2269.350
  258.000    0.256    0.405   73.054    3.883 2271.480
  258.250    0.278    0.391   71.839    3.961 2234.010
  258.500    0.264    0.355   64.480    3.964 2259.090
  258.750    0.234    0.358   70.643    3.969 2309.180
  259.000    0.221    0.417   78.651    3.898 2332.180
  259.250    0.267    0.442   78.665    3.759 2252.980
  259.500    0.293    0.425   66.998    3.693 2209.250
  259.750    0.277    0.407   59.636    3.696 2236.420
  260.000    0.271    0.415   65.182    3.769 2246.910
  260.250    0.262    0.405   75.654    3.846 2261.540
  260.500    0.233    0.382   76.893    3.921 2311.640
  260.750    0.222    0.439   81.212    3.924 2330.460
  261.000    0.254    0.461   74.463    3.856 2276.300
  261.250    0.302    0.401   60.339    3.860 2192.950
  261.500    0.284    0.379   65.887    3.792 2224.280
  261.750    0.252    0.372   73.281    3.794 2278.550
  262.000    0.253    0.390   75.138    3.728 2276.520
  262.250    0.286    0.402   70.235    3.733 2220.260
  262.500    0.303    0.401   66.560    3.599 2191.120
  262.750    0.280    0.389   77.027    3.536 2230.800
  263.000    0.253    0.435   86.880    3.473 2276.730
  263.250    0.264    0.458   75.213    3.476 2258.010
  263.500    0.287    0.426   59.245    3.415 2218.440
  263.750    0.296    0.417   53.723    3.293 2203.910
  264.000    0.331    0.404   48.205    3.235 2143.480
  264.250    0.304    0.397   53.139    3.622 2189.410
  264.500    0.291    0.411   52.540    3.559 2212.410
  264.750    0.304    0.426   44.564    3.305 2189.520
  265.000    0.336    0.424   39.658    3.014 2135.350
  265.250    0.348    0.397   35.987    2.906 2114.550
  265.500    0.331    0.404   39.689    2.855 2143.810
  265.750    0.326    0.423   39.702    2.857 2152.200
  266.000    0.338    0.407   33.572    2.604 2131.410
  266.250    0.346    0.392   31.740    2.706 2118.940
  266.500    0.353    0.381   38.518    2.813 2106.480
  266.750    0.335    0.387   47.755    2.922 2137.820
  267.000    0.321    0.424   55.763    3.094 2160.800
  267.250    0.332    0.427   57.007    3.215 2142.090
  267.500    0.314    0.392   50.874    3.279 2173.420
  267.750    0.297    0.400   61.340    3.282 2202.680
  268.000    0.287    0.432   69.966    3.284 2219.410
  268.250    0.297    0.458   73.051    3.168 2202.790
  268.500    0.312    0.430   63.229    3.111 2175.730
  268.750    0.329    0.386   47.260    3.000 2146.580
  269.000    0.301    0.420   49.120    3.060 2194.610
  269.250    0.287    0.404   58.356    3.179 2219.670
  269.500    0.264    0.367   71.283    3.430 2259.350
  269.750    0.235    0.372   84.206    3.565 2307.360
  270.000    0.237    0.398   94.672    3.436 2305.340
  270.250    0.267    0.390   82.395    3.251 2253.260
  270.500    0.306    0.382   54.128    3.020 2186.580
  270.750    0.341    0.379   44.304    2.806 2126.160
  271.000    0.361    0.366   29.565    2.705 2092.850
  271.250    0.347    0.361   32.654    2.707 2115.840
  271.500    0.350    0.378   43.122    3.032 2111.740
  271.750    0.336    0.396   51.742    3.395 2134.730
  272.000    0.307    0.436   70.815    3.874 2184.820
  272.250    0.255    0.489   91.119    4.504 2274.540
  272.500    0.218    0.360   84.373    5.046 2337.160
  272.750    0.198    0.327   87.460    5.343 2370.580
  273.000    0.186    0.319   90.548    5.448 2391.480
  273.250    0.196    0.320   87.489    5.556 2374.850
  273.500    0.206    0.333   85.045    5.562 2358.220
  273.750    0.186    0.351  102.273    5.568 2391.660
  274.000    0.173    0.391  113.356    5.788 2414.640
  274.250    0.154    0.418  118.904    5.793 2445.970
  274.500    0.141    0.425  111.543    5.905 2468.960
  274.750    0.152    0.421  107.866    6.137 2450.250
  275.000    0.199    0.432  106.654    6.497 2368.970
  275.250    0.113    0.482   99.289    7.141    0.000
  275.500    0.046    0.441   87.008    7.997    0.000
  275.750    0.025    0.424   77.803    9.655    0.000
  276.000    0.043    0.405   70.439   11.015    0.000
  276.250    0.015    0.379   64.305   13.300    0.000
  276.500    0.000    0.387   66.166   14.077    0.000
  276.750    0.000    0.392   63.105   15.472    0.000
  277.000    0.000    0.306   56.972   17.655    0.000
  277.250    0.017    0.241   51.453   22.544    0.000
  277.500    0.065    0.198   44.091   26.205    0.000
  277.750    0.047    0.171   35.501   32.230    0.000
  278.000    0.042    0.148   31.826   32.872    0.000
  278.250    0.058    0.149   43.522   31.104    0.000
  278.500    0.103    0.200   53.375   28.360    0.000
  278.750    0.223    0.349   58.920   27.344    0.000
  279.000    0.181    0.334   54.632   28.408    0.000
  279.250    0.137    0.277   46.657   29.519    0.000
  279.500    0.139    0.257   47.287   27.416    0.000
  279.750    0.178    0.283   50.375   23.629    0.000
  280.000    0.133    0.295   45.469   25.016    0.000
