~VERSION INFORMATION
 VERS.                 2.0:   CWLS LOG ASCII STANDARD -VERSION 2.0
 WRAP.                  NO:   ONE LINE PER DEPTH STEP
~WELL INFORMATION BLOCK
#MNEM.UNIT           DATA                    DESCRIPTION OF MNEMONIC
#---------    -------------------            -------------------------------
# Generated from Intellog Unique Number	CS_71_72/WELL/916
WELL.         AEC IPIATIK PAPA               : Well_name    - WELL
LOC .         00/12-18-071-04W4/0            : Location     - LOCATION
UWI .         00/12-18-071-04W4/0            : Uwi          - UNIQUE WELL ID
ENTR.         SP                             : Entered      - ENTERED BY
SRVC.         SCHLUMBERGER                   : Scn          - SERVICE COMPANY
STRT.M        290                            : top_depth    - START DEPTH
STOP.M        520                            : bot_depth    - STOP DEPTH
STEP.M        0.25                           : increment    - STEP LENGTH
 NULL. -999.2500:NULL Value
~CURVE INFORMATION BLOCK
#MNEM UNIT       ERCB CURVE CODE    CURVE DESCRIPTION
#-----------   ------------------   ----------------------------------
DEPT.M        00 001 00 00         : DEPTH        - DEPTH
ILD .OHMM     00 120 00 00         : RESD         - DEEP RESISTIVITY (DIL)
DPHI.V/V      00 890 00 00         : PHID         - DENSITY POROSITY (LIMESTONE)
NPHI.V/V      00 330 00 00         : PHIN         - NEUTRON POROSITY (LIMESTONE)
GR  .API      00 310 00 00         : GR           - GAMMA RAY
~PARAMETER INFORMATION
#MNEM.UNIT           DATA             DESCRIPTION OF MNEMONIC
#---------         -----------     ------------------------------
GL  .M        669.95               : gl           - GROUND LEVEL ELEVATION
EREF.M        674.21               : kb           - ELEVATION OF DEPTH REFERENCE
DATM.M        669.95               : datum        - DATUM ELEVATION
TDD .M        545                  : tdd          - TOTAL DEPTH DRILLER
RUN .         ONE                  : Run          - RUN NUMBER
ENG .         BILL                 : Engineer     - RECORDING ENGINEER
WIT .         JIM                  : Witness      - WITNESSED BY
MUD .         GEL                  : Mud_type     - MUD TYPE
MATR.         LIMESTONE            : Logunit      - NEUTRON MATRIX
TMAX.C        22                   : BHT          - MAXIMUM RECORDED TEMPERATURE
BHTD.M        545                  : BHTDEP       - MAXIMUM RECORDED TEMPERATURE
MATR.         1                    : LOGUNIT      - NEUTRON MATRIX
RMT .C        25                   : MDTP         - TEMPERATURE OF MUD
NEUT.         1                    : NEUTRON      - NEUTRON TYPE
RESI.         0                    : RESIST       - RESISTIVITY TYPE
RMC .OHMM     0.25                 : RMC          - RESISTIVITY OF MUD CAKE
RMF .OHMM     0.25                 : RMF          - RESISTIVITY OF MUD FILTRATE
SUFT.C        15                   : SUFT         - SURFACE TEMPERATURE
~A  DEPTH     RESD     PHID     PHIN       GR
  290.000    2.899    0.237    0.549   86.474
  290.250    3.028    0.230    0.557   86.376
  290.500    3.093    0.223    0.563   86.645
  290.750    3.043    0.231    0.553   87.032
  291.000    3.045    0.237    0.552   87.239
  291.250    3.058    0.241    0.561   87.501
  291.500    3.171    0.245    0.570   88.204
  291.750    3.268    0.224    0.576   88.337
  292.000    3.357    0.211    0.570   89.153
  292.250    3.422    0.223    0.553   91.250
  292.500    3.495    0.232    0.560   92.796
  292.750    3.637    0.221    0.569   94.159
  293.000    3.856    0.212    0.574   94.063
  293.250    3.952    0.204    0.555   93.961
  293.500    3.789    0.205    0.543   94.897
  293.750    3.646    0.213    0.534   95.899
  294.000    3.547    0.208    0.513   95.978
  294.250    3.394    0.201    0.513   94.232
  294.500    3.308    0.207    0.522   92.243
  294.750    3.201    0.201    0.529   90.497
  295.000    3.126    0.214    0.524   89.361
  295.250    3.265    0.222    0.525   89.749
  295.500    3.442    0.224    0.534   90.805
  295.750    3.562    0.214    0.539   91.438
  296.000    3.551    0.207    0.518   90.668
  296.250    3.520    0.215    0.518   90.080
  296.500    3.555    0.224    0.533   90.591
  296.750    3.727    0.230    0.547   90.856
  297.000    3.871    0.231    0.527   90.329
  297.250    4.058    0.228    0.525   88.706
  297.500    4.246    0.207    0.526   87.569
  297.750    4.178    0.188    0.502   89.116
  298.000    3.844    0.191    0.473   89.016
  298.250    3.577    0.196    0.479   88.248
  298.500    3.347    0.207    0.505   86.501
  298.750    3.256    0.215    0.515   87.253
  299.000    3.192    0.222    0.502   87.642
  299.250    3.378    0.223    0.488   86.140
  299.500    4.588    0.236    0.478   82.747
  299.750    7.695    0.285    0.404   79.537
  300.000    9.505    0.342    0.375   75.353
  300.250    9.744    0.370    0.355   68.848
  300.500    9.341    0.414    0.431   60.091
  300.750    9.173    0.453    0.456   54.807
  301.000   11.566    0.485    0.480   62.756
  301.250   19.143    0.507    0.505   67.413
  301.500   26.445    0.258    0.205   67.191
  301.750   35.130    0.305    0.169   58.797
  302.000   44.207    0.340    0.142   49.978
  302.250   62.217    0.374    0.167   42.256
  302.500   45.688    0.376    0.188   35.448
  302.750   35.545    0.371    0.212   43.948
  303.000   28.810    0.353    0.234   51.837
  303.250   24.376    0.332    0.264   57.837
  303.500   21.808    0.309    0.295   62.246
  303.750   18.592    0.286    0.319   67.270
  304.000   17.295    0.266    0.319   70.222
  304.250   15.218    0.257    0.317   71.649
  304.500   13.414    0.285    0.343   72.520
  304.750   12.319    0.304    0.371   73.701
  305.000   11.313    0.296    0.393   75.498
  305.250   10.275    0.280    0.415   77.162
  305.500    9.578    0.264    0.425   79.627
  305.750    9.130    0.271    0.415   81.544
  306.000    8.785    0.274    0.421   82.594
  306.250    8.644    0.265    0.424   82.436
  306.500    8.442    0.279    0.413   82.277
  306.750    8.048    0.286    0.427   82.662
  307.000    7.572    0.291    0.444   83.416
  307.250    7.019    0.257    0.461   85.636
  307.500    6.315    0.226    0.470   87.851
  307.750    6.225    0.196    0.473   89.457
  308.000    7.177    0.194    0.477   90.701
  308.250    7.795    0.197    0.480   90.235
  308.500    8.172    0.210    0.454   87.696
  308.750    8.347    0.219    0.440   86.075
  309.000    8.414    0.191    0.434   85.851
  309.250    8.514    0.189    0.433   86.361
  309.500    8.535    0.213    0.445   87.360
  309.750    8.461    0.229    0.451   88.665
  310.000    8.171    0.227    0.444   90.710
  310.250    7.731    0.238    0.444   92.683
  310.500    7.141    0.248    0.458   93.790
  310.750    6.706    0.259    0.472   96.742
  311.000    6.286    0.259    0.479   98.040
  311.250    5.827    0.212    0.466   97.392
  311.500    5.332    0.173    0.457   92.965
  311.750    5.035    0.105    0.473   90.851
  312.000    4.693    0.081    0.481   90.203
  312.250    4.375    0.070    0.486   91.810
  312.500    4.194    0.103    0.490   98.666
  312.750    4.013    0.150    0.498  103.688
  313.000    3.854    0.189    0.507  107.736
  313.250    3.729    0.179    0.519  110.322
  313.500    3.582    0.177    0.534  111.438
  313.750    3.518    0.176    0.539  112.989
  314.000    3.520    0.196    0.537  113.919
  314.250    3.690    0.220    0.535  114.978
  314.500    3.933    0.232    0.525  113.964
  314.750    4.353    0.242    0.510  112.707
  315.000    5.019    0.247    0.503  109.621
  315.250    5.574    0.245    0.513  101.651
  315.500    7.376    0.246    0.435   92.405
  315.750   10.938    0.253    0.417   85.538
  316.000   13.162    0.270    0.375   79.644
  316.250   14.593    0.253    0.290   71.799
  316.500   15.413    0.260    0.266   62.919
  316.750   13.919    0.298    0.310   53.182
  317.000   11.494    0.325    0.344   50.157
  317.250   10.537    0.367    0.371   54.812
  317.500   10.044    0.344    0.397   56.483
  317.750    9.809    0.330    0.413   56.810
  318.000    9.944    0.316    0.396   59.760
  318.250   10.119    0.295    0.394   64.663
  318.500   10.220    0.258    0.404   67.547
  318.750   10.341    0.275    0.419   71.781
  319.000   10.541    0.289    0.420   73.568
  319.250   10.867    0.299    0.404   70.544
  319.500   11.121    0.280    0.396   66.234
  319.750   11.294    0.263    0.388   63.816
  320.000   11.322    0.239    0.386   66.766
  320.250   11.286    0.210    0.394   69.471
  320.500   11.210    0.206    0.399   71.815
  320.750   11.091    0.235    0.392   73.358
  321.000   10.792    0.258    0.391   74.785
  321.250   10.560    0.270    0.397   71.211
  321.500   10.351    0.283    0.400   66.168
  321.750   10.358    0.299    0.393   59.725
  322.000   10.598    0.307    0.388   54.382
  322.250   10.946    0.306    0.387   50.745
  322.500   11.263    0.307    0.390   46.254
  322.750   11.482    0.319    0.376   42.131
  323.000   11.752    0.321    0.361   38.311
  323.250   11.782    0.328    0.354   35.405
  323.500   11.742    0.318    0.367   41.770
  323.750   11.661    0.269    0.376   50.214
  324.000   11.516    0.243    0.388   54.438
  324.250   10.857    0.224    0.398   60.985
  324.500   10.215    0.207    0.406   66.984
  324.750    9.665    0.215    0.404   70.055
  325.000    9.581    0.204    0.402   73.067
  325.250    9.588    0.196    0.409   75.283
  325.500    9.611    0.184    0.417   74.635
  325.750    9.617    0.195    0.424   69.839
  326.000    9.622    0.215    0.428   65.414
  326.250    9.610    0.241    0.437   63.666
  326.500    9.598    0.240    0.421   62.955
  326.750    9.568    0.253    0.414   62.125
  327.000    9.467    0.269    0.413   62.270
  327.250    9.334    0.274    0.419   63.028
  327.500    9.234    0.262    0.417   64.087
  327.750    9.104    0.257    0.413   65.264
  328.000    8.974    0.256    0.414   67.304
  328.250    8.797    0.249    0.425   69.159
  328.500    8.576    0.240    0.427   69.840
  328.750    8.422    0.231    0.425   71.026
  329.000    8.271    0.239    0.435   71.233
  329.250    8.049    0.240    0.441   69.786
  329.500    7.890    0.238    0.437   66.517
  329.750    7.749    0.229    0.435   65.868
  330.000    7.696    0.234    0.437   65.766
  330.250    7.716    0.232    0.442   64.513
  330.500    7.850    0.245    0.434   63.435
  330.750    8.017    0.255    0.431   62.301
  331.000    8.143    0.267    0.434   61.404
  331.250    8.363    0.269    0.430   60.269
  331.500    8.623    0.258    0.422   58.642
  331.750    8.757    0.253    0.418   57.572
  332.000    8.894    0.241    0.424   59.176
  332.250    8.999    0.220    0.414   62.067
  332.500    9.004    0.206    0.410   64.284
  332.750    8.696    0.204    0.417   65.892
  333.000    8.213    0.189    0.401   67.622
  333.250    7.742    0.181    0.390   70.264
