~VERSION INFORMATION
 VERS.                 2.0:   CWLS LOG ASCII STANDARD -VERSION 2.0
 WRAP.                  NO:   ONE LINE PER DEPTH STEP
~WELL INFORMATION BLOCK
#MNEM.UNIT           DATA                    DESCRIPTION OF MNEMONIC
#---------    -------------------            -------------------------------
# Generated from Intellog Unique Number	CW_70_72/WELL/3028
NULL.         -999.25                        : NULL_VALUE
WELL.         SULPETRO ET AL MITSUE 11-10    : Well_name    - WELL              
LOC .         11-10-070-05W5                 : Location     - LOCATION          
UWI .         00/11-10-070-05W5/0            : Uwi          - UNIQUE WELL ID    
ENTR.         JAYE                           : Entered      - ENTERED BY        
SRVC.         SCHLUMBERGER                   : Scn          - SERVICE COMPANY   
DATE.         4 FEB 79                       : Date         - LOG DATE          
STRT.M        680                            : top_depth    - START DEPTH       
STOP.M        905                            : bot_depth    - STOP DEPTH        
STEP.M        0.25                           : increment    - STEP LENGTH       
~CURVE INFORMATION BLOCK
#MNEM UNIT       ERCB CURVE CODE    CURVE DESCRIPTION
#-----------   ------------------   ----------------------------------
DEPT.M        00 001 00 00         : DEPTH        - DEPTH                       
CALI.MM       00 280 01 00         : CAL          - CALIPER                     
ILD .OHMM     00 120 00 00         : RESD         - DEEP RESISTIVITY (DIL)      
GR  .API      00 310 00 00         : GR           - GAMMA RAY                   
NPHI.V/V      00 330 00 00         : PHIN         - NEUTRON POROSITY (SANDSTONE)
DPHI.V/V      00 890 00 00         : PHID         - DENSITY POROSITY (SANDSTONE)
~PARAMETER INFORMATION       
#MNEM.UNIT           DATA             DESCRIPTION OF MNEMONIC
#---------         -----------     ------------------------------
GL  .M        785.2                : gl           - GROUND LEVEL ELEVATION      
EREF.M        788.2                : kb           - ELEVATION OF DEPTH REFERENCE
DATM.M        785.2                : datum        - DATUM ELEVATION             
TDD .M        931                  : tdd          - TOTAL DEPTH DRILLER         
RUN .         ONE                  : Run          - RUN NUMBER                  
ENG .         RIVOLLIER            : Engineer     - RECORDING ENGINEER          
WIT .         TRUNK                : Witness      - WITNESSED BY                
BASE.         EDM                  : Branch       - HOME BASE OF LOGGING UNIT   
MUD .         GEL                  : Mud_type     - MUD TYPE                    
MATR.         SANDSTONE            : Logunit      - NEUTRON MATRIX              
TMAX.C        0                    : BHT          - MAXIMUM RECORDED TEMPERATURE
BHTD.M        931                  : BHTDEP       - MAXIMUM RECORDED TEMPERATURE
RMT .C        11                   : MDTP         - TEMPERATURE OF MUD          
MUDD.KG/M     1102                 : MWT          - MUD DENSITY                 
NEUT.         1                    : NEUTRON      - NEUTRON TYPE                
RESI.         0                    : RESIST       - RESISTIVITY TYPE            
RM  .OHMM     5.96                 : RM           - RESISTIVITY OF MUD          
RMC .OHMM     0.25                 : RMC          - RESISTIVITY OF MUD CAKE     
RMF .OHMM     7.48                 : RMF          - RESISTIVITY OF MUD FILTRATE 
SUFT.C        0                    : SUFT         - SURFACE TEMPERATURE         
~A  DEPTH      CAL     RESD       GR     PHIN     PHID
# ...
  753.000  168.226    2.802   83.413    0.463    0.226
  753.250  170.292    2.632   82.745    0.461    0.247
  753.500  172.974    2.566   84.979    0.456    0.218
  753.750  175.554    2.597   87.274    0.449    0.200
  754.000  178.647    2.659   89.753    0.461    0.224
  754.250  180.511    2.717   92.666    0.437    0.180
  754.500  180.633    2.659   92.739    0.439    0.171
  754.750  179.731    2.535   89.356    0.428    0.176
  755.000  179.851    2.251   85.605    0.417    0.187
  755.250  180.587    1.965   82.716    0.429    0.197
  755.500  182.140    1.751   82.851    0.445    0.196
  755.750  185.744    1.617   86.627    0.469    0.221
  756.000  194.268    1.604   88.491    0.531    0.238
  756.250  205.457    1.689   85.664    0.504    0.248
  756.500  203.323    1.791   80.925    0.474    0.237
  756.750  199.858    1.820   76.742    0.451    0.221
  757.000  194.034    1.729   74.469    0.438    0.259
  757.250  187.290    1.585   75.344    0.442    0.283
  757.500  172.349    1.415   80.538    0.460    0.293
  757.750  168.371    1.329   83.574    0.494    0.289
  758.000  178.125    1.293   85.190    0.528    0.274
  758.250  189.722    1.334   82.857    0.557    0.269
  758.500  193.532    1.376   77.254    0.550    0.282
  758.750  186.992    1.550   73.686    0.510    0.296
  759.000  173.178    1.707   74.254    0.447    0.280
  759.250  162.335    1.852   73.772    0.427    0.247
  759.500  159.791    1.935   71.377    0.420    0.252
  759.750  161.862    2.015   68.366    0.412    0.259
  760.000  163.006    2.090   66.464    0.414    0.284
  760.250  159.336    2.293   63.270    0.418    0.311
  760.500  154.947    2.773   61.243    0.418    0.258
  760.750  154.251    3.684   59.651    0.349    0.215
  761.000  154.268    4.651   58.429    0.266    0.194
  761.250  155.107    4.586   59.304    0.259    0.190
  761.500  155.944    4.300   63.883    0.341    0.203
  761.750  156.886    3.725   70.311    0.363    0.243
  762.000  157.725    3.198   75.075    0.385    0.296
  762.250  159.484    2.639   77.802    0.403    0.275
  762.500  163.808    2.361   78.679    0.418    0.201
  762.750  168.333    2.306   78.503    0.423    0.186
  763.000  171.425    2.304   78.022    0.422    0.200
  763.250  172.572    2.311   77.356    0.415    0.208
  763.500  173.102    2.331   77.244    0.408    0.228
  763.750  172.095    2.342   77.318    0.412    0.249
  764.000  170.782    2.352   78.316    0.426    0.273
  764.250  169.162    2.373   81.104    0.412    0.227
  764.500  168.362    2.443   83.955    0.410    0.206
  764.750  167.661    2.557   86.373    0.440    0.211
  765.000  167.066    2.667   87.433    0.429    0.192
  765.250  166.472    2.741   84.422    0.417    0.198
  765.500  166.284    2.754   81.348    0.409    0.189
  765.750  166.200    2.695   80.496    0.423    0.174
  766.000  166.114    2.584   81.064    0.422    0.166
  766.250  165.728    2.459   80.026    0.401    0.173
  766.500  165.641    2.271   81.457    0.392    0.194
  766.750  165.247    2.062   76.224    0.409    0.212
  767.000  164.241    1.869   71.671    0.404    0.228
  767.250  160.572    1.710   67.176    0.411    0.254
  767.500  156.494    1.588   61.945    0.414    0.288
  767.750  151.800    1.514   58.685    0.411    0.307
  768.000  149.665    1.444   56.352    0.424    0.319
  768.250  148.557    1.366   55.254    0.421    0.327
  768.500  148.369    1.317   54.895    0.404    0.319
  768.750  148.595    1.260   55.092    0.396    0.324
  769.000  148.917    1.206   57.263    0.401    0.333
  769.250  149.245    1.152   61.410    0.411    0.330
  769.500  149.368    1.119   63.459    0.412    0.328
  769.750  149.386    1.093   62.543    0.400    0.329
  770.000  149.200    1.068   60.766    0.400    0.341
  770.250  149.318    1.045   60.407    0.406    0.346
  770.500  149.548    1.029   58.814    0.408    0.354
  770.750  149.662    1.022   60.864    0.393    0.337
  771.000  149.480    1.015   61.184    0.399    0.334
  771.250  149.084    1.005   60.209    0.409    0.344
  771.500  148.796    1.004   59.664    0.408    0.337
  771.750  148.921    1.003   58.936    0.385    0.329
  772.000  149.041    1.006   58.947    0.394    0.329
  772.250  149.158    1.016   59.391    0.411    0.340
  772.500  149.281    1.023   58.539    0.416    0.340
  772.750  149.095    1.026   57.996    0.410    0.342
  773.000  149.010    1.021   58.438    0.408    0.346
  773.250  148.925    1.019   60.116    0.419    0.326
  773.500  148.740    1.010   61.610    0.422    0.332
  773.750  148.557    1.000   62.362    0.420    0.343
  774.000  148.469    0.993   61.387    0.423    0.340
  774.250  148.591    0.994   60.041    0.425    0.327
  774.500  148.814    0.988   59.312    0.423    0.333
  774.750  149.040    0.976   59.817    0.418    0.342
  775.000  149.057    0.982   61.187    0.410    0.344
  775.250  148.870    0.987   60.828    0.413    0.339
  775.500  148.997    0.982   59.853    0.411    0.331
  775.750  149.114    0.967   59.618    0.403    0.331
  776.000  149.129    0.952   58.951    0.391    0.333
  776.250  149.353    0.942   57.606    0.396    0.331
  776.500  149.988    0.930   56.691    0.403    0.329
  776.750  150.312    0.937   56.148    0.407    0.334
  777.000  150.638    0.946   55.668    0.411    0.332
  777.250  150.148    0.956   55.001    0.417    0.329
  777.500  150.061    0.977   54.517    0.416    0.340
  777.750  150.186    1.017   53.790    0.399    0.328
  778.000  150.614    1.061   53.123    0.389    0.314
  778.250  151.040    1.115   52.948    0.384    0.325
  778.500  151.467    1.174   53.516    0.381    0.338
  778.750  151.691    1.264   54.885    0.383    0.328
  779.000  151.507    1.351   56.996    0.390    0.315
  779.250  150.498    1.396   57.932    0.392    0.322
  779.500  143.036    1.395   58.005    0.395    0.326
  779.750  133.115    1.375   57.152    0.400    0.319
  780.000  124.527    1.359   56.055    0.392    0.306
  780.250  146.165    1.328   54.955    0.394    0.318
  780.500  149.874    1.299   54.105    0.398    0.324
  780.750  150.405    1.277   53.868    0.405    0.322
  781.000  150.836    1.259   53.449    0.407    0.325
  781.250  150.957    1.244   53.212    0.407    0.330
  781.500  150.972    1.229   52.792    0.407    0.329
  781.750  150.684    1.209   52.681    0.405    0.328
  782.000  150.394    1.192   52.879    0.388    0.335
  782.250  150.003    1.169   52.766    0.390    0.343
  782.500  149.819    1.155   53.333    0.399    0.332
  782.750  149.631    1.150   53.099    0.401    0.329
  783.000  149.244    1.151   52.000    0.389    0.332
  783.250  148.954    1.228   51.703    0.376    0.309
  783.500  148.662    1.441   52.455    0.372    0.301
  783.750  148.783    1.903   53.577    0.367    0.290
  784.000  148.698    2.937   51.614    0.324    0.273
  784.250  148.823    4.439   49.099    0.255    0.224
  784.500  149.967    4.816   48.554    0.154    0.104
  784.750  154.083    4.592   48.441    0.155    0.061
  785.000  159.430    3.898   50.304    0.171    0.072
  785.250  160.882    2.702   52.846    0.208    0.140
  785.500  155.265    2.039   56.313    0.273    0.177
  785.750  149.955    1.654   59.102    0.328    0.229
  786.000  146.694    1.447   59.855    0.376    0.271
  786.250  145.279    1.256   59.620    0.391    0.309
  786.500  144.274    1.103   58.891    0.394    0.319
  786.750  143.677    1.049   58.223    0.395    0.327
  787.000  144.005    1.039   57.989    0.398    0.333
  787.250  144.227    1.049   57.631    0.408    0.324
  787.500  144.965    1.058   57.891    0.404    0.325
  787.750  145.392    1.069   58.270    0.401    0.333
  788.000  145.921    1.077   59.085    0.421    0.332
  788.250  146.761    1.084   60.826    0.416    0.341
  788.500  147.497    1.091   61.514    0.414    0.326
  788.750  147.720    1.102   61.526    0.419    0.317
  789.000  146.919    1.124   60.305    0.423    0.314
  789.250  145.501    1.140   59.143    0.416    0.311
