~VERSION INFORMATION
 VERS.                 2.0:   CWLS LOG ASCII STANDARD -VERSION 2.0
 WRAP.                  NO:   ONE LINE PER DEPTH STEP
~WELL INFORMATION BLOCK
#MNEM.UNIT           DATA                    DESCRIPTION OF MNEMONIC
#---------    -------------------            -------------------------------
# Generated from Intellog Unique Number	CC_80_83/WELL/2345
NULL.         -999.25                        : NULL_VALUE
WELL.         HOMESTEAD JASPER COWPAR        : WELL_NAME
LOC .         10-10-080-04W4                 : Location     - LOCATION          
UWI .         00/10-10-080-04W400           : Uwi          - UNIQUE WELL ID    
ENTR.         DW                             : Entered      - ENTERED BY        
SRVC.         SCHLUMBERGER                   : Scn          - SERVICE COMPANY   
DATE.         24 NOV 77                      : Date         - LOG DATE
STRT.M        94.488                         : top_depth    - START DEPTH       
STOP.M        323.088                        : bot_depth    - STOP DEPTH        
STEP.M        0.3048                         : increment    - STEP LENGTH       
~CURVE INFORMATION BLOCK
#MNEM UNIT       ERCB CURVE CODE    CURVE DESCRIPTION
#-----------   ------------------   ----------------------------------
DEPT.M        00 001 00 00         : DEPTH        - DEPTH                       
DPHI.V/V      00 890 00 00         : PHID         - DENSITY POROSITY (LIMESTONE)
NPHI.V/V      00 330 00 00         : PHIN         - NEUTRON POROSITY (LIMESTONE)
GR  .API      00 310 00 00         : GR           - GAMMA RAY                   
ILD .OHMM     00 120 00 00         : RESD         - DEEP RESISTIVITY (DIL)      
~PARAMETER INFORMATION       
#MNEM.UNIT           DATA             DESCRIPTION OF MNEMONIC
#---------         -----------     ------------------------------
GL  .M        471.83               : gl           - GROUND LEVEL ELEVATION      
EREF.M        475.488              : kb           - ELEVATION OF DEPTH REFERENCE
DATM.M        475.488              : datum        - DATUM ELEVATION             
TDD .M        326.136              : tdd          - TOTAL DEPTH DRILLER         
RUN .         ONE                  : Run          - RUN NUMBER                  
ENG .         BILL                 : Engineer     - RECORDING ENGINEER          
WIT .         JIM                  : Witness      - WITNESSED BY                
MUD .         GEL                  : Mud_type     - MUD TYPE                    
MATR.         LIMESTONE            : Logunit      - NEUTRON MATRIX              
TMAX.C        23.3333              : BHT          - MAXIMUM RECORDED TEMPERATURE
BHTD.M        326.136              : BHTDEP       - MAXIMUM RECORDED TEMPERATURE
MATR.         1                    : LOGUNIT      - NEUTRON MATRIX              
RMT .C        25                   : MDTP         - TEMPERATURE OF MUD          
NEUT.         1                    : NEUTRON      - NEUTRON TYPE                
RESI.         0                    : RESIST       - RESISTIVITY TYPE            
RMC .OHMM     0.25                 : RMC          - RESISTIVITY OF MUD CAKE     
RMF .OHMM     0.25                 : RMF          - RESISTIVITY OF MUD FILTRATE 
SUFT.C        15                   : SUFT         - SURFACE TEMPERATURE         
~A  DEPTH     PHID     PHIN       GR     RESD
# ...
  147.523    0.233    0.421   69.265   16.975
  147.828    0.252    0.438   66.785   15.729
  148.133    0.260    0.462   70.503   14.033
  148.437    0.242    0.467   69.882   12.283
  148.742    0.269    0.486   76.080   11.601
  149.047    0.307    0.473   77.318   10.748
  149.352    0.272    0.426   76.078   10.745
  149.657    0.259    0.438   74.837   10.949
  149.961    0.254    0.446   75.456   10.944
  150.266    0.262    0.441   76.695   10.534
  150.571    0.284    0.430   74.215   10.733
  150.876    0.302    0.415   70.495   12.023
  151.181    0.299    0.401   74.213   12.724
  151.485    0.272    0.409   76.072   14.525
  151.790    0.294    0.428   72.972   15.667
  152.095    0.328    0.437   68.632   16.268
  152.400    0.333    0.438   58.094   16.576
  152.705    0.340    0.425   53.754   16.887
  153.009    0.346    0.411   58.092   16.884
  153.314    0.347    0.414   58.711   16.558
  153.619    0.347    0.431   58.090   15.939
  153.924    0.343    0.438   56.850   15.636
  154.229    0.343    0.444   59.328   15.046
  154.533    0.347    0.447   57.468   15.625
  154.838    0.352    0.446   54.368   16.226
  155.143    0.354    0.442   51.267   18.174
  155.448    0.353    0.446   50.027   18.517
  155.752    0.348    0.448   52.506   18.513
  156.057    0.346    0.443   54.984   18.158
  156.362    0.346    0.423   53.743   17.814
  156.667    0.352    0.427   53.123   16.506
  156.972    0.357    0.443   52.502   16.502
  157.276    0.362    0.473   53.120   16.497
  157.581    0.364    0.440   53.740   17.791
  157.886    0.352    0.432   56.218   18.475
  158.191    0.348    0.432   61.176   18.120
  158.496    0.359    0.431   64.894   17.441
  158.800    0.368    0.459   70.472   16.162
  159.105    0.374    0.478   76.049   14.694
  159.410    0.352    0.491   81.007   14.415
  159.715    0.317    0.481   81.006   13.355
  160.020    0.269    0.459   74.187   13.101
  160.324    0.273    0.419   73.566   13.099
  160.629    0.252    0.426   76.045   13.093
  160.934    0.252    0.437   75.424   13.342
  161.239    0.219    0.421   72.324   14.389
  161.544    0.201    0.351   64.885   16.742
  161.848    0.268    0.381   60.545   17.718
  162.153    0.304    0.440   67.362   17.713
  162.458    0.328    0.448   68.601   16.727
  162.763    0.323    0.449   67.981   15.797
  163.068    0.330    0.443   66.120   14.919
  163.372    0.327    0.431   67.359   14.355
  163.677    0.320    0.427   67.978   16.086
  163.982    0.320    0.438   66.117   15.480
  164.287    0.326    0.452   63.638   15.476
  164.592    0.332    0.462   65.496   15.182
  164.896    0.332    0.449   69.834   14.892
  165.201    0.314    0.411   74.792   12.083
  165.506    0.202    0.351   79.749    8.584
  165.811    0.258    0.414   86.567    6.965
  166.115    0.299    0.472   83.467    6.097
  166.420    0.260    0.495   89.044    5.650
  166.725    0.274    0.464   92.762    5.647
  167.030    0.274    0.443   92.761    5.864
  167.335    0.283    0.465   91.521    6.206
  167.639    0.274    0.500   88.421    6.568
  167.944    0.227    0.514   85.320    6.951
  168.249    0.241    0.468   84.700    7.217
  168.554    0.236    0.416   90.278    7.352
  168.859    0.284    0.472   97.715    7.350
  169.163    0.293    0.479   90.895    7.211
  169.468    0.269    0.478   89.035    6.809
  169.773    0.254    0.458   89.654    6.679
  170.078    0.241    0.475   93.992    6.677
  170.383    0.254    0.490   96.471    6.676
  170.687    0.268    0.472   98.329    6.932
  170.992    0.248    0.454   95.229    7.198
  171.297    0.246    0.451   92.749    7.912
  171.602    0.263    0.485   89.649    8.215
  171.907    0.283    0.500   88.408    8.212
  172.211    0.272    0.472   89.647    7.756
  172.516    0.272    0.477   92.745    6.920
  172.821    0.270    0.494  105.761    5.204
  173.126    0.264    0.510   98.942    4.143
  173.431    0.284    0.543   90.263    3.913
  173.735    0.301    0.500   91.502    3.986
  174.040    0.296    0.495   95.840    4.219
  174.345    0.270    0.537   93.360    4.380
  174.650    0.254    0.519   93.978    4.216
  174.955    0.267    0.495   97.697    3.981
  175.259    0.269    0.512  102.035    3.689
  175.564    0.275    0.558  103.274    3.551
  175.869    0.285    0.583  103.273    3.549
  176.174    0.281    0.585  103.892    3.617
  176.479    0.298    0.552  102.651    3.975
  176.783    0.295    0.551   90.253    4.207
  177.088    0.284    0.493   89.633    4.369
  177.393    0.285    0.516   93.351    4.285
  177.698    0.296    0.543   94.589    4.124
  178.002    0.310    0.522   93.349    4.046
  178.307    0.323    0.540   92.109    3.969
  178.612    0.326    0.558   92.108    4.043
  178.917    0.294    0.528   93.346    4.278
  179.222    0.269    0.519   95.825    4.528
  179.526    0.270    0.546   95.204    4.792
  179.831    0.281    0.506   86.525    5.267
  180.136    0.295    0.528   83.425    5.681
  180.441    0.294    0.535   85.904    6.126
  180.746    0.289    0.481   88.382    6.242
  181.050    0.291    0.473   84.043    6.481
  181.355    0.294    0.468   80.322    6.358
  181.660    0.291    0.480   79.701    6.601
  181.965    0.309    0.495   80.321    6.856
  182.270    0.290    0.515   82.799    7.826
  182.574    0.279    0.488   83.418    8.441
  182.879    0.258    0.495   84.037    9.103
  183.184    0.231    0.501   82.177    9.452
  183.489    0.072    0.332   76.597    9.450
  183.794    0.174    0.430   71.638    9.446
  184.098    0.274    0.464   80.315    9.267
  184.403    0.285    0.470   82.793    8.919
  184.708    0.277    0.452   79.073    8.424
  185.013    0.290    0.443   76.593    7.805
  185.318    0.307    0.449   77.212    7.802
  185.622    0.325    0.468   77.211    7.950
  185.927    0.281    0.474   76.590    8.100
  186.232    0.279    0.459   75.969    8.411
  186.537    0.290    0.454   77.828    8.901
  186.842    0.279    0.458   83.406    9.068
  187.146    0.265    0.473   83.405    9.239
  187.451    0.293    0.491   79.065    9.237
  187.756    0.305    0.458   75.965    9.410
  188.061    0.293    0.435   75.344    9.232
  188.365    0.305    0.442   79.682    8.393
  188.670    0.293    0.446   85.260    7.209
  188.975    0.300    0.447   84.019    6.680
  189.280    0.300    0.452   81.539    6.553
  189.585    0.315    0.465   82.158    6.803
  189.889    0.311    0.458   82.777    6.801
  190.194    0.301    0.456   83.396    6.930
  190.499    0.311    0.464   82.155    7.196
  190.804    0.317    0.495   82.774    7.059
  191.109    0.327    0.523   84.013    7.057
  191.413    0.301    0.501   84.632    7.055
  191.718    0.273    0.493   83.391    7.188
  192.023    0.258    0.499   82.151    7.462
  192.328    0.256    0.505   81.530    7.461
  192.633    0.260    0.452   82.769    7.895
  192.937    0.263    0.436   79.669    7.894
  193.242    0.259    0.456   75.329    8.042
  193.547    0.253    0.462   75.948    8.510
  193.852    0.254    0.449   76.567    9.006
  194.157    0.263    0.465   76.566    9.530
  194.461    0.273    0.451   76.565   10.085
  194.766    0.278    0.436   72.845   10.277
  195.071    0.281    0.428   74.084   10.670
  195.376    0.285    0.437   72.844   10.665
  195.681    0.285    0.453   72.223   10.463
  195.985    0.283    0.463   75.941    9.881
  196.290    0.279    0.468   80.279    8.018
  196.595    0.262    0.456   83.377    5.806
  196.900    0.280    0.446   88.954    4.535
  197.205    0.278    0.451   94.532    4.203
  197.509    0.298    0.512   99.490    3.679
  197.814    0.326    0.528   98.249    3.100
  198.119    0.351    0.569   98.249    2.714
  198.424    0.316    0.579  100.107    2.515
  198.728    0.307    0.585  100.106    2.420
  199.033    0.319    0.456  102.585    2.420
  199.338    0.285    0.575  103.204    2.512
  199.643    0.295    0.596  100.104    2.560
  199.948    0.277    0.591   96.384    2.761
  200.252    0.274    0.590   97.002    2.978
