~VERSION INFORMATION
 VERS.                 2.0:   CWLS LOG ASCII STANDARD -VERSION 2.0
 WRAP.                  NO:   ONE LINE PER DEPTH STEP
~WELL INFORMATION BLOCK
#MNEM.UNIT           DATA                    DESCRIPTION OF MNEMONIC
#---------    -------------------            -------------------------------
# Generated from Intellog Unique Number	CS_77_79/WELL/1023
WELL.         AMOCO CANADA PETROLEUM         : Well_name    - WELL
LOC .         00/15-26-077-09W4/0            : Location     - LOCATION
UWI .         00/15-26-077-09W4/0            : Uwi          - UNIQUE WELL ID
ENTR.         SP                             : Entered      - ENTERED BY
SRVC.         SCHLUMBERGER                   : Scn          - SERVICE COMPANY
STRT.M        150                            : top_depth    - START DEPTH
STOP.M        360                            : bot_depth    - STOP DEPTH
STEP.M        0.25                           : increment    - STEP LENGTH
 NULL. -999.2500:NULL Value
~CURVE INFORMATION BLOCK
#MNEM UNIT       ERCB CURVE CODE    CURVE DESCRIPTION
#-----------   ------------------   ----------------------------------
DEPT.M        00 001 00 00         : DEPTH        - DEPTH
GR  .API      00 310 00 00         : GR           - GAMMA RAY
NPHI.V/V      00 330 00 00         : PHIN         - NEUTRON POROSITY (SANDSTONE)
DPHI.V/V      00 890 00 00         : PHID         - DENSITY POROSITY (SANDSTONE)
ILD .OHMM     00 120 00 00         : RESD         - DEEP RESISTIVITY (DIL)
~PARAMETER INFORMATION
#MNEM.UNIT           DATA             DESCRIPTION OF MNEMONIC
#---------         -----------     ------------------------------
GL  .M        578.5                : gl           - GROUND LEVEL ELEVATION
EREF.M        582.7                : kb           - ELEVATION OF DEPTH REFERENCE
DATM.M        582.7                : datum        - DATUM ELEVATION
TDD .M        358                  : tdd          - TOTAL DEPTH DRILLER
RUN .         ONE                  : Run          - RUN NUMBER
ENG .         BILL                 : Engineer     - RECORDING ENGINEER
WIT .         JIM                  : Witness      - WITNESSED BY
MUD .         GEL                  : Mud_type     - MUD TYPE
MATR.         SANDSTONE            : Logunit      - NEUTRON MATRIX
TMAX.C        19                   : BHT          - MAXIMUM RECORDED TEMPERATURE
BHTD.M        359                  : BHTDEP       - MAXIMUM RECORDED TEMPERATURE
MATR.         1                    : LOGUNIT      - NEUTRON MATRIX
RMT .C        19                   : MDTP         - TEMPERATURE OF MUD
NEUT.         1                    : NEUTRON      - NEUTRON TYPE
RESI.         3.81                 : RESIST       - RESISTIVITY TYPE
RMC .OHMM     3.14                 : RMC          - RESISTIVITY OF MUD CAKE
RMF .OHMM     3.14                 : RMF          - RESISTIVITY OF MUD FILTRATE
SUFT.C        15                   : SUFT         - SURFACE TEMPERATURE
~A  DEPTH       GR     PHIN     PHID     RESD
# ...
  324.000   68.670    0.376    0.282   14.908
  324.250   68.610    0.367    0.293   16.024
  324.500   67.957    0.358    0.290   16.312
  324.750   67.291    0.359    0.266   16.902
  325.000   67.243    0.375    0.253   17.507
  325.250   67.195    0.390    0.247   17.481
  325.500   67.752    0.398    0.241   17.135
  325.750   71.408    0.403    0.234   16.493
  326.000   73.853    0.417    0.226   15.287
  326.250   73.805    0.443    0.218   14.439
  326.500   71.263    0.437    0.213   13.893
  326.750   68.745    0.424    0.219   14.396
  327.000   65.622    0.420    0.251   15.202
  327.250   61.870    0.411    0.299   16.957
  327.500   58.735    0.405    0.308   18.575
  327.750   57.440    0.398    0.311   20.735
  328.000   57.997    0.398    0.310   24.460
  328.250   58.578    0.408    0.308   30.503
  328.500   59.160    0.431    0.305   35.336
  328.750   59.111    0.434    0.304   45.729
  329.000   58.446    0.436    0.303   45.661
  329.250   57.768    0.436    0.302   45.593
  329.500   57.720    0.438    0.301   47.243
  329.750   59.512    0.437    0.300   48.953
  330.000   60.722    0.434    0.299   45.373
  330.250   63.749    0.428    0.298   41.298
  330.500   66.800    0.426    0.295   36.899
  330.750   70.456    0.424    0.293   32.364
  331.000   74.112    0.422    0.292   28.386
  331.250   77.768    0.427    0.285   25.363
  331.500   82.041    0.430    0.279   23.085
  331.750   88.166    0.432    0.270   20.626
  332.000   92.440    0.435    0.265   17.752
  332.250   96.713    0.436    0.258   16.152
  332.500  101.616    0.436    0.248   14.976
  332.750  106.506    0.438    0.241   13.886
  333.000  111.990    0.440    0.230   13.116
  333.250  108.879    0.444    0.227   12.166
  333.500   97.695    0.448    0.235   11.280
  333.750   95.189    0.454    0.248   12.583
  334.000   89.585    0.454    0.258   14.046
  334.250   82.128    0.433    0.252   16.873
  334.500   80.216    0.398    0.248   21.049
  334.750   79.550    0.379    0.243   23.919
  335.000   78.885    0.375    0.238   25.238
  335.250   80.689    0.372    0.229   25.220
  335.500   81.270    0.375    0.217   26.123
  335.750   83.074    0.377    0.200   26.581
  336.000   82.408    0.378    0.196   27.544
  336.250   78.014    0.378    0.222   28.530
  336.500   71.805    0.378    0.250   30.104
  336.750   63.113    0.381    0.257   31.217
  337.000   59.361    0.386    0.268   32.964
  337.250   59.930    0.394    0.282   35.433
  337.500   62.957    0.421    0.294   37.416
  337.750   66.625    0.426    0.292   40.233
  338.000   70.898    0.430    0.285   35.935
  338.250   78.246    0.420    0.280   29.814
  338.500   82.531    0.409    0.268   24.282
  338.750   81.854    0.397    0.257   20.147
  339.000   79.336    0.391    0.213   17.346
  339.250   75.596    0.391    0.209   16.378
  339.500   69.991    0.393    0.232   16.060
  339.750   70.561    0.388    0.238   15.441
  340.000   72.364    0.383    0.235   15.135
  340.250   74.774    0.376    0.229   15.118
  340.500   77.800    0.383    0.223   15.090
  340.750   78.999    0.394    0.214   15.068
  341.000   80.197    0.413    0.209   15.045
  341.250   81.989    0.421    0.204   15.017
  341.500   83.164    0.423    0.203   14.731
  341.750   84.374    0.416    0.202   13.659
  342.000   85.537    0.394    0.202   12.901
  342.250   85.513    0.391    0.202   12.185
  342.500   87.316    0.385    0.202   11.720
  342.750   90.960    0.372    0.201   11.493
  343.000   92.776    0.381    0.200   11.261
  343.250   98.284    0.389    0.199   11.042
  343.500  103.175    0.398    0.196   10.620
  343.750  112.387    0.404    0.195   10.414
  344.000  120.377    0.411    0.195   10.204
  344.250  125.885    0.419    0.195   10.002
  344.500  123.355    0.429    0.200    9.979
  344.750  118.380    0.435    0.205    9.972
  345.000  106.590    0.440    0.214   10.139
  345.250  104.072    0.445    0.239   10.703
  345.500  101.543    0.434    0.247   11.513
  345.750   99.037    0.422    0.236   12.385
  346.000  102.076    0.411    0.233   13.815
  346.250  100.175    0.405    0.241   15.138
  346.500   87.150    0.415    0.234   16.893
  346.750   77.225    0.425    0.232   18.843
  347.000   69.756    0.427    0.262   20.262
  347.250   70.942    0.427    0.272   21.796
  347.500   73.993    0.427    0.274   23.867
  347.750   80.119    0.430    0.266   25.183
  348.000   83.763    0.430    0.257   26.114
  348.250   84.332    0.430    0.247   27.050
  348.500   86.135    0.432    0.242   28.039
  348.750   84.235    0.432    0.241   26.979
  349.000   81.112    0.427    0.251   25.940
  349.250   79.829    0.423    0.260   25.436
  349.500   85.337    0.421    0.267   24.932
  349.750   92.698    0.417    0.261   24.429
  350.000  107.466    0.406    0.254   24.401
  350.250  112.986    0.404    0.249   24.811
  350.500  120.964    0.408    0.255   24.793
  350.750  125.237    0.412    0.265   26.171
  351.000  112.841    0.414    0.271   28.131
  351.250   75.728    0.415    0.267   29.683
  351.500   58.393    0.409    0.264   30.780
  351.750   54.641    0.402    0.270   33.098
  352.000   53.975    0.406    0.275   36.242
  352.250   54.545    0.409    0.275   38.986
  352.500   55.731    0.415    0.283   44.301
  352.750   57.523    0.425    0.287   48.545
  353.000   57.475    0.422    0.286   49.380
  353.250   56.192    0.406    0.282   40.969
  353.500   54.909    0.398    0.283   38.683
  353.750   54.243    0.392    0.282   37.931
  354.000   53.578    0.388    0.285   37.860
  354.250   52.912    0.354    0.290   39.964
  354.500   50.395    0.348    0.292   44.595
  354.750   48.494    0.344    0.295   48.868
  355.000   47.211    0.346    0.296   89.949
  355.250   46.534    0.349    0.300  110.113
  355.500   46.486    0.350    0.306  125.170
  355.750   47.055    0.351    0.310  137.061
  356.000   48.241    0.351    0.317  147.382
  356.250   50.045    0.353    0.323  149.914
  356.500   53.096    0.354    0.327  152.546
  356.750   56.134    0.354    0.327  152.320
  357.000   59.766    0.357    0.331  146.507
  357.250   60.977    0.358    0.336  140.917
  357.500   62.781    0.360    0.340  135.641
  357.750   66.437    0.363    0.344  130.513
  358.000   70.710    0.366    0.349  127.928
  358.250   75.577    0.368    0.351  127.738
  358.500   76.787    0.373    0.356  127.595
  358.750   79.209    0.376    0.356  129.739
  359.000   82.864    0.381    0.356  131.968
  359.250   85.286    0.387    0.355  134.235
  359.500   87.090    0.392    0.353  134.085
  359.750   87.671    0.394    0.350  136.338
  360.000   88.216    0.397    0.350  138.681
