~VERSION INFORMATION
 VERS.                 2.0:   CWLS LOG ASCII STANDARD -VERSION 2.0
 WRAP.                  NO:   ONE LINE PER DEPTH STEP
~WELL INFORMATION BLOCK
#MNEM.UNIT           DATA                    DESCRIPTION OF MNEMONIC
#---------    -------------------            -------------------------------
# Generated from Intellog Unique Number	CS_71_72/WELL/867
WELL.         PEX PHILLIPS AEC GRIST         : Well_name    - WELL
LOC .         00/10-23-071-08W4/0            : Location     - LOCATION
UWI .         00/10-23-071-08W4/0            : Uwi          - UNIQUE WELL ID
ENTR.         SP                             : Entered      - ENTERED BY
SRVC.         SCHLUMBERGER                   : Scn          - SERVICE COMPANY
STRT.M        310                            : top_depth    - START DEPTH
STOP.M        530                            : bot_depth    - STOP DEPTH
STEP.M        0.25                           : increment    - STEP LENGTH
 NULL. -999.2500:NULL Value
~CURVE INFORMATION BLOCK
#MNEM UNIT       ERCB CURVE CODE    CURVE DESCRIPTION
#-----------   ------------------   ----------------------------------
DEPT.M        00 001 00 00         : DEPTH        - DEPTH
ILD .OHMM     00 120 00 00         : RESD         - DEEP RESISTIVITY (DIL)
DPHI.V/V      00 890 00 00         : PHID         - DENSITY POROSITY (LIMESTONE)
NPHI.V/V      00 330 00 00         : PHIN         - NEUTRON POROSITY (LIMESTONE)
GR  .API      00 310 00 00         : GR           - GAMMA RAY
~PARAMETER INFORMATION
#MNEM.UNIT           DATA             DESCRIPTION OF MNEMONIC
#---------         -----------     ------------------------------
GL  .M        670.2                : gl           - GROUND LEVEL ELEVATION
EREF.M        674                  : kb           - ELEVATION OF DEPTH REFERENCE
DATM.M        670.2                : datum        - DATUM ELEVATION
TDD .M        540                  : tdd          - TOTAL DEPTH DRILLER
RUN .         ONE                  : Run          - RUN NUMBER
ENG .         BILL                 : Engineer     - RECORDING ENGINEER
WIT .         JIM                  : Witness      - WITNESSED BY
MUD .         GEL                  : Mud_type     - MUD TYPE
MATR.         LIMESTONE            : Logunit      - NEUTRON MATRIX
TMAX.C        23                   : BHT          - MAXIMUM RECORDED TEMPERATURE
BHTD.M        540                  : BHTDEP       - MAXIMUM RECORDED TEMPERATURE
MATR.         1                    : LOGUNIT      - NEUTRON MATRIX
RMT .C        25                   : MDTP         - TEMPERATURE OF MUD
NEUT.         1                    : NEUTRON      - NEUTRON TYPE
RESI.         0                    : RESIST       - RESISTIVITY TYPE
RMC .OHMM     0.25                 : RMC          - RESISTIVITY OF MUD CAKE
RMF .OHMM     0.25                 : RMF          - RESISTIVITY OF MUD FILTRATE
SUFT.C        15                   : SUFT         - SURFACE TEMPERATURE
~A  DEPTH     RESD     PHID     PHIN       GR
# ...
  397.000    2.277    0.279    0.530   92.314
  397.250    2.282    0.271    0.518   94.135
  397.500    2.287    0.263    0.532   94.619
  397.750    2.348    0.259    0.541   92.851
  398.000    2.353    0.260    0.548   89.136
  398.250    2.420    0.261    0.554   86.151
  398.500    2.550    0.264    0.546   84.322
  398.750    2.811    0.272    0.535   84.380
  399.000    2.968    0.276    0.513   85.107
  399.250    3.277    0.278    0.485   84.982
  399.500    3.579    0.274    0.480   83.336
  399.750    3.836    0.262    0.498   81.811
  400.000    3.931    0.252    0.506   83.511
  400.250    3.917    0.244    0.519   87.342
  400.500    3.969    0.260    0.530   82.653
  400.750    4.060    0.279    0.518   79.060
  401.000    4.137    0.283    0.502   78.995
  401.250    4.185    0.246    0.512   82.217
  401.500    4.209    0.259    0.479   84.891
  401.750    4.194    0.273    0.462   83.306
  402.000    4.148    0.273    0.471   83.728
  402.250    4.110    0.260    0.492   86.342
  402.500    4.058    0.242    0.500   82.627
  402.750    4.036    0.228    0.490   82.015
  403.000    4.022    0.244    0.491   83.533
  403.250    4.000    0.247    0.498   84.686
  403.500    3.941    0.249    0.498   83.648
  403.750    3.876    0.256    0.500   80.175
  404.000    3.820    0.265    0.505   78.164
  404.250    3.806    0.259    0.517   79.196
  404.500    3.836    0.250    0.528   80.653
  404.750    3.844    0.263    0.541   81.684
  405.000    3.844    0.281    0.548   79.064
  405.250    3.838    0.288    0.513   78.209
  405.500    3.897    0.271    0.484   76.684
  405.750    3.926    0.257    0.466   77.715
  406.000    4.031    0.249    0.462   79.294
  406.250    4.131    0.270    0.488   78.865
  406.500    4.411    0.289    0.513   77.766
  406.750    4.973    0.283    0.493   78.067
  407.000    5.114    0.259    0.469   77.942
  407.250    5.481    0.243    0.463   76.905
  407.500    5.820    0.234    0.462   75.380
  407.750    6.065    0.233    0.466   76.107
  408.000    6.274    0.231    0.465   77.564
  408.250    6.334    0.228    0.447   78.291
  408.500    6.347    0.237    0.440   77.923
  408.750    6.047    0.248    0.470   78.102
  409.000    5.926    0.249    0.451   80.472
  409.250    6.362    0.146    0.426   81.624
  409.500    7.266    0.111    0.362   74.745
  409.750    8.313    0.088    0.323   69.204
  410.000    9.494    0.058    0.296   65.732
  410.250   10.367    0.035    0.239   61.043
  410.500   10.585    0.080    0.287   60.249
  410.750    9.697    0.152    0.370   68.096
  411.000    7.987    0.188    0.409   73.264
  411.250    6.970    0.218    0.431   76.912
  411.500    6.187    0.205    0.450   79.160
  411.750    5.949    0.197    0.459   80.435
  412.000    5.669    0.207    0.462   81.830
  412.250    5.441    0.218    0.445   82.680
  412.500    5.312    0.212    0.428   83.529
  412.750    5.205    0.207    0.423   83.159
  413.000    5.148    0.210    0.434   81.695
  413.250    5.092    0.218    0.454   80.050
  413.500    5.093    0.221    0.460   79.620
  413.750    5.094    0.221    0.458   80.469
  414.000    5.114    0.223    0.458   81.926
  414.250    5.260    0.229    0.460   83.992
  414.500    5.482    0.231    0.468   78.695
  414.750    5.702    0.224    0.487   73.701
  415.000    5.920    0.221    0.488   73.090
  415.250    6.033    0.226    0.426   76.312
  415.500    6.023    0.234    0.430   79.533
  415.750    5.946    0.242    0.445   80.869
  416.000    5.719    0.250    0.455   82.021
  416.250    5.459    0.247    0.465   83.174
  416.500    5.299    0.235    0.464   84.997
  416.750    5.270    0.223    0.473   86.515
  417.000    5.281    0.215    0.482   87.120
  417.250    5.273    0.217    0.477   84.805
  417.500    5.224    0.220    0.464   84.618
  417.750    5.187    0.229    0.457   84.128
  418.000    5.159    0.237    0.461   81.995
  418.250    5.112    0.220    0.461   79.801
  418.500    5.037    0.203    0.466   79.676
  418.750    4.945    0.194    0.479   79.916
  419.000    4.755    0.212    0.485   81.008
  419.250    4.506    0.226    0.490   83.013
  419.500    4.182    0.226    0.483   85.504
  419.750    3.670    0.236    0.466   86.475
  420.000    3.294    0.276    0.466   87.384
  420.250    2.924    0.299    0.489   87.138
  420.500    2.644    0.304    0.538   88.230
  420.750    2.454    0.290    0.556   90.782
  421.000    2.427    0.270    0.535   92.969
  421.250    2.492    0.253    0.540   94.061
  421.500    2.578    0.244    0.547   92.780
  421.750    2.656    0.239    0.532   93.203
  422.000    2.737    0.246    0.522   94.721
  422.250    2.784    0.258    0.514   96.239
  422.500    2.837    0.263    0.521   97.939
  422.750    2.979    0.269    0.542   95.989
  423.000    3.199    0.277    0.564   89.049
  423.250    3.384    0.261    0.524   83.204
  423.500    3.586    0.240    0.470   83.079
  423.750    3.751    0.223    0.463   83.988
  424.000    3.851    0.260    0.475   77.535
  424.250    3.896    0.292    0.484   73.394
  424.500    3.904    0.296    0.473   70.348
  424.750    3.847    0.281    0.457   68.397
  425.000    3.713    0.284    0.444   68.637
  425.250    3.578    0.282    0.433   71.615
  425.500    3.487    0.274    0.468   73.681
  425.750    3.493    0.291    0.508   74.226
  426.000    3.613    0.297    0.512   71.788
  426.250    3.909    0.287    0.489   68.560
  426.500    4.229    0.289    0.472   68.678
  426.750    4.342    0.275    0.475   69.344
  427.000    4.449    0.250    0.487   69.524
  427.250    4.475    0.231    0.480   68.364
  427.500    4.435    0.256    0.468   65.440
  427.750    4.210    0.281    0.479   67.566
  428.000    4.048    0.314    0.486   69.388
  428.250    3.850    0.324    0.479   69.142
  428.500    3.772    0.328    0.470   64.453
  428.750    3.739    0.331    0.460   61.833
  429.000    3.739    0.326    0.468   62.013
  429.250    3.796    0.320    0.483   62.679
  429.500    3.919    0.321    0.494   64.074
  429.750    4.085    0.316    0.495   65.410
  430.000    4.186    0.300    0.488   64.129
  430.250    4.297    0.285    0.505   62.787
  430.500    4.396    0.306    0.519   62.723
  430.750    4.421    0.310    0.500   65.215
  431.000    4.455    0.270    0.462   68.497
  431.250    4.490    0.246    0.442   71.414
  431.500    4.507    0.245    0.439   72.020
  431.750    4.516    0.249    0.435   73.903
  432.000    4.551    0.244    0.422   77.063
  432.250    4.586    0.231    0.411   79.920
  432.500    4.621    0.241    0.441   83.263
  432.750    4.674    0.308    0.486   81.435
  433.000    4.737    0.320    0.476   77.841
  433.250    4.836    0.282    0.452   76.256
  433.500    4.937    0.234    0.431   75.644
  433.750    5.032    0.229    0.442   78.135
  434.000    5.061    0.233    0.421   78.923
  434.250    5.005    0.236    0.406   79.650
  434.500    4.923    0.237    0.432   78.734
  434.750    4.788    0.244    0.468   76.358
  435.000    4.622    0.262    0.490   75.016
  435.250    4.462    0.283    0.468   73.613
  435.500    3.960    0.268    0.449   74.462
  435.750    3.909    0.250    0.439   75.919
  436.000    3.669    0.247    0.496   76.646
  436.250    3.464    0.271    0.534   72.504
  436.500    3.426    0.299    0.552   71.527
  436.750    3.313    0.302    0.549   73.411
  437.000    3.093    0.281    0.509   78.762
  437.250    3.002    0.273    0.486   83.018
  437.500    3.059    0.291    0.523   77.538
  437.750    3.230    0.279    0.560   71.268
  438.000    3.648    0.253    0.506   69.499
  438.250    3.924    0.261    0.471   70.287
  438.500    4.222    0.253    0.472   72.353
  438.750    4.408    0.243    0.476   74.906
  439.000    4.335    0.255    0.480   75.632
  439.250    4.001    0.265    0.486   79.767
  439.500    3.253    0.270    0.480   88.830
  439.750    2.649    0.282    0.484   93.817
  440.000    2.240    0.311    0.513   93.387
  440.250    2.006    0.323    0.543   90.524
