~VERSION INFORMATION
 VERS.                 2.0:   CWLS LOG ASCII STANDARD -VERSION 2.0
 WRAP.                  NO:   ONE LINE PER DEPTH STEP
~WELL INFORMATION BLOCK
#MNEM.UNIT           DATA                    DESCRIPTION OF MNEMONIC
#---------    -------------------            -------------------------------
# Generated from Intellog Unique Number	CS_73_76/WELL/2185
WELL.         AMOCO KIRBEY                   : Well_name    - WELL
LOC .         00/10-08-074-04W4/0            : Location     - LOCATION
UWI .         00/10-08-074-04W4/0            : Uwi          - UNIQUE WELL ID
ENTR.         SP                             : Entered      - ENTERED BY
SRVC.         SCHLUMBERGER                   : Scn          - SERVICE COMPANY
STRT.M        207.264                        : top_depth    - START DEPTH
STOP.M        405.014                        : bot_depth    - STOP DEPTH
STEP.M        0.25                           : increment    - STEP LENGTH
 NULL. -999.2500:NULL Value
~CURVE INFORMATION BLOCK
#MNEM UNIT       ERCB CURVE CODE    CURVE DESCRIPTION
#-----------   ------------------   ----------------------------------
DEPT.M        00 001 00 00         : DEPTH        - DEPTH
GR  .API      00 310 00 00         : GR           - GAMMA RAY
DPHI.V/V      00 890 00 00         : PHID         - DENSITY POROSITY (SANDSTONE)
NPHI.V/V      00 330 00 00         : PHIN         - NEUTRON POROSITY (SANDSTONE)
ILD .OHMM     00 120 00 00         : RESD         - DEEP RESISTIVITY (DIL)
~PARAMETER INFORMATION
#MNEM.UNIT           DATA             DESCRIPTION OF MNEMONIC
#---------         -----------     ------------------------------
GL  .M        613.867              : gl           - GROUND LEVEL ELEVATION
EREF.M        616.915              : kb           - ELEVATION OF DEPTH REFERENCE
DATM.M        613.867              : datum        - DATUM ELEVATION
TDD .M        417.576              : tdd          - TOTAL DEPTH DRILLER
RUN .         ONE                  : Run          - RUN NUMBER
ENG .         BILL                 : Engineer     - RECORDING ENGINEER
WIT .         JIM                  : Witness      - WITNESSED BY
MUD .         GEL                  : Mud_type     - MUD TYPE
MATR.         SANDSTONE            : Logunit      - NEUTRON MATRIX
TMAX.C        23.3333              : BHT          - MAXIMUM RECORDED TEMPERATURE
BHTD.M        417.576              : BHTDEP       - MAXIMUM RECORDED TEMPERATURE
MATR.         1                    : LOGUNIT      - NEUTRON MATRIX
RMT .C        25                   : MDTP         - TEMPERATURE OF MUD
NEUT.         1                    : NEUTRON      - NEUTRON TYPE
RESI.         0                    : RESIST       - RESISTIVITY TYPE
RMC .OHMM     0.25                 : RMC          - RESISTIVITY OF MUD CAKE
RMF .OHMM     0.25                 : RMF          - RESISTIVITY OF MUD FILTRATE
SUFT.C        15                   : SUFT         - SURFACE TEMPERATURE
~A  DEPTH       GR     PHID     PHIN     RESD
# ...
  250.764   88.199    0.137    0.408    5.980
  251.014   86.548    0.150    0.419    5.680
  251.264   85.597    0.161    0.420    5.418
  251.514   83.766    0.167    0.417    5.292
  251.764   81.134    0.161    0.412    5.198
  252.014   78.820    0.164    0.405    5.367
  252.264   75.866    0.172    0.400    5.534
  252.514   74.418    0.173    0.391    5.703
  252.764   76.953    0.181    0.381    5.997
  253.014   80.124    0.189    0.369    6.313
  253.264   80.595    0.196    0.359    6.624
  253.514   79.780    0.191    0.353    6.709
  253.764   81.292    0.181    0.362    6.784
  254.014   81.707    0.171    0.373    6.801
  254.264   83.510    0.165    0.379    6.610
  254.514   85.495    0.169    0.379    6.550
  254.764   87.680    0.164    0.383    6.645
  255.014   86.042    0.160    0.387    6.716
  255.264   84.300    0.159    0.392    6.814
  255.514   83.252    0.155    0.400    6.739
  255.764   84.306    0.150    0.395    6.672
  256.014   84.267    0.147    0.386    6.588
  256.264   84.005    0.140    0.378    6.267
  256.514   82.920    0.145    0.371    6.104
  256.764   80.942    0.152    0.364    6.115
  257.014   78.206    0.158    0.368    6.080
  257.264   77.016    0.158    0.391    5.892
  257.514   77.525    0.153    0.415    5.729
  257.764   78.929    0.152    0.420    5.442
  258.014   79.455    0.171    0.409    5.188
  258.264   79.848    0.177    0.394    4.977
  258.514   80.056    0.184    0.383    4.814
  258.764   80.103    0.195    0.371    4.898
  259.014   78.828    0.203    0.360    5.375
  259.264   76.757    0.203    0.351    5.742
  259.514   76.272    0.192    0.360    5.836
  259.764   78.418    0.185    0.366    5.720
  260.014   78.255    0.185    0.372    5.613
  260.264   77.816    0.183    0.378    5.622
  260.514   77.541    0.194    0.343    5.608
  260.764   75.796    0.203    0.325    5.849
  261.014   71.832    0.212    0.304    6.196
  261.264   67.103    0.225    0.266    6.736
  261.514   63.194    0.244    0.222    7.451
  261.764   60.145    0.244    0.219    8.506
  262.014   60.278    0.207    0.234    8.246
  262.264   62.275    0.185    0.314    7.410
  262.514   65.299    0.167    0.346    6.606
  262.764   67.576    0.162    0.367    6.012
  263.014   68.993    0.173    0.372    5.380
  263.264   70.082    0.180    0.367    5.038
  263.514   71.096    0.189    0.364    4.700
  263.764   71.043    0.201    0.362    4.712
  264.014   70.722    0.221    0.357    4.736
  264.264   68.639    0.239    0.338    4.894
  264.514   64.997    0.255    0.287    5.050
  264.764   62.177    0.267    0.263    5.214
  265.014   60.698    0.280    0.262    5.286
  265.264   63.170    0.249    0.286    5.029
  265.514   67.285    0.228    0.307    4.674
  265.764   68.647    0.212    0.328    4.117
  266.014   67.186    0.203    0.347    3.757
  266.264   65.638    0.199    0.369    3.436
  266.514   66.101    0.196    0.378    3.340
  266.764   66.938    0.201    0.383    3.215
  267.014   66.898    0.202    0.390    3.150
  267.264   67.076    0.207    0.397    3.109
  267.514   64.677    0.218    0.401    3.096
  267.764   61.500    0.213    0.406    3.097
  268.014   59.527    0.208    0.387    3.099
  268.264   57.695    0.211    0.371    3.103
  268.514   57.806    0.220    0.361    3.053
  268.764   58.062    0.220    0.357    2.961
  269.014   59.047    0.215    0.360    2.867
  269.264   59.496    0.207    0.364    2.737
  269.514   60.323    0.204    0.370    2.680
  269.764   60.311    0.204    0.386    2.629
  270.014   60.901    0.199    0.391    2.634
  270.264   60.667    0.192    0.399    2.631
  270.514   60.283    0.178    0.395    2.687
  270.764   60.017    0.170    0.391    2.717
  271.014   61.263    0.159    0.379    2.805
  271.264   62.674    0.154    0.385    2.948
  271.514   65.305    0.151    0.395    3.142
  271.764   68.055    0.151    0.393    3.262
  272.014   71.024    0.147    0.401    3.360
  272.264   73.608    0.148    0.403    3.511
  272.514   72.930    0.153    0.400    3.580
  272.764   70.436    0.158    0.394    3.569
  273.014   65.042    0.165    0.386    3.653
  273.264   62.847    0.165    0.380    3.649
  273.514   64.311    0.165    0.387    3.658
  273.764   65.791    0.165    0.396    3.577
  274.014   68.292    0.167    0.406    3.589
  274.264   70.356    0.169    0.412    3.489
  274.514   71.592    0.172    0.399    3.314
  274.764   74.294    0.178    0.386    3.167
  275.014   75.138    0.182    0.374    2.981
  275.264   69.656    0.189    0.366    2.806
  275.514   63.722    0.206    0.355    2.638
  275.764   57.073    0.220    0.350    2.565
  276.014   50.490    0.229    0.351    2.448
  276.264   48.477    0.229    0.351    2.383
  276.514   48.074    0.228    0.359    2.210
  276.764   47.661    0.228    0.364    2.142
  277.014   47.237    0.227    0.365    2.102
  277.264   47.079    0.230    0.363    2.106
  277.514   47.067    0.235    0.363    2.108
  277.764   47.057    0.239    0.382    2.132
  278.014   46.966    0.244    0.385    2.148
  278.264   46.461    0.243    0.387    2.154
  278.514   46.494    0.242    0.390    2.108
  278.764   46.545    0.234    0.394    2.110
  279.014   47.607    0.224    0.410    2.072
  279.264   48.832    0.213    0.420    2.134
  279.514   50.173    0.202    0.410    2.201
  279.764   50.704    0.203    0.401    2.271
  280.014   48.898    0.201    0.395    2.332
  280.264   46.552    0.197    0.398    2.330
  280.514   43.490    0.193    0.403    2.333
  280.764   41.285    0.189    0.407    2.255
  281.014   40.473    0.201    0.392    2.167
  281.264   39.997    0.208    0.389    2.021
  281.514   41.763    0.204    0.395    1.938
  281.764   42.130    0.197    0.401    1.967
  282.014   43.939    0.184    0.382    2.181
  282.264   44.184    0.168    0.361    2.317
  282.514   45.243    0.160    0.333    2.572
  282.764   46.406    0.159    0.313    2.642
  283.014   48.465    0.177    0.331    2.430
  283.264   49.880    0.215    0.360    2.127
  283.514   51.047    0.228    0.380    1.888
  283.764   52.117    0.234    0.398    1.750
  284.014   51.353    0.238    0.415    1.629
  284.264   53.081    0.241    0.399    1.589
  284.514   54.478    0.241    0.392    1.591
  284.764   56.269    0.238    0.388    1.626
  285.014   55.660    0.231    0.384    1.625
  285.264   53.102    0.226    0.380    1.626
  285.514   50.783    0.225    0.379    1.638
  285.764   48.419    0.225    0.376    1.509
  286.014   46.878    0.227    0.362    1.558
  286.264   45.002    0.229    0.361    1.475
  286.514   43.657    0.232    0.361    1.378
  286.764   43.691    0.230    0.356    1.286
  287.014   43.822    0.221    0.353    1.254
  287.264   44.299    0.218    0.368    1.281
  287.514   44.304    0.218    0.379    1.296
  287.764   44.327    0.224    0.387    1.311
  288.014   43.779    0.230    0.380    1.336
  288.264   43.723    0.238    0.383    1.309
  288.514   43.712    0.239    0.379    1.283
  288.764   43.719    0.239    0.378    1.244
  289.014   43.709    0.241    0.373    1.241
  289.264   43.714    0.245    0.371    1.241
  289.514   43.520    0.252    0.375    1.244
  289.764   43.745    0.255    0.375    1.212
  290.014   46.734    0.249    0.374    1.177
  290.264   47.744    0.244    0.367    1.141
  290.514   48.781    0.239    0.366    1.140
  290.764   49.850    0.233    0.365    1.156
  291.014   50.479    0.232    0.361    1.181
  291.264   51.885    0.233    0.366    1.179
  291.514   53.412    0.234    0.374    1.200
  291.764   55.182    0.229    0.379    1.213
  292.014   55.431    0.224    0.382    1.228
  292.264   56.017    0.221    0.378    1.269
  292.514   57.080    0.217    0.371    1.309
  292.764   58.469    0.215    0.377    1.350
  293.014   59.693    0.210    0.396    1.455
  293.264   63.140    0.202    0.410    1.555
  293.514   66.271    0.198    0.422    1.686
  293.764   69.008    0.197    0.408    1.796
  294.014   71.521    0.193    0.389    1.859
