~VERSION INFORMATION
 VERS.                 2.0:   CWLS LOG ASCII STANDARD -VERSION 2.0
 WRAP.                  NO:   ONE LINE PER DEPTH STEP
~WELL INFORMATION BLOCK
#MNEM.UNIT           DATA                    DESCRIPTION OF MNEMONIC
#---------    -------------------            -------------------------------
# Generated from Intellog Unique Number	CS_69_70/WELL/885
NULL.         -999.25                        : NULL_VALUE
WELL.         CDN HOMSTEAD ET AL HEART       : Well_name    - WELL              
LOC .         00/11-05-070-09W4/0            : Location     - LOCATION          
UWI .         00/11-05-070-09W4/0            : Uwi          - UNIQUE WELL ID    
ENTR.         SP                             : Entered      - ENTERED BY        
SRVC.         SCHLUMBERGER                   : Scn          - SERVICE COMPANY   
STRT.M        320                            : top_depth    - START DEPTH       
STOP.M        545                            : bot_depth    - STOP DEPTH        
STEP.M        0.25                           : increment    - STEP LENGTH       
~CURVE INFORMATION BLOCK
#MNEM UNIT       ERCB CURVE CODE    CURVE DESCRIPTION
#-----------   ------------------   ----------------------------------
DEPT.M        00 001 00 00         : DEPTH        - DEPTH                       
ILD .OHMM     00 120 00 00         : RESD         - DEEP RESISTIVITY (DIL)      
DPHI.V/V      00 890 00 00         : PHID         - DENSITY POROSITY (LIMESTONE)
NPHI.V/V      00 330 00 00         : PHIN         - NEUTRON POROSITY (LIMESTONE)
GR  .API      00 310 00 00         : GR           - GAMMA RAY                   
~PARAMETER INFORMATION       
#MNEM.UNIT           DATA             DESCRIPTION OF MNEMONIC
#---------         -----------     ------------------------------
GL  .M        659.4                : gl           - GROUND LEVEL ELEVATION      
EREF.M        662.75               : kb           - ELEVATION OF DEPTH REFERENCE
DATM.M        659.4                : datum        - DATUM ELEVATION             
TDD .M        570.4                : tdd          - TOTAL DEPTH DRILLER         
RUN .         ONE                  : Run          - RUN NUMBER                  
ENG .         BILL                 : Engineer     - RECORDING ENGINEER          
WIT .         JIM                  : Witness      - WITNESSED BY                
MUD .         GEL                  : Mud_type     - MUD TYPE                    
MATR.         LIMESTONE            : Logunit      - NEUTRON MATRIX              
TMAX.C        25                   : BHT          - MAXIMUM RECORDED TEMPERATURE
BHTD.M        570.4                : BHTDEP       - MAXIMUM RECORDED TEMPERATURE
MATR.         1                    : LOGUNIT      - NEUTRON MATRIX              
RMT .C        25                   : MDTP         - TEMPERATURE OF MUD          
NEUT.         1                    : NEUTRON      - NEUTRON TYPE                
RESI.         0                    : RESIST       - RESISTIVITY TYPE            
RMC .OHMM     0.25                 : RMC          - RESISTIVITY OF MUD CAKE     
RMF .OHMM     0.25                 : RMF          - RESISTIVITY OF MUD FILTRATE 
SUFT.C        15                   : SUFT         - SURFACE TEMPERATURE         
~A  DEPTH     RESD     PHID     PHIN       GR
# ...
  363.500    5.436    0.261    0.465   83.347
  363.750    5.345    0.255    0.445   86.432
  364.000    5.286    0.262    0.454   88.305
  364.250    5.267    0.245    0.471   86.843
  364.500    5.189    0.236    0.486   86.775
  364.750    5.094    0.241    0.499   87.496
  365.000    4.991    0.250    0.514   88.035
  365.250    4.963    0.256    0.505   87.240
  365.500    4.936    0.266    0.490   86.748
  365.750    4.918    0.265    0.514   86.741
  366.000    4.918    0.259    0.500   86.918
  366.250    4.937    0.253    0.461   87.638
  366.500    4.937    0.256    0.460   88.843
  366.750    4.956    0.253    0.471   89.806
  367.000    4.984    0.244    0.486   90.467
  367.250    5.040    0.238    0.498   90.946
  367.500    5.097    0.227    0.490   89.484
  367.750    5.203    0.219    0.476   86.020
  368.000    5.565    0.240    0.453   83.590
  368.250    5.659    0.239    0.439   79.278
  368.500    5.918    0.252    0.431   76.665
  368.750    6.007    0.259    0.435   81.084
  369.000    6.041    0.258    0.444   85.442
  369.250    5.963    0.264    0.453   88.346
  369.500    5.854    0.252    0.458   87.309
  369.750    5.778    0.235    0.447   87.968
  370.000    5.693    0.231    0.449   89.478
  370.250    5.661    0.239    0.468   90.561
  370.500    5.651    0.240    0.484   90.555
  370.750    5.631    0.229    0.499   90.549
  371.000    5.642    0.239    0.487   90.299
  371.250    5.652    0.230    0.484   89.990
  371.500    5.663    0.229    0.482   89.498
  371.750    5.663    0.217    0.485   88.278
  372.000    5.653    0.204    0.499   88.514
  372.250    5.529    0.214    0.477   89.538
  372.500    5.437    0.233    0.466   91.411
  372.750    5.407    0.232    0.459   94.133
  373.000    5.407    0.220    0.466   91.761
  373.250    5.499    0.214    0.460   89.450
  373.500    5.582    0.237    0.460   88.596
  373.750    5.677    0.230    0.472   87.376
  374.000    5.773    0.228    0.480   83.914
  374.250    5.784    0.239    0.471   79.117
  374.500    5.710    0.237    0.456   81.657
  374.750    5.710    0.237    0.470   80.256
  375.000    5.785    0.227    0.470   76.066
  375.250    5.938    0.242    0.460   74.544
  375.500    6.164    0.258    0.462   73.929
  375.750    6.399    0.269    0.467   73.499
  376.000    6.593    0.269    0.477   73.008
  376.250    6.780    0.269    0.487   73.123
  376.500    6.882    0.274    0.479   73.236
  376.750    6.973    0.272    0.470   73.897
  377.000    7.052    0.269    0.470   75.163
  377.250    7.065    0.270    0.469   75.277
  377.500    7.079    0.262    0.453   74.058
  377.750    7.066    0.254    0.447   72.051
  378.000    7.040    0.250    0.451   69.923
  378.250    7.041    0.266    0.451   68.825
  378.500    7.068    0.280    0.461   71.789
  378.750    7.055    0.280    0.469   74.267
  379.000    7.042    0.267    0.458   75.898
  379.250    7.042    0.261    0.444   77.649
  379.500    7.056    0.259    0.433   79.098
  379.750    7.083    0.266    0.427   82.060
  380.000    7.123    0.273    0.433   83.812
  380.250    7.230    0.259    0.439   84.837
  380.500    7.298    0.256    0.429   84.649
  380.750    7.354    0.269    0.416   83.611
  381.000    7.368    0.259    0.411   84.817
  381.250    7.368    0.242    0.421   84.993
  381.500    7.369    0.240    0.425   84.258
  381.750    7.355    0.249    0.426   81.462
  382.000    7.315    0.251    0.432   79.819
  382.250    7.167    0.235    0.440   79.812
  382.500    6.918    0.224    0.436   82.230
  382.750    6.591    0.221    0.426   86.224
  383.000    6.303    0.239    0.425   90.400
  383.250    5.950    0.260    0.442   94.698
  383.500    5.648    0.187    0.464   96.694
  383.750    5.595    0.175    0.476   95.110
  384.000    5.596    0.187    0.482   91.466
  384.250    5.723    0.187    0.491   86.002
  384.500    6.154    0.216    0.498   78.236
  384.750    6.484    0.243    0.468   69.014
  385.000    6.922    0.272    0.476   61.974
  385.250    7.172    0.270    0.448   54.147
  385.500    7.362    0.286    0.425   50.684
  385.750    7.487    0.299    0.417   52.678
  386.000    7.557    0.310    0.426   53.824
  386.250    7.572    0.294    0.440   55.636
  386.500    7.516    0.294    0.448   57.145
  386.750    7.461    0.289    0.453   54.167
  387.000    7.364    0.308    0.444   49.128
  387.250    7.256    0.318    0.425   44.391
  387.500    7.176    0.309    0.404   43.961
  387.750    7.096    0.317    0.395   48.016
  388.000    7.070    0.306    0.399   50.859
  388.250    7.044    0.305    0.402   51.702
  388.500    7.045    0.294    0.404   49.391
  388.750    7.032    0.292    0.404   47.504
  389.000    7.006    0.298    0.409   46.406
  389.250    6.981    0.304    0.417   45.612
  389.500    6.942    0.311    0.412   46.270
  389.750    6.891    0.304    0.409   47.659
  390.000    6.917    0.306    0.410   50.138
  390.250    6.918    0.292    0.405   54.982
  390.500    6.892    0.294    0.399   61.159
  390.750    6.906    0.290    0.408   67.458
  391.000    6.932    0.286    0.413   73.515
  391.250    6.881    0.269    0.411   80.904
  391.500    6.779    0.246    0.404   86.960
  391.750    6.617    0.207    0.404   93.805
  392.000    6.496    0.197    0.420   99.861
  392.250    6.317    0.190    0.431  102.340
  392.500    6.201    0.185    0.441   97.786
  392.750    6.053    0.185    0.434   94.202
  393.000    6.087    0.186    0.428   91.164
  393.250    5.997    0.196    0.438   88.428
  393.500    5.998    0.202    0.435   86.846
  393.750    6.179    0.200    0.418   83.443
  394.000    6.343    0.201    0.406   78.586
  394.250    6.548    0.204    0.399   74.154
  394.500    6.659    0.215    0.414   69.055
  394.750    6.684    0.225    0.427   65.713
  395.000    6.647    0.234    0.446   65.829
  395.250    6.464    0.251    0.472   66.671
  395.500    6.286    0.264    0.466   67.149
  395.750    6.068    0.267    0.460   68.536
  396.000    5.847    0.254    0.456   70.106
  396.250    5.696    0.247    0.477   71.069
  396.500    5.675    0.259    0.492   71.124
  396.750    5.740    0.274    0.501   69.358
  397.000    5.925    0.290    0.476   65.653
  397.250    6.443    0.295    0.456   61.949
  397.500    6.865    0.300    0.444   57.758
  397.750    7.206    0.305    0.452   58.176
  398.000    7.621    0.302    0.464   59.989
  398.250    7.941    0.297    0.465   59.800
  398.500    8.166    0.289    0.462   59.672
  398.750    8.243    0.299    0.474   60.026
  399.000    8.198    0.302    0.482   60.264
  399.250    8.077    0.312    0.487   60.256
  399.500    7.973    0.316    0.464   60.070
  399.750    7.840    0.330    0.457   62.427
  400.000    7.739    0.324    0.471   63.814
  400.250    7.611    0.317    0.483   64.352
  400.500    7.499    0.327    0.496   63.921
  400.750    7.458    0.329    0.508   63.368
  401.000    7.458    0.334    0.507   63.242
  401.250    7.500    0.341    0.507   62.751
  401.500    7.529    0.328    0.513   62.380
  401.750    7.557    0.315    0.476   61.037
  402.000    7.600    0.307    0.459   58.001
  402.250    7.643    0.309    0.455   55.085
  402.500    7.729    0.322    0.460   56.715
  402.750    7.730    0.315    0.465   59.133
  403.000    7.745    0.304    0.454   61.067
  403.250    7.731    0.288    0.452   61.909
  403.500    7.760    0.290    0.458   60.628
  403.750    7.746    0.305    0.463   59.288
  404.000    7.718    0.317    0.467   58.008
  404.250    7.718    0.313    0.475   57.335
  404.500    7.690    0.313    0.486   56.116
  404.750    7.690    0.321    0.484   52.108
  405.000    7.691    0.329    0.471   49.919
  405.250    7.691    0.335    0.466   51.184
  405.500    7.692    0.324    0.457   53.057
  405.750    7.692    0.314    0.458   54.382
  406.000    7.693    0.305    0.465   54.317
  406.250    7.693    0.312    0.469   52.915
  406.500    7.694    0.323    0.467   51.636
  406.750    7.694    0.326    0.466   50.538
