~VERSION INFORMATION
 VERS.                 2.0:   CWLS LOG ASCII STANDARD -VERSION 2.0
 WRAP.                  NO:   ONE LINE PER DEPTH STEP
~WELL INFORMATION BLOCK
#MNEM.UNIT           DATA                    DESCRIPTION OF MNEMONIC
#---------    -------------------            -------------------------------
# Generated from Intellog Unique Number	CW_70_72/WELL/3030
NULL.         -999.25                        : NULL_VALUE
WELL.         MESA SULPETRO MEYER 11-22      : Well_name    - WELL              
LOC .         11-22-070-24W4                 : Location     - LOCATION          
UWI .         00/11-22-070-24W4/0            : Uwi          - UNIQUE WELL ID    
ENTR.         jj                             : Entered      - ENTERED BY        
SRVC.         SCHLUMBERGER                   : Scn          - SERVICE COMPANY   
DATE.         20 JAN 77                      : Date         - LOG DATE          
STRT.M        411.48                         : top_depth    - START DEPTH       
STOP.M        633.98                         : bot_depth    - STOP DEPTH        
STEP.M        0.25                           : increment    - STEP LENGTH       
~CURVE INFORMATION BLOCK
#MNEM UNIT       ERCB CURVE CODE    CURVE DESCRIPTION
#-----------   ------------------   ----------------------------------
DEPT.M        00 001 00 00         : DEPTH        - DEPTH                       
ILD .OHMM     00 120 00 00         : RESD         - DEEP RESISTIVITY (DIL)      
CALI.MM       00 280 01 00         : CAL          - CALIPER                     
GR  .API      00 310 00 00         : GR           - GAMMA RAY                   
NPHI.V/V      00 330 00 00         : PHIN         - NEUTRON POROSITY (SANDSTONE)
DPHI.V/V      00 890 00 00         : PHID         - DENSITY POROSITY (SANDSTONE)
~PARAMETER INFORMATION       
#MNEM.UNIT           DATA             DESCRIPTION OF MNEMONIC
#---------         -----------     ------------------------------
GL  .M        619.049              : gl           - GROUND LEVEL ELEVATION      
EREF.M        624.23               : kb           - ELEVATION OF DEPTH REFERENCE
DATM.M        619.049              : datum        - DATUM ELEVATION             
TDD .M        649.224              : tdd          - TOTAL DEPTH DRILLER         
RUN .         ONE                  : Run          - RUN NUMBER                  
ENG .         LAGASSE              : Engineer     - RECORDING ENGINEER          
BASE.         EDM                  : Branch       - HOME BASE OF LOGGING UNIT   
MUD .         GEL CHEM             : Mud_type     - MUD TYPE                    
MATR.         SANDSTONE            : Logunit      - NEUTRON MATRIX              
TMAX.C        28.8889              : BHT          - MAXIMUM RECORDED TEMPERATURE
BHTD.M        647.395              : BHTDEP       - MAXIMUM RECORDED TEMPERATURE
RMT .C        13.3333              : MDTP         - TEMPERATURE OF MUD          
MUDD.KG/M     1080                 : MWT          - MUD DENSITY                 
NEUT.         1                    : NEUTRON      - NEUTRON TYPE                
RESI.         0                    : RESIST       - RESISTIVITY TYPE            
RM  .OHMM     1.45                 : RM           - RESISTIVITY OF MUD          
RMC .OHMM     0.25                 : RMC          - RESISTIVITY OF MUD CAKE     
RMF .OHMM     2.11                 : RMF          - RESISTIVITY OF MUD FILTRATE 
SUFT.C        -17.7778             : SUFT         - SURFACE TEMPERATURE         
~A  DEPTH     RESD      CAL       GR     PHIN     PHID
# ...
  447.980   11.303  172.955   56.109    0.262    0.098
  448.230   10.579  169.469   60.414    0.354    0.139
  448.480    7.229  165.983   63.507    0.385    0.200
  448.730    4.877  164.652   62.115    0.451    0.228
  448.980    3.458  164.554   59.813    0.443    0.296
  449.230    2.732  164.762   64.421    0.431    0.326
  449.480    2.273  164.560   66.120    0.419    0.297
  449.730    2.155  164.665   67.153    0.425    0.284
  449.980    2.116  164.977   67.579    0.442    0.288
  450.230    2.097  165.083   67.339    0.438    0.288
  450.480    2.093  164.882   67.219    0.419    0.321
  450.730    2.101  164.679   67.767    0.415    0.303
  450.980    2.109  164.785   70.678    0.439    0.290
  451.230    2.116  165.713   75.407    0.423    0.289
  451.480    2.144  169.410   84.743    0.418    0.295
  451.730    2.188  175.469   93.411    0.453    0.249
  451.980    2.334  182.143  102.868    0.493    0.203
  452.230    2.507  177.938   92.567    0.462    0.252
  452.480    2.679  170.552   82.144    0.450    0.244
  452.730    2.821  166.554   77.359    0.456    0.267
  452.980    2.927  165.942   78.876    0.459    0.267
  453.230    2.981  166.355   81.908    0.450    0.256
  453.480    3.059  167.385   84.698    0.441    0.243
  453.730    3.122  168.415   87.730    0.418    0.278
  453.980    3.168  169.033   88.702    0.416    0.267
  454.230    3.168  169.755   88.704    0.427    0.247
  454.480    3.227  170.066   86.827    0.441    0.263
  454.730    3.245  170.069   85.011    0.450    0.245
  454.980    3.245  170.689   87.861    0.443    0.256
  455.230    3.204  170.897   92.106    0.424    0.250
  455.480    3.122  171.516   94.653    0.424    0.259
  455.730    3.083  172.033   94.837    0.442    0.254
  455.980    3.123  172.755   96.112    0.457    0.234
  456.230    3.222  173.785  101.447    0.470    0.226
  456.480    3.355  174.609  104.237    0.465    0.185
  456.730    3.437  174.920  105.754    0.453    0.197
  456.980    3.462  173.486  105.392    0.452    0.234
  457.230    3.462  171.642   98.728    0.443    0.230
  457.480    3.381  176.983   96.911    0.420    0.211
  457.730    3.368  179.244   98.974    0.420    0.222
  457.980    3.437  178.939   99.643    0.421    0.206
  458.230    3.553  175.966  101.039    0.424    0.197
  458.480    3.686  172.481  102.496    0.425    0.219
  458.730    3.741  171.971  103.891    0.426    0.231
  458.980    3.470  171.974  105.287    0.435    0.238
  459.230    3.124  173.414  101.956    0.455    0.252
  459.480    2.903  178.138  102.321    0.475    0.236
  459.730    2.772  185.223  100.323    0.453    0.257
  459.980    2.712  178.555   95.356    0.424    0.274
  460.230    2.824  171.888   92.388    0.423    0.250
  460.480    2.996  173.124   93.057    0.437    0.205
  460.730    3.131  173.537   95.180    0.441    0.204
  460.980    3.272  174.669  100.939    0.440    0.191
  461.230    3.408  176.418  105.487    0.446    0.169
  461.480    3.516  178.987  105.065    0.452    0.168
  461.730    3.595  180.734  100.036    0.461    0.185
  461.980    3.615  182.483   95.856    0.470    0.157
  462.230    3.516  183.101   93.495    0.485    0.190
  462.480    3.421  182.694   88.042    0.508    0.214
  462.730    3.190  178.695   62.165    0.522    0.290
  462.980    2.980  170.796   54.470    0.415    0.334
  463.230    2.759  167.721   48.230    0.384    0.297
  463.480    2.544  165.775   45.686    0.374    0.284
  463.730    2.312  165.880   45.203    0.385    0.281
  463.980    2.188  165.883   48.236    0.401    0.297
  464.230    2.044  167.530   54.298    0.413    0.299
  464.480    1.989  168.559   57.573    0.418    0.293
  464.730    2.004  169.898   58.848    0.407    0.297
  464.980    2.033  169.592   58.365    0.407    0.295
  465.230    2.037  169.596   56.488    0.408    0.289
  465.480    2.049  169.189   54.914    0.390    0.283
  465.730    2.068  169.088   56.856    0.407    0.290
  465.980    2.041  168.989   59.706    0.411    0.307
  466.230    2.008  168.891   62.375    0.407    0.299
  466.480    1.960  168.072   64.256    0.413    0.292
  466.730    1.961  166.639   65.409    0.422    0.296
  466.980    2.019  166.027   65.957    0.429    0.270
  467.230    2.095  166.236   67.595    0.422    0.274
  467.480    2.178  166.650   69.718    0.407    0.260
  467.730    2.276  167.474   71.902    0.401    0.261
  467.980    2.405  168.401   75.844    0.408    0.245
  468.230    2.491  171.586   78.451    0.421    0.225
  468.480    2.546  174.463   83.181    0.417    0.216
  468.730    2.782  178.263   90.031    0.412    0.206
  468.980    3.044  180.217   90.579    0.419    0.200
  469.230    3.332  177.961   86.338    0.441    0.224
  469.480    3.566  173.347   81.613    0.455    0.258
  469.730    3.687  170.272   76.342    0.450    0.271
  469.980    3.762  169.249   68.647    0.455    0.238
  470.230    3.735  169.355   62.346    0.432    0.259
  470.480    3.508  169.563   54.105    0.403    0.283
  470.730    3.419  170.387   55.683    0.449    0.287
  470.980    3.432  171.725   62.109    0.450    0.308
  471.230    3.548  172.241   67.142    0.589    0.361
  471.480    3.607  172.039   68.416    0.515    0.427
  471.730    3.581  170.298   69.692    0.466    0.370
  471.980    3.236  168.044   70.057    0.433    0.317
  472.230    2.968  165.174   69.817    0.424    0.307
  472.480    2.673  163.022   67.879    0.429    0.298
  472.730    2.350  162.204   65.700    0.445    0.284
  472.980    2.152  162.413   64.125    0.455    0.274
  473.230    2.066  162.725   63.885    0.449    0.284
  473.480    2.152  163.343   65.160    0.410    0.290
  473.730    2.245  163.757   66.252    0.419    0.297
  473.980    2.359  164.274   65.224    0.444    0.291
  474.230    2.470  164.791   65.347    0.441    0.297
  474.480    2.606  164.897   68.258    0.433    0.282
  474.730    2.659  165.003   67.594    0.425    0.272
  474.980    2.625  165.211   68.263    0.425    0.282
  475.230    2.563  165.419   71.537    0.420    0.279
  475.480    2.517  165.218   74.509    0.416    0.272
  475.730    2.503  165.118   76.511    0.416    0.268
  475.980    2.554  164.814   78.210    0.455    0.264
  476.230    2.655  165.023   80.091    0.449    0.253
  476.480    2.796  165.847   83.184    0.441    0.245
  476.730    3.009  167.082   86.701    0.430    0.217
  476.980    3.174  168.521   90.339    0.425    0.207
  477.230    3.324  169.551   89.493    0.427    0.214
  477.480    3.480  170.068   87.737    0.441    0.221
  477.730    3.578  170.071   85.194    0.456    0.226
  477.980    3.638  169.972   82.347    0.449    0.230
  478.230    3.671  169.257   79.744    0.420    0.208
  478.480    3.981  169.466   76.957    0.388    0.168
  478.730    4.381  171.111   74.777    0.283    0.117
  478.980    5.179  173.782   70.234    0.205    0.065
  479.230    6.628  176.044   65.690    0.166    0.014
  479.480    9.682  176.663   61.389    0.161    0.019
  479.730   14.459  176.563   62.907    0.206    0.033
  479.980   19.125  176.874   67.393    0.225    0.052
  480.230   19.660  176.673   77.638    0.271    0.059
  480.480   16.418  176.266   82.124    0.314    0.153
  480.730   13.735  175.756   84.793    0.402    0.192
  480.980    8.720  175.554   84.795    0.397    0.212
  481.230    5.893  175.558   83.767    0.404    0.208
  481.480    4.752  175.253   83.102    0.418    0.204
  481.730    4.132  174.641   83.710    0.427    0.216
  481.980    3.925  174.131   86.076    0.436    0.213
  482.230    3.925  174.031   88.442    0.438    0.197
  482.480    3.918  173.419   91.232    0.425    0.187
  482.730    3.940  170.754   93.112    0.410    0.213
  482.980    3.969  170.142   94.205    0.406    0.212
  483.230    3.977  170.864   94.147    0.423    0.199
  483.480    4.006  172.304   93.118    0.424    0.173
  483.730    4.081  174.052   90.817    0.415    0.178
  483.980    4.081  175.286   87.789    0.426    0.190
  484.230    3.978  171.288   84.821    0.441    0.206
