~VERSION INFORMATION
 VERS.                 2.0:   CWLS LOG ASCII STANDARD -VERSION 2.0
 WRAP.                  NO:   ONE LINE PER DEPTH STEP
~WELL INFORMATION BLOCK
#MNEM.UNIT           DATA                    DESCRIPTION OF MNEMONIC
#---------    -------------------            -------------------------------
# Generated from Intellog Unique Number	CC_80_83/WELL/2391
NULL.         -999.25                        : NULL_VALUE
WELL.         ICGEX GRAHAM                   : Well_name    - WELL
LOC .         11-04-081-04W4                 : Location     - LOCATION          
UWI .         00/11-04-081-04W400            : Uwi          - UNIQUE WELL ID    
ENTR.         DW                             : Entered      - ENTERED BY        
SRVC.         SCHLUMBERGER                   : Scn          - SERVICE COMPANY   
DATE.         13 MAR 81                      : Date         - LOG DATE
STRT.M        100                            : top_depth    - START DEPTH       
STOP.M        274.901                        : bot_depth    - STOP DEPTH        
STEP.M        0.3                            : increment    - STEP LENGTH       
~CURVE INFORMATION BLOCK
#MNEM UNIT       ERCB CURVE CODE    CURVE DESCRIPTION
#-----------   ------------------   ----------------------------------
DEPT.M        00 001 00 00         : DEPTH        - DEPTH                       
DPHI.V/V      00 890 00 00         : PHID         - DENSITY POROSITY (LIMESTONE)
NPHI.V/V      00 330 00 00         : PHIN         - NEUTRON POROSITY (LIMESTONE)
GR  .API      00 310 00 00         : GR           - GAMMA RAY                   
ILD .OHMM     00 120 00 00         : RESD         - DEEP RESISTIVITY (DIL)      
~PARAMETER INFORMATION       
#MNEM.UNIT           DATA             DESCRIPTION OF MNEMONIC
#---------         -----------     ------------------------------
GL  .M        443.7                : gl           - GROUND LEVEL ELEVATION      
EREF.M        447.2                : kb           - ELEVATION OF DEPTH REFERENCE
DATM.M        447.2                : datum        - DATUM ELEVATION             
TDD .M        295                  : tdd          - TOTAL DEPTH DRILLER         
RUN .         ONE                  : Run          - RUN NUMBER                  
ENG .         BILL                 : Engineer     - RECORDING ENGINEER          
WIT .         JIM                  : Witness      - WITNESSED BY                
MUD .         GEL                  : Mud_type     - MUD TYPE                    
MATR.         LIMESTONE            : Logunit      - NEUTRON MATRIX              
TMAX.C        15                   : BHT          - MAXIMUM RECORDED TEMPERATURE
BHTD.M        295                  : BHTDEP       - MAXIMUM RECORDED TEMPERATURE
MATR.         1                    : LOGUNIT      - NEUTRON MATRIX              
RMT .C        25                   : MDTP         - TEMPERATURE OF MUD          
NEUT.         1                    : NEUTRON      - NEUTRON TYPE                
RESI.         0                    : RESIST       - RESISTIVITY TYPE            
RMC .OHMM     0.25                 : RMC          - RESISTIVITY OF MUD CAKE     
RMF .OHMM     0.25                 : RMF          - RESISTIVITY OF MUD FILTRATE 
SUFT.C        15                   : SUFT         - SURFACE TEMPERATURE         
~A  DEPTH     PHID     PHIN       GR     RESD
# ...
  152.201    0.276    0.470   74.192    6.027
  152.501    0.272    0.502   73.579    6.028
  152.801    0.270    0.476   79.139    6.145
  153.101    0.267    0.457   80.377    7.295
  153.401    0.257    0.463   65.568    8.498
  153.701    0.222    0.491   56.312    9.711
  154.001    0.144    0.475   51.996   10.481
  154.301    0.135    0.378   52.617   11.531
  154.601    0.209    0.391   60.646   11.982
  154.901    0.304    0.439   68.675   11.106
  155.201    0.309    0.475   74.236    9.911
  155.501    0.282    0.473   75.473    9.185
  155.801    0.256    0.461   70.540    8.042
  156.101    0.275    0.491   63.755    7.893
  156.401    0.291    0.502   61.907    8.200
  156.701    0.298    0.493   62.528    8.685
  157.001    0.293    0.457   63.767    9.739
  157.301    0.292    0.458   63.771   10.314
  157.601    0.302    0.453   64.392   10.121
  157.901    0.294    0.441   66.865    9.563
  158.201    0.273    0.445   73.660    9.385
  158.501    0.263    0.457   78.602    9.386
  158.801    0.256    0.470   74.285    9.212
  159.101    0.253    0.468   75.524    9.041
  159.401    0.271    0.453   73.676    8.872
  159.701    0.277    0.450   71.212    8.070
  160.001    0.260    0.468   79.240    7.479
  160.301    0.246    0.476   89.738    6.933
  160.601    0.238    0.482   87.890    6.935
  160.901    0.237    0.494   81.105    7.630
  161.201    0.237    0.425   74.937    7.928
  161.501    0.231    0.430   74.324    7.929
  161.801    0.257    0.474   73.710    7.636
  162.101    0.282    0.491   74.949    7.213
  162.401    0.287    0.471   80.509    6.560
  162.701    0.286    0.463   86.686    5.743
  163.001    0.281    0.512   87.307    4.401
  163.301    0.268    0.540   82.990    4.158
  163.601    0.243    0.488   80.527    4.488
  163.901    0.242    0.472   83.000    4.753
  164.201    0.248    0.466   84.239    4.846
  164.501    0.267    0.474   86.712    4.755
  164.801    0.255    0.523   89.803    4.408
  165.101    0.261    0.564   91.040    4.009
  165.401    0.284    0.604   88.575    4.245
  165.701    0.279    0.575   76.234    4.670
  166.001    0.298    0.473   68.831    5.041
  166.301    0.308    0.446   77.478    4.854
  166.601    0.292    0.486   86.123    4.250
  166.901    0.271    0.535   84.893    4.171
  167.201    0.267    0.561   80.576    4.951
  167.501    0.272    0.467   75.643    5.991
  167.801    0.264    0.466   73.177    6.466
  168.101    0.231    0.458   73.183    6.979
  168.401    0.220    0.438   75.655    7.534
  168.701    0.240    0.435   81.216    7.681
  169.001    0.241    0.446   82.454    7.538
  169.301    0.241    0.454   80.606    7.397
  169.601    0.263    0.467   75.055    7.123
  169.901    0.276    0.462   72.590    6.859
  170.201    0.251    0.423   73.829    6.237
  170.501    0.247    0.463   80.006    5.061
  170.801    0.257    0.504   80.627    4.184
  171.101    0.262    0.520   81.249    4.186
  171.401    0.263    0.572   79.401    4.605
  171.701    0.258    0.539   73.234    5.467
  172.001    0.257    0.474   73.854    6.130
  172.301    0.259    0.482   77.563    6.491
  172.601    0.256    0.495   76.949    6.876
  172.901    0.264    0.483   76.953    6.877
  173.201    0.267    0.480   79.427    6.749
  173.501    0.257    0.478   79.431    6.623
  173.801    0.242    0.463   76.349    6.626
  174.101    0.210    0.428   70.798    6.754
  174.401    0.244    0.413   72.037    6.886
  174.701    0.292    0.477   68.337    6.757
  175.001    0.311    0.459   66.490    6.507
  175.301    0.306    0.447   68.963    5.918
  175.601    0.274    0.447   73.906    5.280
  175.901    0.249    0.479   76.379    4.203
  176.201    0.267    0.515   77.618    3.346
  176.501    0.300    0.575   76.387    2.663
  176.801    0.298    0.555   73.304    2.376
  177.101    0.295    0.561   67.755    2.203
  177.401    0.306    0.577   67.758    2.246
  177.701    0.314    0.537   70.848    2.378
  178.001    0.303    0.545   75.173    2.567
  178.301    0.289    0.596   71.474    2.824
  178.601    0.267    0.569   75.799    3.417
  178.901    0.237    0.491   80.743    4.057
  179.201    0.257    0.504   80.128    4.378
  179.501    0.239    0.499   73.343    4.910
  179.801    0.239    0.467   70.260    5.299
  180.101    0.272    0.401   71.500    6.291
  180.401    0.283    0.372   74.590    6.790
  180.701    0.291    0.364   75.211    5.203
  181.001    0.293    0.488   83.857    3.766
  181.301    0.288    0.576   84.480    3.297
  181.601    0.286    0.600   80.780    3.236
  181.901    0.239    0.578   75.846    3.362
  182.201    0.238    0.493   82.023    3.428
  182.501    0.250    0.506   85.113    3.364
  182.801    0.255    0.506   79.564    3.178
  183.101    0.239    0.500   77.716    3.240
  183.401    0.240    0.510   77.719    3.564
  183.701    0.244    0.468   78.959    3.921
  184.001    0.254    0.463   79.579    3.776
  184.301    0.264    0.504   80.201    3.567
  184.601    0.254    0.516   82.674    3.568
  184.901    0.254    0.455   84.530    3.501
  185.201    0.249    0.493   85.152    3.638
  185.501    0.244    0.537   82.686    4.003
  185.801    0.234    0.480   74.667    4.752
  186.101    0.243    0.452   72.820    5.129
  186.401    0.245    0.427   72.207    5.229
  186.701    0.237    0.413   74.062    5.035
  187.001    0.237    0.435   73.450    4.325
  187.301    0.234    0.468   77.156    4.758
  187.601    0.234    0.489   80.247    5.438
  187.901    0.224    0.501   72.844    6.214
  188.201    0.186    0.450   65.442    6.457
  188.501    0.120    0.375   66.681    6.217
  188.801    0.197    0.377   70.388    5.654
  189.101    0.233    0.440   69.158    4.950
  189.401    0.254    0.407   66.077    4.334
  189.701    0.265    0.384   67.315    3.258
  190.001    0.268    0.455   67.318    3.137
  190.301    0.283    0.494   60.533    3.138
  190.601    0.268    0.451   56.833    3.080
  190.901    0.290    0.424   62.394    3.023
  191.201    0.307    0.430   61.781    2.910
  191.501    0.286    0.483   61.785    2.698
  191.801    0.295    0.499   61.171    2.598
  192.101    0.289    0.492   68.583    2.648
  192.401    0.285    0.495   75.377    2.805
  192.701    0.278    0.568   68.592    2.914
  193.001    0.256    0.543   72.300    3.526
  193.301    0.220    0.363   72.303    3.954
  193.601    0.244    0.384   63.666    4.031
  193.901    0.258    0.392   58.732    4.032
  194.201    0.246    0.361   58.736    3.882
  194.501    0.229    0.373   61.209    3.738
  194.801    0.236    0.378   61.831    3.669
  195.101    0.241    0.382   59.985    3.670
  195.401    0.233    0.371   61.222    3.741
  195.701    0.235    0.351   65.548    3.742
  196.001    0.235    0.347   65.551    3.743
  196.301    0.234    0.346   61.853    3.816
  196.601    0.233    0.353   61.856    3.745
  196.901    0.228    0.362   63.713    3.746
  197.201    0.219    0.372   64.951    3.747
  197.501    0.230    0.382   64.955    3.748
  197.801    0.240    0.379   61.257    3.678
  198.101    0.239    0.372   59.409    3.542
  198.401    0.231    0.371   64.350    3.476
  198.701    0.228    0.369   67.441    3.612
  199.001    0.233    0.373   63.742    3.612
  199.301    0.246    0.376   60.660    3.478
  199.601    0.261    0.377   58.195    3.163
  199.901    0.270    0.382   55.112    2.877
  200.201    0.279    0.389   52.649    2.616
  200.501    0.294    0.349   50.183    2.519
  200.801    0.301    0.358   47.718    2.426
  201.101    0.277    0.382   52.043    2.427
  201.401    0.271    0.394   54.517    2.427
  201.701    0.290    0.397   45.879    2.337
  202.001    0.305    0.371   44.032    2.294
  202.301    0.298    0.338   46.505    2.383
  202.601    0.264    0.333   60.089    2.573
  202.901    0.243    0.347   63.798    2.777
  203.201    0.256    0.379   61.333    3.055
  203.501    0.252    0.377   64.422    3.114
  203.801    0.250    0.372   67.514    3.115
  204.101    0.250    0.404   66.902    3.057
