~VERSION INFORMATION
 VERS.                 2.0:   CWLS LOG ASCII STANDARD -VERSION 2.0
 WRAP.                  NO:   ONE LINE PER DEPTH STEP
~WELL INFORMATION BLOCK
#MNEM.UNIT           DATA                    DESCRIPTION OF MNEMONIC
#---------    -------------------            -------------------------------
# Generated from Intellog Unique Number	CS_73_76/WELL/3263
WELL.         BOW VALLEY EXPLORATION         : Well_name    - WELL
LOC .         00/11-12-076-13W4/0            : Location     - LOCATION
UWI .         00/11-12-076-13W4/0            : Uwi          - UNIQUE WELL ID
ENTR.         SP                             : Entered      - ENTERED BY
SRVC.         SCHLUMBERGER                   : Scn          - SERVICE COMPANY
STRT.M        350                            : top_depth    - START DEPTH
STOP.M        580                            : bot_depth    - STOP DEPTH
STEP.M        0.25                           : increment    - STEP LENGTH
 NULL. -999.2500:NULL Value
~CURVE INFORMATION BLOCK
#MNEM UNIT       ERCB CURVE CODE    CURVE DESCRIPTION
#-----------   ------------------   ----------------------------------
DEPT.M        00 001 00 00         : DEPTH        - DEPTH
ILD .OHMM     00 120 00 00         : RESD         - DEEP RESISTIVITY (DIL)
NPHI.V/V      00 330 00 00         : PHIN         - NEUTRON POROSITY (LIMESTONE)
DPHI.V/V      00 890 00 00         : PHID         - DENSITY POROSITY (LIMESTONE)
GR  .API      00 310 00 00         : GR           - GAMMA RAY
~PARAMETER INFORMATION
#MNEM.UNIT           DATA             DESCRIPTION OF MNEMONIC
#---------         -----------     ------------------------------
GL  .M        728.9                : gl           - GROUND LEVEL ELEVATION
EREF.M        731.6                : kb           - ELEVATION OF DEPTH REFERENCE
DATM.M        728.9                : datum        - DATUM ELEVATION
TDD .M        593                  : tdd          - TOTAL DEPTH DRILLER
RUN .         ONE                  : Run          - RUN NUMBER
ENG .         BILL                 : Engineer     - RECORDING ENGINEER
WIT .         JIM                  : Witness      - WITNESSED BY
MUD .         GEL                  : Mud_type     - MUD TYPE
MATR.         LIMESTONE            : Logunit      - NEUTRON MATRIX
TMAX.C        22                   : BHT          - MAXIMUM RECORDED TEMPERATURE
BHTD.M        593                  : BHTDEP       - MAXIMUM RECORDED TEMPERATURE
MATR.         1                    : LOGUNIT      - NEUTRON MATRIX
RMT .C        25                   : MDTP         - TEMPERATURE OF MUD
NEUT.         1                    : NEUTRON      - NEUTRON TYPE
RESI.         0                    : RESIST       - RESISTIVITY TYPE
RMC .OHMM     0.25                 : RMC          - RESISTIVITY OF MUD CAKE
RMF .OHMM     0.25                 : RMF          - RESISTIVITY OF MUD FILTRATE
SUFT.C        15                   : SUFT         - SURFACE TEMPERATURE
~A  DEPTH     RESD     PHIN     PHID       GR
# ...
  437.000    6.227    0.469    0.200  102.218
  437.250    5.886    0.467    0.199  104.032
  437.500    5.777    0.478    0.188  102.218
  437.750    5.461    0.490    0.169  101.613
  438.000    5.261    0.496    0.169  104.032
  438.250    4.882    0.482    0.177  105.847
  438.500    4.791    0.475    0.183  106.452
  438.750    4.614    0.481    0.199  111.290
  439.000    4.528    0.510    0.206  113.105
  439.250    4.443    0.487    0.216  109.476
  439.500    4.360    0.472    0.220  107.056
  439.750    4.440    0.479    0.212  104.637
  440.000    4.693    0.490    0.203  102.218
  440.250    5.342    0.502    0.213   99.194
  440.500    5.753    0.507    0.229  100.403
  440.750    6.428    0.500    0.232   98.589
  441.000    7.184    0.476    0.266   95.564
  441.250    6.305    0.441    0.257   93.145
  441.500    5.235    0.435    0.242   93.145
  441.750    4.595    0.461    0.229  100.403
  442.000    4.345    0.517    0.218  103.427
  442.250    4.108    0.543    0.208  108.266
  442.500    3.674    0.557    0.207  114.315
  442.750    3.225    0.565    0.216  117.339
  443.000    2.830    0.569    0.230  117.339
  443.250    2.727    0.584    0.228  114.919
  443.500    2.627    0.573    0.220  113.710
  443.750    2.577    0.559    0.223  119.758
  444.000    2.529    0.542    0.236  119.153
  444.250    2.826    0.531    0.234  113.710
  444.500    3.278    0.517    0.242  105.242
  444.750    4.493    0.502    0.267   96.774
  445.000    6.157    0.479    0.263   93.145
  445.250    7.141    0.461    0.240   95.564
  445.500    7.689    0.455    0.235   94.960
  445.750    8.127    0.479    0.235   91.936
  446.000    8.274    0.479    0.249   86.492
  446.250    8.273    0.459    0.285   82.258
  446.500    8.271    0.467    0.299   85.282
  446.750    8.580    0.470    0.276   84.677
  447.000    8.739    0.441    0.266   81.048
  447.250    8.734    0.435    0.271   78.024
  447.500    8.571    0.453    0.282   81.048
  447.750    8.568    0.461    0.304   83.468
  448.000    8.408    0.454    0.296   85.887
  448.250    8.404    0.457    0.263   87.702
  448.500    8.247    0.465    0.253   87.097
  448.750    8.092    0.463    0.267   86.492
  449.000    7.940    0.452    0.282   85.887
  449.250    7.939    0.440    0.293   86.492
  449.500    7.788    0.430    0.307   89.516
  449.750    7.786    0.427    0.289   91.331
  450.000    7.784    0.439    0.258   94.355
  450.250    7.782    0.443    0.223   95.564
  450.500    7.635    0.448    0.228   97.984
  450.750    7.632    0.457    0.229   99.194
  451.000    7.630    0.453    0.236   99.194
  451.250    7.628    0.445    0.242   97.379
  451.500    7.484    0.453    0.248   93.145
  451.750    7.482    0.445    0.261   93.145
  452.000    7.341    0.452    0.243   93.750
  452.250    7.339    0.451    0.233   94.355
  452.500    7.336    0.452    0.229   97.379
  452.750    7.334    0.457    0.234   94.960
  453.000    7.331    0.454    0.229   92.540
  453.250    7.330    0.466    0.219   96.169
  453.500    7.192    0.470    0.223   97.379
  453.750    7.189    0.463    0.229   96.774
  454.000    7.188    0.457    0.241   96.774
  454.250    7.184    0.454    0.229   96.774
  454.500    7.182    0.465    0.217   96.774
  454.750    7.046    0.470    0.221   94.355
  455.000    7.044    0.476    0.216   94.960
  455.250    7.043    0.476    0.213   92.540
  455.500    7.039    0.469    0.206   91.331
  455.750    7.037    0.477    0.221   90.121
  456.000    7.035    0.483    0.242   90.726
  456.250    7.033    0.481    0.260   92.540
  456.500    6.902    0.474    0.243   93.750
  456.750    6.898    0.458    0.234   94.355
  457.000    6.896    0.447    0.240   94.960
  457.250    6.894    0.456    0.235   95.564
  457.500    6.892    0.457    0.223   96.169
  457.750    7.018    0.448    0.235   97.379
  458.000    7.147    0.447    0.236   96.169
  458.250    7.415    0.459    0.222   93.750
  458.500    7.693    0.449    0.231   90.121
  458.750    7.835    0.441    0.229   85.887
  459.000    8.128    0.428    0.213   79.234
  459.250    8.126    0.425    0.216   79.839
  459.500    7.972    0.424    0.216   81.048
  459.750    7.970    0.424    0.221   83.468
  460.000    7.821    0.428    0.224   86.492
  460.250    7.674    0.445    0.236   93.750
  460.500    7.672    0.457    0.246   90.121
  460.750    7.669    0.464    0.246   92.540
  461.000    7.526    0.460    0.241   94.355
  461.250    7.522    0.448    0.239   95.564
  461.500    7.246    0.446    0.239   96.169
  461.750    6.980    0.446    0.229   97.379
  462.000    6.242    0.446    0.228   97.379
  462.250    5.479    0.445    0.235   97.984
  462.500    4.721    0.451    0.240   99.194
  462.750    4.222    0.460    0.239  102.218
  463.000    3.705    0.470    0.235  103.427
  463.250    3.504    0.486    0.219  105.847
  463.500    3.252    0.500    0.206  107.661
  463.750    3.191    0.523    0.206  103.427
  464.000    3.190    0.540    0.209  102.218
  464.250    3.310    0.553    0.212  104.032
  464.500    3.498    0.534    0.227  105.242
  464.750    3.766    0.527    0.236  102.823
  465.000    4.131    0.510    0.235   99.194
  465.250    4.366    0.487    0.230   96.774
  465.500    4.971    0.465    0.228   94.960
  465.750    5.554    0.474    0.229   95.564
  466.000    5.656    0.477    0.236   97.984
  466.250    5.761    0.479    0.238   96.774
  466.500    5.758    0.470    0.227   95.564
  466.750    5.756    0.463    0.213   94.355
  467.000    5.863    0.460    0.213   93.750
  467.250    6.082    0.454    0.218   90.121
  467.500    6.194    0.452    0.224   88.911
  467.750    6.426    0.442    0.241   87.097
  468.000    6.667    0.428    0.277   85.282
  468.250    6.916    0.405    0.292   71.976
  468.500    7.044    0.400    0.297   67.137
  468.750    7.173    0.399    0.297   65.323
  469.000    7.305    0.409    0.294   61.089
  469.250    7.302    0.415    0.309   59.274
  469.500    7.300    0.412    0.303   58.669
  469.750    7.164    0.407    0.293   58.669
  470.000    7.160    0.410    0.287   59.879
  470.250    7.158    0.415    0.291   61.694
  470.500    7.290    0.420    0.293   62.298
  470.750    7.425    0.424    0.295   62.903
  471.000    7.421    0.430    0.301   63.508
  471.250    7.558    0.428    0.297   64.113
  471.500    7.555    0.416    0.298   64.718
  471.750    7.553    0.417    0.307   65.927
  472.000    7.410    0.420    0.311   63.508
  472.250    7.408    0.417    0.316   62.298
  472.500    7.269    0.415    0.316   62.298
  472.750    7.266    0.418    0.314   62.903
  473.000    7.264    0.424    0.310   64.113
  473.250    7.261    0.424    0.308   64.113
  473.500    7.259    0.418    0.304   64.113
  473.750    7.257    0.418    0.299   63.508
  474.000    7.255    0.427    0.298   64.718
  474.250    7.253    0.435    0.299   65.323
  474.500    7.385    0.432    0.301   62.903
  474.750    7.384    0.432    0.295   66.532
  475.000    7.381    0.434    0.288   69.556
  475.250    7.377    0.439    0.280   70.161
  475.500    7.239    0.441    0.283   70.766
  475.750    7.104    0.439    0.283   71.371
  476.000    6.971    0.433    0.271   70.766
  476.250    6.969    0.426    0.267   69.556
  476.500    6.966    0.422    0.277   73.790
  476.750    6.963    0.429    0.285   75.605
  477.000    6.832    0.438    0.292   78.024
  477.250    6.830    0.442    0.289   78.629
  477.500    6.702    0.445    0.280   78.629
  477.750    6.577    0.433    0.285   76.210
  478.000    6.574    0.428    0.292   73.790
  478.250    6.452    0.422    0.294   74.395
  478.500    6.450    0.422    0.300   74.395
  478.750    6.447    0.427    0.290   74.395
  479.000    6.444    0.451    0.271   71.371
  479.250    6.324    0.469    0.262   69.556
  479.500    6.205    0.487    0.263   68.952
  479.750    6.089    0.498    0.267   71.976
  480.000    5.975    0.481    0.262   74.395
  480.250    5.973    0.482    0.262   75.000
