~VERSION INFORMATION
 VERS.                 2.0:   CWLS LOG ASCII STANDARD -VERSION 2.0
 WRAP.                  NO:   ONE LINE PER DEPTH STEP
~WELL INFORMATION BLOCK
#MNEM.UNIT           DATA                    DESCRIPTION OF MNEMONIC
#---------    -------------------            -------------------------------
# Generated from Intellog Unique Number	CN_91_93/WELL/3054
WELL.         11-08-092-21W4                 : Well_name    - WELL
LOC .         00/11-08-092-21W4/0            : Location     - LOCATION
UWI .         00/11-08-092-21W4/0            : Uwi          - UNIQUE WELL ID
ENTR.         JOETTE                         : Entered      - ENTERED BY
SRVC.         SCHLUMBERGER                   : Scn          - SERVICE COMPANY
DATE.         04/09/92                       : Date         - LOG DATE
STRT.F        300                            : top_depth    - START DEPTH
STOP.F        889.731                        : bot_depth    - STOP DEPTH
STEP.F        0.82                           : increment    - STEP LENGTH
 NULL. -999.2500:NULL Value
~CURVE INFORMATION BLOCK
#MNEM UNIT       ERCB CURVE CODE    CURVE DESCRIPTION
#-----------   ------------------   ----------------------------------
DEPT.F        00 001 00 00         : DEPTH        - DEPTH
CALI.IN       00 280 01 00         : CAL          - CALIPER
GR  .API      00 310 00 00         : GR           - GAMMA RAY
NPHI.V/V      00 330 00 00         : PHIN         - NEUTRON POROSITY (SANDSTONE)
DPHI.V/V      00 890 00 00         : PHID         - DENSITY POROSITY (SANDSTONE)
ILD .OHMM     00 120 00 00         : RESD         - DEEP RESISTIVITY (DIL)
~PARAMETER INFORMATION
#MNEM.UNIT           DATA             DESCRIPTION OF MNEMONIC
#---------         -----------     ------------------------------
GL  .M        547.421              : gl           - GROUND LEVEL ELEVATION
EREF.M        551.383              : kb           - ELEVATION OF DEPTH REFERENCE
DATM.M        551.383              : datum        - DATUM ELEVATION
TDD .M        274.32               : tdd          - TOTAL DEPTH DRILLER
RUN .         ONE                  : Run          - RUN NUMBER
ENG .         BILL                 : Engineer     - RECORDING ENGINEER
WIT .         JIM                  : Witness      - WITNESSED BY
MUD .         GEL                  : Mud_type     - MUD TYPE
MATR.         SANDSTONE            : Logunit      - NEUTRON MATRIX
TMAX.F        67                   : BHT          - MAXIMUM RECORDED TEMPERATURE
BHTD.F        900                  : BHTDEP       - MAXIMUM RECORDED TEMPERATURE
RMT .F        64                   : MDTP         - TEMPERATURE OF MUD
MUDD.LB/G     9.25                 : MWT          - MUD DENSITY
NEUT.         1                    : NEUTRON      - NEUTRON TYPE
RESI.         0                    : RESIST       - RESISTIVITY TYPE
RM  .OHMM     4.31                 : RM           - RESISTIVITY OF MUD
RMC .OHMM     4.31                 : RMC          - RESISTIVITY OF MUD CAKE
RMF .OHMM     3.38                 : RMF          - RESISTIVITY OF MUD FILTRATE
SUFT.F        39.2                 : SUFT         - SURFACE TEMPERATURE
~A  DEPTH      CAL       GR     PHIN     PHID     RESD
# ...
  539.501    8.346   76.790    0.448    0.127    9.131
  540.322    8.306   79.902    0.441    0.103    8.786
  541.142    8.308   83.014    0.440    0.068    8.295
  541.962    8.350   83.661    0.459    0.128    7.394
  542.782    8.351   81.825    0.460    0.170    6.467
  543.602    8.394   81.839    0.465    0.165    5.990
  544.423    8.395   81.858    0.482    0.164    5.443
  545.243    8.355   80.022    0.491    0.172    4.945
  546.063    8.192   79.422    0.485    0.156    4.580
  546.883    8.152   82.534    0.485    0.165    4.242
  547.703    8.112   86.265    0.491    0.184    4.082
  548.524    8.113   89.996    0.500    0.174    4.081
  549.344    8.114   91.876    0.516    0.173    4.003
  550.164    8.156   89.420    0.522    0.175    4.001
  550.984    8.158   86.960    0.509    0.173    4.000
  551.804    8.160   90.072    0.498    0.156    3.999
  552.625    8.161   95.659    0.528    0.146    3.998
  553.445    8.162  102.483    0.557    0.151    3.997
  554.265    8.163   99.414    0.569    0.145    3.996
  555.085    8.123   95.098    0.556    0.146    3.994
  555.906    8.124   91.405    0.552    0.157    3.994
  556.726    8.126   95.136    0.558    0.159    4.070
  557.546    8.168   95.774    0.562    0.162    4.308
  558.366    8.211   93.319    0.562    0.160    4.475
  559.186    8.295   92.724    0.556    0.154    4.560
  560.007    8.420   92.748    0.517    0.170    4.559
  560.827    8.463   89.055    0.509    0.190    4.557
  561.647    8.463   85.976    0.522    0.200    4.470
  562.467    8.464   85.377    0.517    0.172    4.384
  563.287    8.549   90.964    0.491    0.158    4.383
  564.108    8.591   96.550    0.497    0.158    4.299
  564.928    8.592   94.718    0.512    0.140    4.216
  565.748    8.511   94.114    0.507    0.119    4.216
  566.568    8.430   98.464    0.509    0.118    4.134
  567.388    8.348   97.874    0.512    0.137    4.055
  568.209    8.309   96.646    0.507    0.155    3.977
  569.029    8.310   93.572    0.509    0.158    3.901
  569.849    8.228   91.121    0.512    0.154    3.826
  570.669    8.230   92.378    0.507    0.150    3.825
  571.490    8.273   95.485    0.509    0.168    3.824
  572.310    8.398   96.742    0.519    0.185    3.897
  573.130    8.440   94.905    0.526    0.164    4.047
  573.950    8.524   92.450    0.515    0.153    4.285
  574.770    8.484   93.711    0.510    0.139    4.450
  575.591    8.362   95.586    0.514    0.149    4.622
  576.411    8.322   95.605    0.502    0.161    4.801
  577.231    8.282   92.526    0.514    0.156    4.892
  578.051    8.283   89.457    0.498    0.133    4.891
  578.871    8.284   93.802    0.479    0.141    4.890
  579.692    8.285   94.439    0.482    0.156    4.795
  580.512    8.287   90.128    0.505    0.157    4.795
  581.332    8.288   88.296    0.512    0.149    4.613
  582.152    8.248   87.697    0.507    0.155    4.439
  582.972    8.209   88.335    0.505    0.151    4.354
  583.793    8.210   90.828    0.511    0.142    4.190
  584.613    8.211   93.331    0.505    0.146    3.955
  585.433    8.212   94.583    0.507    0.158    3.880
  586.253    8.214   95.834    0.517    0.158    4.107
  587.073    8.215   97.091    0.542    0.153    4.784
  587.894    8.216   92.789    0.512    0.159    5.573
  588.714    8.258   90.943    0.484    0.181    6.247
  589.534    8.260   87.869    0.462    0.181    6.614
  590.354    8.261   86.651    0.453    0.165    6.739
  591.175    8.262   87.912    0.453    0.164    6.738
  591.995    8.264   87.931    0.480    0.169    6.483
  592.815    8.265   87.945    0.493    0.168    6.238
  593.635    8.266   86.727    0.501    0.086    5.889
  594.455    8.267   86.128    0.499    0.037    5.667
  595.276    8.269   84.915    0.502    0.042    5.350
  596.096    8.271   83.692    0.507    0.080    4.955
  596.916    8.272   83.716    0.491    0.098    4.678
  597.736    8.273   88.679    0.464    0.119    4.502
  598.556    8.274  103.550    0.493    0.140    4.249
  599.377    8.234   99.243    0.539    0.142    4.248
  600.197    8.194  100.500    0.559    0.132    4.247
  601.017    8.154  101.137    0.558    0.137    4.246
  601.837    8.155   99.301    0.555    0.123    4.245
  602.657    8.157   98.082    0.548    0.132    4.244
  603.478    8.158   98.720    0.550    0.138    4.243
  604.298    8.201   99.353    0.555    0.132    4.406
  605.118    8.243   99.372    0.549    0.117    4.665
  605.938    8.244   98.154    0.528    0.110    6.966
  606.759    8.328   93.843    0.509    0.116    7.235
  607.579    8.329   87.676    0.500    0.126    7.807
  608.399    8.330   81.509    0.488    0.118    8.753
  609.219    8.209   77.198    0.493    0.125    9.628
  610.039    8.168   72.887    0.478    0.156   10.792
  610.860    8.128   68.576    0.464    0.181   10.586
  611.680    8.088   66.739    0.461    0.196   10.383
  612.500    8.090   67.376    0.439    0.224    9.991
  613.320    8.050   69.256    0.426    0.238    9.987
  614.140    8.051   70.513    0.437    0.225   10.179
  614.961    8.052   70.532    0.449    0.219   10.775
  615.781    8.013   67.463    0.460    0.227   10.981
  616.601    8.055   65.002    0.474    0.208   11.189
  617.421    8.056   63.780    0.450    0.162   11.401
  618.241    8.058   61.329    0.441    0.159   11.399
  619.062    8.059   60.106    0.429    0.193   11.616
  619.882    8.019   60.130    0.439    0.211   11.836
  620.702    7.896   62.629    0.448    0.214   12.062
  621.522    7.815   63.875    0.456    0.191   12.770
  622.343    7.734   66.987    0.442    0.188   12.288
  623.163    7.859   68.244    0.418    0.206    9.768
  623.983    7.984   65.788    0.392    0.137    7.332
  624.803    8.068   71.994    0.373    0.086    5.098
  625.623    8.110   83.771    0.335    0.071    5.001
  626.444    8.112   88.740    0.414    0.116    5.194
  627.264    8.113   86.903    0.469    0.144    5.605
  628.084    8.114   84.447    0.477    0.150    5.934
  628.904    8.157   82.611    0.468    0.157    5.710
  629.724    8.158   83.253    0.454    0.173    5.288
  630.545    8.159   85.742    0.438    0.179    5.089
  631.365    8.160   90.091    0.443    0.149    5.185
  632.185    8.162   93.209    0.458    0.144    5.704
  633.005    8.164   90.748    0.471    0.161    6.395
  633.825    8.164   86.437    0.484    0.172    8.679
  634.646    8.166   83.363    0.492    0.183    9.365
  635.466    8.167   77.201    0.495    0.194   10.106
  636.286    8.127   71.648    0.473    0.198   10.906
  637.106    8.087   67.337    0.434    0.166   11.546
  637.927    8.006   67.974    0.414    0.078   11.540
  638.747    7.925   70.468    0.399    0.069   11.319
  639.567    7.802   72.343    0.400    0.074   10.893
  640.387    7.721   73.599    0.428    0.108   10.482
  641.207    7.763   71.144    0.444    0.147    9.524
  642.028    7.847   69.926    0.444    0.185    8.654
  642.848    8.014   71.806    0.432    0.201    7.148
  643.668    8.056   71.825    0.446    0.202    5.469
  644.488    8.057   71.225    0.471    0.132    3.591
  645.308    8.100   74.333    0.456    0.084    3.263
  646.129    8.142   81.780    0.457    0.142    3.325
  646.949    8.185   86.748    0.473    0.169    3.521
  647.769    8.228   88.633    0.497    0.187    4.100
  648.589    8.228   88.024    0.520    0.187    5.672
  649.409    8.230   86.192    0.525    0.181    6.121
  650.230    8.272   86.211    0.487    0.166    6.733
  651.050    8.274   85.611    0.476    0.149    7.406
  651.870    8.316   84.393    0.463    0.139    8.146
  652.690    8.400   83.175    0.445    0.133    8.790
  653.510    8.443   81.338    0.441    0.119    9.486
  654.331    8.444   80.734    0.441    0.111   10.042
  655.151    8.405   78.279    0.437    0.120   10.836
  655.971    8.406   75.210    0.438    0.123   11.256
  656.791    8.366   72.759    0.444    0.106   11.469
  657.612    8.367   72.150    0.438    0.070   11.466
  658.432    8.368   74.644    0.407    0.082   11.246
