~VERSION INFORMATION
 VERS.                 2.0:   CWLS LOG ASCII STANDARD -VERSION 2.0
 WRAP.                  NO:   ONE LINE PER DEPTH STEP
~WELL INFORMATION BLOCK
#MNEM.UNIT           DATA                    DESCRIPTION OF MNEMONIC
#---------    -------------------            -------------------------------
# Generated from Intellog Unique Number	CS_73_76/WELL/810
WELL.         PEX PHILLIPS AEC GRIST         : Well_name    - WELL
LOC .         00/10-04-073-08W4/0            : Location     - LOCATION
UWI .         00/10-04-073-08W4/0            : Uwi          - UNIQUE WELL ID
ENTR.         SP                             : Entered      - ENTERED BY
SRVC.         SCHLUMBERGER                   : Scn          - SERVICE COMPANY
STRT.M        315                            : top_depth    - START DEPTH
STOP.M        540                            : bot_depth    - STOP DEPTH
STEP.M        0.25                           : increment    - STEP LENGTH
 NULL. -999.2500:NULL Value
~CURVE INFORMATION BLOCK
#MNEM UNIT       ERCB CURVE CODE    CURVE DESCRIPTION
#-----------   ------------------   ----------------------------------
DEPT.M        00 001 00 00         : DEPTH        - DEPTH
ILD .OHMM     00 120 00 00         : RESD         - DEEP RESISTIVITY (DIL)
DPHI.V/V      00 890 00 00         : PHID         - DENSITY POROSITY (LIMESTONE)
NPHI.V/V      00 330 00 00         : PHIN         - NEUTRON POROSITY (LIMESTONE)
GR  .API      00 310 00 00         : GR           - GAMMA RAY
~PARAMETER INFORMATION
#MNEM.UNIT           DATA             DESCRIPTION OF MNEMONIC
#---------         -----------     ------------------------------
GL  .M        692.94               : gl           - GROUND LEVEL ELEVATION
EREF.M        696.02               : kb           - ELEVATION OF DEPTH REFERENCE
DATM.M        692.94               : datum        - DATUM ELEVATION
TDD .M        550.8                : tdd          - TOTAL DEPTH DRILLER
RUN .         ONE                  : Run          - RUN NUMBER
ENG .         BILL                 : Engineer     - RECORDING ENGINEER
WIT .         JIM                  : Witness      - WITNESSED BY
MUD .         GEL                  : Mud_type     - MUD TYPE
MATR.         LIMESTONE            : Logunit      - NEUTRON MATRIX
TMAX.C        29                   : BHT          - MAXIMUM RECORDED TEMPERATURE
BHTD.M        550.8                : BHTDEP       - MAXIMUM RECORDED TEMPERATURE
MATR.         1                    : LOGUNIT      - NEUTRON MATRIX
RMT .C        25                   : MDTP         - TEMPERATURE OF MUD
NEUT.         1                    : NEUTRON      - NEUTRON TYPE
RESI.         0                    : RESIST       - RESISTIVITY TYPE
RMC .OHMM     0.25                 : RMC          - RESISTIVITY OF MUD CAKE
RMF .OHMM     0.25                 : RMF          - RESISTIVITY OF MUD FILTRATE
SUFT.C        15                   : SUFT         - SURFACE TEMPERATURE
~A  DEPTH     RESD     PHID     PHIN       GR
# ...
  489.000   20.131    0.231    0.347   67.905
  489.250   18.322    0.236    0.343   71.560
  489.500   16.994    0.218    0.338   74.605
  489.750   16.366    0.204    0.333   76.430
  490.000   15.468    0.216    0.333   78.865
  490.250   14.347    0.201    0.327   80.690
  490.500   13.560    0.214    0.326   81.906
  490.750   13.307    0.228    0.338   84.341
  491.000   12.342    0.223    0.343   87.386
  491.250   11.447    0.209    0.343   86.772
  491.500   10.819    0.204    0.342   86.767
  491.750   10.034    0.190    0.340   86.764
  492.000    9.307    0.193    0.337   92.246
  492.250    8.963    0.199    0.332   96.511
  492.500    8.797    0.185    0.328  103.214
  492.750    8.797    0.161    0.352  112.356
  493.000    9.850    0.192    0.329  114.792
  493.250   11.671    0.208    0.323  114.787
  493.500   12.824    0.192    0.320   98.930
  493.750   13.069    0.191    0.312   84.292
  494.000   13.318    0.174    0.309   76.361
  494.250   12.826    0.187    0.312   71.479
  494.500   11.896    0.224    0.309   67.817
  494.750   10.626    0.217    0.303   70.251
  495.000   10.234    0.169    0.298   75.735
  495.250    9.672    0.141    0.292   84.266
  495.500    9.315    0.131    0.290   88.530
  495.750    9.142    0.150    0.304   91.576
  496.000    8.972    0.165    0.315   93.402
  496.250    8.973    0.174    0.311   91.568
  496.500    8.973    0.181    0.308   89.126
  496.750    8.973    0.190    0.306   83.633
  497.000    8.481    0.169    0.312   79.360
  497.250    8.168    0.155    0.316   78.747
  497.500    8.168    0.144    0.321   88.499
  497.750   11.252    0.168    0.326   93.983
  498.000   15.499    0.185    0.344   79.954
  498.250   19.431    0.200    0.348   73.243
  498.500   20.953    0.240    0.335   68.971
  498.750   20.954    0.259    0.325   66.528
  499.000   17.358    0.248    0.320   62.256
  499.250   14.379    0.217    0.320   61.032
  499.500   11.471    0.191    0.331   63.466
  499.750   11.258    0.173    0.346   67.121
  500.000   12.140    0.232    0.335   71.995
  500.250   12.846    0.262    0.321   67.114
  500.500   14.115    0.255    0.316   51.866
  500.750   15.221    0.210    0.311   62.226
  501.000   16.725    0.208    0.320   67.101
  501.250   17.698    0.228    0.324   71.365
  501.500   18.728    0.240    0.330   68.312
  501.750   18.729    0.248    0.322   69.526
  502.000   18.381    0.246    0.316   70.133
  502.250   15.516    0.229    0.315   68.910
  502.500   12.613    0.216    0.318   64.028
  502.750   10.647    0.227    0.309   59.145
  503.000    8.335    0.251    0.296   51.214
  503.250    6.905    0.262    0.287   40.846
  503.500    6.167    0.245    0.302   33.525
  503.750    5.305    0.259    0.308   30.472
  504.000    4.738    0.277    0.324   32.907
  504.250    4.478    0.287    0.332   38.390
  504.500    4.395    0.280    0.324   43.264
  504.750    4.313    0.281    0.321   42.649
  505.000    4.233    0.271    0.318   45.085
  505.250    4.233    0.262    0.313   51.178
  505.500    4.234    0.260    0.310   56.662
  505.750    4.234    0.269    0.302   60.927
  506.000    4.234    0.278    0.296   64.581
  506.250    4.235    0.272    0.296   67.625
  506.500    4.315    0.267    0.297   69.450
  506.750    4.316    0.263    0.303   70.056
  507.000    4.316    0.266    0.310   69.442
  507.250    4.398    0.260    0.315   67.000
  507.500    4.398    0.258    0.325   67.605
  507.750    4.568    0.265    0.320   69.431
  508.000    4.743    0.259    0.319   71.255
  508.250    4.834    0.249    0.319   71.252
  508.500    4.926    0.228    0.324   69.418
  508.750    5.115    0.210    0.318   72.463
  509.000    5.116    0.207    0.314   71.848
  509.250    5.116    0.238    0.318   71.235
  509.500    5.116    0.233    0.313   70.621
  509.750    5.117    0.228    0.325   68.179
  510.000    5.414    0.243    0.317   68.175
  510.250    5.623    0.244    0.308   66.951
  510.500    6.063    0.212    0.309   68.776
  510.750    6.416    0.167    0.309   73.041
  511.000    6.662    0.156    0.326   79.744
  511.250    6.790    0.140    0.341   87.666
  511.500    6.919    0.152    0.349   91.321
  511.750    7.051    0.203    0.338   96.804
  512.000    7.186    0.172    0.328  101.678
  512.250    7.186    0.156    0.323  106.551
  512.500    7.186    0.174    0.340  110.205
  512.750    7.324    0.172    0.324  112.032
  513.000    7.463    0.144    0.307  105.929
  513.250    7.606    0.118    0.296  100.439
  513.500    7.606    0.109    0.308   94.337
  513.750    7.465    0.113    0.338   97.992
  514.000    7.465    0.122    0.327  102.256
  514.250    7.190    0.132    0.311  105.301
  514.500    6.924    0.134    0.325  101.027
  514.750    6.925    0.141    0.327   98.584
  515.000    6.925    0.154    0.318   96.751
  515.250    6.926    0.143    0.317   91.260
  515.500    6.926    0.098    0.309   91.255
  515.750    6.927    0.105    0.298   94.910
  516.000    7.059    0.124    0.312   96.125
  516.250    7.059    0.128    0.310   95.512
  516.500    7.059    0.146    0.310   96.117
  516.750    6.928    0.159    0.328   97.942
  517.000    6.929    0.178    0.319   97.938
  517.250    6.929    0.171    0.310   96.714
  517.500    6.930    0.162    0.322   94.882
  517.750    6.930    0.149    0.314   96.706
  518.000    7.196    0.141    0.312   97.313
  518.250    7.473    0.141    0.323   94.258
  518.500    7.616    0.145    0.310   93.036
  518.750    8.212    0.160    0.310   93.032
  519.000    8.528    0.173    0.313   84.491
  519.250    8.856    0.202    0.311   79.000
  519.500    9.025    0.160    0.326   75.338
  519.750    9.026    0.154    0.317   83.870
  520.000    9.026    0.199    0.328   87.524
  520.250    8.693    0.230    0.305   73.496
  520.500    8.531    0.194    0.301   63.735
  520.750    8.063    0.180    0.299   66.781
  521.000    7.621    0.196    0.306   75.313
  521.250    7.479    0.205    0.301   81.406
  521.500    7.203    0.203    0.296   81.402
  521.750    7.069    0.159    0.302   82.618
  522.000    7.069    0.140    0.307   88.711
  522.250    6.808    0.180    0.293   82.610
  522.500    6.682    0.185    0.300   85.654
  522.750    6.435    0.155    0.301   86.870
  523.000    6.082    0.154    0.300   85.036
  523.250    5.641    0.163    0.306   80.764
  523.500    4.944    0.166    0.313   75.273
  523.750    4.586    0.149    0.322   72.828
  524.000    4.334    0.148    0.331   74.654
  524.250    4.254    0.180    0.315   63.065
  524.500    4.174    0.220    0.323   59.403
  524.750    4.254    0.246    0.337   58.179
  525.000    4.587    0.274    0.327   56.346
  525.250    5.137    0.244    0.317   64.878
  525.500    5.539    0.199    0.322   71.581
  525.750    5.861    0.169    0.325   78.893
  526.000    6.202    0.145    0.318   85.596
  526.250    6.321    0.136    0.311   91.691
  526.500    6.203    0.132    0.299   95.346
  526.750    5.863    0.142    0.288   94.122
  527.000    5.646    0.158    0.288   88.628
  527.250    6.088    0.143    0.299   87.406
  527.500    5.975    0.120    0.303   84.963
  527.750    5.976    0.137    0.295   86.789
  528.000    5.864    0.154    0.279   88.612
  528.250    5.865    0.162    0.274   87.999
  528.500    5.648    0.173    0.287   84.337
  528.750    5.440    0.179    0.295   80.066
  529.000    5.339    0.158    0.303   81.890
  529.250    5.142    0.149    0.319   84.935
  529.500    5.142    0.154    0.316   78.832
  529.750    5.142    0.178    0.317   75.779
  530.000    5.143    0.192    0.330   76.386
  530.250    5.047    0.154    0.303   82.480
  530.500    4.681    0.175    0.287   72.719
  530.750    4.103    0.155    0.297   75.763
  531.000    3.735    0.131    0.300   81.858
  531.250    3.336    0.116    0.301   86.122
  531.500    2.924    0.191    0.310   83.069
  531.750    2.661    0.263    0.313   55.626
  532.000    2.468    0.288    0.317   52.572
  532.250    2.422    0.263    0.332   51.350
