~VERSION INFORMATION
 VERS.                 2.0:   CWLS LOG ASCII STANDARD -VERSION 2.0
 WRAP.                  NO:   ONE LINE PER DEPTH STEP
~WELL INFORMATION BLOCK
#MNEM.UNIT           DATA                    DESCRIPTION OF MNEMONIC
#---------    -------------------            -------------------------------
# Generated from Intellog Unique Number	CW_76_78/WELL/2577
WELL.         10-19-078-25W4                 : Well_name    - WELL
LOC .         00/10-19-078-25W4/0            : Location     - LOCATION
UWI .         00/10-19-078-25W4/0            : Uwi          - UNIQUE WELL ID
ENTR.         MAX                            : Entered      - ENTERED BY
SRVC.         COMPUTALOG                     : Scn          - SERVICE COMPANY
STRT.M        270                            : top_depth    - START DEPTH
STOP.M        500                            : bot_depth    - STOP DEPTH
STEP.M        0.25                           : increment    - STEP LENGTH
 NULL. -999.2500:NULL Value
~CURVE INFORMATION BLOCK
#MNEM UNIT       ERCB CURVE CODE    CURVE DESCRIPTION
#-----------   ------------------   ----------------------------------
DEPT.M        00 001 00 00         : DEPTH        - DEPTH
ILD .OHMM     00 120 00 00         : RESD         - DEEP RESISTIVITY (DIL)
NPHI.V/V      00 330 00 00         : PHIN         - NEUTRON POROSITY (SANDSTONE)
DPHI.V/V      00 890 00 00         : PHID         - DENSITY POROSITY (SANDSTONE)
CALI.MM       00 280 01 00         : CAL          - CALIPER
GR  .API      00 310 00 00         : GR           - GAMMA RAY
~PARAMETER INFORMATION
#MNEM.UNIT           DATA             DESCRIPTION OF MNEMONIC
#---------         -----------     ------------------------------
GL  .M        581.86               : gl           - GROUND LEVEL ELEVATION
EREF.M        586.11               : kb           - ELEVATION OF DEPTH REFERENCE
DATM.M        581.86               : datum        - DATUM ELEVATION
TDD .M        501                  : tdd          - TOTAL DEPTH DRILLER
RUN .         ONE                  : Run          - RUN NUMBER
ENG .         BILL                 : Engineer     - RECORDING ENGINEER
WIT .         JIM                  : Witness      - WITNESSED BY
MUD .         GEL                  : Mud_type     - MUD TYPE
MATR.         SANDSTONE            : Logunit      - NEUTRON MATRIX
TMAX.C        18                   : BHT          - MAXIMUM RECORDED TEMPERATURE
BHTD.M        501                  : BHTDEP       - MAXIMUM RECORDED TEMPERATURE
RMT .C        16                   : MDTP         - TEMPERATURE OF MUD
MUDD.KG/M     1100                 : MWT          - MUD DENSITY
NEUT.         1                    : NEUTRON      - NEUTRON TYPE
RESI.         0                    : RESIST       - RESISTIVITY TYPE
RM  .OHMM     4.4                  : RM           - RESISTIVITY OF MUD
RMC .OHMM     4.1                  : RMC          - RESISTIVITY OF MUD CAKE
RMF .OHMM     5.4                  : RMF          - RESISTIVITY OF MUD FILTRATE
SUFT.C        -10                  : SUFT         - SURFACE TEMPERATURE
~A  DEPTH     RESD     PHIN     PHID      CAL       GR
# ...
  379.500    8.751    0.407    0.237  202.121   93.845
  379.750    9.247    0.448    0.239  202.125   84.036
  380.000   10.900    0.427    0.234  202.131   81.958
  380.250   10.809    0.407    0.218  202.137   86.124
  380.500   10.335    0.434    0.208  202.141   88.505
  380.750    9.793    0.450    0.221  202.150   83.454
  381.000    9.624    0.439    0.224  202.152   81.673
  381.250    9.987    0.424    0.224  202.157   81.676
  381.500   10.650    0.454    0.211  202.657   85.247
  381.750   11.996    0.489    0.199  202.663   89.116
  382.000   14.399    0.464    0.178  202.669   73.360
  382.250   15.076    0.199    0.029  202.179   60.281
  382.500   14.682    0.137    0.030  202.182   63.257
  382.750   13.662    0.168    0.064  202.188   77.533
  383.000   12.596    0.319    0.178  202.194   84.672
  383.250   10.702    0.395    0.208  202.203   85.864
  383.500    9.868    0.381    0.203  202.205   89.732
  383.750    9.878    0.404    0.181  202.205   96.872
  384.000    9.973    0.438    0.164  202.218   92.415
  384.250   10.163    0.423    0.173  202.220   88.552
  384.500   10.644    0.394    0.184  202.721   90.042
  384.750   11.145    0.394    0.170  203.221   87.667
  385.000   11.886    0.373    0.137  203.226   68.939
  385.250   12.677    0.340    0.121  203.728   71.915
  385.500   12.685    0.300    0.126  203.237   77.864
  385.750   12.352    0.255    0.149  202.251   85.895
  386.000   11.184    0.263    0.178  201.761   90.656
  386.250   10.036    0.313    0.190  201.766   86.793
  386.500    9.171    0.418    0.200  202.267   87.986
  386.750    8.931    0.439    0.196  202.271   90.962
  387.000    8.931    0.423    0.185  202.277   90.371
  387.250    8.862    0.400    0.178  202.777   93.347
  387.500    8.869    0.376    0.180  203.280   90.972
  387.750    8.715    0.384    0.186  203.285   95.732
  388.000    8.485    0.403    0.186  203.289  102.277
  388.250    8.485    0.438    0.187  202.799   93.955
  388.500    8.347    0.453    0.189  201.318   94.255
  388.750    8.275    0.404    0.183  198.846   94.258
  389.000    8.275    0.367    0.188  196.869   83.260
  389.250    8.286    0.388    0.180  196.873   81.182
  389.500    8.836    0.491    0.156  196.879   81.780
  389.750    9.340    0.424    0.159  197.876   85.054
  390.000    9.260    0.349    0.207  198.375   96.355
  390.250    8.936    0.380    0.211  199.867   95.169
  390.500    8.936    0.407    0.193  202.351   96.064
  390.750    8.709    0.429    0.190  204.338   95.770
  391.000    8.403    0.434    0.192  204.343   89.529
  391.250    8.403    0.422    0.196  203.357   90.722
  391.500    8.417    0.407    0.191  202.371   95.780
  391.750    8.420    0.386    0.183  201.881   88.350
  392.000    8.503    0.382    0.178  200.896   89.542
  392.250    8.509    0.416    0.178  200.406   83.896
  392.500    8.514    0.419    0.199  200.411   82.412
  392.750    8.756    0.356    0.193  200.911   86.281
  393.000    9.254    0.341    0.227  200.916   81.824
  393.250   10.050    0.404    0.221  200.426   79.449
  393.500   11.114    0.442    0.204  199.440   78.559
  393.750   12.179    0.542    0.189  198.455   77.968
  394.000   15.160    0.476    0.205  197.963   84.811
  394.250   16.614    0.377    0.194  197.969   75.001
  394.500   18.375    0.417    0.179  197.479   67.571
  394.750   18.055    0.411    0.194  197.484   67.872
  395.000   16.650    0.367    0.195  197.490   70.254
  395.250   15.076    0.277    0.167  198.485   70.256
  395.500   13.526    0.310    0.146  199.977   74.124
  395.750   11.813    0.325    0.179  199.488   83.642
  396.000   11.093    0.348    0.191  199.492   88.700
  396.250   10.703    0.412    0.201  199.502   88.406
  396.500   10.517    0.414    0.196  199.504   91.085
  396.750   10.428    0.420    0.188  199.508   89.602
  397.000   10.342    0.410    0.193  200.009   84.550
  397.250   10.444    0.392    0.203  200.510   86.337
  397.500   10.553    0.360    0.205  201.506   90.503
  397.750   10.748    0.339    0.200  202.006   89.912
  398.000   11.054    0.373    0.184  202.011   90.212
  398.250   11.263    0.406    0.168  201.522   94.972
  398.500   11.373    0.401    0.162  202.517   92.299
  398.750   11.589    0.342    0.160  205.498   90.221
  399.000   11.598    0.325    0.156  206.989   89.927
  399.250   11.605    0.358    0.156  207.489   98.850
  399.500   11.406    0.387    0.164  206.999  102.719
  399.750   11.107    0.331    0.164  206.999  102.722
  400.000    9.953    0.424    0.173  212.119  109.325
  400.250    9.689    0.409    0.173  211.640  106.344
  400.500    9.351    0.384    0.166  211.655   97.691
  400.750    9.189    0.381    0.164  211.169   90.831
  401.000    9.282    0.389    0.170  211.683   89.645
  401.250    9.459    0.339    0.183  211.700   88.759
  401.500    9.729    0.356    0.181  212.215   93.844
  401.750    9.827    0.394    0.184  212.226   89.074
  402.000    9.925    0.383    0.181  211.747   94.762
  402.250   10.025    0.370    0.161  211.260   95.366
  402.500   10.123    0.397    0.157  210.777   95.972
  402.750   10.318    0.377    0.175  211.294   98.969
  403.000   10.612    0.314    0.186  211.305   92.705
  403.250   10.817    0.348    0.187  211.322   94.506
  403.500    9.795    0.356    0.182  210.839  101.086
  403.750    9.364    0.346    0.197  210.358  107.069
  404.000    9.287    0.433    0.198  209.874   91.546
  404.250    9.817    0.455    0.188  208.895   91.257
  404.500   10.862    0.432    0.210  207.914   93.359
  404.750   13.283    0.411    0.198  206.437   88.886
  405.000   16.397    0.311    0.151  205.953   80.830
  405.250   18.645    0.324    0.146  205.953   83.228
  405.500   18.489    0.362    0.189  205.491   87.123
  405.750   18.172    0.396    0.202  205.502   81.754
  406.000   18.186    0.395    0.217  205.517   85.645
  406.250   18.536    0.381    0.235  207.023   88.941
  406.500   18.552    0.431    0.223  207.536   79.988
  406.750   18.228    0.381    0.219  206.058   74.919
  407.000   17.915    0.372    0.205  204.081   83.890
  407.250   18.596    0.405    0.206  202.603   91.069
  407.500   20.573    0.458    0.162  201.130   82.714
  407.750   22.762    0.391    0.056  200.641   75.555
  408.000   25.646    0.179    0.050  200.660   77.653
  408.250   26.384    0.214    0.134  200.177   80.950
  408.500   26.160    0.348    0.203  200.190   82.749
  408.750   24.790    0.385    0.220  200.207   83.356
  409.000   22.646    0.361    0.197  200.220   83.962
  409.250   20.879    0.360    0.194  200.237   85.764
  409.500   19.426    0.364    0.211  200.252   86.968
  409.750   18.407    0.338    0.214  200.267   86.679
  410.000   17.764    0.341    0.199  199.782   83.701
  410.250   18.271    0.422    0.203  199.801   88.488
  410.500   19.491    0.385    0.221  200.314   94.769
  410.750   21.370    0.364    0.197  200.827   84.026
  411.000   23.006    0.399    0.157  200.840   80.749
  411.250   23.665    0.343    0.086  200.855   78.070
  411.500   23.464    0.264    0.109  200.870   78.677
  411.750   22.644    0.297    0.179  201.386   84.362
  412.000   21.069    0.318    0.202  201.895   83.474
  412.250   19.963    0.306    0.187  202.906   78.406
  412.500   18.916    0.338    0.188  204.916   81.401
  412.750   18.086    0.366    0.197  206.922   85.293
  413.000   17.452    0.426    0.192  207.931   96.951
  413.250   17.152    0.434    0.192  208.445   91.286
  413.500   17.644    0.387    0.197  208.956   90.997
  413.750   18.316    0.359    0.197  209.969   88.019
  414.000   18.327    0.369    0.186  210.978   82.652
  414.250   17.367    0.389    0.192  212.984   83.855
  414.500   16.458    0.462    0.189  215.490   91.930
  414.750   15.737    0.461    0.174  216.002   97.314
  415.000   15.614    0.431    0.169  217.017   96.429
  415.250   15.198    0.379    0.185  217.017   96.734
  415.500   14.532    0.367    0.189  217.043  100.029
  415.750   14.149    0.351    0.193  218.551   99.742
