~VERSION INFORMATION
 VERS.                 2.0:   CWLS LOG ASCII STANDARD -VERSION 2.0
 WRAP.                  NO:   ONE LINE PER DEPTH STEP
~WELL INFORMATION BLOCK
#MNEM.UNIT           DATA                    DESCRIPTION OF MNEMONIC
#---------    -------------------            -------------------------------
# Generated from Intellog Unique Number	CW_70_72/WELL/1031
NULL.         -999.25                        : NULL_VALUE
WELL.         SUNCOR TOMATO 10-01            : Well_name    - WELL              
LOC .         10-01-072-24W4                 : Location     - LOCATION          
UWI .         00/10-01-072-24W4/0            : Uwi          - UNIQUE WELL ID    
ENTR.         JAYE                           : Entered      - ENTERED BY        
SRVC.         COMPUTALOG                     : Scn          - SERVICE COMPANY   
DATE.         3 MAR 80                       : Date         - LOG DATE          
STRT.M        435                            : top_depth    - START DEPTH       
STOP.M        645                            : bot_depth    - STOP DEPTH        
STEP.M        0.25                           : increment    - STEP LENGTH       
~CURVE INFORMATION BLOCK
#MNEM UNIT       ERCB CURVE CODE    CURVE DESCRIPTION
#-----------   ------------------   ----------------------------------
DEPT.M        00 001 00 00         : DEPTH        - DEPTH                       
DPHI.V/V      00 890 00 00         : PHID         - DENSITY POROSITY (SANDSTONE)
NPHI.V/V      00 330 00 00         : PHIN         - NEUTRON POROSITY (SANDSTONE)
GR  .API      00 310 00 00         : GR           - GAMMA RAY                   
CALI.MM       00 280 01 00         : CAL          - CALIPER                     
ILD .OHMM     00 120 00 00         : RESD         - DEEP RESISTIVITY (DIL)      
~PARAMETER INFORMATION       
#MNEM.UNIT           DATA             DESCRIPTION OF MNEMONIC
#---------         -----------     ------------------------------
GL  .M        670.96               : gl           - GROUND LEVEL ELEVATION      
EREF.M        674.31               : kb           - ELEVATION OF DEPTH REFERENCE
DATM.M        670.96               : datum        - DATUM ELEVATION             
TDD .M        662                  : tdd          - TOTAL DEPTH DRILLER         
RUN .         ONE                  : Run          - RUN NUMBER                  
ENG .         JESIOLOWSKI          : Engineer     - RECORDING ENGINEER          
WIT .         KOKOTOTLO            : Witness      - WITNESSED BY                
BASE.         EDM                  : Branch       - HOME BASE OF LOGGING UNIT   
MUD .         GEL CHEM             : Mud_type     - MUD TYPE                    
MATR.         SANDSTONE            : Logunit      - NEUTRON MATRIX              
TMAX.C        21                   : BHT          - MAXIMUM RECORDED TEMPERATURE
BHTD.M        662                  : BHTDEP       - MAXIMUM RECORDED TEMPERATURE
RMT .C        16.6                 : MDTP         - TEMPERATURE OF MUD          
MUDD.KG/M     1140                 : MWT          - MUD DENSITY                 
NEUT.         1                    : NEUTRON      - NEUTRON TYPE                
RESI.         0                    : RESIST       - RESISTIVITY TYPE            
RM  .OHMM     6                    : RM           - RESISTIVITY OF MUD          
RMC .OHMM     0                    : RMC          - RESISTIVITY OF MUD CAKE     
RMF .OHMM     5.8                  : RMF          - RESISTIVITY OF MUD FILTRATE 
SUFT.C        0                    : SUFT         - SURFACE TEMPERATURE         
~A  DEPTH     PHID     PHIN       GR      CAL     RESD
# ...
  508.000    0.295    0.363   38.608  144.163    2.856
  508.250    0.291    0.320   47.187  144.292    2.861
  508.500    0.286    0.312   49.685  144.418    2.871
  508.750    0.283    0.347   50.011  144.856    2.910
  509.000    0.280    0.371   50.087  145.296    2.958
  509.250    0.285    0.391   44.271  145.946    2.991
  509.500    0.290    0.373   46.335  146.281    3.026
  509.750    0.290    0.346   50.756  146.312    3.041
  510.000    0.287    0.312   51.950  146.438    3.080
  510.250    0.280    0.303   52.400  146.255    3.093
  510.500    0.271    0.317   60.172  146.494    3.115
  510.750    0.268    0.358   63.352  146.417    3.174
  511.000    0.267    0.375   59.086  146.445    3.246
  511.250    0.266    0.326   60.654  146.466    3.319
  511.500    0.265    0.335   63.089  146.188    3.394
  511.750    0.262    0.344   67.635  146.206    3.451
  512.000    0.257    0.332   73.358  146.338    3.544
  512.250    0.249    0.318   78.213  146.265    3.623
  512.500    0.246    0.320   76.616  146.082    3.726
  512.750    0.263    0.335   75.579  145.590    3.839
  513.000    0.257    0.329   75.779  145.412    3.933
  513.250    0.248    0.307   76.106  145.433    4.044
  513.500    0.243    0.329   76.059  145.873    4.190
  513.750    0.249    0.349   74.213  146.107    4.390
  514.000    0.232    0.367   69.451  146.132    4.696
  514.250    0.207    0.381   74.120  146.270    5.129
  514.500    0.173    0.248   77.239  146.291    5.653
  514.750    0.137    0.186   67.761  146.318    6.195
  515.000    0.107    0.192   67.405  146.342    6.945
  515.250    0.142    0.245   69.965  146.369    7.596
  515.500    0.165    0.278   70.662  146.605    8.034
  515.750    0.192    0.335   72.663  147.043    8.155
  516.000    0.209    0.271   68.026  147.688    8.171
  516.250    0.187    0.168   62.954  148.024    8.034
  516.500    0.146    0.208   56.827  148.260    7.783
  516.750    0.180    0.255   50.950  148.490    7.606
  517.000    0.265    0.385   54.998  149.863    7.368
  517.250    0.220    0.385   68.539  152.058    7.161
  517.500    0.183    0.331   80.096  153.842    6.898
  517.750    0.144    0.305   76.824  153.456    6.631
  518.000    0.176    0.320   78.824  150.689    6.317
  518.250    0.227    0.343   93.234  147.200    6.025
  518.500    0.250    0.352   86.798  145.572    5.394
  518.750    0.253    0.339   80.423  144.672    4.731
  519.000    0.255    0.328   74.296  144.077    4.389
  519.250    0.264    0.308   78.221  143.274    4.260
  519.500    0.275    0.313   82.207  142.585    4.227
  519.750    0.270    0.328   77.383  142.398    4.210
  520.000    0.265    0.352   75.354  142.837    4.226
  520.250    0.261    0.361   80.765  143.279    4.242
  520.500    0.249    0.356   76.748  144.239    4.233
  520.750    0.266    0.324   78.873  144.572    4.124
  521.000    0.264    0.279   85.466  144.699    3.957
  521.250    0.233    0.300   95.658  144.729    3.761
  521.500    0.222    0.333  102.436  144.547    3.608
  521.750    0.211    0.349  107.169  144.469    3.443
  522.000    0.202    0.324  110.658  144.390    3.359
  522.250    0.208    0.372  106.703  144.415    3.520
  522.500    0.228    0.380  102.561  144.340    3.880
  522.750    0.219    0.361   97.240  144.157    4.357
  523.000    0.185    0.359   91.052  143.873    4.858
  523.250    0.186    0.327   87.718  143.801    5.176
  523.500    0.205    0.332   98.715  143.722    5.353
  523.750    0.217    0.345   93.457  143.647    5.362
  524.000    0.230    0.310   90.309  143.566    5.262
  524.250    0.231    0.327   94.915  143.903    5.096
  524.500    0.209    0.349  104.611  145.068    5.039
  524.750    0.204    0.366  107.605  146.748    5.039
  525.000    0.210    0.347  108.117  148.532    5.058
  525.250    0.202    0.312  112.413  150.320    5.039
  525.500    0.193    0.325  116.958  152.203    5.027
  525.750    0.185    0.343  116.168  154.195    5.084
  526.000    0.184    0.333  114.074  155.977    5.141
  526.250    0.187    0.398  109.684  157.244    5.229
  526.500    0.190    0.385  103.000  158.204    5.287
  526.750    0.180    0.342  103.077  158.852    5.325
  527.000    0.186    0.356  104.210  159.393    5.396
  527.250    0.204    0.365  106.211  159.522    5.384
  527.500    0.200    0.333  109.143  159.963    5.225
  527.750    0.177    0.359  104.754  160.711    5.014
  528.000    0.171    0.399  102.722  162.601    4.838
  528.250    0.179    0.357  113.099  163.972    4.731
  528.500    0.176    0.334  122.918  164.721    4.694
  528.750    0.174    0.374  116.110  165.470    4.693
  529.000    0.171    0.420  110.107  165.600    4.719
  529.250    0.179    0.385  113.907  164.905    4.746
  529.500    0.177    0.396  117.149  162.965    4.736
  529.750    0.199    0.418  110.525  159.268    4.639
  530.000    0.234    0.370   96.457  154.330    4.468
  530.250    0.271    0.336   75.378  149.600    4.296
  530.500    0.290    0.330   75.952  146.213    4.153
  530.750    0.304    0.367   80.683  144.485    4.067
  531.000    0.304    0.363   76.667  143.996    3.993
  531.250    0.298    0.323   76.931  143.607    3.968
  531.500    0.290    0.325   81.724  143.630    3.945
  531.750    0.302    0.344   81.367  144.483    3.959
  532.000    0.295    0.307   94.040  145.544    4.028
  532.250    0.274    0.288  106.712  145.572    4.102
  532.500    0.235    0.294  106.294  145.700    4.219
  532.750    0.227    0.317  100.353  145.626    4.299
  533.000    0.229    0.341   96.834  145.652    4.355
  533.250    0.225    0.357   94.739  146.192    4.412
  533.500    0.246    0.312   91.094  146.426    4.411
  533.750    0.261    0.275   86.767  146.869    4.289
  534.000    0.244    0.297   87.093  147.103    4.241
  534.250    0.205    0.331   95.981  147.233    4.231
  534.500    0.200    0.370   88.489  147.358    4.224
  534.750    0.238    0.387   79.757  147.598    4.200
  535.000    0.277    0.367   89.823  147.726    4.175
  535.250    0.289    0.315   91.267  147.749    4.105
  535.500    0.277    0.335   87.188  148.194    4.006
  535.750    0.280    0.363   91.795  148.422    3.954
  536.000    0.281    0.381  100.311  148.554    3.901
  536.250    0.278    0.349   97.907  148.582    3.843
  536.500    0.280    0.326   93.145  148.293    3.772
  536.750    0.281    0.374   97.069  148.630    3.786
  537.000    0.222    0.426   91.067  148.554    3.981
  537.250    0.196    0.411   79.728  148.377    4.428
  537.500    0.191    0.330   72.237  147.988    4.993
  537.750    0.193    0.333   59.906  147.392    5.586
  538.000    0.145    0.217   62.341  146.700    6.322
  538.250    0.094    0.192   69.120  146.306    6.759
  538.500    0.239    0.266   69.137  145.918    7.578
  538.750    0.276    0.362   70.578  145.741    8.557
  539.000    0.296    0.358   76.240  145.146    8.934
  539.250    0.286    0.379   58.884  144.758    9.001
  539.500    0.249    0.410   58.651  145.403    8.508
  539.750    0.202    0.372   69.587  149.048    7.281
  540.000    0.239    0.394   76.676  149.494    6.209
  540.250    0.268    0.438   78.367  148.687    5.487
  540.500    0.284    0.465   79.375  147.580    4.939
  540.750    0.290    0.416   83.672  146.884    4.381
  541.000    0.289    0.410   95.724  146.390    3.996
  541.250    0.284    0.361   91.460  145.380    3.667
  541.500    0.279    0.356   84.712  143.960    3.584
  541.750    0.282    0.393   79.516  142.540    3.523
  542.000    0.285    0.420   75.189  142.046    3.523
  542.250    0.288    0.425   78.431  142.589    3.537
  542.500    0.292    0.441   82.791  143.443    3.556
  542.750    0.291    0.424   82.061  143.470    3.575
  543.000    0.286    0.406   81.022  143.809    3.608
  543.250    0.278    0.403   76.818  144.558    3.642
  543.500    0.270    0.387   68.334  145.305    3.731
  543.750    0.283    0.396   69.281  145.954    3.896
  544.000    0.312    0.403   67.807  146.606    4.206
  544.250    0.324    0.377   64.970  146.936    4.391
