~VERSION INFORMATION
 VERS.                 2.0:   CWLS LOG ASCII STANDARD -VERSION 2.0
 WRAP.                  NO:   ONE LINE PER DEPTH STEP
~WELL INFORMATION BLOCK
#MNEM.UNIT           DATA                    DESCRIPTION OF MNEMONIC
#---------    -------------------            -------------------------------
# Generated from Intellog Unique Number	CS_73_76/WELL/3241
WELL.         10-26-075-05W4                 : Well_name    - WELL
LOC .         00/10-26-075-05W4/0            : Location     - LOCATION
UWI .         00/10-26-075-05W4/0            : Uwi          - UNIQUE WELL ID
ENTR.         SP                             : Entered      - ENTERED BY
SRVC.         SCHLUMBERGER                   : Scn          - SERVICE COMPANY
STRT.M        230                            : top_depth    - START DEPTH
STOP.M        455                            : bot_depth    - STOP DEPTH
STEP.M        0.25                           : increment    - STEP LENGTH
 NULL. -999.2500:NULL Value
~CURVE INFORMATION BLOCK
#MNEM UNIT       ERCB CURVE CODE    CURVE DESCRIPTION
#-----------   ------------------   ----------------------------------
DEPT.M        00 001 00 00         : DEPTH        - DEPTH
ILD .OHMM     00 120 00 00         : RESD         - DEEP RESISTIVITY (DIL)
DPHI.V/V      00 890 00 00         : PHID         - DENSITY POROSITY (LIMESTONE)
NPHI.V/V      00 330 00 00         : PHIN         - NEUTRON POROSITY (LIMESTONE)
GR  .API      00 310 00 00         : GR           - GAMMA RAY
~PARAMETER INFORMATION
#MNEM.UNIT           DATA             DESCRIPTION OF MNEMONIC
#---------         -----------     ------------------------------
GL  .M        619.6                : gl           - GROUND LEVEL ELEVATION
EREF.M        624.6                : kb           - ELEVATION OF DEPTH REFERENCE
DATM.M        619.6                : datum        - DATUM ELEVATION
TDD .M        465                  : tdd          - TOTAL DEPTH DRILLER
RUN .         ONE                  : Run          - RUN NUMBER
ENG .         BILL                 : Engineer     - RECORDING ENGINEER
WIT .         JIM                  : Witness      - WITNESSED BY
MUD .         GEL                  : Mud_type     - MUD TYPE
MATR.         LIMESTONE            : Logunit      - NEUTRON MATRIX
TMAX.C        16                   : BHT          - MAXIMUM RECORDED TEMPERATURE
BHTD.M        465                  : BHTDEP       - MAXIMUM RECORDED TEMPERATURE
MATR.         1                    : LOGUNIT      - NEUTRON MATRIX
RMT .C        25                   : MDTP         - TEMPERATURE OF MUD
NEUT.         1                    : NEUTRON      - NEUTRON TYPE
RESI.         0                    : RESIST       - RESISTIVITY TYPE
RMC .OHMM     0.25                 : RMC          - RESISTIVITY OF MUD CAKE
RMF .OHMM     0.25                 : RMF          - RESISTIVITY OF MUD FILTRATE
SUFT.C        15                   : SUFT         - SURFACE TEMPERATURE
~A  DEPTH     RESD     PHID     PHIN       GR
# ...
  404.000   11.012    0.198    0.336   67.607
  404.250   10.807    0.229    0.336   65.784
  404.500    9.664    0.245    0.333   66.381
  404.750    9.139    0.232    0.352   73.632
  405.000    8.639    0.224    0.373   85.717
  405.250    8.478    0.239    0.398   92.968
  405.500    8.792    0.244    0.416   97.194
  405.750    9.290    0.234    0.409   94.161
  406.000    9.815    0.242    0.405   92.339
  406.250    9.995    0.247    0.400   88.097
  406.500   10.177    0.257    0.385   83.251
  406.750   10.360    0.242    0.377   81.427
  407.000   10.550    0.216    0.380   86.863
  407.250   11.354    0.216    0.376   82.016
  407.500   11.562    0.232    0.367   72.933
  407.750   12.215    0.249    0.359   67.483
  408.000   12.908    0.261    0.364   62.033
  408.250   13.639    0.275    0.371   66.255
  408.500   13.886    0.267    0.374   66.855
  408.750   13.879    0.253    0.369   68.661
  409.000   14.130    0.233    0.364   68.049
  409.250   14.929    0.233    0.381   65.016
  409.500   15.203    0.265    0.396   60.168
  409.750   15.769    0.291    0.397   56.532
  410.000   16.056    0.282    0.372   60.757
  410.250   15.754    0.266    0.376   66.796
  410.500   15.456    0.279    0.384   70.419
  410.750   15.162    0.257    0.392   74.645
  411.000   15.157    0.243    0.379   74.636
  411.250   14.600    0.246    0.373   71.602
  411.500   13.803    0.255    0.385   70.385
  411.750   13.295    0.278    0.390   69.771
  412.000   13.045    0.298    0.370   71.577
  412.250   13.038    0.274    0.364   73.990
  412.500   13.275    0.261    0.372   75.191
  412.750   13.517    0.261    0.391   69.737
  413.000   13.762    0.280    0.385   66.706
  413.250   13.011    0.291    0.372   64.281
  413.500   12.301    0.297    0.357   64.272
  413.750   11.849    0.279    0.352   64.868
  414.000   11.203    0.256    0.351   62.439
  414.250   10.789    0.228    0.351   61.223
  414.500   10.392    0.218    0.350   60.611
  414.750   10.195    0.222    0.349   65.439
  415.000   10.193    0.243    0.361   69.061
  415.250   10.001    0.255    0.379   73.892
  415.500    9.811    0.295    0.389   70.255
  415.750    9.451    0.308    0.399   66.013
  416.000    8.771    0.298    0.398   65.400
  416.250    8.448    0.292    0.387   62.366
  416.500    8.289    0.292    0.381   61.755
  416.750    8.597    0.284    0.381   62.957
  417.000    8.917    0.262    0.384   66.577
  417.250    9.423    0.234    0.367   70.803
  417.500    9.074    0.219    0.360   73.818
  417.750    8.116    0.227    0.377   79.857
  418.000    7.675    0.256    0.388   86.502
  418.250    7.123    0.244    0.380   94.962
  418.500    6.612    0.225    0.398  102.817
  418.750    6.251    0.212    0.427  110.065
  419.000    5.911    0.216    0.450  113.687
  419.250    5.798    0.225    0.468  114.888
  419.500    5.796    0.203    0.468  111.855
  419.750    5.687    0.198    0.461  109.428
  420.000    5.476    0.202    0.457  110.630
  420.250    5.374    0.196    0.455  113.647
  420.500    5.176    0.212    0.465  112.425
  420.750    4.985    0.211    0.480  112.420
  421.000    4.892    0.229    0.496  115.435
  421.250    4.711    0.229    0.502  114.217
  421.500    4.622    0.209    0.497  111.789
  421.750    4.620    0.205    0.505  111.783
  422.000    4.449    0.205    0.519  109.353
  422.250    4.367    0.221    0.512  107.532
  422.500    4.128    0.236    0.505  103.895
  422.750    3.976    0.229    0.501  102.678
  423.000    3.759    0.217    0.499  106.901
  423.250    3.689    0.222    0.501  107.501
  423.500    3.687    0.229    0.515  109.305
  423.750    3.824    0.228    0.528  109.903
  424.000    4.040    0.217    0.526  111.706
  424.250    4.349    0.211    0.520  111.701
  424.500    4.858    0.205    0.506  111.693
  424.750    6.064    0.202    0.503  103.217
  425.000    9.278    0.213    0.478   85.065
  425.250   12.472    0.234    0.440   76.589
  425.500   18.053    0.248    0.400   74.765
  425.750   20.164    0.279    0.382   78.387
  426.000   18.369    0.267    0.369   83.822
  426.250   17.050    0.241    0.363   90.466
  426.500   15.535    0.218    0.360   95.901
  426.750   14.689    0.210    0.381   98.918
  427.000   14.146    0.226    0.398  100.120
  427.250   13.879    0.245    0.410  106.763
  427.500   13.875    0.255    0.386  109.781
  427.750   13.868    0.216    0.365  108.563
  428.000   14.117    0.210    0.378  106.740
  428.250   14.376    0.212    0.387  107.941
  428.500   15.190    0.227    0.383  111.561
  428.750   17.283    0.254    0.375  118.207
  429.000   20.407    0.263    0.369  128.480
  429.250   24.093    0.268    0.375  141.778
  429.500   28.445    0.275    0.383  150.842
  429.750   30.063    0.277    0.389  151.435
  430.000   32.360    0.270    0.386  152.036
  430.250   33.563    0.272    0.387  152.028
  430.500   31.734    0.282    0.393  152.624
  430.750   27.858    0.271    0.401  148.987
  431.000   26.833    0.240    0.397  106.642
  431.250   25.848    0.244    0.394   86.070
  431.500   28.337    0.253    0.394   80.618
  431.750   31.072    0.274    0.389   81.215
  432.000   36.682    0.280    0.383   81.811
  432.250   39.490    0.286    0.389   81.802
  432.500   44.110    0.293    0.397   80.585
  432.750   45.749    0.300    0.401   76.949
  433.000   45.727    0.301    0.406   81.779
  433.250   39.409    0.289    0.406   89.634
  433.500   33.344    0.282    0.416   85.995
  433.750   27.694    0.294    0.422   76.914
  434.000   23.431    0.303    0.408   69.650
  434.250   20.572    0.297    0.398   64.803
  434.500   18.399    0.255    0.392   69.029
  434.750   17.079    0.265    0.402   68.416
  435.000   16.147    0.255    0.394   68.406
  435.250   16.139    0.243    0.410   65.374
  435.500   16.737    0.253    0.424   62.948
  435.750   17.044    0.281    0.439   60.520
  436.000   18.004    0.308    0.423   62.324
  436.250   18.334    0.292    0.403   62.921
  436.500   18.668    0.284    0.416   60.494
  436.750   18.316    0.286    0.422   56.856
  437.000   17.973    0.281    0.429   55.640
  437.250   16.991    0.305    0.415   55.633
  437.500   16.365    0.297    0.397   58.649
  437.750   15.474    0.278    0.398   60.456
  438.000   14.905    0.266    0.402   59.236
  438.250   14.357    0.276    0.404   56.808
  438.500   13.827    0.305    0.413   54.988
  438.750   13.319    0.319    0.416   52.559
  439.000   11.911    0.309    0.410   52.552
  439.250   11.056    0.297    0.414   57.381
  439.500    9.889    0.284    0.401   62.211
  439.750    8.522    0.254    0.396   64.018
  440.000    8.058    0.235    0.411   67.639
  440.250    7.479    0.240    0.416   65.210
  440.500    7.204    0.275    0.425   63.390
  440.750    7.199    0.286    0.433   58.542
  441.000    7.064    0.297    0.436   59.743
  441.250    7.059    0.298    0.422   64.575
  441.500    7.056    0.273    0.405   74.242
  441.750    7.053    0.242    0.393   78.469
  442.000    7.050    0.220    0.386   80.879
  442.250    6.789    0.203    0.381   79.057
  442.500    6.787    0.208    0.398   76.024
  442.750    6.783    0.227    0.409   72.992
  443.000    6.656    0.246    0.410   68.146
  443.250    6.652    0.275    0.418   60.275
  443.500    6.650    0.297    0.412   56.034
  443.750    6.770    0.293    0.399   62.074
  444.000    6.766    0.283    0.391   65.694
  444.250    7.018    0.273    0.386   68.105
  444.500    7.416    0.278    0.385   69.303
  444.750    8.131    0.266    0.395   69.902
  445.000    9.252    0.255    0.415   68.683
  445.250   10.725    0.268    0.425   67.465
  445.500   13.140    0.279    0.441   63.829
  445.750   15.230    0.280    0.453   59.588
  446.000   16.394    0.291    0.416   61.998
  446.250   17.004    0.274    0.368   60.175
  446.500   16.375    0.237    0.383   57.145
  446.750   14.918    0.250    0.337   59.555
  447.000   14.108    0.250    0.329   66.803
  447.250   12.618    0.233    0.363   70.426
