~VERSION INFORMATION
 VERS.                 2.0:   CWLS LOG ASCII STANDARD -VERSION 2.0
 WRAP.                  NO:   ONE LINE PER DEPTH STEP
~WELL INFORMATION BLOCK
#MNEM.UNIT           DATA                    DESCRIPTION OF MNEMONIC
#---------    -------------------            -------------------------------
# Generated from Intellog Unique Number	CW_82_90/WELL/903
WELL.         10-24-083-19W4                 : Well_name    - WELL
LOC .         00/10-24-083-19W4/0            : Location     - LOCATION
UWI .         00/10-24-083-19W400            : Uwi          - UNIQUE WELL ID
ENTR.         JAYE                           : Entered      - ENTERED BY
SRVC.         SCHLUMBERGER                   : Scn          - SERVICE COMPANY
DATE.         20 JAN 80                      : Date         - LOG DATE
STRT.M        95                             : top_depth    - START DEPTH
STOP.M        311                            : bot_depth    - STOP DEPTH
STEP.M        0.25                           : increment    - STEP LENGTH
 NULL. -999.2500:NULL Value
~CURVE INFORMATION BLOCK
#MNEM UNIT       ERCB CURVE CODE    CURVE DESCRIPTION
#-----------   ------------------   ----------------------------------
DEPT.M        00 001 00 00         : DEPTH        - DEPTH
CALI.MM       00 280 01 00         : CAL          - CALIPER
GR  .API      00 310 00 00         : GR           - GAMMA RAY
NPHI.V/V      00 330 00 00         : PHIN         - NEUTRON POROSITY (SANDSTONE)
DPHI.V/V      00 890 00 00         : PHID         - DENSITY POROSITY (SANDSTONE)
ILD .OHMM     00 120 00 00         : RESD         - DEEP RESISTIVITY (DIL)
~PARAMETER INFORMATION
#MNEM.UNIT           DATA             DESCRIPTION OF MNEMONIC
#---------         -----------     ------------------------------
GL  .M        567.28               : gl           - GROUND LEVEL ELEVATION
EREF.M        570.48               : kb           - ELEVATION OF DEPTH REFERENCE
DATM.M        567.28               : datum        - DATUM ELEVATION
TDD .M        314                  : tdd          - TOTAL DEPTH DRILLER
RUN .         ONE                  : Run          - RUN NUMBER
ENG .         MIDDLETON            : Engineer     - RECORDING ENGINEER
WIT .         COLLET               : Witness      - WITNESSED BY
BASE.         EDMONTON             : Branch       - HOME BASE OF LOGGING UNIT
MUD .         GEL                  : Mud_type     - MUD TYPE
MATR.         SANDSTONE            : Logunit      - NEUTRON MATRIX
TMAX.C        29                   : BHT          - MAXIMUM RECORDED TEMPERATURE
BHTD.M        314                  : BHTDEP       - MAXIMUM RECORDED TEMPERATURE
RMT .C        11.1                 : MDTP         - TEMPERATURE OF MUD
MUDD.KG/M     1125                 : MWT          - MUD DENSITY
NEUT.         1                    : NEUTRON      - NEUTRON TYPE
RESI.         0                    : RESIST       - RESISTIVITY TYPE
RM  .OHMM     4.12                 : RM           - RESISTIVITY OF MUD
RMC .OHMM     0                    : RMC          - RESISTIVITY OF MUD CAKE
RMF .OHMM     16.7                 : RMF          - RESISTIVITY OF MUD FILTRATE
SUFT.C        0                    : SUFT         - SURFACE TEMPERATURE
~A  DEPTH      CAL       GR     PHIN     PHID     RESD
# ...
  168.000  218.721  113.635    0.515   -0.381    4.467
  168.250  217.881  112.018    0.509   -0.360    5.017
  168.500  217.558  106.504    0.500   -0.342    6.420
  168.750  218.265   97.279    0.454   -0.334    7.957
  169.000  219.180   93.745    0.425   -0.334    9.723
  169.250  223.287   92.436    0.406   -0.348   11.120
  169.500  225.645   92.242    0.404   -0.346   11.975
  169.750  226.659   93.160    0.403   -0.353   11.593
  170.000  227.159   94.451    0.401   -0.355   11.025
  170.250  226.839   97.227    0.406   -0.362   10.152
  170.500  225.998   99.012    0.430   -0.357    8.926
  170.750  225.779  100.983    0.471   -0.372    7.754
  171.000  225.248  102.953    0.477   -0.359    7.270
  171.250  225.027  101.335    0.470   -0.346    7.357
  171.500  224.703   89.884    0.451   -0.323    9.026
  171.750  224.482   82.700    0.415   -0.300   10.920
  172.000  224.676   76.135    0.422   -0.283   13.780
  172.250  225.795   65.549    0.439   -0.278   16.570
  172.500  227.328   62.015    0.440   -0.283   17.845
  172.750  228.030   64.418    0.436   -0.287   19.527
  173.000  228.535   67.564    0.428   -0.286   19.999
  173.250  228.415   65.206    0.412   -0.291   20.076
  173.500  227.992   64.208    0.414   -0.288   19.791
  173.750  227.771   66.238    0.419   -0.284   19.162
  174.000  227.136   64.932    0.419   -0.277   18.294
  174.250  226.815   63.438    0.423   -0.271   17.014
  174.500  225.665   64.976    0.423   -0.266   16.211
  174.750  224.205   66.514    0.421   -0.262   15.384
  175.000  223.162   65.454    0.421   -0.258   13.691
  175.250  222.220   63.466    0.434   -0.252   13.389
  175.500  222.516   62.900    0.439   -0.238   13.253
  175.750  223.735   62.891    0.452   -0.238   13.196
  176.000  224.960   63.130    0.479   -0.229   13.570
  176.250  225.565   63.616    0.467   -0.235   14.265
  176.500  226.473   63.423    0.446   -0.253   15.579
  176.750  226.772   62.549    0.433   -0.263   16.377
  177.000  227.068   62.106    0.416   -0.267   17.425
  177.250  227.361   62.531    0.415   -0.250   18.539
  177.500  227.760   62.275    0.440   -0.250   19.026
  177.750  227.953   62.019    0.447   -0.257   19.369
  178.000  227.629   61.391    0.451   -0.265   19.442
  178.250  226.480   61.258    0.448   -0.270   19.244
  178.500  225.435   61.374    0.427   -0.261   18.819
  178.750  225.111   62.602    0.418   -0.272   18.405
  179.000  225.095   64.882    0.423   -0.271   17.641
  179.250  225.391   66.233    0.432   -0.279   17.149
  179.500  225.067   66.288    0.438   -0.294   16.738
  179.750  225.361   65.597    0.439   -0.285   16.501
  180.000  225.758   65.527    0.459   -0.274   16.332
  180.250  226.052   65.519    0.462   -0.273   16.395
  180.500  226.452   65.447    0.465   -0.271   16.556
  180.750  226.643   65.378    0.466   -0.278   16.620
  181.000  226.940   65.988    0.462   -0.291   16.450
  181.250  227.439   67.093    0.454   -0.299   15.895
  181.500  227.525   68.817    0.455   -0.299   15.514
  181.750  227.824   70.786    0.458   -0.294   14.900
  182.000  227.500   72.386    0.458   -0.286   14.168
  182.250  226.867   74.544    0.436   -0.289   12.508
  182.500  227.059   77.813    0.438   -0.299    9.385
  182.750  228.901   81.267    0.456   -0.330    5.762
  183.000  232.184   85.281    0.489   -0.337    4.464
  183.250  234.542   89.910    0.499   -0.330    3.997
  183.500  235.145   91.387    0.471   -0.322    3.785
  183.750  230.286   88.346    0.462   -0.320    3.709
  184.000  232.849   84.502    0.469   -0.317    3.686
  184.250  238.708   81.835    0.484   -0.334    3.798
  184.500  233.954   81.578    0.484   -0.337    3.921
  184.750  231.775   81.570    0.479   -0.362    3.960
  185.000  239.905   84.716    0.478   -0.345    3.951
  185.250  237.932   86.314    0.485   -0.330    3.935
  185.500  236.371   85.626    0.497   -0.313    3.779
  185.750  235.325   81.535    0.504   -0.329    3.644
  186.000  235.826   79.609    0.505   -0.333    3.472
  186.250  239.007   78.363    0.505   -0.320    3.355
  186.500  239.404   76.560    0.500   -0.295    3.314
  186.750  234.236   76.552    0.497   -0.288    3.408
  187.000  229.066   76.852    0.497   -0.279    4.173
  187.250  226.579   75.791    0.495   -0.280   10.608
  187.500  224.708   73.618    0.491   -0.287   14.103
  187.750  223.869   71.383    0.471   -0.290   16.227
  188.000  223.236   70.323    0.468   -0.296   17.196
  188.250  222.398   70.561    0.470   -0.297   17.400
  188.500  221.764   71.419    0.472   -0.301   17.607
  188.750  221.439   71.843    0.446   -0.306   17.710
  189.000  221.218   71.400    0.429   -0.320   17.635
  189.250  221.207   71.270    0.419   -0.305   17.385
  189.500  220.883   72.250    0.409   -0.308   17.244
  189.750  221.177   73.170    0.416   -0.312   16.931
  190.000  221.369   71.367    0.418   -0.307   16.791
  190.250  221.766   65.482    0.418   -0.313   16.822
  190.500  223.400   60.958    0.422   -0.334   16.955
  190.750  224.520   59.280    0.428   -0.329   17.260
  191.000  225.125   58.714    0.441   -0.301   17.501
  191.250  225.624   59.756    0.444   -0.280   17.779
  191.500  225.509   61.418    0.445   -0.273   18.028
  191.750  225.079   63.573    0.446   -0.274   18.242
  192.000  224.550   65.359    0.446   -0.276   18.386
  192.250  224.020   66.338    0.438   -0.270   18.530
  192.500  223.698   66.945    0.436   -0.276   18.674
  192.750  223.372   67.309    0.424   -0.280   18.859
  193.000  223.360   66.870    0.416   -0.284   19.046
  193.250  223.346   63.523    0.448   -0.287   19.195
  193.500  223.538   60.606    0.442   -0.288   19.308
  193.750  224.036   59.732    0.424   -0.288   19.148
  194.000  224.333   59.599    0.406   -0.288   18.916
  194.250  224.216   59.900    0.419   -0.287   18.498
  194.500  224.303   60.014    0.424   -0.290   18.236
  194.750  224.495   59.945    0.421   -0.287   18.015
  195.000  224.481   59.687    0.420   -0.272   18.015
  195.250  224.364   59.679    0.452   -0.265   16.583
  195.500  224.246   60.102    0.452   -0.270   16.351
  195.750  224.232   60.279    0.445   -0.277   15.330
  196.000  223.805   60.457    0.439   -0.281   14.430
  196.250  223.378   60.572    0.438   -0.273   14.256
  196.500  222.331   60.380    0.430   -0.273   13.968
  196.750  221.079   60.246    0.408   -0.277   14.164
  197.000  219.726   60.051    0.402   -0.259   15.101
  197.250  218.784   60.228    0.411   -0.264   15.466
  197.500  217.842   60.840    0.449   -0.277   14.972
  197.750  217.518   62.501    0.451   -0.276   14.702
  198.000  217.711   64.347    0.453   -0.281   13.895
  198.250  217.487   65.328    0.448   -0.289   13.186
  198.500  218.607   64.578    0.445   -0.284   12.818
  198.750  219.111   63.333    0.447   -0.270   12.714
  199.000  220.643   62.024    0.452   -0.273   12.558
  199.250  221.553   61.273    0.457   -0.277   12.555
  199.500  222.367   60.646    0.460   -0.284   12.628
  199.750  223.174   60.203    0.460   -0.281   12.627
  200.000  223.469   60.011    0.469   -0.276   12.523
  200.250  223.869   59.383    0.469   -0.276   12.470
  200.500  224.575   58.014    0.464   -0.277   12.342
  200.750  225.284   57.015    0.443   -0.281   12.314
  201.000  225.475   55.769    0.425   -0.290   12.313
  201.250  225.667   54.833    0.390   -0.300   12.385
  201.500  225.549   53.956    0.354   -0.312   12.457
  201.750  225.018   53.949    0.283   -0.338   12.580
  202.000  224.694   53.507    0.210   -0.396   13.040
  202.250  224.476   52.819    0.171   -0.470   16.160
  202.500  224.770   50.832    0.165   -0.541   25.380
  202.750  224.547   47.296    0.176   -0.574   36.784
  203.000  224.742   46.421    0.201   -0.585   39.930
  203.250  224.521   46.723    0.276   -0.566   37.969
  203.500  224.404   47.704    0.367   -0.477   31.623
  203.750  224.387   51.035    0.407   -0.364   24.307
  204.000  224.374   53.872    0.363   -0.334   21.416
  204.250  223.845   57.510    0.378   -0.361   18.792
