~VERSION INFORMATION
 VERS.                 2.0:   CWLS LOG ASCII STANDARD -VERSION 2.0
 WRAP.                  NO:   ONE LINE PER DEPTH STEP
~WELL INFORMATION BLOCK
#MNEM.UNIT           DATA                    DESCRIPTION OF MNEMONIC
#---------    -------------------            -------------------------------
# Generated from Intellog Unique Number	CS_71_72/WELL/2058
WELL.         MIC MAC LAC LA BICHE           : Well_name    - WELL
LOC .         00/10-21-071-14W4/0            : Location     - LOCATION
UWI .         00/10-21-071-14W4/0            : Uwi          - UNIQUE WELL ID
ENTR.         T                              : Entered      - ENTERED BY
SRVC.         SCHLUMBERGER                   : Scn          - SERVICE COMPANY
STRT.M        344.424                        : top_depth    - START DEPTH
STOP.M        548.674                        : bot_depth    - STOP DEPTH
STEP.M        0.25                           : increment    - STEP LENGTH
 NULL. -999.2500:NULL Value
~CURVE INFORMATION BLOCK
#MNEM UNIT       ERCB CURVE CODE    CURVE DESCRIPTION
#-----------   ------------------   ----------------------------------
DEPT.M        00 001 00 00         : DEPTH        - DEPTH
ILD .OHMM     00 120 00 00         : RESD         - DEEP RESISTIVITY (DIL)
GR  .API      00 310 00 00         : GR           - GAMMA RAY
DELT.US/F     00 520 00 00         : DELT         - SONIC TRAVEL TIME
~PARAMETER INFORMATION
#MNEM.UNIT           DATA             DESCRIPTION OF MNEMONIC
#---------         -----------     ------------------------------
GL  .M        654.832              : gl           - GROUND LEVEL ELEVATION
EREF.M        658.002              : kb           - ELEVATION OF DEPTH REFERENCE
DATM.M        658.002              : datum        - DATUM ELEVATION
TDD .M        573.024              : tdd          - TOTAL DEPTH DRILLER
RUN .         ONE                  : Run          - RUN NUMBER
ENG .         BILL                 : Engineer     - RECORDING ENGINEER
WIT .         JIM                  : Witness      - WITNESSED BY
MUD .         GEL                  : Mud_type     - MUD TYPE
MATR.         SANDSTONE            : Logunit      - NEUTRON MATRIX
TMAX.C        25.5556              : BHT          - MAXIMUM RECORDED TEMPERATURE
BHTD.M        573.024              : BHTDEP       - MAXIMUM RECORDED TEMPERATURE
RMT .C        25                   : MDTP         - TEMPERATURE OF MUD
MUDD.KG/M     9841.66              : MWT          - MUD DENSITY
NEUT.         1                    : NEUTRON      - NEUTRON TYPE
RESI.         0                    : RESIST       - RESISTIVITY TYPE
RM  .OHMM     3.4                  : RM           - RESISTIVITY OF MUD
RMC .OHMM     2.45                 : RMC          - RESISTIVITY OF MUD CAKE
RMF .OHMM     3.3                  : RMF          - RESISTIVITY OF MUD FILTRATE
SUFT.C        4                    : SUFT         - SURFACE TEMPERATURE
~A  DEPTH     RESD       GR     DELT
# ...
  452.924    4.403   83.369  419.208
  453.174    4.658   81.414  422.470
  453.424    4.665   81.476  406.986
  453.674    4.426   81.012  400.866
  453.924    4.349   81.037  404.128
  454.174    4.189   79.583  402.046
  454.424    3.868   77.126  400.000
  454.674    3.708   73.666  400.582
  454.924    3.634   69.705  405.202
  455.174    3.807   62.735  403.138
  455.424    4.307   64.803  354.111
  455.674    4.644   66.357  353.370
  455.924    4.899   66.407  373.422
  456.174    4.824   66.971  395.483
  456.424    4.500   68.500  387.370
  456.674    4.095   71.583  386.612
  456.924    3.854   72.610  401.972
  457.174    3.698   72.660  415.322
  457.424    3.705   72.710  417.931
  457.674    3.712   71.256  397.738
  457.924    3.718   67.796  394.317
  458.174    3.644   60.827  405.638
  458.424    3.567   55.349  409.588
  458.674    3.409   52.904  407.507
  458.924    3.170   51.939  407.436
  459.174    3.012   51.989  410.698
  459.424    2.938   51.537  412.003
  459.674    2.861   51.587  413.942
  459.924    2.866   54.658  413.871
  460.174    2.958   55.710  412.442
  460.424    3.047   55.259  411.031
  460.674    3.135   54.795  410.978
  460.924    3.309   54.882  415.598
  461.174    3.397   55.408  420.218
  461.424    3.487   56.975  420.817
  461.674    3.330   58.015  417.396
  461.924    3.253   59.055  412.634
  462.174    3.260   61.624  405.844
  462.424    3.106   63.680  403.762
  462.674    3.111   66.738  401.681
  462.924    3.036   69.796  398.912
  463.174    2.960   73.368  398.188
  463.424    2.885   75.411  398.100
  463.674    2.809   78.983  398.681
  463.924    2.815   80.537  398.646
  464.174    2.822   80.587  397.905
  464.424    2.830   79.634  394.483
  464.674    2.918   76.675  391.061
  464.924    2.925   74.206  384.959
  465.174    3.019   72.751  387.569
  465.424    3.024   71.811  389.508
  465.674    3.113   71.849  389.420
  465.924    3.040   70.419  390.019
  466.174    3.045   69.441  389.966
  466.424    2.968   66.997  389.895
  466.674    2.978   64.540  387.796
  466.924    2.901   63.061  385.697
  467.174    2.907   60.616  384.973
  467.424    3.082   59.162  382.222
  467.674    3.168   59.212  374.797
  467.924    3.511   59.249  364.656
  468.174    3.597   60.803  364.585
  468.424    3.604   62.858  367.195
  468.674    3.365   65.929  373.155
  468.924    3.290   70.491  377.123
  469.174    3.211   75.555  393.135
  469.424    3.137   78.613  401.794
  469.674    3.142   77.660  423.186
  469.924    3.234   77.722  433.149
  470.174    3.408   77.772  435.106
  470.424    3.497   78.311  432.355
  470.674    3.589   78.887  406.130
  470.924    3.594   79.426  429.532
  471.174    3.599   79.488  442.864
  471.424    3.524   79.513  436.092
  471.674    3.531   79.563  421.948
  471.924    3.455   79.613  411.807
  472.174    3.380   80.678  411.736
  472.424    3.143   81.217  415.016
  472.674    3.066   82.282  419.618
  472.924    2.906   82.820  420.923
  473.174    2.831   84.399  426.213
  473.424    2.673   85.953  431.504
  473.674    2.597   87.507  435.454
  473.924    2.522   87.056  440.074
  474.174    2.446   84.085  443.354
  474.424    2.618   81.628  445.963
  474.674    3.533   78.156  445.240
  474.924    6.016   74.195  427.727
  475.174    9.327   67.727  409.545
  475.424    9.829   63.753  264.634
  475.674    8.846   59.290  244.441
  475.924    7.947   60.343  276.555
  476.174    7.539   64.416  290.575
  476.424    6.886   68.991  372.985
  476.674    6.150   71.535  389.685
  476.924    5.825   74.593  403.017
  477.174    5.420   77.163  402.276
  477.424    4.851   78.228  390.813
  477.674    4.447   78.754  400.794
  477.924    4.287   78.302  406.737
  478.174    4.210   75.858  402.645
  478.424    4.056   73.915  399.911
  478.674    4.061   73.940  402.521
  478.924    4.068   73.488  399.769
  479.174    4.073   73.049  392.961
  479.424    4.080   72.610  393.596
  479.674    4.170   72.647  390.157
  479.924    4.261   72.710  388.093
  480.174    4.434   72.735  389.362
  480.424    4.439   73.298  387.951
  480.674    4.530   73.850  382.501
  480.924    4.536   74.401  384.459
  481.174    4.546   75.454  401.141
  481.424    4.469   75.992  408.442
  481.674    4.474   76.568  409.711
  481.924    4.320   77.107  402.269
  482.174    4.325   77.646  373.364
  482.424    4.248   78.197  371.283
  482.674    4.173   79.262  395.319
  482.924    4.097   80.315  398.634
  483.174    4.104   81.355  403.925
  483.424    4.029   80.903  389.093
  483.674    4.036   77.456  387.682
  483.924    4.127   73.483  385.600
  484.174    4.134   61.988  371.456
  484.424    4.308   60.534  356.642
  484.674    4.479   65.096  369.304
  484.924    4.566   63.642  367.893
  485.174    4.904   61.686  345.019
  485.424    5.494   61.235  343.608
  485.674    5.662   61.297  349.551
  485.924    5.917   61.861  334.084
  486.174    5.676   63.390  364.187
  486.424    4.941   66.962  402.315
  486.674    4.122   70.032  403.620
  486.924    3.717   72.075  406.211
  487.174    3.476   73.642  410.161
  487.424    3.320   75.196  414.129
  487.674    3.241   75.747  411.378
  487.924    2.918   76.298  393.830
  488.174    2.433   77.351  387.763
  488.424    2.191   78.391  362.209
  488.674    2.031   80.948  407.073
  488.924    2.042   83.003  455.288
  489.174    2.128   84.570  465.269
  489.424    2.302   86.124  458.479
  489.674    2.390   86.675  459.766
  489.924    2.810   84.707  459.678
  490.174    3.231   74.729  456.274
  490.424    3.651   71.783  428.039
  490.674    3.988   72.334  399.134
  490.924    4.408   72.384  405.765
  491.174    4.745   69.413  412.360
  491.424    5.000   64.938  408.303
  491.674    5.009   62.481  347.884
  491.924    4.931   68.046  330.371
  492.174    4.938   75.128  388.639
  492.424    4.949   77.684  395.269
  492.674    4.870   74.726  391.177
  492.924    4.960   72.770  383.065
  493.174    5.381   72.820  369.573
  493.424    5.801   71.366  372.871
  493.674    5.891   68.420  376.150
  493.924    5.734   66.941  364.669
  494.174    5.575   61.977  335.077
  494.424    5.332   59.031  330.985
  494.674    4.930   61.588  304.778
  494.924    4.688   65.135  336.222
  495.174    4.446   73.219  344.880
  495.424    4.042   81.792  347.490
  495.674    3.719   84.850  395.035
  495.924    3.476   85.916  411.048
  496.174    3.318   83.948  408.296
  496.424    3.161   80.488  400.853
  496.674    3.085   79.535  383.341
  496.924    2.927   83.596  404.062
  497.174    2.850   86.654  428.134
  497.424    2.778   85.701  425.365
  497.674    2.701   83.244  424.642
  497.924    2.623   80.799  426.581
  498.174    2.552   82.855  428.521
  498.424    2.557   84.396  431.113
  498.674    2.483   85.461  433.740
  498.924    2.488   84.997  431.641
  499.174    2.580   84.044  428.907
  499.424    2.583   83.104  423.457
  499.674    2.677   82.653  420.724
  499.924    2.680   81.712  413.951
  500.174    2.689   81.236  413.193
  500.424    2.696   80.784  413.774
  500.674    2.701   82.852  411.710
  500.924    2.710   85.897  408.959
  501.174    2.717   89.971  405.520
  501.424    2.724   89.005  412.856
  501.674    2.649   86.561  424.847
  501.924    2.654   85.608  423.436
  502.174    2.579   86.147  416.664
  502.424    2.503   87.212  397.811
  502.674    2.510   87.262  406.452
  502.924    2.435   87.813  413.100
  503.174    2.361   89.379  423.752
  503.424    2.367   89.906  434.403
  503.674    2.377   85.443  439.041
  503.924    2.381   68.446  441.650
  504.174    2.553   64.974  426.131
  504.424    3.304   65.036  412.005
  504.674    4.219   69.586  304.622
  504.924    5.465   78.673  344.795
  505.174    7.207   77.733  381.600
  505.424    8.947   75.765  382.887
  505.674   10.524   71.290  325.130
  505.924   11.604   63.819  302.257
  506.174   16.317   57.351  318.957
  506.424   16.819   54.392  342.324
  506.674   17.322   58.466  344.299
  506.924   18.321   59.017  369.711
