~VERSION INFORMATION
 VERS.                 2.0:   CWLS LOG ASCII STANDARD -VERSION 2.0
 WRAP.                  NO:   ONE LINE PER DEPTH STEP
~WELL INFORMATION BLOCK
#MNEM.UNIT           DATA                    DESCRIPTION OF MNEMONIC
#---------    -------------------            -------------------------------
# Generated from Intellog Unique Number	CS_73_76/WELL/2210
WELL.         WAINOCO OIL & GAS LIMITED      : Well_name    - WELL
LOC .         00/14-18-074-12W4/0            : Location     - LOCATION
UWI .         00/14-18-074-12W4/0            : Uwi          - UNIQUE WELL ID
ENTR.         SP                             : Entered      - ENTERED BY
SRVC.         SCHLUMBERGER                   : Scn          - SERVICE COMPANY
STRT.M        310                            : top_depth    - START DEPTH
STOP.M        533                            : bot_depth    - STOP DEPTH
STEP.M        0.25                           : increment    - STEP LENGTH
 NULL. -999.2500:NULL Value
~CURVE INFORMATION BLOCK
#MNEM UNIT       ERCB CURVE CODE    CURVE DESCRIPTION
#-----------   ------------------   ----------------------------------
DEPT.M        00 001 00 00         : DEPTH        - DEPTH
ILD .OHMM     00 120 00 00         : RESD         - DEEP RESISTIVITY (DIL)
DPHI.V/V      00 890 00 00         : PHID         - DENSITY POROSITY (LIMESTONE)
NPHI.V/V      00 330 00 00         : PHIN         - NEUTRON POROSITY (LIMESTONE)
GR  .API      00 310 00 00         : GR           - GAMMA RAY
~PARAMETER INFORMATION
#MNEM.UNIT           DATA             DESCRIPTION OF MNEMONIC
#---------         -----------     ------------------------------
GL  .M        679.35               : gl           - GROUND LEVEL ELEVATION
EREF.M        682.6                : kb           - ELEVATION OF DEPTH REFERENCE
DATM.M        679.35               : datum        - DATUM ELEVATION
TDD .M        543                  : tdd          - TOTAL DEPTH DRILLER
RUN .         ONE                  : Run          - RUN NUMBER
ENG .         BILL                 : Engineer     - RECORDING ENGINEER
WIT .         JIM                  : Witness      - WITNESSED BY
MUD .         GEL                  : Mud_type     - MUD TYPE
MATR.         LIMESTONE            : Logunit      - NEUTRON MATRIX
TMAX.C        23                   : BHT          - MAXIMUM RECORDED TEMPERATURE
BHTD.M        543                  : BHTDEP       - MAXIMUM RECORDED TEMPERATURE
MATR.         1                    : LOGUNIT      - NEUTRON MATRIX
RMT .C        25                   : MDTP         - TEMPERATURE OF MUD
NEUT.         1                    : NEUTRON      - NEUTRON TYPE
RESI.         0                    : RESIST       - RESISTIVITY TYPE
RMC .OHMM     0.25                 : RMC          - RESISTIVITY OF MUD CAKE
RMF .OHMM     0.25                 : RMF          - RESISTIVITY OF MUD FILTRATE
SUFT.C        15                   : SUFT         - SURFACE TEMPERATURE
~A  DEPTH     RESD     PHID     PHIN       GR
# ...
  484.000    2.759    0.194    0.457   98.372
  484.250    2.760    0.180    0.467  102.617
  484.500    2.761    0.199    0.476  100.181
  484.750    2.761    0.206    0.485   97.745
  485.000    2.815    0.204    0.489   96.525
  485.250    2.763    0.166    0.482  101.984
  485.500    2.763    0.197    0.474  101.978
  485.750    2.817    0.229    0.483  100.150
  486.000    2.871    0.222    0.479  103.180
  486.250    2.926    0.216    0.463  100.746
  486.500    3.040    0.219    0.452   97.095
  486.750    3.157    0.195    0.444  100.732
  487.000    3.405    0.177    0.435  103.154
  487.250    3.960    0.205    0.456  101.935
  487.500    4.781    0.226    0.475   98.892
  487.750    5.560    0.214    0.455   94.636
  488.000    6.971    0.227    0.429   89.772
  488.250    8.106    0.250    0.407   86.122
  488.500    8.908    0.267    0.380   91.581
  488.750   10.166    0.223    0.360   92.183
  489.000   10.559    0.197    0.353   93.391
  489.250   10.562    0.202    0.360   95.205
  489.500   10.175    0.139    0.353   93.378
  489.750    9.440    0.089    0.360   89.729
  490.000    8.434    0.071    0.346   95.796
  490.250    7.258    0.149    0.327  103.076
  490.500    6.733    0.203    0.370  110.357
  490.750    6.365    0.230    0.390  115.817
  491.000    6.249    0.185    0.413  117.026
  491.250    6.251    0.175    0.419  113.375
  491.500    6.371    0.170    0.403  113.370
  491.750    7.549    0.182    0.408  108.504
  492.000    8.778    0.191    0.401  103.642
  492.250   10.600    0.196    0.386   94.526
  492.500   12.326    0.209    0.365   83.589
  492.750   15.167    0.215    0.344   74.473
  493.000   16.667    0.222    0.327   70.216
  493.250   19.750    0.244    0.338   68.996
  493.500   20.903    0.267    0.330   67.775
  493.750   19.031    0.251    0.348   76.877
  494.000   16.687    0.215    0.358   81.123
  494.250   14.909    0.206    0.369   89.010
  494.500   13.576    0.200    0.361   90.220
  494.750   13.326    0.212    0.354   84.746
  495.000   13.328    0.236    0.341   82.313
  495.250   13.334    0.241    0.351   79.878
  495.500   13.590    0.220    0.356   83.516
  495.750   13.344    0.207    0.334   83.508
  496.000   13.347    0.189    0.325   78.644
  496.250   13.101    0.175    0.331   75.603
  496.500   13.104    0.163    0.340   74.382
  496.750   12.864    0.144    0.324   76.197
  497.000   12.627    0.036    0.320   81.656
  497.250   12.631    0.147    0.341   83.472
  497.500   12.876    0.171    0.355   82.252
  497.750   13.124    0.206    0.371   83.460
  498.000   14.154    0.224    0.353   75.559
  498.250   15.851    0.219    0.350   65.837
  498.500   18.782    0.253    0.337   57.936
  498.750   21.433    0.291    0.336   54.286
  499.000   23.554    0.292    0.347   56.710
  499.250   25.404    0.275    0.360   58.525
  499.500   25.411    0.281    0.346   54.876
  499.750   15.007    0.290    0.334   60.941
  500.000   10.697    0.297    0.351   72.474
  500.250    7.483    0.260    0.379   83.399
  500.500    6.439    0.243    0.398   96.752
  500.750    5.974    0.213    0.414  107.069
  501.000    5.542    0.163    0.433  111.922
  501.250    5.339    0.145    0.447  104.021
  501.500    5.241    0.130    0.449   94.299
  501.750    5.444    0.151    0.463   80.325
  502.000    6.825    0.254    0.424   68.782
  502.250   11.564    0.276    0.378   60.879
  502.500   18.518    0.284    0.347   64.519
  502.750   26.487    0.285    0.336   62.082
  503.000   34.485    0.300    0.336   58.430
  503.250   38.619    0.312    0.345   57.820
  503.500   39.363    0.317    0.360   68.745
  503.750   35.839    0.296    0.370   83.920
  504.000   28.072    0.279    0.381   89.380
  504.250   26.040    0.291    0.383   83.909
  504.500   22.408    0.287    0.372   80.866
  504.750   20.787    0.271    0.382   77.822
  505.000   19.652    0.262    0.385   74.173
  505.250   18.932    0.280    0.360   71.131
  505.500   17.899    0.297    0.366   78.411
  505.750   16.920    0.281    0.385   80.226
  506.000   14.560    0.276    0.373   80.221
  506.250   12.766    0.281    0.360   85.073
  506.500   11.406    0.279    0.370   92.353
  506.750   10.191    0.260    0.370   96.599
  507.000    9.278    0.247    0.366  103.878
  507.250    8.607    0.235    0.365  105.697
  507.500    7.837    0.187    0.363  108.727
  507.750    7.549    0.172    0.367  110.542
  508.000    7.412    0.174    0.391  111.142
  508.250    7.414    0.179    0.398  110.531
  508.500    7.415    0.181    0.390  106.273
  508.750    7.703    0.182    0.374  103.232
  509.000    7.852    0.197    0.366  103.225
  509.250    8.155    0.206    0.374  106.863
  509.500    8.631    0.213    0.365  102.606
  509.750    9.309    0.199    0.350   83.165
  510.000   10.230    0.208    0.338   68.585
  510.250   11.033    0.248    0.318   56.433
  510.500   11.247    0.269    0.309   48.534
  510.750   10.632    0.285    0.309   60.670
  511.000    9.864    0.219    0.328   69.169
  511.250    8.980    0.207    0.346   81.308
  511.500    8.489    0.229    0.349   67.941
  511.750    8.179    0.271    0.334   53.361
  512.000    8.029    0.293    0.338   50.925
  512.250    8.031    0.306    0.349   56.382
  512.500    8.185    0.274    0.353   59.415
  512.750    8.344    0.280    0.342   64.266
  513.000    8.832    0.279    0.335   67.296
  513.250    9.172    0.271    0.333   70.326
  513.500    9.708    0.273    0.343   74.571
  513.750    9.895    0.282    0.355   77.604
  514.000    9.532    0.255    0.362   84.276
  514.250    9.012    0.239    0.368   92.164
  514.500    8.682    0.226    0.379   97.017
  514.750    8.363    0.210    0.384  103.085
  515.000    8.367    0.194    0.383  105.507
  515.250    8.368    0.176    0.374   98.821
  515.500    9.027    0.185    0.358   90.920
  515.750    9.375    0.201    0.364   78.159
  516.000    9.737    0.190    0.369   72.081
  516.250   10.113    0.172    0.349   70.255
  516.500   10.117    0.160    0.334   73.893
  516.750    9.565    0.201    0.336   70.848
  517.000    9.042    0.234    0.348   70.237
  517.250    8.710    0.250    0.350   70.834
  517.500    7.783    0.255    0.354   70.831
  517.750    7.497    0.265    0.362   64.753
  518.000    7.088    0.239    0.362   69.604
  518.250    6.827    0.239    0.362   71.418
  518.500    6.456    0.243    0.342   72.021
  518.750    6.219    0.239    0.336   68.371
  519.000    5.990    0.234    0.339   62.899
  519.250    5.770    0.232    0.334   61.072
  519.500    5.354    0.224    0.334   60.459
  519.750    5.061    0.233    0.345   59.238
  520.000    4.438    0.238    0.351   58.018
  520.250    4.117    0.243    0.367   57.403
  520.500    3.820    0.255    0.371   54.968
  520.750    3.611    0.266    0.355   53.748
  521.000    3.167    0.264    0.357   50.705
  521.250    2.994    0.260    0.351   47.055
  521.500    2.830    0.274    0.356   44.012
  521.750    2.726    0.292    0.365   40.968
  522.000    2.676    0.303    0.366   38.532
  522.250    2.578    0.290    0.360   37.315
  522.500    2.531    0.313    0.354   36.094
  522.750    2.348    0.340    0.351   35.480
  523.000    2.679    0.347    0.342   35.475
  523.250    2.630    0.342    0.355   36.075
  523.500    2.631    0.335    0.365   36.677
  523.750    2.582    0.329    0.357   34.242
  524.000    2.583    0.317    0.341   30.592
  524.250    2.633    0.324    0.363   28.764
  524.500    2.735    0.329    0.361   26.934
  524.750    2.736    0.333    0.345   26.930
  525.000    2.685    0.325    0.324   26.923
  525.250    2.687    0.312    0.333   27.523
  525.500    2.637    0.340    0.348   27.519
  525.750    2.638    0.355    0.359   26.297
  526.000    2.638    0.364    0.362   25.077
  526.250    2.639    0.387    0.361   25.070
  526.500    2.640    0.382    0.356   26.279
  526.750    2.641    0.381    0.351   30.524
  527.000    2.795    0.381    0.343   35.983
  527.250    2.958    0.371    0.348   39.014
