~VERSION INFORMATION
 VERS.                 2.0:   CWLS LOG ASCII STANDARD -VERSION 2.0
 WRAP.                  NO:   ONE LINE PER DEPTH STEP
~WELL INFORMATION BLOCK
#MNEM.UNIT           DATA                    DESCRIPTION OF MNEMONIC
#---------    -------------------            -------------------------------
# Generated from Intellog Unique Number	CW_73_75/WELL/2752
WELL.         BRENDA ET AL MARTEN H 16-12    : Well_name    - WELL
LOC .         00/16-12-073-25W4/0            : Location     - LOCATION
UWI .         00/16-12-073-25W4/0            : Uwi          - UNIQUE WELL ID
ENTR.         JAYE                           : Entered      - ENTERED BY
SRVC.         SCHLUMBERGER                   : Scn          - SERVICE COMPANY
DATE.         3 MAR 81                       : Date         - LOG DATE
STRT.M        385                            : top_depth    - START DEPTH
STOP.M        615                            : bot_depth    - STOP DEPTH
STEP.M        0.25                           : increment    - STEP LENGTH
 NULL. -999.2500:NULL Value
~CURVE INFORMATION BLOCK
#MNEM UNIT       ERCB CURVE CODE    CURVE DESCRIPTION
#-----------   ------------------   ----------------------------------
DEPT.M        00 001 00 00         : DEPTH        - DEPTH
DPHI.V/V      00 890 00 00         : PHID         - DENSITY POROSITY (SANDSTONE)
NPHI.V/V      00 330 00 00         : PHIN         - NEUTRON POROSITY (SANDSTONE)
GR  .API      00 310 00 00         : GR           - GAMMA RAY
CALI.MM       00 280 01 00         : CAL          - CALIPER
ILD .OHMM     00 120 00 00         : RESD         - DEEP RESISTIVITY (DIL)
~PARAMETER INFORMATION
#MNEM.UNIT           DATA             DESCRIPTION OF MNEMONIC
#---------         -----------     ------------------------------
GL  .M        636.55               : gl           - GROUND LEVEL ELEVATION
EREF.M        640.15               : kb           - ELEVATION OF DEPTH REFERENCE
DATM.M        636.55               : datum        - DATUM ELEVATION
TDD .M        620                  : tdd          - TOTAL DEPTH DRILLER
RUN .         ONE                  : Run          - RUN NUMBER
ENG .         BRANDSTROM           : Engineer     - RECORDING ENGINEER
WIT .         CHRISTENSEN          : Witness      - WITNESSED BY
BASE.         EDM                  : Branch       - HOME BASE OF LOGGING UNIT
MUD .         GEL CHEN             : Mud_type     - MUD TYPE
MATR.         SANDSTONE            : Logunit      - NEUTRON MATRIX
TMAX.C        27.4                 : BHT          - MAXIMUM RECORDED TEMPERATURE
BHTD.M        621                  : BHTDEP       - MAXIMUM RECORDED TEMPERATURE
RMT .C        13.4                 : MDTP         - TEMPERATURE OF MUD
MUDD.KG/M     0                    : MWT          - MUD DENSITY
NEUT.         1                    : NEUTRON      - NEUTRON TYPE
RESI.         0                    : RESIST       - RESISTIVITY TYPE
RM  .OHMM     0.26                 : RM           - RESISTIVITY OF MUD
RMC .OHMM     0                    : RMC          - RESISTIVITY OF MUD CAKE
RMF .OHMM     0.36                 : RMF          - RESISTIVITY OF MUD FILTRATE
SUFT.C        0                    : SUFT         - SURFACE TEMPERATURE
~A  DEPTH     PHID     PHIN       GR      CAL     RESD
# ...
  458.000    0.259    0.405   55.723  225.584    6.588
  458.250    0.246    0.390   54.854  225.493    6.067
  458.500    0.256    0.383   56.861  225.396    5.631
  458.750    0.258    0.399   58.493  225.095    5.276
  459.000    0.262    0.426   59.875  224.897    5.049
  459.250    0.285    0.448   60.131  224.700    4.878
  459.500    0.300    0.456   59.825  224.500    4.776
  459.750    0.309    0.464   59.081  224.407    4.712
  460.000    0.313    0.473   58.962  224.417    4.676
  460.250    0.321    0.459   59.968  224.741    4.640
  460.500    0.319    0.449   61.413  224.958    4.604
  460.750    0.315    0.446   65.671  225.386    4.604
  461.000    0.321    0.446   70.742  225.604    4.639
  461.250    0.315    0.444   74.062  225.615    4.656
  461.500    0.306    0.456   75.131  225.313    4.682
  461.750    0.300    0.474   68.385  225.220    4.736
  462.000    0.307    0.483   67.328  225.125    4.911
  462.250    0.318    0.459   68.209  225.031    5.250
  462.500    0.306    0.442   66.402  224.938    5.570
  462.750    0.296    0.445   64.220  224.948    5.820
  463.000    0.286    0.443   64.602  224.856    6.104
  463.250    0.265    0.438   69.736  224.969    6.354
  463.500    0.239    0.429   70.055  225.293    6.526
  463.750    0.237    0.410   67.872  225.406    6.715
  464.000    0.224    0.385   70.317  225.418    6.963
  464.250    0.234    0.384   71.324  225.740    7.233
  464.500    0.250    0.392   69.954  225.751    7.486
  464.750    0.242    0.396   68.460  225.760    7.882
  465.000    0.240    0.401   68.966  225.771    8.410
  465.250    0.220    0.404   70.473  225.783    9.147
  465.500    0.198    0.389   73.106  225.896    9.199
  465.750    0.210    0.373   76.926  225.802    8.837
  466.000    0.218    0.387   79.996  225.815    7.969
  466.250    0.218    0.396   83.754  225.827    7.132
  466.500    0.194    0.377   88.012  225.833    6.799
  466.750    0.180    0.398   91.332  226.157    6.644
  467.000    0.176    0.447   94.027  226.480    6.581
  467.250    0.249    0.486   86.155  226.594    6.555
  467.500    0.257    0.468   79.596  227.230    6.554
  467.750    0.233    0.454   85.543  227.659    6.541
  468.000    0.220    0.448   89.112  227.878    6.405
  468.250    0.248    0.447   88.368  228.095    6.259
  468.500    0.254    0.441   88.249  228.314    6.223
  468.750    0.267    0.454   89.256  228.427    6.379
  469.000    0.283    0.447   90.325  228.126    6.846
  469.250    0.301    0.438   92.832  228.345    7.825
  469.500    0.311    0.437   96.028  228.565    9.563
  469.750    0.279    0.421   89.844  228.262   12.143
  470.000    0.177    0.389   82.284  227.126   14.616
  470.250    0.137    0.310   73.474  226.614   16.611
  470.500    0.121    0.278   67.228  228.605   17.523
  470.750    0.119    0.281   65.109  232.159   18.031
  471.000    0.121    0.303   63.489  233.212   18.625
  471.250    0.095    0.290   60.806  232.284   19.423
  471.500    0.066    0.280   58.874  231.148   19.796
  471.750    0.090    0.272   61.944  230.533   19.235
  472.000    0.114    0.260   69.954  231.273   16.987
  472.250    0.091    0.238   79.277  233.472   14.830
  472.500    0.037    0.267   86.223  234.212   11.391
  472.750    0.067    0.304   90.919  233.909    9.212
  473.000    0.129    0.402   95.552  232.982    7.537
  473.250    0.191    0.393   96.872  231.952    6.542
  473.500    0.217    0.413   98.879  230.920    6.118
  473.750    0.233    0.457  101.512  230.512    5.979
  474.000    0.269    0.491  102.144  230.106    5.967
  474.250    0.240    0.505  100.961  230.116    5.921
  474.500    0.248    0.494   99.967  230.023    5.820
  474.750    0.245    0.481   99.911  229.929    5.687
  475.000    0.243    0.478  101.543  229.940    5.526
  475.250    0.239    0.501  104.175  229.845    5.483
  475.500    0.224    0.516  107.057  229.856    5.441
  475.750    0.233    0.525  109.190  230.179    5.451
  476.000    0.242    0.499  109.383  230.293    5.493
  476.250    0.221    0.472  108.577  230.513    5.534
  476.500    0.200    0.458  108.521  231.043    5.630
  476.750    0.193    0.449  109.840  231.575    5.705
  477.000    0.188    0.443  112.347  232.210    5.904
  477.250    0.183    0.434  113.229  232.638    6.029
  477.500    0.188    0.427  110.484  233.274    6.075
  477.750    0.198    0.413  109.615  233.910    6.063
  478.000    0.198    0.405  109.871  234.128    5.948
  478.250    0.198    0.410  110.753  234.452    5.857
  478.500    0.205    0.431  111.572  234.461    5.768
  478.750    0.208    0.443  111.953  234.577    5.658
  479.000    0.202    0.452  111.710  234.482    5.550
  479.250    0.190    0.474  111.465  234.805    5.476
  479.500    0.179    0.460  111.784  235.128    5.560
  479.750    0.187    0.477  111.478  235.452    5.821
  480.000    0.200    0.480  108.920  237.129    6.235
  480.250    0.209    0.475  101.048  241.725    6.886
  480.500    0.237    0.471   94.052  232.670    7.751
  480.750    0.288    0.505   88.305  230.386    8.146
  481.000    0.339    0.580   83.184  229.565    7.915
  481.250    0.368    0.589   81.440  229.366    7.545
  481.500    0.353    0.556   82.947  229.376    7.137
  481.750    0.344    0.467   84.516  229.803    6.765
  482.000    0.337    0.503   86.086  230.022    6.623
  482.250    0.365    0.554   83.841  229.929    6.585
  482.500    0.355    0.504   82.597  229.836    6.673
  482.750    0.341    0.457   82.478  229.742    6.854
  483.000    0.336    0.508   84.235  230.376    7.313
  483.250    0.381    0.559   87.680  232.680    7.774
  483.500    0.484    0.618   84.247  233.732    8.232
  483.750    0.504    0.690   70.939  234.159    9.005
  484.000    0.573    0.730   68.378  233.753    9.196
  484.250    0.590    0.754   59.255  232.512    8.867
  484.500    0.592    0.767   61.950  231.064    7.921
  484.750    0.586    0.772   68.459  230.658    6.758
  485.000    0.550    0.773   59.837  231.398    5.722
  485.250    0.567    0.773   54.591  230.365    4.808
  485.500    0.609    0.772   65.852  228.917    4.610
  485.750    0.559    0.767   76.113  227.885    4.910
  486.000    0.226    0.709   84.747  227.167    5.433
  486.250    0.212    0.413   79.314  226.968    6.269
  486.500    0.199    0.352   73.380  226.771    9.975
  486.750    0.181    0.327   68.572  226.990   13.830
  487.000    0.164    0.307   71.954  227.626   13.988
  487.250    0.138    0.305   80.214  228.366   12.400
  487.500    0.136    0.310   89.162  228.584    9.579
  487.750    0.151    0.323   97.922  229.115    7.615
  488.000    0.179    0.342  107.870  229.959    6.636
  488.250    0.189    0.408  121.319  231.220    6.088
  488.500    0.200    0.464  124.828  232.064    5.972
  488.750    0.199    0.465  126.647  233.117    5.960
  489.000    0.197    0.470  127.779  233.961    5.983
  489.250    0.194    0.473  128.347  235.223    6.005
  489.500    0.193    0.467  128.979  235.650    6.097
  489.750    0.195    0.482  130.237  236.180    6.179
  490.000    0.192    0.469  131.618  236.816    6.285
  490.250    0.198    0.475  132.312  236.826    6.345
  490.500    0.209    0.470  131.631  237.151    6.406
  490.750    0.200    0.434  130.949  237.160    6.504
  491.000    0.191    0.445  129.455  236.964    6.591
  491.250    0.183    0.468  127.585  236.556    6.654
  491.500    0.169    0.468  124.215  235.421    6.795
  491.750    0.176    0.454  120.531  233.867    6.912
  492.000    0.202    0.440  114.660  231.377    7.018
  492.250    0.218    0.425  109.664  229.407    7.071
  492.500    0.229    0.410  110.109  229.001    7.044
  492.750    0.227    0.414  113.053  229.115    7.003
  493.000    0.206    0.427  115.873  229.544    6.975
  493.250    0.201    0.435  117.192  229.865    6.975
  493.500    0.193    0.432  116.886  230.502    7.001
  493.750    0.188    0.440  117.142  231.136    7.014
  494.000    0.183    0.443  118.899  231.772    7.027
  494.250    0.187    0.439  119.906  232.304    6.986
