~VERSION INFORMATION
 VERS.                 2.0:   CWLS LOG ASCII STANDARD -VERSION 2.0
 WRAP.                  NO:   ONE LINE PER DEPTH STEP
~WELL INFORMATION BLOCK
#MNEM.UNIT           DATA                    DESCRIPTION OF MNEMONIC
#---------    -------------------            -------------------------------
# Generated from Intellog Unique Number	CW_73_75/WELL/3023
WELL.         RANGER ET AL MARTEN H 11-15    : Well_name    - WELL
LOC .         00/11-15-073-23W4/0            : Location     - LOCATION
UWI .         00/11-15-073-23W4/0            : Uwi          - UNIQUE WELL ID
ENTR.         JJ                             : Entered      - ENTERED BY
SRVC.         SCHLUMBERGER                   : Scn          - SERVICE COMPANY
DATE.         13 NOV 70                      : Date         - LOG DATE
STRT.M        502.92                         : top_depth    - START DEPTH
STOP.M        697.92                         : bot_depth    - STOP DEPTH
STEP.M        0.25                           : increment    - STEP LENGTH
 NULL. -999.2500:NULL Value
~CURVE INFORMATION BLOCK
#MNEM UNIT       ERCB CURVE CODE    CURVE DESCRIPTION
#-----------   ------------------   ----------------------------------
DEPT.M        00 001 00 00         : DEPTH        - DEPTH
DPHI.V/V      00 890 00 00         : PHID         - DENSITY POROSITY (SANDSTONE)
GR  .API      00 310 00 00         : GR           - GAMMA RAY
CALI.MM       00 280 01 00         : CAL          - CALIPER
NPHI.V/V      00 330 00 00         : PHIN         - NEUTRON POROSITY (SANDSTONE)
ILD .OHMM     00 120 00 00         : RESD         - DEEP RESISTIVITY (DIL)
~PARAMETER INFORMATION
#MNEM.UNIT           DATA             DESCRIPTION OF MNEMONIC
#---------         -----------     ------------------------------
GL  .M        717.499              : gl           - GROUND LEVEL ELEVATION
EREF.M        720.547              : kb           - ELEVATION OF DEPTH REFERENCE
DATM.M        720.547              : datum        - DATUM ELEVATION
TDD .M        701.04               : tdd          - TOTAL DEPTH DRILLER
RUN .         ONE                  : Run          - RUN NUMBER
ENG .         SLADEN               : Engineer     - RECORDING ENGINEER
WIT .         BROWN                : Witness      - WITNESSED BY
BASE.         EDMONTON             : Branch       - HOME BASE OF LOGGING UNIT
MUD .         GEL CHEM-LCM         : Mud_type     - MUD TYPE
MATR.         SANDSTONE            : Logunit      - NEUTRON MATRIX
TMAX.C        20                   : BHT          - MAXIMUM RECORDED TEMPERATURE
BHTD.M        701.345              : BHTDEP       - MAXIMUM RECORDED TEMPERATURE
RMT .C        7.22222              : MDTP         - TEMPERATURE OF MUD
MUDD.KG/M     1068                 : MWT          - MUD DENSITY
NEUT.         0                    : NEUTRON      - NEUTRON TYPE
RESI.         0                    : RESIST       - RESISTIVITY TYPE
RM  .OHMM     2.13                 : RM           - RESISTIVITY OF MUD
RMC .OHMM     0                    : RMC          - RESISTIVITY OF MUD CAKE
RMF .OHMM     2.91                 : RMF          - RESISTIVITY OF MUD FILTRATE
SUFT.C        5                    : SUFT         - SURFACE TEMPERATURE
~A  DEPTH     PHID       GR      CAL     PHIN     RESD
# ...
  539.420    0.296   44.735  150.662    0.340    7.855
  539.670    0.292   46.582  151.187    0.320    7.835
  539.920    0.292   47.327  152.765    0.307    7.814
  540.170    0.297   47.769  152.986    0.305    7.834
  540.420    0.305   47.167  153.014    0.300    7.862
  540.670    0.301   43.082  153.030    0.308    7.898
  540.920    0.292   41.258  153.051    0.327    7.917
  541.170    0.295   41.270  152.864    0.321    7.921
  541.420    0.289   42.567  152.778    0.307    7.932
  541.670    0.277   43.801  152.485    0.304    7.968
  541.920    0.268   45.526  152.406    0.311    7.989
  542.170    0.264   49.331  152.422    0.321    8.008
  542.420    0.271   47.937  152.340    0.310    8.044
  542.670    0.277   47.829  152.048    0.330    8.072
  542.920    0.283   48.387  151.860    0.333    8.100
  543.170    0.289   49.011  151.883    0.312    8.103
  543.420    0.297   49.146  151.282    0.307    8.108
  543.670    0.287   48.240  150.473    0.310    8.143
  543.920    0.273   47.273  149.975    0.335    8.162
  544.170    0.265   46.429  145.645    0.314    8.224
  544.420    0.263   46.197  143.180    0.319    8.242
  544.670    0.274   46.513  143.197    0.305    8.229
  544.920    0.286   47.320  146.014    0.296    8.259
  545.170    0.296   49.962  149.141    0.308    8.293
  545.420    0.294   53.154  152.269    0.324    8.296
  545.670    0.284   57.511  154.674    0.332    8.244
  545.920    0.270   62.232  154.173    0.312    8.176
  546.170    0.258   63.344  153.783    0.292    8.139
  546.420    0.264   59.932  153.490    0.296    8.168
  546.670    0.275   56.946  152.888    0.314    8.203
  546.920    0.263   58.364  152.187    0.307    8.303
  547.170    0.268   60.029  151.789    0.304    8.378
  547.420    0.267   62.731  150.983    0.303    8.576
  547.670    0.259   64.398  150.274    0.330    8.731
  547.920    0.262   65.813  148.950    0.301    9.049
  548.170    0.256   63.195  145.974    0.288    9.220
  548.420    0.280   64.554  146.504    0.299    9.220
  548.670    0.275   67.867  147.454    0.293    9.293
  548.920    0.263   63.233  149.133    0.304    9.295
  549.170    0.260   64.773  149.669    0.327    9.295
  549.420    0.270   68.699  149.378    0.308    9.295
  549.670    0.275   69.387  149.607    0.316    9.282
  549.920    0.274   69.641  150.047    0.320    9.270
  550.170    0.271   69.531  150.063    0.338    9.225
  550.420    0.264   67.951  150.293    0.319    9.140
  550.670    0.267   63.986  150.827    0.311    8.968
  550.920    0.275   65.466  151.260    0.309    8.779
  551.170    0.282   69.884  151.386    0.318    8.583
  551.420    0.280   66.407  151.408    0.319    8.441
  551.670    0.265   72.354  151.527    0.310    8.181
  551.920    0.241   76.708  152.082    0.302    7.840
  552.170    0.219   81.064  152.193    0.309    7.562
  552.420    0.196   83.706  152.933    0.309    7.189
  552.670    0.176   80.658  154.928    0.303    6.864
  552.920    0.168   79.817  156.704    0.291    6.635
  553.170    0.163   81.969  158.485    0.317    6.598
  553.420    0.181   84.793  161.316    0.329    6.450
  553.670    0.198   88.048  162.361    0.311    5.981
  553.920    0.207   86.162  156.784    0.314    5.616
  554.170    0.187   81.587  154.732    0.311    5.306
  554.420    0.170   79.029  157.555    0.317    5.006
  554.670    0.162   81.488  159.745    0.324    4.856
  554.920    0.163   87.132  164.223    0.318    4.596
  555.170    0.178   90.137  166.831    0.326    4.399
  555.420    0.181   94.430  167.676    0.309    4.194
  555.670    0.178   89.854  168.007    0.313    4.038
  555.920    0.170   89.133  168.546    0.328    4.002
  556.170    0.170   93.487  168.467    0.341    4.045
  556.420    0.188   96.129  168.070    0.319    4.329
  556.670    0.206   93.941  167.575    0.306    4.629
  556.920    0.209   92.177  166.454    0.316    5.066
  557.170    0.198   88.029  165.124    0.334    5.496
  557.420    0.184   82.782  160.179    0.327    5.732
  557.670    0.201   79.244  158.744    0.313    5.984
  557.920    0.219   80.846  158.248    0.307    6.196
  558.170    0.201   82.204  158.793    0.305    6.384
  558.420    0.196   84.234  158.912    0.296    6.597
  558.670    0.214   79.416  158.307    0.332    6.729
  558.920    0.231   74.655  156.770    0.369    6.821
  559.170    0.274   67.450  149.748    0.358    6.873
  559.420    0.290   61.038  144.503    0.338    6.811
  559.670    0.285   57.195  144.198    0.323    6.647
  559.920    0.303   58.736  144.011    0.316    6.523
  560.170    0.290   60.522  145.478    0.314    6.399
  560.420    0.296   61.391  151.514    0.329    6.314
  560.670    0.304   62.198  153.907    0.311    6.229
  560.920    0.317   61.721  155.484    0.326    6.168
  561.170    0.315   58.368  153.640    0.321    6.107
  561.420    0.308   54.831  152.730    0.314    5.911
  561.670    0.296   56.922  152.438    0.310    5.786
  561.920    0.287   60.362  151.937    0.298    5.670
  562.170    0.286   62.637  150.920    0.313    5.601
  562.420    0.283   66.746  149.696    0.306    5.581
  562.670    0.271   70.856  147.127    0.315    5.633
  562.920    0.269   68.361  141.141    0.331    5.725
  563.170    0.291   61.459  137.638    0.322    5.792
  563.420    0.328   59.392  139.836    0.317    5.901
  563.670    0.307   60.749  145.035    0.299    5.929
  563.920    0.298   61.190  149.611    0.317    5.972
  564.170    0.294   57.836  153.777    0.342    6.024
  564.420    0.304   66.721  156.904    0.319    6.068
  564.670    0.306   68.871  153.816    0.295    6.079
  564.920    0.301   70.597  151.348    0.304    6.035
  565.170    0.321   69.446  149.920    0.350    6.079
  565.420    0.312   66.704  149.629    0.327    6.067
  565.670    0.273   69.041  149.026    0.338    6.046
  565.920    0.249   72.784  148.841    0.343    6.034
  566.170    0.249   71.511  148.551    0.309    6.029
  566.420    0.259   67.975  148.153    0.335    5.985
  566.670    0.274   69.699  149.831    0.317    5.948
  566.920    0.285   72.220  151.515    0.312    5.904
  567.170    0.290   71.071  151.942    0.286    5.836
  567.420    0.292   68.697  151.243    0.321    5.759
  567.670    0.293   66.325  150.018    0.325    5.621
  567.920    0.299   65.724  148.274    0.337    5.614
  568.170    0.309   66.223  150.990    0.328    5.570
  568.420    0.297   66.479  152.872    0.333    5.549
  568.670    0.291   68.328  152.169    0.341    5.539
  568.920    0.285   67.789  148.872    0.328    5.533
  569.170    0.273   67.065  148.687    0.311    5.529
  569.420    0.264   66.284  150.056    0.290    5.542
  569.670    0.269   68.375  152.561    0.330    5.537
  569.920    0.268   70.406  153.406    0.338    5.564
  570.170    0.257   68.950  153.121    0.300    5.800
  570.420    0.239   65.352  152.621    0.299    6.303
  570.670    0.226   64.508  153.470    0.312    6.730
  570.920    0.218   66.231  154.940    0.291    7.759
  571.170    0.204   68.568  156.200    0.255   10.281
  571.420    0.089   63.746  159.642    0.216   14.319
  571.670    0.101   60.149  161.315    0.174   16.969
  571.920    0.089   62.976  164.651    0.150   19.315
  572.170    0.071   67.391  166.638    0.125   18.749
  572.420    0.117   67.466  161.998    0.119   16.146
  572.670    0.144   63.133  155.699    0.192   12.453
  572.920    0.170   61.065  150.023    0.259    8.824
  573.170    0.229   60.468  149.112    0.303    7.328
  573.420    0.311   59.684  150.278    0.316    6.137
  573.670    0.296   58.960  151.326    0.321    5.819
  573.920    0.297   57.628  151.760    0.331    5.655
  574.170    0.309   55.986  151.368    0.325    5.619
  574.420    0.314   55.203  151.080    0.338    5.606
  574.670    0.311   52.891  151.202    0.331    5.723
  574.920    0.306   53.268  151.326    0.350    5.782
  575.170    0.302   55.116  151.450    0.363    5.890
  575.420    0.295   59.227  151.579    0.337    6.023
  575.670    0.278   63.887  151.180    0.307    6.082
