~VERSION INFORMATION
 VERS.                 2.0:   CWLS LOG ASCII STANDARD -VERSION 2.0
 WRAP.                  NO:   ONE LINE PER DEPTH STEP
~WELL INFORMATION BLOCK
#MNEM.UNIT           DATA                    DESCRIPTION OF MNEMONIC
#---------    -------------------            -------------------------------
# Generated from Intellog Unique Number	CW_79_81/WELL/2899
WELL.         CAN DELHI WAVASCA NC. 10-18    : Well_name    - WELL
LOC .         00/10-18-080-25W4/0            : Location     - LOCATION
UWI .         00/10-18-080-25W4/0            : Uwi          - UNIQUE WELL ID
ENTR.         JJ                             : Entered      - ENTERED BY
SRVC.         WESTERN ATLAS                  : Scn          - SERVICE COMPANY
DATE.         7 FEB 69                       : Date         - LOG DATE
STRT.M        338.328                        : top_depth    - START DEPTH
STOP.M        466.328                        : bot_depth    - STOP DEPTH
STEP.M        0.25                           : increment    - STEP LENGTH
 NULL. -999.2500:NULL Value
~CURVE INFORMATION BLOCK
#MNEM UNIT       ERCB CURVE CODE    CURVE DESCRIPTION
#-----------   ------------------   ----------------------------------
DEPT.M        00 001 00 00         : DEPTH        - DEPTH
DELT.US/F     00 520 00 00         : DELT         - SONIC TRAVEL TIME
GR  .API      00 310 00 00         : GR           - GAMMA RAY
RHOB.KG/M3    00 350 00 00         : DENS         - BULK DENSITY
CALI.MM       00 280 01 00         : CAL          - CALIPER
ILD .OHMM     00 120 00 00         : RESD         - DEEP RESISTIVITY (DIL)
~PARAMETER INFORMATION
#MNEM.UNIT           DATA             DESCRIPTION OF MNEMONIC
#---------         -----------     ------------------------------
GL  .M        551.261              : gl           - GROUND LEVEL ELEVATION
EREF.M        554.157              : kb           - ELEVATION OF DEPTH REFERENCE
DATM.M        554.157              : datum        - DATUM ELEVATION
TDD .M        469.392              : tdd          - TOTAL DEPTH DRILLER
RUN .         ONE                  : Run          - RUN NUMBER
ENG .         BLAND                : Engineer     - RECORDING ENGINEER
WIT .         WOREBEC              : Witness      - WITNESSED BY
BASE.         EDM                  : Branch       - HOME BASE OF LOGGING UNIT
MUD .         MUD                  : Mud_type     - MUD TYPE
MATR.         LIMESTONE            : Logunit      - NEUTRON MATRIX
TMAX.C        29.4444              : BHT          - MAXIMUM RECORDED TEMPERATURE
BHTD.M        470.611              : BHTDEP       - MAXIMUM RECORDED TEMPERATURE
RMT .C        15.5556              : MDTP         - TEMPERATURE OF MUD
MUDD.KG/M     1176                 : MWT          - MUD DENSITY
NEUT.         1                    : NEUTRON      - NEUTRON TYPE
RESI.         0                    : RESIST       - RESISTIVITY TYPE
RM  .OHMM     7                    : RM           - RESISTIVITY OF MUD
RMC .OHMM     5.5                  : RMC          - RESISTIVITY OF MUD CAKE
RMF .OHMM     8                    : RMF          - RESISTIVITY OF MUD FILTRATE
SUFT.C        5                    : SUFT         - SURFACE TEMPERATURE
~A  DEPTH     DELT       GR     DENS      CAL     RESD
# ...
  374.828  363.725   82.950 2533.150  216.201   14.505
  375.078  396.663   85.679 2507.500  216.201   14.630
  375.328  392.570   87.203 2502.430  214.843   14.676
  375.578  387.890   89.430 2503.310  214.049   14.640
  375.828  394.898   91.454 2497.620  213.257   14.487
  376.078  393.608   92.873 2485.750  211.742   14.351
  376.328  395.255   90.235 2513.560  210.622   14.056
  376.578  398.740   87.692 2533.590  207.335   13.781
  376.828  390.852   86.781 2546.250  206.205   13.587
  377.078  396.819   83.142 2465.980  203.837   13.572
  377.328  393.430   83.925 2466.670  200.752   13.557
  377.578  390.253   89.081 2491.480  200.039   13.401
  377.828  392.099   93.244 2485.790  198.307   13.086
  378.078  396.230   93.231 2507.040  198.149   12.633
  378.328  400.044   90.687 2533.260  197.779   12.517
  378.578  396.923   84.562 2522.170  194.570   12.543
  378.828  394.650   84.109 2546.990  190.937   12.688
  379.078  383.821   87.623 2545.100  190.051   12.774
  379.328  390.367   89.990 2525.040  190.724   12.717
  379.578  393.394   83.324 2522.140  192.996   12.562
  379.828  392.886   83.174 2514.860  195.257   12.207
  380.078  392.063   83.954 2526.320  196.988   12.093
  380.328  397.439   84.478 2586.640  198.728   12.218
  380.578  383.471   85.463 2530.700  192.050   12.462
  380.828  380.873   82.418 2575.670  187.684   13.287
  381.078  389.907   82.358 2570.370  186.569   14.793
  381.328  378.689   83.787 2546.130  187.358   15.978
  381.578  281.008   80.251 2557.390  190.361   16.723
  381.828  270.439   73.632 2584.010  194.412   17.088
  382.078  306.268   79.233 2564.770  190.567   16.733
  382.328  341.110   85.527 2525.160  194.198   15.239
  382.578  398.970   90.685 2492.160  198.780   13.424
  382.828  409.509   88.437 2527.950  202.627   12.129
  383.078  411.276   91.898 2496.120  205.210   11.214
  383.328  406.994   93.132 2503.590  206.832   11.159
  383.578  431.193   91.581 2532.610  209.102   11.724
  383.828  453.558   92.869 2541.280  210.429   12.469
  384.078  371.815   93.241 2534.800  211.316   13.054
  384.328  382.035   94.577 2578.960  211.799   13.159
  384.578  397.928   97.192 2559.130  211.830   11.984
  384.828  410.166  103.091 2568.180  212.002   10.750
  385.078  399.080  104.172 2579.250  212.249   10.494
  385.328  380.994  101.922 2531.070  211.151   10.880
  385.578  375.969   94.961 2531.160  208.671   12.384
  385.828  373.970   89.931 2558.980  204.735   14.550
  386.078  363.665   85.996 2549.500  202.149   16.275
  386.328  357.149   81.126 2565.540  199.897   17.980
  386.578  245.351   77.088 2575.620  197.845   20.985
  386.828  205.178   69.673 2650.500  196.098   24.130
  387.078  184.221   63.850 2586.570  192.793   44.515
  387.328  306.703   61.603 2550.960  192.003   54.017
  387.578  383.831   68.842 2508.370  191.307   52.659
  387.828  406.067   75.039 2465.390  190.209   54.922
  388.078  354.331   78.004 2562.610  191.096   64.169
  388.328  248.219   74.221 2596.210  193.155   77.626
  388.578  268.691   63.680 2665.310  194.261  102.268
  388.828  250.802   58.950 2677.770  194.307  118.346
  389.078  228.665   60.232 2634.380  194.370  131.190
  389.328  235.220   64.297 2603.560  194.307  116.833
  389.578  217.002   66.760 2602.850  194.688   90.682
  389.828  233.164   67.593 2657.990  194.845   69.124
  390.078  250.565   67.585 2620.400  195.419   54.355
  390.328  351.410   70.903 2605.330  196.738   49.999
  390.578  348.097   74.364 2529.630  199.624   44.409
  390.828  352.361   73.160 2543.100  201.783   38.337
  391.078  359.306   75.930 2532.410  202.574   33.008
  391.328  368.406   78.448 2551.260  201.483   27.378
  391.578  363.719   79.730 2550.940  200.155   22.270
  391.828  353.875   77.829 2537.680  198.730   19.547
  392.078  344.543   81.492 2568.490  197.102   17.366
  392.328  366.192   83.568 2559.210  197.607   16.169
  392.578  374.505   82.911 2543.540  198.259   15.434
  392.828  372.439   81.555 2522.300  199.692   15.237
  393.078  373.829   82.933 2529.560  200.255   15.223
  393.328  364.501   87.542 2521.300  200.416   15.589
  393.578  336.811   85.645 2518.780  200.254   16.196
  393.828  323.626   82.552 2515.090  198.632   16.623
  394.078  342.201   84.092 2590.570  196.782   16.910
  394.328  373.843   84.962 2548.780  197.681   16.513
  394.578  375.503   85.695 2538.120  196.259   15.516
  394.828  370.159   91.840 2528.220  193.581   14.498
  395.078  368.346   91.484 2526.330  193.738   13.863
  395.328  363.266   85.213 2555.540  194.415   13.607
  395.578  364.653   82.915 2580.960  195.312   13.755
  395.828  378.727   81.514 2514.640  195.477   13.859
  396.078  350.710   83.490 2514.530  194.891   14.207
  396.328  336.339   82.782 2500.460  192.003   14.472
  396.578  347.215   78.554 2525.290  192.484   14.677
  396.828  376.181   79.879 2567.460  194.000   14.162
  397.078  373.837   85.379 2547.830  195.629   13.425
  397.328  370.791   83.975 2561.290  195.682   12.629
  397.578  390.016   84.311 2550.780  195.101   12.353
  397.828  385.991   81.170 2567.440  196.002   12.378
  398.078  365.486   85.431 2582.680  194.685   12.665
  398.328  353.212   83.979 2586.180  192.637   13.212
  398.578  374.932   80.739 2595.840  191.419   13.839
  398.828  361.484   79.239 2568.610  191.791   14.065
  399.078  355.883   81.955 2615.970  192.474   13.510
  399.328  371.450   82.740 2594.520  193.368   13.014
  399.578  385.128   82.582 2587.030  193.954   12.557
  399.828  382.793   87.782 2555.810  194.526   12.183
  400.078  384.699   90.054 2562.290  194.795   12.088
  400.328  385.969   87.561 2566.780  194.951   12.113
  400.578  375.662   85.957 2559.510  195.313   12.178
  400.828  384.502   91.261 2544.020  195.269   12.285
  401.078  396.603   88.664 2542.910  195.007   12.350
  401.328  389.758   91.287 2591.880  193.583   12.415
  401.578  353.251   89.636 2602.340  190.791   12.541
  401.828  351.433   81.331 2604.820  190.947   12.646
  402.078  384.521   83.410 2577.000  195.109   12.872
  402.328  374.540   85.923 2595.440  194.418   12.872
  402.578  354.556   84.075 2593.930  187.839   13.768
  402.828  356.542   83.371 2559.920  185.059   14.072
  403.078  358.647   84.698 2591.130  183.529   14.719
  403.328  355.854   83.601 2616.370  182.103   15.268
  403.578  368.485   83.929 2627.010  181.214   15.071
  403.828  365.826   82.078 2606.370  181.373   16.565
  404.078  308.466   78.392 2576.550  184.269   17.549
  404.328  268.557   73.267 2580.430  187.687   20.583
  404.578  244.526   68.242 2596.870  192.687   23.616
  404.828  266.825   65.001 2601.960  191.370   26.189
  405.078  287.098   67.676 2582.900  185.851   20.739
  405.328  302.734   71.731 2573.630  185.266   18.137
  405.578  322.556   76.439 2554.760  186.791   16.459
  405.828  347.141   79.504 2587.170  190.424   14.980
  406.078  359.572   84.258 2564.520  192.898   14.103
  406.328  366.848   90.204 2563.230  194.117   13.667
  406.578  335.827   85.729 2596.620  194.788   13.833
  406.828  354.729   78.514 2627.230  194.419   14.581
  407.078  339.524   73.334 2613.160  193.949   14.767
  407.328  348.948   75.657 2652.350  196.316   13.730
  407.578  379.681   78.130 2606.970  200.590   12.773
  407.828  374.530   88.447 2617.430  202.849   11.796
  408.078  374.033   92.409 2645.050  205.212   11.078
  408.328  386.793   92.793 2673.660  205.590   11.084
  408.578  400.598   96.754 2585.400  204.374   12.053
  408.828  364.806   97.139 2554.180  195.475   13.241
  409.078  314.694  100.009 2643.220  190.267   14.529
  409.328  348.434   94.881 2616.190  190.002   15.879
  409.578  346.746   87.470 2564.430  191.005   16.385
  409.828  344.812   90.387 2526.830  192.848   16.090
  410.078  347.243   93.709 2534.510  194.687   14.552
  410.328  357.721   95.974 2548.750  199.276   13.475
  410.578  367.674  100.781 2556.220  203.111   12.678
  410.828  393.366  102.954 2515.640  207.575   12.925
  411.078  373.981  100.857 2464.470  201.003   13.812
