~VERSION INFORMATION
 VERS.                 2.0:   CWLS LOG ASCII STANDARD -VERSION 2.0
 WRAP.                  NO:   ONE LINE PER DEPTH STEP
~WELL INFORMATION BLOCK
#MNEM.UNIT           DATA                    DESCRIPTION OF MNEMONIC
#---------    -------------------            -------------------------------
# Generated from Intellog Unique Number	CS_67_68/WELL/2214
WELL.         GEOG et al HYLO                : Well_name    - WELL
LOC .         00/13-18-067-14W4/0            : Location     - LOCATION
UWI .         00/13-18-067-14W4/0            : Uwi          - UNIQUE WELL ID
ENTR.         SP                             : Entered      - ENTERED BY
SRVC.         SCHLUMBERGER                   : Scn          - SERVICE COMPANY
STRT.M        300                            : top_depth    - START DEPTH
STOP.M        491                            : bot_depth    - STOP DEPTH
STEP.M        0.25                           : increment    - STEP LENGTH
 NULL. -999.2500:NULL Value
~CURVE INFORMATION BLOCK
#MNEM UNIT       ERCB CURVE CODE    CURVE DESCRIPTION
#-----------   ------------------   ----------------------------------
DEPT.M        00 001 00 00         : DEPTH        - DEPTH
ILD .OHMM     00 120 00 00         : RESD         - DEEP RESISTIVITY (DIL)
DPHI.V/V      00 890 00 00         : PHID         - DENSITY POROSITY (LIMESTONE)
NPHI.V/V      00 330 00 00         : PHIN         - NEUTRON POROSITY (LIMESTONE)
GR  .API      00 310 00 00         : GR           - GAMMA RAY
CALI.MM       00 280 01 00         : CAL          - CALIPER
~PARAMETER INFORMATION
#MNEM.UNIT           DATA             DESCRIPTION OF MNEMONIC
#---------         -----------     ------------------------------
GL  .M        563                  : gl           - GROUND LEVEL ELEVATION
EREF.M        565.7                : kb           - ELEVATION OF DEPTH REFERENCE
DATM.M        563                  : datum        - DATUM ELEVATION
TDD .M        493                  : tdd          - TOTAL DEPTH DRILLER
RUN .         ONE                  : Run          - RUN NUMBER
ENG .         BILL                 : Engineer     - RECORDING ENGINEER
WIT .         JIM                  : Witness      - WITNESSED BY
MUD .         GEL                  : Mud_type     - MUD TYPE
MATR.         LIMESTONE            : Logunit      - NEUTRON MATRIX
TMAX.C        30                   : BHT          - MAXIMUM RECORDED TEMPERATURE
BHTD.M        490                  : BHTDEP       - MAXIMUM RECORDED TEMPERATURE
MATR.         1                    : LOGUNIT      - NEUTRON MATRIX
RMT .C        25                   : MDTP         - TEMPERATURE OF MUD
NEUT.         1                    : NEUTRON      - NEUTRON TYPE
RESI.         0                    : RESIST       - RESISTIVITY TYPE
RMC .OHMM     0.25                 : RMC          - RESISTIVITY OF MUD CAKE
RMF .OHMM     0.25                 : RMF          - RESISTIVITY OF MUD FILTRATE
SUFT.C        15                   : SUFT         - SURFACE TEMPERATURE
~A  DEPTH     RESD     PHID     PHIN       GR      CAL
# ...
  373.000    2.567    0.229    0.426  112.927  167.476
  373.250    2.390    0.237    0.457  119.694  174.393
  373.500    2.280    0.255    0.498  125.060  187.293
  373.750    2.216    0.282    0.563  122.455  200.599
  374.000    2.509    0.287    0.550  117.113  203.864
  374.250    2.655    0.271    0.521  112.198  181.169
  374.500    2.788    0.221    0.497  107.341  169.529
  374.750    3.052    0.185    0.482  101.694  163.665
  375.000    3.327    0.168    0.468   95.439  163.077
  375.250    3.145    0.176    0.453   88.149  163.710
  375.500    2.922    0.181    0.432   80.981  164.131
  375.750    2.710    0.204    0.415   83.793  164.355
  376.000    2.552    0.239    0.424   82.892  164.475
  376.250    2.398    0.264    0.429   86.494  164.699
  376.500    2.314    0.264    0.424   92.898  165.233
  376.750    2.318    0.269    0.419   95.951  165.348
  377.000    2.467    0.261    0.421   97.120  165.375
  377.250    2.586    0.228    0.440   99.626  165.693
  377.500    2.581    0.203    0.454  106.332  172.306
  377.750    2.495    0.170    0.470  112.247  179.223
  378.000    2.367    0.195    0.496  113.779  180.054
  378.250    2.288    0.214    0.498  108.499  169.833
  378.500    2.224    0.225    0.492   97.740  164.073
  378.750    2.170    0.238    0.472   85.887  162.877
  379.000    2.126    0.266    0.423   77.259  161.678
  379.250    2.102    0.255    0.420   74.776  156.731
  379.500    2.090    0.257    0.427   73.388  152.189
  379.750    2.118    0.256    0.432   76.201  154.438
  380.000    2.187    0.253    0.433   79.559  159.431
  380.250    2.327    0.254    0.438   82.370  161.172
  380.500    2.532    0.273    0.444   83.721  149.326
  380.750    2.829    0.280    0.428   82.152  147.927
  381.000    3.222    0.254    0.413   79.915  157.480
  381.250    3.675    0.217    0.396   77.430  164.602
  381.500    4.232    0.130    0.378   72.878  164.519
  381.750    4.891    0.085    0.299   67.049  164.238
  382.000    5.675    0.057    0.221   62.862  164.157
  382.250    8.568    0.043    0.209   58.980  163.772
  382.500   10.778    0.044    0.226   63.374  163.081
  382.750    7.843    0.108    0.273   70.992  162.796
  383.000    5.653    0.185    0.361   78.794  162.920
  383.250    4.091    0.226    0.420   84.526  162.940
  383.500    2.877    0.250    0.437   86.424  162.860
  383.750    2.429    0.265    0.450   85.705  162.677
  384.000    2.283    0.266    0.465   86.206  162.696
  384.250    2.211    0.263    0.457   85.671  162.617
  384.500    2.199    0.249    0.452   87.812  162.535
  384.750    2.317    0.235    0.448   90.319  162.659
  385.000    2.457    0.228    0.458   93.190  162.578
  385.250    2.619    0.222    0.454   96.367  162.698
  385.500    2.813    0.218    0.447   99.849  162.618
  385.750    3.067    0.209    0.447  101.139  162.436
  386.000    3.288    0.211    0.440   99.812  162.453
  386.250    3.472    0.211    0.446  101.953  162.273
  386.500    3.612    0.203    0.456  100.262  162.393
  386.750    3.653    0.207    0.446  102.221  162.110
  387.000    3.716    0.219    0.439  105.398  161.724
  387.250    3.758    0.217    0.434  104.863  161.543
  387.500    3.815    0.209    0.427  105.849  161.360
  387.750    3.844    0.215    0.440  106.530  162.598
  388.000    3.865    0.221    0.426  102.709  164.442
  388.250    3.815    0.212    0.420  101.687  167.710
  388.500    3.836    0.191    0.420  103.038  170.061
  388.750    3.924    0.166    0.435  102.990  170.894
  389.000    4.036    0.143    0.443  102.758  168.279
  389.250    4.074    0.163    0.449  102.891  165.259
  389.500    4.036    0.175    0.457  103.025  164.058
  389.750    3.909    0.179    0.454  102.368  163.470
  390.000    3.786    0.185    0.441   98.000  165.826
  390.250    3.736    0.189    0.431   95.943  166.351
  390.500    3.793    0.186    0.422   93.582  166.473
  390.750    3.998    0.164    0.405   88.545  166.799
  391.000    4.190    0.132    0.364   84.479  166.411
  391.250    4.005    0.137    0.339   89.665  164.708
  391.500    3.828    0.186    0.433   96.186  162.603
  391.750    3.792    0.214    0.452  101.858  162.518
  392.000    3.850    0.187    0.464  105.156  162.947
  392.250    3.901    0.174    0.457  104.135  163.978
  392.500    4.050    0.170    0.442  102.808  165.317
  392.750    4.214    0.160    0.434  102.029  166.556
  393.000    4.302    0.165    0.435  101.919  166.880
  393.250    4.294    0.175    0.451  102.054  166.595
  393.500    4.206    0.173    0.463   98.781  165.096
  393.750    4.073    0.167    0.460   98.548  164.203
  394.000    3.945    0.172    0.461  102.455  163.514
  394.250    3.879    0.186    0.460  105.937  163.230
  394.500    3.886    0.181    0.450  106.313  163.251
  394.750    4.150    0.173    0.437  101.579  163.680
  395.000    4.629    0.153    0.418   88.022  163.899
  395.250    5.123    0.098    0.377   77.508  163.717
  395.500    5.482    0.049    0.276   66.749  163.128
  395.750    5.833    0.017    0.241   63.293  163.352
  396.000    6.023    0.018    0.269   74.746  165.502
  396.250    6.000    0.031    0.389   88.389  168.768
  396.500    5.300    0.050    0.415   96.614  173.556
  396.750    4.585    0.125    0.431  102.407  173.475
  397.000    4.301    0.168    0.437  101.628  165.989
  397.250    4.205    0.188    0.437  102.371  163.373
  397.500    4.189    0.172    0.436  104.513  166.334
  397.750    4.157    0.157    0.441  105.560  168.488
  398.000    4.118    0.154    0.443  103.869  167.794
  398.250    4.103    0.166    0.441  102.179  165.789
  398.500    4.049    0.170    0.449  101.094  166.012
  398.750    3.944    0.174    0.456  105.061  166.539
  399.000    3.885    0.175    0.463  110.126  167.167
  399.250    3.820    0.184    0.470  113.728  167.592
  399.500    3.734    0.192    0.478  115.746  167.410
  399.750    3.692    0.182    0.473  115.272  166.318
  400.000    3.699    0.171    0.455  116.623  165.428
  400.250    3.734    0.164    0.443  116.209  165.850
  400.500    3.798    0.163    0.457  112.935  166.579
  400.750    3.892    0.159    0.459  111.122  167.514
  401.000    3.943    0.151    0.448  112.413  167.230
  401.250    3.899    0.140    0.438  112.425  166.236
  401.500    3.834    0.170    0.431  111.463  166.357
  401.750    3.706    0.170    0.441  111.720  166.986
  402.000    3.644    0.170    0.449  114.106  168.020
  402.250    3.542    0.158    0.452  114.542  169.563
  402.500    3.503    0.140    0.455  114.129  170.090
  402.750    3.529    0.152    0.452  111.769  169.711
  403.000    3.637    0.176    0.442  105.391  169.016
  403.250    3.706    0.182    0.434   98.467  167.615
  403.500    3.699    0.184    0.429  102.435  165.709
  403.750    3.637    0.187    0.432  105.914  165.224
  404.000    3.496    0.189    0.439  101.302  165.448
  404.250    3.298    0.191    0.448  103.081  165.372
  404.500    3.082    0.191    0.455   99.745  165.289
  404.750    2.779    0.207    0.462   94.342  165.104
  405.000    2.473    0.221    0.453   89.608  165.021
  405.250    2.255    0.224    0.442   84.813  164.737
  405.500    1.984    0.263    0.430   79.592  164.454
  405.750    1.723    0.294    0.411   73.033  164.475
  406.000    1.635    0.310    0.393   68.237  164.494
  406.250    1.589    0.315    0.382   63.565  164.818
  406.500    1.565    0.314    0.391   63.394  164.945
  406.750    1.548    0.317    0.392   64.928  164.962
  407.000    1.574    0.320    0.376   66.096  164.982
  407.250    1.656    0.307    0.387   67.204  164.900
  407.500    1.820    0.299    0.395   67.703  164.620
  407.750    1.984    0.307    0.402   67.535  164.438
  408.000    2.192    0.303    0.412   66.753  164.152
  408.250    2.359    0.311    0.403   64.942  163.663
  408.500    2.500    0.302    0.393   65.379  162.569
  408.750    2.572    0.281    0.364   62.166  161.985
  409.000    2.350    0.257    0.357   64.127  162.002
  409.250    2.075    0.231    0.408   65.295  162.328
