~VERSION INFORMATION
 VERS.                 2.0:   CWLS LOG ASCII STANDARD -VERSION 2.0
 WRAP.                  NO:   ONE LINE PER DEPTH STEP
~WELL INFORMATION BLOCK
#MNEM.UNIT           DATA                    DESCRIPTION OF MNEMONIC
#---------    -------------------            -------------------------------
# Generated from Intellog Unique Number	CW_76_78/WELL/829
WELL.         GULF POC DROWNED 10-07         : Well_name    - WELL
LOC .         00/10-07-077-21W4/0            : Location     - LOCATION
UWI .         00/10-07-077-21W4/0            : Uwi          - UNIQUE WELL ID
ENTR.         os                             : Entered      - ENTERED BY
SRVC.         SCHLUMBERGER                   : Scn          - SERVICE COMPANY
DATE.         12 MAR 1978                    : Date         - LOG DATE
STRT.M        429.768                        : top_depth    - START DEPTH
STOP.M        637.018                        : bot_depth    - STOP DEPTH
STEP.M        0.25                           : increment    - STEP LENGTH
 NULL. -999.2500:NULL Value
~CURVE INFORMATION BLOCK
#MNEM UNIT       ERCB CURVE CODE    CURVE DESCRIPTION
#-----------   ------------------   ----------------------------------
DEPT.M        00 001 00 00         : DEPTH        - DEPTH
ILD .OHMM     00 120 00 00         : RESD         - DEEP RESISTIVITY (DIL)
NPHI.V/V      00 330 00 00         : PHIN         - NEUTRON POROSITY (SANDSTONE)
DPHI.V/V      00 890 00 00         : PHID         - DENSITY POROSITY (SANDSTONE)
GR  .API      00 310 00 00         : GR           - GAMMA RAY
CALI.MM       00 280 01 00         : CAL          - CALIPER
~PARAMETER INFORMATION
#MNEM.UNIT           DATA             DESCRIPTION OF MNEMONIC
#---------         -----------     ------------------------------
GL  .M        752.856              : gl           - GROUND LEVEL ELEVATION
EREF.M        758.342              : kb           - ELEVATION OF DEPTH REFERENCE
DATM.M        752.856              : datum        - DATUM ELEVATION
TDD .M        641.299              : tdd          - TOTAL DEPTH DRILLER
RUN .         ONE                  : Run          - RUN NUMBER
ENG .         DEROCHIER            : Engineer     - RECORDING ENGINEER
WIT .         ROZENHART            : Witness      - WITNESSED BY
BASE.         EDMONTON             : Branch       - HOME BASE OF LOGGING UNIT
MUD .         GEL CHEM             : Mud_type     - MUD TYPE
MATR.         SANDSTONE            : Logunit      - NEUTRON MATRIX
TMAX.C        22.7778              : BHT          - MAXIMUM RECORDED TEMPERATURE
BHTD.M        640.69               : BHTDEP       - MAXIMUM RECORDED TEMPERATURE
RMT .C        18.3333              : MDTP         - TEMPERATURE OF MUD
MUDD.KG/M     1092                 : MWT          - MUD DENSITY
NEUT.         1                    : NEUTRON      - NEUTRON TYPE
RESI.         0                    : RESIST       - RESISTIVITY TYPE
RM  .OHMM     5.72                 : RM           - RESISTIVITY OF MUD
RMC .OHMM     0.25                 : RMC          - RESISTIVITY OF MUD CAKE
RMF .OHMM     6.77                 : RMF          - RESISTIVITY OF MUD FILTRATE
SUFT.C        4.5                  : SUFT         - SURFACE TEMPERATURE
~A  DEPTH     RESD     PHIN     PHID       GR      CAL
# ...
  612.268    6.200    0.358    0.193   82.934  157.175
  612.518    4.466    0.380    0.151   96.032  156.857
  612.768    3.738    0.420    0.141  116.052  156.645
  613.018    3.631    0.417    0.156  131.582  156.011
  613.268    3.847    0.420    0.173  145.427  156.010
  613.518    4.317    0.430    0.156  154.096  155.904
  613.768    4.747    0.431    0.140  153.223  156.009
  614.018    5.458    0.412    0.130  141.185  155.796
  614.268    5.614    0.368    0.130  124.781  155.690
  614.518    5.817    0.334    0.140  110.124  155.478
  614.768    6.268    0.345    0.155  106.693  155.161
  615.018    7.126    0.388    0.166  108.439  154.843
  615.268    8.456    0.392    0.173  108.750  154.737
  615.518   10.240    0.320    0.201   97.585  154.525
  615.768   11.323    0.312    0.219   79.248  154.629
  616.018   12.109    0.312    0.219   77.252  154.629
  616.268   12.831    0.318    0.226   80.619  154.734
  616.518   12.908    0.325    0.208   82.490  154.838
  616.768   12.605    0.338    0.196   81.928  154.943
  617.018   12.331    0.346    0.177   82.801  154.731
  617.268   12.064    0.355    0.187   84.796  154.519
  617.518   12.001    0.361    0.175   88.663  153.779
  617.768   12.095    0.337    0.157   92.592  153.356
  618.018   12.257    0.310    0.137   96.022  152.722
  618.268   12.514    0.298    0.090   97.019  152.087
  618.518   11.798    0.288    0.080   94.711  151.664
  618.768   11.018    0.276    0.085   95.896  151.346
  619.018    9.898    0.292    0.080  100.199  150.606
  619.268    9.575    0.339    0.075  111.550  150.500
  619.518    8.795    0.353    0.113  115.479  150.710
  619.768    8.139    0.351    0.133  113.545  151.027
  620.018    7.560    0.338    0.129  116.912  151.765
  620.268    6.956    0.342    0.123  124.458  151.976
  620.518    6.389    0.349    0.137  131.693  152.608
  620.768    6.012    0.366    0.135  137.493  152.608
  621.018    5.839    0.372    0.132  140.299  152.818
  621.268    5.873    0.371    0.144  139.301  153.451
  621.518    5.974    0.362    0.153  134.186  153.556
  621.768    6.100    0.372    0.142  128.011  153.449
  622.018    6.274    0.378    0.134  131.441  153.026
  622.268    6.429    0.382    0.148  128.509  152.075
  622.518    6.577    0.398    0.140  129.444  152.180
  622.768    6.494    0.406    0.143  132.500  152.496
  623.018    6.306    0.442    0.159  133.248  152.812
  623.268    6.135    0.529    0.177  135.368  153.339
  623.518    6.058    0.538    0.234  139.172  153.338
  623.768    6.072    0.480    0.269  145.159  152.598
  624.018    6.210    0.475    0.246  149.712  151.119
  624.268    6.629    0.462    0.220  150.023  150.274
  624.518    7.169    0.448    0.236  138.796  150.801
  624.768    7.443    0.410    0.246  135.116  151.434
  625.018    7.486    0.419    0.257  140.853  151.116
  625.268    7.448    0.420    0.232  146.279  149.531
  625.518    7.100    0.423    0.179  151.143  149.742
  625.768    6.594    0.456    0.174  131.621  150.269
  626.018    5.793    0.498    0.202  123.887  150.690
  626.268    5.969    0.588    0.278  113.907  151.007
  626.518    7.392    0.607    0.368  104.489  151.428
  626.768    8.968    0.577    0.392   94.010  151.639
  627.018   11.872    0.525    0.332   56.026  151.849
  627.268   16.250    0.355    0.249   46.234  151.954
  627.518   20.538    0.352    0.271   38.374  151.953
  627.768   27.647    0.361    0.269   42.553  151.741
  628.018   33.791    0.364    0.276   48.478  151.107
  628.268   30.922    0.374    0.290   55.650  150.578
  628.518   21.906    0.372    0.289   63.134  151.000
  628.768   16.620    0.372    0.279   69.183  151.422
  629.018   12.634    0.377    0.259   78.538  151.949
  629.268   10.616    0.377    0.242   89.265  152.054
  629.518    9.501    0.365    0.233   94.691  152.158
  629.768    9.175    0.324    0.230   92.196  152.369
  630.018    9.061    0.286    0.235   72.175  152.685
  630.268    8.556    0.302    0.211   77.039  153.212
  630.518    8.671    0.331    0.192   87.704  153.317
  630.768    9.052    0.352    0.185   99.055  153.316
  631.018   10.104    0.372    0.206   91.695  151.943
  631.268   11.702    0.383    0.238   75.665  150.463
  631.518   13.655    0.376    0.256   70.114  149.934
  631.768   15.993    0.369    0.256   68.305  149.934
  632.018   18.767    0.370    0.258   68.554  150.461
  632.268   19.701    0.363    0.260   68.990  150.777
  632.518   18.299    0.373    0.238   65.621  151.515
  632.768   14.462    0.374    0.223   51.400  151.832
  633.018   11.818    0.365    0.223   36.244  152.042
  633.268   10.325    0.372    0.227   23.520  152.464
  633.518    9.806    0.393    0.218   17.844  152.780
  633.768   10.143    0.405    0.234   14.101  153.202
  634.018   11.215    0.395    0.258   14.787  153.623
  634.268   12.610    0.382    0.267   12.167  153.622
  634.518   14.126    0.369    0.269   11.979  153.199
  634.768   14.503    0.352    0.257   12.166  153.198
  635.018   12.883    0.325    0.237   13.413  153.303
  635.268   10.014    0.272    0.223   13.163  153.514
  635.518    8.929    0.131    0.231   12.289  153.724
  635.768    8.899   -0.001    0.222   12.601  153.724
  636.018    9.642   -0.000    0.199   10.916  153.934
  636.268   14.056    0.000    0.132    9.731  153.722
  636.518   17.341    0.000    0.094   10.479  153.404
  636.768   19.570   -0.000    0.045   10.977  153.087
  637.018   22.086   -0.000    0.061   10.228  152.347
