~VERSION INFORMATION
 VERS.                 2.0:   CWLS LOG ASCII STANDARD -VERSION 2.0
 WRAP.                  NO:   ONE LINE PER DEPTH STEP
~WELL INFORMATION BLOCK
#MNEM.UNIT           DATA                    DESCRIPTION OF MNEMONIC
#---------    -------------------            -------------------------------
# Generated from Intellog Unique Number	CW_76_78/WELL/927
WELL.         10-31-077-03W5                 : Well_name    - WELL
LOC .         00/10-31-077-03W5/0            : Location     - LOCATION
UWI .         00/10-31-077-03W5/0            : Uwi          - UNIQUE WELL ID
ENTR.         JAYE                           : Entered      - ENTERED BY
SRVC.         SCHLUMBERGER                   : Scn          - SERVICE COMPANY
DATE.         7 DEC 73                       : Date         - LOG DATE
STRT.M        362.712                        : top_depth    - START DEPTH
STOP.M        641.962                        : bot_depth    - STOP DEPTH
STEP.M        0.25                           : increment    - STEP LENGTH
 NULL. -999.2500:NULL Value
~CURVE INFORMATION BLOCK
#MNEM UNIT       ERCB CURVE CODE    CURVE DESCRIPTION
#-----------   ------------------   ----------------------------------
DEPT.M        00 001 00 00         : DEPTH        - DEPTH
GR  .API      00 310 00 00         : GR           - GAMMA RAY
CALI.MM       00 280 01 00         : CAL          - CALIPER
DPHI.V/V      00 890 00 00         : PHID         - DENSITY POROSITY (SANDSTONE)
NPHI.V/V      00 330 00 00         : PHIN         - NEUTRON POROSITY (SANDSTONE)
ILD .OHMM     00 120 00 00         : RESD         - DEEP RESISTIVITY (DLL)
~PARAMETER INFORMATION
#MNEM.UNIT           DATA             DESCRIPTION OF MNEMONIC
#---------         -----------     ------------------------------
GL  .M        680.923              : gl           - GROUND LEVEL ELEVATION
EREF.M        683.971              : kb           - ELEVATION OF DEPTH REFERENCE
DATM.M        680.923              : datum        - DATUM ELEVATION
TDD .M        649.529              : tdd          - TOTAL DEPTH DRILLER
RUN .         ONE                  : Run          - RUN NUMBER
MATR.         SANDSTONE            : Logunit      - NEUTRON MATRIX
TMAX.C        35                   : BHT          - MAXIMUM RECORDED TEMPERATURE
BHTD.M        649.529              : BHTDEP       - MAXIMUM RECORDED TEMPERATURE
RMT .C        -3.88889             : MDTP         - TEMPERATURE OF MUD
MUDD.KG/M     0                    : MWT          - MUD DENSITY
NEUT.         0                    : NEUTRON      - NEUTRON TYPE
RESI.         1                    : RESIST       - RESISTIVITY TYPE
RM  .OHMM     1.65                 : RM           - RESISTIVITY OF MUD
RMC .OHMM     0.25                 : RMC          - RESISTIVITY OF MUD CAKE
RMF .OHMM     7.25                 : RMF          - RESISTIVITY OF MUD FILTRATE
SUFT.C        4.5                  : SUFT         - SURFACE TEMPERATURE
~A  DEPTH       GR      CAL     PHID     PHIN     RESD
# ...
  581.712  100.270  161.483    0.162    0.355   12.358
  581.962   98.803  162.327    0.166    0.366   13.424
  582.212   96.787  162.751    0.152    0.371   14.322
  582.462   95.690  162.242    0.162    0.370   15.172
  582.712   94.346  161.734    0.175    0.371   16.334
  582.962   92.083  161.432    0.187    0.371   17.297
  583.212   91.109  161.444    0.181    0.361   18.018
  583.462   92.526  161.974    0.166    0.358   17.605
  583.712   93.268  162.504    0.157    0.357   16.100
  583.962   95.728  162.619    0.152    0.355   15.138
  584.212   98.493  162.423    0.147    0.354   13.998
  584.462   98.624  162.225    0.152    0.367   13.255
  584.712   97.588  161.925    0.151    0.383   12.711
  584.962   97.470  163.286    0.160    0.387   12.491
  585.212   98.090  163.400    0.154    0.374   12.246
  585.462   99.753  162.996    0.152    0.373   12.143
  585.712   97.306  163.007    0.146    0.385   11.949
  585.962   97.742  162.706    0.136    0.390   11.716
  586.212   99.281  162.200    0.135    0.377   11.490
  586.462   98.429  162.314    0.152    0.357   11.121
  586.712   99.294  163.052    0.143    0.343   10.709
  586.962   97.338  164.205    0.135    0.334   10.196
  587.212   99.859  165.253    0.132    0.344    9.871
  587.462  104.833  166.095    0.133    0.358    9.469
  587.712  111.217  169.118    0.125    0.369    9.034
  587.962  113.186  173.594    0.102    0.376    8.571
  588.212  113.928  172.151    0.113    0.387    8.028
  588.462  115.345  166.035    0.119    0.406    7.645
  588.712  120.074  161.789    0.139    0.430    7.333
  588.962  122.962  163.980    0.140    0.447    7.191
  589.212  123.214  163.680    0.164    0.435    7.102
  589.462  115.678  162.444    0.154    0.404    7.093
  589.712  110.104  162.248    0.139    0.385    7.349
  589.962  106.308  162.156    0.160    0.394    8.087
  590.212  106.008  162.478    0.156    0.428    8.441
  590.462  106.076  162.904    0.164    0.418    8.825
  590.712  105.346  163.227    0.158    0.404    9.108
  590.962  105.721  162.925    0.151    0.389    9.263
  591.212  107.935  162.937    0.140    0.394    9.357
  591.462  107.082  163.051    0.129    0.394    9.517
  591.712  104.268  163.686    0.120    0.383    9.714
  591.962   99.859  164.112    0.110    0.377   10.066
  592.212   99.866  164.124    0.118    0.395   10.659
  592.462   99.259  163.719    0.158    0.419   11.519
  592.712   92.459  162.587    0.175    0.407   13.842
  592.962   78.667  160.833    0.203    0.384   16.668
  593.212   55.370  159.286    0.274    0.366   21.953
  593.462   38.697  158.466    0.282    0.370   28.967
  593.712   32.326  157.336    0.272    0.359   37.188
  593.962   33.927  156.515    0.265    0.362   45.521
  594.212   35.159  156.111    0.273    0.378   47.935
  594.462   35.350  156.019    0.265    0.389   48.675
  594.712   35.785  156.237    0.257    0.377   48.157
  594.962   36.283  156.456    0.266    0.377   47.757
  595.212   37.515  156.051    0.268    0.390   47.343
  595.462   38.994  154.712    0.273    0.387   47.193
  595.712   40.718  154.100    0.283    0.376   47.305
  595.962   42.441  154.216    0.276    0.379   48.030
  596.212   44.042  155.368    0.269    0.393   48.758
  596.462   44.355  156.209    0.274    0.402   49.155
  596.712   44.361  156.740    0.256    0.416   49.179
  596.962   45.104  156.544    0.251    0.414   48.666
  597.212   45.662  156.242    0.280    0.398   47.459
  597.462   45.362  155.630    0.287    0.389   44.697
  597.712   45.675  154.915    0.287    0.383   40.436
  597.962   47.337  154.821    0.279    0.382   36.644
  598.212   50.287  155.353    0.283    0.402   31.666
  598.462   49.190  156.816    0.280    0.400   25.196
  598.712   45.272  156.931    0.271    0.393   20.567
  598.962   40.127  154.761    0.270    0.387   18.102
  599.212   37.864  153.215    0.277    0.384   15.697
  599.462   40.201  153.433    0.282    0.378   13.890
  599.712   43.335  154.796    0.280    0.365   12.405
  599.962   47.696  155.636    0.270    0.366   11.429
  600.212   51.197  155.335    0.254    0.370   10.865
  600.462   54.577  154.620    0.240    0.373   10.402
  600.712   57.466  154.736    0.243    0.385   10.050
  600.962   62.807  154.851    0.245    0.386    9.838
  601.212   64.408  155.173    0.244    0.382    9.595
  601.462   64.231  155.494    0.260    0.393    9.389
  601.712   64.176  156.232    0.246    0.405    9.106
  601.962   64.428  156.658    0.244    0.407    8.865
  602.212   65.415  157.084    0.235    0.402    8.597
  602.462   67.077  157.407    0.216    0.394    8.459
  602.712   66.839  157.107    0.202    0.387    8.450
  602.962   66.293  156.286    0.192    0.376    8.564
  603.212   68.262  155.051    0.221    0.375    9.020
  603.462   66.797  153.712    0.232    0.374    9.605
  603.712   64.842  153.413    0.225    0.369   10.650
  603.962   65.339  154.358    0.180    0.362   12.728
  604.212   64.915  157.276    0.164    0.321   14.828
  604.462   64.063  159.468    0.123    0.303   15.081
  604.712   64.744  160.517    0.108    0.284   14.896
  604.962   67.510  160.528    0.108    0.274   13.281
  605.212   73.710  158.047    0.121    0.298   10.704
  605.462   83.038  156.708    0.205    0.360    8.240
  605.712   89.422  157.239    0.195    0.392    6.604
  605.962   99.057  159.118    0.204    0.402    5.844
  606.212  107.526  160.790    0.196    0.399    5.316
  606.462  116.915  161.009    0.179    0.441    4.827
  606.712  127.224  161.020    0.178    0.463    4.505
  606.962  136.000  161.448    0.168    0.448    4.385
  607.212  136.129  161.666    0.152    0.468    4.379
  607.462  131.045  159.288    0.161    0.469    4.494
  607.712  116.702  157.741    0.203    0.437    4.606
  607.962   94.816  158.063    0.182    0.408    5.116
  608.212   98.318  159.321    0.165    0.377    5.683
  608.462  106.971  160.993    0.151    0.394    5.962
  608.712  116.973  161.523    0.175    0.435    6.110
  608.962  117.838  162.055    0.194    0.432    6.434
  609.212  110.609  162.170    0.180    0.407    7.083
  609.462   99.270  162.180    0.153    0.387    8.205
  609.712   89.587  161.982    0.129    0.309    9.718
  609.962   80.640  161.786    0.112    0.272   10.253
  610.212   75.986  161.487    0.108    0.283    9.693
  610.462   78.384  161.186    0.122    0.320    8.437
  610.712   92.618  160.885    0.152    0.391    6.812
  610.962  112.187  160.480    0.183    0.429    5.716
  611.212  118.816  160.179    0.172    0.458    4.770
  611.462  119.988  160.087    0.160    0.482    4.299
  611.712  122.631  159.890    0.154    0.505    4.094
  611.962  123.619  160.525    0.167    0.535    4.241
  612.212  117.922  161.366    0.151    0.548    4.484
  612.462  111.919  162.312    0.127    0.515    4.518
  612.712  106.161  162.841    0.105    0.471    4.374
  612.962  104.696  163.060    0.068    0.443    4.112
  613.212  107.462  162.864    0.100    0.477    3.909
  613.462  113.662  162.459    0.140    0.503    3.854
  613.712  116.918  162.158    0.169    0.518    3.920
  613.962  117.722  162.066    0.197    0.527    4.347
  614.212  118.342  162.388    0.215    0.500    4.980
  614.462  111.664  162.608    0.278    0.490    5.421
  614.712  104.250  162.513    0.316    0.549    5.445
  614.962   96.898  162.111    0.366    0.575    5.427
  615.212   93.899  162.122    0.390    0.549    5.225
  615.462   95.930  162.132    0.353    0.512    4.994
  615.712  101.885  162.246    0.300    0.488    4.756
  615.962  105.755  162.153    0.197    0.500    4.446
  616.212  104.964  162.164    0.211    0.620    3.970
  616.462  110.121  161.863    0.279    0.664    3.578
  616.712  114.543  161.354    0.283    0.643    3.339
  616.962  122.031  160.535    0.236    0.628    3.208
  617.212  131.850  159.820    0.155    0.624    3.199
  617.462  131.243  159.311    0.154    0.595    3.394
  617.712  123.952  158.802    0.154    0.561    3.897
  617.962  109.792  159.230    0.140    0.499    4.449
