~VERSION INFORMATION
 VERS.                 2.0:   CWLS LOG ASCII STANDARD -VERSION 2.0
 WRAP.                  NO:   ONE LINE PER DEPTH STEP
~WELL INFORMATION BLOCK
#MNEM.UNIT           DATA                    DESCRIPTION OF MNEMONIC
#---------    -------------------            -------------------------------
# Generated from Intellog Unique Number	CW_70_72/WELL/1046
NULL.         -999.25                        : NULL_VALUE
WELL.         SUNDANCE ET AL SMITH 10-33-071 : Well_name    - WELL              
LOC .         10-33-071-23W4                 : Location     - LOCATION          
UWI .         00/10-33-071-23W4/0            : Uwi          - UNIQUE WELL ID    
ENTR.         JAYE                           : Entered      - ENTERED BY        
SRVC.         SCHLUMBERGER                   : Scn          - SERVICE COMPANY   
DATE.         3 MAR 76                       : Date         - LOG DATE          
STRT.M        432.816                        : top_depth    - START DEPTH       
STOP.M        646.066                        : bot_depth    - STOP DEPTH        
STEP.M        0.25                           : increment    - STEP LENGTH       
~CURVE INFORMATION BLOCK
#MNEM UNIT       ERCB CURVE CODE    CURVE DESCRIPTION
#-----------   ------------------   ----------------------------------
DEPT.M        00 001 00 00         : DEPTH        - DEPTH                       
DPHI.V/V      00 890 00 00         : PHID         - DENSITY POROSITY (SANDSTONE)
NPHI.V/V      00 330 00 00         : PHIN         - NEUTRON POROSITY (SANDSTONE)
GR  .API      00 310 00 00         : GR           - GAMMA RAY                   
CALI.MM       00 280 01 00         : CAL          - CALIPER                     
ILD .OHMM     00 120 00 00         : RESD         - DEEP RESISTIVITY (DIL)      
~PARAMETER INFORMATION       
#MNEM.UNIT           DATA             DESCRIPTION OF MNEMONIC
#---------         -----------     ------------------------------
GL  .M        679.399              : gl           - GROUND LEVEL ELEVATION      
EREF.M        683.057              : kb           - ELEVATION OF DEPTH REFERENCE
DATM.M        679.399              : datum        - DATUM ELEVATION             
TDD .M        662.94               : tdd          - TOTAL DEPTH DRILLER         
RUN .         ONE                  : Run          - RUN NUMBER                  
ENG .         WILSHIRE             : Engineer     - RECORDING ENGINEER          
WIT .         ROBINSON             : Witness      - WITNESSED BY                
BASE.         EDM                  : Branch       - HOME BASE OF LOGGING UNIT   
MATR.         SANDSTONE            : Logunit      - NEUTRON MATRIX              
TMAX.C        -17.7778             : BHT          - MAXIMUM RECORDED TEMPERATURE
BHTD.M        662.635              : BHTDEP       - MAXIMUM RECORDED TEMPERATURE
RMT .C        4.44444              : MDTP         - TEMPERATURE OF MUD          
MUDD.KG/M     0                    : MWT          - MUD DENSITY                 
NEUT.         1                    : NEUTRON      - NEUTRON TYPE                
RESI.         0                    : RESIST       - RESISTIVITY TYPE            
RM  .OHMM     1.93                 : RM           - RESISTIVITY OF MUD          
RMC .OHMM     0                    : RMC          - RESISTIVITY OF MUD CAKE     
RMF .OHMM     0                    : RMF          - RESISTIVITY OF MUD FILTRATE 
SUFT.C        -17.7778             : SUFT         - SURFACE TEMPERATURE         
~A  DEPTH     PHID     PHIN       GR      CAL     RESD
# ...
  469.316    0.256    0.464  106.769  169.026    3.607
  469.566    0.314    0.484  108.988  173.515    3.696
  469.816    0.264    0.486  107.868  179.677    3.788
  470.066    0.216    0.449  106.996  184.689    3.897
  470.316    0.208    0.425  109.461  184.467    4.024
  470.566    0.238    0.412  113.595  182.363    4.274
  470.816    0.230    0.388  120.263  176.177    4.505
  471.066    0.208    0.404  128.167  175.433    4.524
  471.316    0.223    0.419  126.800  181.072    4.508
  471.566    0.248    0.439  120.428  193.932    4.467
  471.816    0.279    0.458  112.881  202.189    4.418
  472.066    0.303    0.471  103.912  205.002    4.321
  472.316    0.329    0.482   96.798  215.770    4.273
  472.566    0.274    0.451   94.442  191.060    4.242
  472.816    0.274    0.439   97.958  178.594    4.188
  473.066    0.329    0.478   98.877  183.605    4.158
  473.316    0.286    0.437   97.388  184.641    4.136
  473.566    0.264    0.416   90.583  171.233    3.992
  473.816    0.266    0.416   82.171  169.756    3.978
  474.066    0.281    0.413   79.754  170.163    4.077
  474.316    0.275    0.418   82.774  170.570    4.242
  474.566    0.269    0.414   84.312  172.128    4.372
  474.816    0.265    0.409   84.676  173.789    4.557
  475.066    0.260    0.402   82.815  174.511    4.697
  475.316    0.226    0.384   79.286  175.545    4.914
  475.566    0.180    0.345   76.065  176.685    5.170
  475.816    0.111    0.297   71.609  178.138    5.647
  476.066    0.016    0.232   62.640  178.545    6.525
  476.316    0.027    0.187   58.492  178.010    8.710
  476.566    0.036    0.177   57.373  176.324   12.413
  476.816    0.017    0.186   57.797  176.940   19.213
  477.066    0.036    0.206   59.150  177.346   24.062
  477.316    0.065    0.219   62.667  177.859   23.314
  477.566    0.095    0.276   68.469  178.161   19.408
  477.816    0.146    0.307   73.159  177.206   13.172
  478.066    0.252    0.395   75.254  175.417    9.281
  478.316    0.280    0.429   76.359  172.161    6.802
  478.566    0.299    0.420   77.279  171.310    5.694
  478.816    0.284    0.419   79.497  171.823    4.498
  479.066    0.270    0.437   81.468  170.555    3.953
  479.316    0.288    0.422   82.016  169.706    3.614
  479.566    0.306    0.414   81.269  169.067    3.373
  479.816    0.298    0.410   80.953  168.739    3.201
  480.066    0.277    0.407   81.749  168.730    3.160
  480.316    0.282    0.400   80.877  168.927    3.149
  480.566    0.280    0.395   78.583  170.485    3.156
  480.816    0.298    0.402   78.268  172.984    3.174
  481.066    0.300    0.419   78.879  174.228    3.205
  481.316    0.287    0.452   80.663  174.950    3.273
  481.566    0.266    0.466   84.365  175.251    3.373
  481.816    0.266    0.445   88.499  174.925    3.542
  482.066    0.251    0.418   91.891  175.228    3.671
  482.316    0.232    0.426   96.953  177.309    3.841
  482.566    0.236    0.435   96.389  181.483    3.996
  482.816    0.263    0.417   92.859  171.949    4.080
  483.066    0.250    0.415   89.329  171.099    4.028
  483.316    0.243    0.429   86.975  176.739    3.984
  483.566    0.239    0.407   83.816  174.006    3.978
  483.816    0.216    0.427   73.919  168.133    3.956
  484.066    0.180    0.499   67.794  168.017    4.010
  484.316    0.231    0.537   67.169  174.390    4.063
  484.566    0.263    0.579   74.579  181.390    4.212
  484.816    0.285    0.591   77.352  182.423    4.423
  485.066    0.322    0.601   78.396  182.727    4.680
  485.316    0.289    0.587   80.367  183.656    4.933
  485.566    0.251    0.537   82.956  182.389    5.171
  485.816    0.226    0.442   87.585  179.134    5.221
  486.066    0.245    0.419   88.999  176.191    5.213
  486.316    0.268    0.413   85.098  173.038    5.214
  486.566    0.287    0.428   79.776  171.982    5.225
  486.816    0.305    0.448   72.229  171.655    5.285
  487.066    0.346    0.474   65.857  174.888    5.467
  487.316    0.399    0.551   57.198  178.644    5.872
  487.566    0.499    0.595   47.487  180.202    6.064
  487.816    0.544    0.600   38.457  177.049    6.134
  488.066    0.267    0.564   42.280  175.154    5.735
  488.316    0.293    0.535   44.067  174.306    5.031
  488.566    0.300    0.393   47.645  174.188    4.397
  488.816    0.305    0.400   50.728  173.338    3.916
  489.066    0.313    0.404   50.474  172.701    3.554
  489.316    0.296    0.394   46.821  171.956    3.347
  489.566    0.300    0.386   44.589  171.420    3.148
  489.816    0.316    0.388   45.322  171.409    3.073
  490.066    0.320    0.398   48.097  171.606    3.028
  490.316    0.324    0.410   51.675  171.803    3.011
  490.566    0.321    0.420   51.544  172.316    3.006
  490.816    0.310    0.414   49.683  171.780    3.024
  491.066    0.303    0.398   48.688  171.349    3.076
  491.316    0.300    0.385   49.236  171.127    3.141
  491.566    0.300    0.391   49.909  170.909    3.195
  491.816    0.304    0.387   49.655  170.060    3.244
  492.066    0.319    0.378   49.710  170.048    3.319
  492.316    0.307    0.384   49.889  171.708    3.376
  492.566    0.305    0.392   50.068  172.849    3.486
  492.816    0.312    0.402   50.926  173.781    3.560
  493.066    0.294    0.398   50.671  173.873    3.614
  493.316    0.298    0.402   52.024  173.337    3.595
  493.566    0.296    0.403   52.759  172.174    3.589
  493.816    0.306    0.404   49.786  169.861    3.517
  494.066    0.297    0.396   47.554  168.803    3.472
  494.316    0.305    0.400   46.187  168.581    3.402
  494.566    0.318    0.402   45.686  168.464    3.364
  494.816    0.325    0.396   48.398  168.347    3.321
  495.066    0.327    0.391   50.183  168.337    3.267
  495.316    0.326    0.385   49.310  168.325    3.243
  495.566    0.291    0.388   49.057  168.416    3.226
  495.816    0.295    0.381   49.111  168.300    3.208
  496.066    0.305    0.380   49.289  168.394    3.185
  496.316    0.305    0.387   50.025  168.382    3.150
  496.566    0.306    0.395   51.069  168.371    3.116
  496.816    0.310    0.403   52.483  168.463    3.093
  497.066    0.329    0.410   54.392  168.346    3.083
  497.316    0.326    0.407   54.509  168.021    3.066
  497.566    0.322    0.415   54.007  167.696    3.032
  497.816    0.322    0.422   54.185  167.577    3.010
  498.066    0.331    0.422   54.426  167.775    3.005
  498.316    0.345    0.416   55.222  168.077    3.034
  498.566    0.360    0.455   55.896  168.588    3.035
  498.816    0.382    0.474   56.383  169.415    3.030
  499.066    0.404    0.494   57.118  170.450    3.037
  499.316    0.400    0.486   58.903  171.066    3.101
  499.566    0.376    0.497   59.576  171.891    3.166
  499.816    0.341    0.492   57.592  171.461    3.155
  500.066    0.333    0.464   56.904  171.448    3.114
  500.316    0.343    0.411   58.443  171.855    3.057
  500.566    0.355    0.405   62.020  171.426    3.007
  500.816    0.350    0.421   60.097  171.415    2.974
  501.066    0.348    0.439   57.679  170.671    2.947
  501.316    0.344    0.447   56.437  169.926    2.915
  501.566    0.329    0.434   54.885  171.274    2.899
  501.816    0.337    0.428   54.878  173.564    2.900
  502.066    0.332    0.420   59.506  174.181    2.873
  502.316    0.307    0.420   61.601  173.226    2.863
  502.566    0.330    0.414   61.285  171.333    2.875
  502.816    0.340    0.413   56.704  171.216    2.886
  503.066    0.325    0.415   56.760  171.205    2.898
  503.316    0.324    0.411   57.927  171.192    2.899
  503.566    0.318    0.408   57.796  170.552    2.899
  503.816    0.304    0.400   56.800  169.284    2.905
  504.066    0.308    0.394   55.743  167.808    2.890
  504.316    0.300    0.394   54.438  165.807    2.869
  504.566    0.300    0.409   53.071  164.853    2.864
  504.816    0.313    0.422   51.272  169.657    2.822
  505.066    0.320    0.417   49.102  172.366    2.807
  505.316    0.322    0.432   46.685  173.610    2.792
  505.566    0.307    0.426   42.475  174.017    2.772
