~VERSION INFORMATION
 VERS.                 2.0:   CWLS LOG ASCII STANDARD -VERSION 2.0
 WRAP.                  NO:   ONE LINE PER DEPTH STEP
~WELL INFORMATION BLOCK
#MNEM.UNIT           DATA                    DESCRIPTION OF MNEMONIC
#---------    -------------------            -------------------------------
# Generated from Intellog Unique Number	CX_WELLS/WELL/2787
WELL.         10-26-088-16W4                 : Well_name    - WELL
LOC .         00/10-26-081-10W4/0            : Location     - LOCATION
UWI .         00/10-26-081-10W400            : Uwi          - UNIQUE WELL ID
ENTR.         T                              : Entered      - ENTERED BY
SRVC.         SCHLUMBERGER                   : Scn          - SERVICE COMPANY
STRT.F        850                            : top_depth    - START DEPTH
STOP.F        1589.83                        : bot_depth    - STOP DEPTH
STEP.F        0.82                           : increment    - STEP LENGTH
 NULL. -999.2500:NULL Value
~CURVE INFORMATION BLOCK
#MNEM UNIT       ERCB CURVE CODE    CURVE DESCRIPTION
#-----------   ------------------   ----------------------------------
DEPT.F        00 001 00 00         : DEPTH        - DEPTH
GR  .API      00 310 00 00         : GR           - GAMMA RAY
DPHI.V/V      00 890 00 00         : PHID         - DENSITY POROSITY (SANDSTONE)
ILD .OHMM     00 120 00 00         : RESD         - DEEP RESISTIVITY (OTHER)
~PARAMETER INFORMATION
#MNEM.UNIT           DATA             DESCRIPTION OF MNEMONIC
#---------         -----------     ------------------------------
GL  .F        2316                 : gl           - GROUND LEVEL ELEVATION
EREF.F        2327                 : kb           - ELEVATION OF DEPTH REFERENCE
DATM.F        2327                 : datum        - DATUM ELEVATION
TDD .F        1610                 : tdd          - TOTAL DEPTH DRILLER
RUN .         ONE                  : Run          - RUN NUMBER
ENG .         BILL                 : Engineer     - RECORDING ENGINEER
WIT .         JIM                  : Witness      - WITNESSED BY
MUD .         GEL                  : Mud_type     - MUD TYPE
MATR.         SANDSTONE            : Logunit      - NEUTRON MATRIX
TMAX.F        69                   : BHT          - MAXIMUM RECORDED TEMPERATURE
BHTD.F        1610                 : BHTDEP       - MAXIMUM RECORDED TEMPERATURE
MATR.         1                    : LOGUNIT      - NEUTRON MATRIX
RMT .F        45                   : MDTP         - TEMPERATURE OF MUD
NEUT.         1                    : NEUTRON      - NEUTRON TYPE
RESI.         2                    : RESIST       - RESISTIVITY TYPE
RMC .OHMM     2                    : RMC          - RESISTIVITY OF MUD CAKE
RMF .OHMM     2                    : RMF          - RESISTIVITY OF MUD FILTRATE
SUFT.F        32                   : SUFT         - SURFACE TEMPERATURE
~A  DEPTH       GR     PHID     RESD
# ...
 1383.960   82.284    0.235    3.982
 1384.780   81.126    0.229    4.061
 1385.600   81.150    0.224    4.142
 1386.420   81.190    0.218    4.223
 1387.240   81.814    0.222    4.306
 1388.060   83.652    0.224    4.392
 1388.880   84.883    0.224    4.479
 1389.700   83.716    0.223    4.568
 1390.520   81.359    0.216    4.747
 1391.340   80.193    0.212    4.842
 1392.160   80.824    0.205    5.031
 1392.980   83.254    0.209    5.130
 1393.800   85.675    0.218    5.334
 1394.620   85.124    0.227    5.437
 1395.440   83.350    0.239    5.652
 1396.260   80.394    0.242    5.763
 1397.080   76.839    0.246    5.876
 1397.900   75.057    0.275    6.107
 1398.720   69.096    0.287    6.470
 1399.540   66.139    0.298    6.595
 1400.360   64.981    0.305    6.984
 1401.180   64.997    0.302    7.827
 1402.000   64.430    0.299    8.447
 1402.820   62.672    0.294    9.467
 1403.640   62.114    0.288   10.412
 1404.460   62.146    0.281   10.816
 1405.280   61.579    0.274   11.454
 1406.100   61.003    0.269   12.129
 1406.920   58.047    0.264   13.340
 1407.740   59.270    0.258   14.674
 1408.560   62.914    0.252   15.244
 1409.380   65.344    0.245   16.450
 1410.200   67.174    0.236   17.094
 1411.020   67.214    0.235   17.435
 1411.840   67.230    0.242   17.122
 1412.660   67.262    0.259   17.138
 1413.480   66.112    0.277   17.147
 1414.300   65.545    0.274   17.489
 1415.120   64.978    0.266   17.832
 1415.940   65.002    0.256   18.534
 1416.770   65.042    0.264   19.267
 1417.590   65.066    0.284   20.015
 1418.410   64.499    0.299   20.799
 1419.230   62.734    0.302   23.759
 1420.050   55.574    0.304   25.151
 1420.870   49.014    0.316   29.828
 1421.690   44.252    0.334   35.375
 1422.510   49.086    0.330   39.633
 1423.330   55.112    0.315   38.194
 1424.150   61.736    0.302   31.656
 1424.970   68.385    0.274   26.741
 1425.790   69.600    0.262   22.589
 1426.610   70.240    0.259   20.568
 1427.430   68.482    0.268   19.825
 1428.250   67.299    0.275   20.214
 1429.070   64.343    0.286   21.006
 1429.890   63.177    0.293   22.667
 1430.710   63.209    0.300   25.410
 1431.530   63.840    0.293   26.903
 1432.350   65.079    0.258   27.435
 1433.170   65.703    0.233   26.942
 1433.990   66.933    0.216   25.964
 1434.810   67.573    0.205   24.101
 1435.630   68.796    0.208   22.366
 1436.450   70.043    0.217   19.616
 1437.270   67.678    0.222   17.531
 1438.090   64.705    0.237   16.582
 1438.910   62.348    0.250   16.910
 1439.730   61.190    0.272   18.248
 1440.550   60.607    0.280   20.448
 1441.370   58.841    0.294   23.349
 1442.190   56.476    0.311   27.687
 1443.010   54.710    0.324   29.877
 1443.830   54.759    0.327   25.713
 1444.650   58.395    0.321   20.523
 1445.470   59.610    0.312   17.999
 1446.290   60.249    0.301   16.704
 1447.110   56.678    0.297   15.505
 1447.930   51.324    0.303   13.860
 1448.750   47.153    0.312   13.354
 1449.570   42.399    0.316   13.119
 1450.390   41.224    0.319   13.124
 1451.210   38.284    0.320   13.134
 1452.030   38.300    0.320   13.148
 1452.850   38.349    0.319   13.160
 1453.670   38.972    0.317   13.167
 1454.490   40.195    0.309   13.425
 1455.310   44.422    0.299   13.693
 1456.140   51.654    0.287   13.703
 1456.960   58.878    0.260   13.974
 1457.780   67.900    0.249   14.256
 1458.600   95.509    0.230   14.264
 1459.420   92.544    0.211   14.271
 1460.240   83.587    0.212   14.554
 1461.060   87.822    0.226   14.564
 1461.880   91.450    0.230   14.855
 1462.700   85.489    0.239   14.871
 1463.520   80.128    0.244   14.877
 1464.340   76.572    0.250   14.890
 1465.160   76.005    0.259   14.626
 1465.980   77.236    0.259   14.631
 1466.800   80.257    0.257   14.105
 1467.620   78.491    0.263   14.110
 1468.440   76.134    0.270   13.603
 1469.260   77.373    0.278   13.357
 1470.080   79.195    0.281   12.874
 1470.900   81.632    0.284   12.645
 1471.720   82.855    0.285   12.416
 1472.540   84.086    0.288   12.425
 1473.360   80.522    0.295   12.207
 1474.180   64.973    0.300   12.213
 1475.000   42.830    0.312   12.220
 1475.820   37.469    0.322   12.229
 1476.640   35.703    0.332   12.011
 1477.460   35.735    0.336   12.020
 1478.280   36.966    0.338   11.804
 1479.100   38.197    0.336   11.815
 1479.920   39.436    0.334   12.278
 1480.740   41.282    0.329   13.002
 1481.560   41.897    0.319   13.766
 1482.380   44.926    0.317   16.323
 1483.200   46.756    0.319   20.103
 1484.020   44.999    0.322   23.392
 1484.840   42.642    0.322   29.356
 1485.660   43.873    0.322   36.140
 1486.480   46.901    0.320   45.355
 1487.300   49.922    0.319   56.909
 1488.120   54.149    0.313   55.887
 1488.940   59.584    0.305   47.201
 1489.760   60.814    0.290   32.400
 1490.580   58.457    0.284   27.890
 1491.400   55.493    0.290   26.878
 1492.220   51.330    0.295   27.414
 1493.040   41.174    0.302   28.488
 1493.860   40.599    0.305   31.332
 1494.690   38.833    0.311   33.799
 1495.510   34.686    0.314   37.874
 1496.330   32.913    0.321   44.917
 1497.150   29.964    0.323   53.261
 1497.970   28.782    0.329   60.829
 1498.790   27.615    0.330   68.151
 1499.610   28.255    0.331   73.555
 1500.430   28.878    0.331   70.886
 1501.250   30.109    0.331   68.325
 1502.070   30.749    0.332   68.388
 1502.890   31.980    0.334   69.728
 1503.710   33.210    0.334   72.460
 1504.530   36.847    0.337   75.312
 1505.350   39.875    0.338   78.263
 1506.170   39.300    0.339   81.344
 1506.990   36.935    0.336   82.922
 1507.810   35.169    0.334   75.519
 1508.630   40.004    0.324   60.275
 1509.450   47.228    0.296   49.023
 1510.270   53.853    0.282   36.976
 1511.090   59.886    0.253   26.356
 1511.910   61.125    0.239   22.260
 1512.730   58.161    0.265   21.860
 1513.550   45.016    0.290   23.153
 1514.370   42.036    0.299   24.985
 1515.190   36.674    0.314   30.195
 1516.010   31.912    0.325   35.798
 1516.830   32.543    0.321   43.263
 1517.650   37.378    0.315   39.401
 1518.470   40.998    0.300   33.916
 1519.290   48.230    0.290   29.745
 1520.110   47.663    0.315   30.911
 1520.930   35.717    0.327   34.631
 1521.750   34.543    0.336   45.131
 1522.570   32.777    0.341   54.533
 1523.390   30.420    0.346   72.406
 1524.210   28.646    0.343   79.621
 1525.030   26.289    0.336   92.665
 1525.850   26.921    0.331   89.302
 1526.670   34.145    0.326   57.928
 1527.490   42.567    0.319   53.770
 1528.310   49.799    0.318   48.055
 1529.130   46.851    0.321   42.947
 1529.950   45.669    0.321   39.857
 1530.770   42.105    0.318   37.693
 1531.590   38.549    0.313   37.714
 1532.410   36.784    0.308   39.199
 1533.230   33.827    0.302   40.742
 1534.060   32.645    0.304   44.802
 1534.880   30.879    0.308   52.132
 1535.700   29.113    0.313   60.651
 1536.520   27.955    0.320   73.299
 1537.340   26.797    0.321   85.308
 1538.160   27.436    0.322   93.808
 1538.980   28.060    0.322   99.356
 1539.800   29.898    0.324   99.429
 1540.620   30.521    0.325   97.626
 1541.440   31.760    0.325   87.266
 1542.260   32.376    0.322   77.991
 1543.080   33.623    0.313   67.110
 1543.900   35.453    0.306   58.868
 1544.720   37.882    0.298   60.032
 1545.540   34.926    0.301   57.843
 1546.360   34.343    0.309   51.704
 1547.180   37.380    0.315   45.346
 1548.000   44.004    0.322   40.526
 1548.820   50.038    0.317   35.543
 1549.640   49.471    0.310   34.253
 1550.460   47.705    0.300   34.284
 1551.280   45.332    0.296   34.303
 1552.100   41.776    0.302   35.653
 1552.920   37.621    0.321   39.967
 1553.740   35.248    0.322   43.120
 1554.560   32.284    0.330   47.408
 1555.380   29.327    0.332   54.135
 1556.200   28.161    0.339   64.203
 1557.020   29.392    0.344   73.312
 1557.840   30.615    0.350   77.634
 1558.660   33.643    0.350   73.419
 1559.480   37.887    0.321   66.889
 1560.300   40.308    0.317   63.246
 1561.120   42.139    0.318   59.802
