~VERSION INFORMATION
 VERS.                 2.0:   CWLS LOG ASCII STANDARD -VERSION 2.0
 WRAP.                  NO:   ONE LINE PER DEPTH STEP
~WELL INFORMATION BLOCK
#MNEM.UNIT           DATA                    DESCRIPTION OF MNEMONIC
#---------    -------------------            -------------------------------
# Generated from Intellog Unique Number	CW_82_90/WELL/3449
WELL.         CHEVRON FINA TROUT             : Well_name    - WELL
LOC .         00/11-18-088-02W5/0            : Location     - LOCATION
UWI .         00/11-18-088-02W5/0            : Uwi          - UNIQUE WELL ID
ENTR.         MAX                            : Entered      - ENTERED BY
SRVC.         SCHLUMBERGER                   : Scn          - SERVICE COMPANY
STRT.M        381                            : top_depth    - START DEPTH
STOP.M        551.75                         : bot_depth    - STOP DEPTH
STEP.M        0.25                           : increment    - STEP LENGTH
 NULL. -999.2500:NULL Value
~CURVE INFORMATION BLOCK
#MNEM UNIT       ERCB CURVE CODE    CURVE DESCRIPTION
#-----------   ------------------   ----------------------------------
DEPT.M        00 001 00 00         : DEPTH        - DEPTH
ILD .OHMM     00 120 00 00         : RESD         - DEEP RESISTIVITY (DIL)
NPHI.V/V      00 330 00 00         : PHIN         - NEUTRON POROSITY (SANDSTONE)
DPHI.V/V      00 890 00 00         : PHID         - DENSITY POROSITY (SANDSTONE)
CALI.MM       00 280 01 00         : CAL          - CALIPER
GR  .API      00 310 00 00         : GR           - GAMMA RAY
~PARAMETER INFORMATION
#MNEM.UNIT           DATA             DESCRIPTION OF MNEMONIC
#---------         -----------     ------------------------------
GL  .M        738.896              : gl           - GROUND LEVEL ELEVATION
EREF.M        742.493              : kb           - ELEVATION OF DEPTH REFERENCE
DATM.M        738.896              : datum        - DATUM ELEVATION
TDD .M        555.041              : tdd          - TOTAL DEPTH DRILLER
RUN .         ONE                  : Run          - RUN NUMBER
ENG .         BILL                 : Engineer     - RECORDING ENGINEER
WIT .         JIM                  : Witness      - WITNESSED BY
MUD .         GEL                  : Mud_type     - MUD TYPE
MATR.         SANDSTONE            : Logunit      - NEUTRON MATRIX
TMAX.C        23.3333              : BHT          - MAXIMUM RECORDED TEMPERATURE
BHTD.M        555.041              : BHTDEP       - MAXIMUM RECORDED TEMPERATURE
MATR.         1                    : LOGUNIT      - NEUTRON MATRIX
RMT .C        17.2222              : MDTP         - TEMPERATURE OF MUD
NEUT.         1                    : NEUTRON      - NEUTRON TYPE
RESI.         0                    : RESIST       - RESISTIVITY TYPE
RMC .OHMM     5.05                 : RMC          - RESISTIVITY OF MUD CAKE
RMF .OHMM     8.05                 : RMF          - RESISTIVITY OF MUD FILTRATE
SUFT.C        -23.3333             : SUFT         - SURFACE TEMPERATURE
~A  DEPTH     RESD     PHIN     PHID      CAL       GR
# ...
  527.000    8.712    0.350    0.119  201.950   86.081
  527.250    8.728    0.360    0.154  201.525   95.474
  527.500    8.663    0.419    0.185  200.584   96.677
  527.750    8.144    0.496    0.193  200.152   90.286
  528.000    7.255    0.500    0.189  199.706   85.052
  528.250    7.074    0.488    0.184  199.768   81.576
  528.500    7.547    0.465    0.172  199.329   79.859
  528.750    8.271    0.431    0.160  199.385   76.087
  529.000    8.665    0.407    0.138  198.960   77.883
  529.250    8.602    0.391    0.133  199.023   77.907
  529.500    8.309    0.411    0.140  199.065   79.406
  529.750    8.098    0.419    0.190  199.121   80.317
  530.000    8.112    0.447    0.163  199.184   75.672
  530.250    8.654    0.462    0.139  199.247   71.319
  530.500    9.233    0.438    0.098  199.310   66.382
  530.750    9.501    0.403    0.060  199.847   67.588
  531.000    9.513    0.315    0.099  199.910   72.299
  531.250    9.879    0.373    0.143  198.976   77.019
  531.500    9.543    0.432    0.167  197.553   77.637
  531.750    8.501    0.461    0.128  197.114   79.420
  532.000    8.213    0.422    0.098  198.160   82.970
  532.250    8.079    0.397    0.079  202.184   84.757
  532.500    7.946    0.449    0.159  202.233   85.667
  532.750    7.819    0.464    0.186  201.320   84.823
  533.000    7.690    0.469    0.156  200.379   83.394
  533.250    7.700    0.482    0.143  200.428   85.474
  533.500    7.925    0.498    0.142  200.491   85.219
  533.750    8.008    0.455    0.133  200.554   84.667
  534.000    7.950    0.445    0.127  200.610   86.162
  534.250    7.821    0.436    0.135  201.168   86.492
  534.500    7.691    0.443    0.146  201.726   87.402
  534.750    7.500    0.428    0.146  201.768   89.774
  535.000    7.445    0.414    0.155  202.326   88.930
  535.250    7.453    0.415    0.185  202.382   85.162
  535.500    7.810    0.419    0.159  202.933   79.347
  535.750    8.482    0.428    0.145  203.484   82.308
  536.000    9.383    0.439    0.170  204.035   84.685
  536.250   10.191    0.474    0.125  205.095   76.243
  536.500   10.583    0.435    0.057  204.649   72.471
  536.750   10.597    0.363    0.036  202.725   68.991
  537.000   10.523    0.321    0.043  201.295   71.660
  537.250   10.164    0.345    0.093  200.863   78.710
  537.500    9.557    0.389    0.130  201.428   84.302
  537.750    8.511    0.450    0.159  201.484   83.751
  538.000    7.863    0.456    0.147  201.526   79.983
  538.250    7.460    0.431    0.133  201.596   82.359
  538.500    7.274    0.466    0.147  201.157   85.316
  538.750    7.284    0.482    0.145  201.213   81.552
  539.000    7.562    0.460    0.121  201.262   82.751
  539.250    7.642    0.459    0.125  200.830   86.881
  539.500    7.656    0.483    0.144  200.893   88.965
  539.750    7.666    0.457    0.150  200.942   89.002
  540.000    7.678    0.452    0.159  201.005   89.323
  540.250    7.418    0.451    0.154  201.068   88.776
  540.500    7.295    0.456    0.150  201.138   88.813
  540.750    7.047    0.457    0.151  201.173   88.257
  541.000    7.451    0.458    0.147  201.235   86.243
  541.250    7.739    0.459    0.134  201.801   85.404
  541.500    7.751    0.457    0.094  201.850   86.017
  541.750    7.831    0.453    0.100  201.905   88.690
  542.000    7.847    0.486    0.145  201.968   91.350
  542.250    7.857    0.471    0.163  202.017   91.972
  542.500    7.730    0.452    0.152  202.582   92.590
  542.750    7.400    0.466    0.161  202.638   91.165
  543.000    7.346    0.480    0.164  203.183   90.610
  543.250    7.354    0.457    0.150  203.252   89.481
  543.500    7.302    0.443    0.145  203.294   88.641
  543.750    7.379    0.431    0.118  203.853   88.374
  544.000    7.595    0.415    0.137  203.908   87.246
  544.250    7.743    0.438    0.143  203.971   86.694
  544.500    7.894    0.470    0.121  204.041   87.312
  544.750    7.982    0.450    0.099  203.588   89.391
  545.000    7.919    0.430    0.116  202.159   91.763
  545.250    8.151    0.419    0.112  201.225   92.966
  545.500    8.386    0.421    0.116  200.297   89.198
  545.750    9.029    0.404    0.127  199.879   81.922
  546.000    9.719    0.371    0.095  199.921   74.060
  546.250   11.761    0.314    0.075  199.977   67.661
  546.500   13.731    0.259    0.041  199.545   65.063
  546.750   14.131    0.241    0.003  199.099   69.193
  547.000   12.930    0.281    0.013  199.162   74.201
  547.250   11.414    0.382    0.079  199.713   82.709
  547.500    9.291    0.416    0.152  204.720   90.937
  547.750    7.037    0.443    0.162  205.278   90.966
  548.000    6.268    0.453    0.161  204.337   92.172
  548.250    5.842    0.469    0.157  204.895   92.502
  548.500    6.013    0.486    0.152  205.446   86.099
  548.750    6.298    0.495    0.143  205.502   77.949
  549.000    6.903    0.482    0.128  206.060   76.520
  549.250    8.206    0.461    0.107  206.611   77.430
  549.500    9.409    0.427    0.089  206.674   81.557
  549.750   10.132    0.354    0.026  206.235   90.069
  550.000   10.052    0.341    0.072  206.291   95.081
  550.250    9.372    0.332    0.149  207.832   95.991
  550.500    8.730    0.331    0.148  207.888   95.448
  550.750    8.063    0.330    0.111  204.973   94.892
  551.000    7.788    0.313    0.053  205.036   94.628
  551.250    7.526    0.305    0.075  207.568   93.199
  551.500    7.270    0.225    0.150  210.099   90.313
  551.750    7.085    0.167    0.126  212.638   90.642
