~VERSION INFORMATION
 VERS.                 2.0:   CWLS LOG ASCII STANDARD -VERSION 2.0
 WRAP.                  NO:   ONE LINE PER DEPTH STEP
~WELL INFORMATION BLOCK
#MNEM.UNIT           DATA                    DESCRIPTION OF MNEMONIC
#---------    -------------------            -------------------------------
# Generated from Intellog Unique Number	CN_91_93/WELL/1169
WELL.         11-15-091-17W4                 : Well_name    - WELL
LOC .         00/11-15-091-17W4/0            : Location     - LOCATION
UWI .         00/11-15-091-17W400            : Uwi          - UNIQUE WELL ID
ENTR.         JOETTE                         : Entered      - ENTERED BY
SRVC.         SCHLUMBERGER                   : Scn          - SERVICE COMPANY
DATE.         01/30/92                       : Date         - LOG DATE
STRT.F        344.488                        : top_depth    - START DEPTH
STOP.F        803.806                        : bot_depth    - STOP DEPTH
STEP.F        0.82                           : increment    - STEP LENGTH
 NULL. -999.2500:NULL Value
~CURVE INFORMATION BLOCK
#MNEM UNIT       ERCB CURVE CODE    CURVE DESCRIPTION
#-----------   ------------------   ----------------------------------
DEPT.F        00 001 00 00         : DEPTH        - DEPTH
ILD .OHMM     00 120 00 00         : RESD         - DEEP RESISTIVITY (DIL)
DPHI.V/V      00 890 00 00         : PHID         - DENSITY POROSITY (SANDSTONE)
NPHI.V/V      00 330 00 00         : PHIN         - NEUTRON POROSITY (SANDSTONE)
CALI.IN       00 280 01 00         : CAL          - CALIPER
GR  .API      00 310 00 00         : GR           - GAMMA RAY
~PARAMETER INFORMATION
#MNEM.UNIT           DATA             DESCRIPTION OF MNEMONIC
#---------         -----------     ------------------------------
GL  .M        504                  : gl           - GROUND LEVEL ELEVATION
EREF.M        507.8                : kb           - ELEVATION OF DEPTH REFERENCE
DATM.M        507.8                : datum        - DATUM ELEVATION
TDD .M        246                  : tdd          - TOTAL DEPTH DRILLER
RUN .         ONE                  : Run          - RUN NUMBER
ENG .         BILL                 : Engineer     - RECORDING ENGINEER
WIT .         JIM                  : Witness      - WITNESSED BY
MUD .         GEL                  : Mud_type     - MUD TYPE
MATR.         SANDSTONE            : Logunit      - NEUTRON MATRIX
TMAX.F        69.8                 : BHT          - MAXIMUM RECORDED TEMPERATURE
BHTD.F        807.087              : BHTDEP       - MAXIMUM RECORDED TEMPERATURE
RMT .F        47                   : MDTP         - TEMPERATURE OF MUD
MUDD.LB/G     10                   : MWT          - MUD DENSITY
NEUT.         1                    : NEUTRON      - NEUTRON TYPE
RESI.         0                    : RESIST       - RESISTIVITY TYPE
RM  .OHMM     2.8                  : RM           - RESISTIVITY OF MUD
RMC .OHMM     7.42                 : RMC          - RESISTIVITY OF MUD CAKE
RMF .OHMM     2.28                 : RMF          - RESISTIVITY OF MUD FILTRATE
SUFT.F        39.2                 : SUFT         - SURFACE TEMPERATURE
~A  DEPTH     RESD     PHID     PHIN      CAL       GR
# ...
  703.740    9.510    0.363    0.457    6.232   34.830
  704.560    7.988    0.359    0.479    6.215   29.162
  705.381    7.297    0.353    0.491    6.197   26.608
  706.201    6.601    0.337    0.500    6.219   25.280
  707.021    7.125    0.314    0.489    6.242   25.177
  707.841   10.163    0.309    0.448    6.264   30.586
  708.661   13.970    0.317    0.392    6.267   37.834
  709.482   34.484    0.324    0.364    6.269   48.144
  710.302   38.273    0.325    0.372    6.272   53.579
  711.122   44.097    0.323    0.385    6.313   58.989
  711.942   53.221    0.318    0.382    6.335   65.624
  712.762   67.897    0.313    0.369    6.377   67.358
  713.583   77.506    0.317    0.362    6.419   48.826
  714.403   84.461    0.322    0.376    6.461   29.681
  715.223   80.030    0.324    0.384    6.503   26.464
  716.043   68.487    0.321    0.384    6.466   27.585
  716.864   54.906    0.324    0.398    6.468   29.294
  717.684   37.609    0.324    0.402    6.470   29.829
  718.504   26.709    0.323    0.403    6.512   28.474
  719.324   23.508    0.340    0.410    6.536   27.146
  720.144   21.669    0.337    0.399    6.616   26.430
  720.965   19.968    0.312    0.393    6.657   27.500
  721.785   19.280    0.276    0.406    6.657   28.673
  722.605   21.201    0.251    0.403    6.682   31.020
  723.425   24.891    0.241    0.381    6.802   35.205
  724.245   30.322    0.267    0.364    6.883   41.227
  725.066   30.322    0.300    0.382    6.984   50.925
  725.886   35.666    0.317    0.397    7.065   58.172
  726.706   38.131    0.302    0.403    7.127   64.832
  727.526   41.564    0.279    0.403    7.208   73.892
  728.346   42.805    0.274    0.392    7.348   67.637
  729.167   43.711    0.260    0.389    7.409   64.445
  729.987   44.222    0.274    0.369    7.409   66.179
  730.807   41.925    0.278    0.360    7.415   67.913
  731.627   39.715    0.280    0.343    7.416   69.035
  732.448   36.949    0.275    0.385    7.379   69.544
  733.268   30.751    0.262    0.402    7.304   70.640
  734.088   28.869    0.250    0.390    7.228   71.762
  734.908   24.256    0.244    0.390    7.132   74.109
  735.728   22.984    0.216    0.390    7.017   75.256
  736.549   21.378    0.208    0.376    6.960   79.389
  737.369   20.451    0.225    0.374    6.884   81.710
  738.189   20.499    0.237    0.367    6.828   82.883
  739.009   20.734    0.241    0.366    6.771   85.230
  739.829   21.381    0.254    0.377    6.754   87.577
  740.650   22.225    0.257    0.376    6.739   89.260
  741.470   23.324    0.259    0.373    6.720   86.119
  742.290   24.264    0.259    0.373    6.722   79.838
  743.110   24.542    0.256    0.379    6.725   79.148
  743.930   24.366    0.253    0.382    6.727   77.768
  744.751   23.980    0.241    0.391    6.769   77.052
  745.571   23.980    0.243    0.398    6.811   76.949
  746.391   23.625    0.242    0.395    6.813   78.070
  747.211   21.788    0.240    0.397    6.813   79.166
  748.031   20.455    0.237    0.397    6.799   79.701
  748.852   20.492    0.226    0.395    6.799   81.410
  749.672   21.511    0.226    0.393    6.766   83.092
  750.492   24.328    0.266    0.389    6.708   83.653
  751.312   27.261    0.266    0.375    6.651   84.162
  752.133   29.160    0.281    0.387    6.635   81.557
  752.953   29.761    0.283    0.389    6.676   80.229
  753.773   29.556    0.277    0.396    6.699   79.487
  754.593   26.735    0.267    0.396    6.642   78.158
  755.413   23.751    0.240    0.384    6.642   75.605
  756.234   21.690    0.217    0.382    6.608   73.663
  757.054   22.131    0.199    0.369    6.571   73.534
  757.874   28.778    0.171    0.365    6.534   74.656
  758.694   31.361    0.159    0.380    6.537   77.615
  759.514   32.920    0.179    0.362    6.559   82.387
  760.335   33.306    0.202    0.277    6.601   87.822
  761.155   31.275    0.221    0.306    6.623   93.232
  761.975   28.290    0.247    0.316    6.645   82.076
  762.795   23.551    0.257    0.333    6.687   72.146
  763.615   22.097    0.251    0.368    6.728   74.493
  764.436   17.408    0.226    0.342    6.770   72.526
  765.256   16.187    0.207    0.351    6.812   68.109
  766.076   15.192    0.198    0.351    6.933   68.644
  766.896   14.138    0.196    0.347    6.974   82.629
  767.717   13.399    0.174    0.355    7.055   91.714
  768.537   12.703    0.172    0.381    7.097   98.375
  769.357   12.845    0.179    0.396    7.099  106.847
  770.177   13.998    0.199    0.399    7.043  115.320
  770.997   15.971    0.236    0.395    6.967  123.792
  771.818   17.905    0.264    0.413    6.891  130.401
  772.638   18.444    0.241    0.412    6.815  129.073
  773.458   18.825    0.230    0.388    6.739  119.168
  774.278   18.346    0.225    0.363    6.702   99.411
  775.098   16.599    0.214    0.354    6.665   89.481
  775.919   14.074    0.206    0.364    6.648   88.765
  776.739   13.339    0.198    0.366    6.631   93.536
  777.559   13.003    0.198    0.357    6.594   98.334
  778.379   13.646    0.202    0.366    6.594  101.319
  779.199   15.009    0.205    0.381    6.561  107.341
  780.020   17.134    0.201    0.385    6.484  113.976
  780.840   19.021    0.147    0.377    6.368  112.009
  781.660   20.153    0.141    0.368    6.253  100.241
  782.480   21.150    0.166    0.378    6.217   90.311
  783.301   21.397    0.246    0.384    6.219   82.218
  784.121   19.541    0.294    0.387    6.261   80.889
  784.941   16.406    0.263    0.384    6.342   84.436
  785.761   13.781    0.241    0.379    6.422   86.808
  786.581   12.354    0.213    0.372    6.503   90.380
  787.402   12.152    0.195    0.365    6.546   95.790
  788.222   12.406    0.178    0.414    6.470  102.425
  789.042   13.270    0.226    0.442    6.394  106.609
  789.862   14.592    0.263    0.442    6.317  107.093
  790.682   16.653    0.282    0.439    6.281   94.712
  791.503   18.321    0.290    0.424    6.263   82.332
  792.323   18.536    0.281    0.418    6.286   81.564
  793.143   18.060    0.265    0.392    6.327   85.136
  793.963   17.765    0.219    0.370    6.408   89.346
  794.783   17.313    0.193    0.388    6.431   92.918
  795.604   17.670    0.155    0.392    6.375   95.239
  796.424   19.430    0.061    0.397    6.298   94.497
  797.244   39.834    0.015    0.202    6.262   93.756
  798.064  103.003    0.010    0.083    6.262   93.678
  798.885  292.344    0.018    0.097    6.248   93.600
  799.705  352.838    0.044    0.122    6.229   92.833
  800.525  421.692    0.074    0.135    6.212   92.729
  801.345  499.718    0.082    0.151    6.215   93.239
  802.165  519.581    0.095    0.168    6.217   93.135
  802.986  555.786    0.095    0.179    6.201   92.419
  803.806  583.421    0.096    0.180    6.184   91.652
