~VERSION INFORMATION
 VERS.                 2.0:   CWLS LOG ASCII STANDARD -VERSION 2.0
 WRAP.                  NO:   ONE LINE PER DEPTH STEP
~WELL INFORMATION BLOCK
#MNEM.UNIT           DATA                    DESCRIPTION OF MNEMONIC
#---------    -------------------            -------------------------------
# Generated from Intellog Unique Number	CX_WELLS/WELL/3890
WELL.         PARA ET AL SANESKI             : Well_name    - WELL
LOC .         00/10-17-087-18W4/0            : Location     - LOCATION
UWI .         00/10-17-087-18W400            : Uwi          - UNIQUE WELL ID
ENTR.         TIM                            : Entered      - ENTERED BY
SRVC.         SCHLUMBERGER                   : Scn          - SERVICE COMPANY
STRT.M        100                            : top_depth    - START DEPTH
STOP.M        230                            : bot_depth    - STOP DEPTH
STEP.M        0.25                           : increment    - STEP LENGTH
 NULL. -999.2500:NULL Value
~CURVE INFORMATION BLOCK
#MNEM UNIT       ERCB CURVE CODE    CURVE DESCRIPTION
#-----------   ------------------   ----------------------------------
DEPT.M        00 001 00 00         : DEPTH        - DEPTH
GR  .API      00 310 00 00         : GR           - GAMMA RAY
NPHI.V/V      00 330 00 00         : PHIN         - NEUTRON POROSITY (SANDSTONE)
DPHI.V/V      00 890 00 00         : PHID         - DENSITY POROSITY (SANDSTONE)
ILD .OHMM     00 120 00 00         : RESD         - DEEP RESISTIVITY (DIL)
~PARAMETER INFORMATION
#MNEM.UNIT           DATA             DESCRIPTION OF MNEMONIC
#---------         -----------     ------------------------------
GL  .M        518                  : gl           - GROUND LEVEL ELEVATION
EREF.M        520.7                : kb           - ELEVATION OF DEPTH REFERENCE
DATM.M        520.7                : datum        - DATUM ELEVATION
TDD .M        230                  : tdd          - TOTAL DEPTH DRILLER
RUN .         ONE                  : Run          - RUN NUMBER
ENG .         BILL                 : Engineer     - RECORDING ENGINEER
WIT .         JIM                  : Witness      - WITNESSED BY
MUD .         GEL                  : Mud_type     - MUD TYPE
MATR.         SANDSTONE            : Logunit      - NEUTRON MATRIX
TMAX.C        15.6                 : BHT          - MAXIMUM RECORDED TEMPERATURE
BHTD.M        230                  : BHTDEP       - MAXIMUM RECORDED TEMPERATURE
MATR.         1                    : LOGUNIT      - NEUTRON MATRIX
RMT .C        22                   : MDTP         - TEMPERATURE OF MUD
NEUT.         1                    : NEUTRON      - NEUTRON TYPE
RESI.         5.5                  : RESIST       - RESISTIVITY TYPE
RMC .OHMM     0.25                 : RMC          - RESISTIVITY OF MUD CAKE
RMF .OHMM     5                    : RMF          - RESISTIVITY OF MUD FILTRATE
SUFT.C        4                    : SUFT         - SURFACE TEMPERATURE
~A  DEPTH       GR     PHIN     PHID     RESD
  100.000   80.999    0.399    0.299   22.214
  100.250   87.274    0.383    0.287   18.830
  100.500   97.945    0.410    0.274   16.632
  100.750  111.127    0.421    0.257   13.808
  101.000  124.307    0.444    0.229   11.458
  101.250  123.050    0.464    0.214    9.123
  101.500  124.930    0.474    0.200    7.894
  101.750  127.436    0.491    0.200    6.553
  102.000  126.805    0.514    0.204    6.838
  102.250  126.801    0.526    0.200    7.284
  102.500  126.170    0.509    0.198    7.444
  102.750  125.538    0.510    0.198    7.608
  103.000  125.534    0.510    0.196    7.617
  103.250  129.297    0.512    0.194    7.622
  103.500  129.921    0.521    0.193    7.631
  103.750  129.917    0.543    0.191    7.637
  104.000  129.915    0.549    0.194    7.488
  104.250  130.536    0.447    0.196    7.340
  104.500  130.533    0.427    0.198    7.195
  104.750  130.531    0.425    0.195    6.910
  105.000  130.528    0.423    0.189    6.917
  105.250  131.152    0.421    0.185    6.923
  105.500  130.518    0.422    0.184    7.076
  105.750  130.517    0.428    0.185    7.231
  106.000  129.257    0.436    0.183    7.546
  106.250  127.370    0.434    0.178    7.713
  106.500  129.250    0.421    0.173    8.049
  106.750  127.362    0.401    0.173    8.226
  107.000  127.359    0.395    0.180    8.407
  107.250  128.610    0.445    0.190    8.241
  107.500  128.605    0.463    0.199    8.077
  107.750  127.345    0.497    0.203    7.757
  108.000  124.202    0.513    0.210    7.763
  108.250  122.315    0.433    0.216    7.936
  108.500  122.939    0.372    0.218    7.945
  108.750  123.564    0.401    0.226    7.785
  109.000  124.188    0.433    0.229    7.477
  109.250  123.557    0.470    0.238    7.328
  109.500  122.295    0.482    0.244    7.187
  109.750  121.038    0.430    0.250    7.191
  110.000  119.149    0.419    0.245    6.906
  110.250  117.891    0.444    0.242    6.911
  110.500  115.375    0.470    0.244    6.776
  110.750  114.116    0.497    0.251    6.642
  111.000  112.229    0.528    0.258    6.512
  111.250  111.597    0.527    0.266    6.386
  111.500  111.593    0.501    0.265    6.389
  111.750  110.962    0.472    0.261    6.263
  112.000  110.958    0.454    0.250    6.269
  112.250  110.954    0.452    0.245    6.277
  112.500  110.951    0.462    0.241    6.415
  112.750  110.946    0.487    0.241    6.421
  113.000  109.686    0.515    0.244    6.705
  113.250  107.171    0.504    0.248    6.847
  113.500  103.399    0.498    0.254    6.998
  113.750  100.884    0.493    0.256    7.459
  114.000   97.741    0.446    0.257    7.620
  114.250   94.597    0.450    0.252    8.289
  114.500   93.338    0.458    0.224    9.207
  114.750   97.103    0.492    0.223   10.443
  115.000   95.843    0.528    0.235   10.897
  115.250   92.700    0.530    0.193   10.681
  115.500   88.929    0.500    0.176   10.049
  115.750   92.064    0.441    0.186    9.849
  116.000   97.711    0.436    0.205    9.856
  116.250   98.963    0.449    0.225   10.952
  116.500   98.960    0.457    0.244   11.187
  116.750   96.445    0.439    0.257   12.690
  117.000   93.301    0.415    0.270   14.098
  117.250   90.158    0.404    0.254   14.707
  117.500   88.270    0.403    0.231   15.354
  117.750   89.522    0.408    0.214   15.365
  118.000   95.170    0.410    0.218   15.707
  118.250  100.816    0.413    0.221   15.718
  118.500  103.953    0.445    0.225   15.088
  118.750  104.577    0.477    0.219   13.055
  119.000  100.178    0.492    0.226   11.067
  119.250   91.384    0.492    0.231    9.983
  119.500   80.078    0.484    0.231    9.583
  119.750   78.189    0.472    0.258   10.002
  120.000   81.326    0.450    0.267   11.824
  120.250   85.718    0.446    0.274   13.130
  120.500   88.853    0.406    0.280   15.849
  120.750   87.593    0.417    0.283   17.612
  121.000   84.451    0.440    0.275   17.995
  121.250   79.424    0.441    0.269   18.012
  121.500   80.047    0.426    0.267   17.662
  121.750   83.184    0.407    0.269   17.670
  122.000   85.063    0.405    0.263   17.323
  122.250   83.175    0.436    0.262   17.348
  122.500   82.545    0.467    0.262   17.360
  122.750   82.541    0.485    0.263   17.385
  123.000   85.048    0.485    0.264   17.401
  123.250   85.044    0.486    0.267   17.055
  123.500   82.529    0.491    0.269   17.075
  123.750   79.385    0.507    0.270   17.087
  124.000   78.753    0.497    0.263   17.463
  124.250   81.890    0.478    0.256   18.227
  124.500   90.049    0.455    0.247   17.860
  124.750  100.720    0.438    0.241   14.828
  125.000  107.623    0.486    0.230    9.789
  125.250  110.131    0.505    0.221    9.397
  125.500  105.732    0.520    0.232    8.477
  125.750   97.565    0.479    0.274    7.646
  126.000   89.399    0.438    0.288    7.042
  126.250   83.744    0.438    0.304    7.663
  126.500   78.717    0.448    0.296    8.509
  126.750   76.202    0.460    0.226   12.919
  127.000   75.570    0.436    0.175   13.474
  127.250   76.194    0.412    0.185   15.280
  127.500   77.446    0.395    0.232   18.065
  127.750   78.698    0.384    0.248   19.656
  128.000   81.206    0.361    0.270   18.484
  128.250   83.085    0.359    0.268   17.378
  128.500   84.338    0.381    0.257   16.346
  128.750   86.218    0.423    0.245   15.371
  129.000   87.470    0.445    0.270   14.451
  129.250   86.838    0.448    0.292   13.039
  129.500   82.439    0.419    0.316   12.009
  129.750   74.901    0.402    0.322   11.528
  130.000   70.501    0.429    0.333   11.073
  130.250   71.124    0.439    0.338   11.081
  130.500   71.750    0.461    0.326   12.576
  130.750   74.258    0.495    0.314   13.392
  131.000   76.766    0.496    0.312   13.971
  131.250   79.274    0.477    0.313   14.278
  131.500   78.641    0.487    0.313   13.430
  131.750   76.127    0.522    0.313   12.633
  132.000   72.356    0.556    0.306   12.378
  132.250   69.840    0.546    0.280   12.653
  132.500   69.836    0.507    0.249   13.204
  132.750   72.344    0.476    0.229   14.068
  133.000   74.224    0.494    0.227   14.377
  133.250   77.988    0.475    0.230   14.693
  133.500   81.124    0.444    0.224   14.707
  133.750   83.004    0.419    0.215   15.027
  134.000   84.256    0.433    0.222   15.041
  134.250   83.623    0.445    0.229   14.442
  134.500   81.108    0.431    0.228   13.584
  134.750   79.849    0.423    0.213   13.040
  135.000   81.728    0.461    0.176   12.786
  135.250   82.351    0.484    0.132   12.799
  135.500   81.721    0.457    0.104   12.811
  135.750   79.833    0.430    0.070   13.368
  136.000   78.573    0.376    0.040   13.662
  136.250   77.315    0.344    0.022   14.865
  136.500   76.055    0.276    0.011   15.834
  136.750   68.517    0.201    0.007   17.960
  137.000   73.536    0.186    0.034   20.791
  137.250   79.811    0.225    0.070   29.032
  137.500   83.574    0.287    0.146   28.461
  137.750   84.199    0.323    0.204   23.142
  138.000   81.684    0.373    0.223   19.204
  138.250   81.679    0.434    0.231   16.616
  138.500   82.931    0.434    0.224   15.630
  138.750   83.556    0.443    0.209   15.644
  139.000   84.180    0.442    0.158   16.672
  139.250   83.548    0.403    0.102   17.393
  139.500   82.918    0.330    0.073   19.322
  139.750   81.658    0.214    0.055   21.456
  140.000   81.025    0.216    0.054   24.326
  140.250   81.649    0.230    0.087   27.594
  140.500   82.902    0.284    0.160   27.064
  140.750   82.898    0.334    0.222   24.921
  141.000   83.521    0.367    0.253   22.474
  141.250   83.518    0.410    0.261   19.451
  141.500   82.885    0.419    0.259   17.546
  141.750   82.254    0.436    0.256   17.205
  142.000   82.250    0.437    0.252   17.217
  142.250   81.619    0.446    0.246   16.879
  142.500   81.616    0.459    0.238   16.551
  142.750   82.240    0.463    0.229   16.559
  143.000   82.865    0.460    0.229   15.903
  143.250   82.861    0.454    0.229   15.918
