~VERSION INFORMATION
 VERS.                 2.0:   CWLS LOG ASCII STANDARD -VERSION 2.0
 WRAP.                  NO:   ONE LINE PER DEPTH STEP
~WELL INFORMATION BLOCK
#MNEM.UNIT           DATA                    DESCRIPTION OF MNEMONIC
#---------    -------------------            -------------------------------
# Generated from Intellog Unique Number	CN_94_101/WELL/3820
WELL.         10-02-096-18W4                 : Well_name    - WELL
LOC .         00/10-02-096-18W4/0            : Location     - LOCATION
UWI .         00/10-02-096-18W400            : Uwi          - UNIQUE WELL ID
ENTR.         T                              : Entered      - ENTERED BY
SRVC.         SCHLUMBERGER                   : Scn          - SERVICE COMPANY
DATE.         06/18/92                       : Date         - LOG DATE
STRT.M        225                            : top_depth    - START DEPTH
STOP.M        404.75                         : bot_depth    - STOP DEPTH
STEP.M        0.25                           : increment    - STEP LENGTH
 NULL. -999.2500:NULL Value
~CURVE INFORMATION BLOCK
#MNEM UNIT       ERCB CURVE CODE    CURVE DESCRIPTION
#-----------   ------------------   ----------------------------------
DEPT.M        00 001 00 00         : DEPTH        - DEPTH
GR  .API      00 310 00 00         : GR           - GAMMA RAY
CALI.MM       00 280 01 00         : CAL          - CALIPER
NPHI.V/V      00 330 00 00         : PHIN         - NEUTRON POROSITY (SANDSTONE)
DPHI.V/V      00 890 00 00         : PHID         - DENSITY POROSITY (SANDSTONE)
ILD .OHMM     00 120 00 00         : RESD         - DEEP RESISTIVITY (DIL)
~PARAMETER INFORMATION
#MNEM.UNIT           DATA             DESCRIPTION OF MNEMONIC
#---------         -----------     ------------------------------
GL  .M        673.9                : gl           - GROUND LEVEL ELEVATION
EREF.M        676.9                : kb           - ELEVATION OF DEPTH REFERENCE
DATM.M        676.9                : datum        - DATUM ELEVATION
TDD .M        411                  : tdd          - TOTAL DEPTH DRILLER
RUN .         0.000000             : Run          - RUN NUMBER
MUD .         GEL                  : Mud_type     - MUD TYPE
MATR.         SANDSTONE            : Logunit      - NEUTRON MATRIX
TMAX.C        0                    : BHT          - MAXIMUM RECORDED TEMPERATURE
BHTD.M        344                  : BHTDEP       - MAXIMUM RECORDED TEMPERATURE
RMT .C        14                   : MDTP         - TEMPERATURE OF MUD
MUDD.KG/M     1050                 : MWT          - MUD DENSITY
NEUT.         1                    : NEUTRON      - NEUTRON TYPE
RESI.         0                    : RESIST       - RESISTIVITY TYPE
RM  .OHMM     3.15                 : RM           - RESISTIVITY OF MUD
RMC .OHMM     3.15                 : RMC          - RESISTIVITY OF MUD CAKE
RMF .OHMM     0                    : RMF          - RESISTIVITY OF MUD FILTRATE
SUFT.C        4                    : SUFT         - SURFACE TEMPERATURE
BTZC.MM       0                    : BITZC        - BIT SIZE CONSTANT
MDW .KG/M     0                    : MDW          - MUD WEIGHT
~A  DEPTH       GR      CAL     PHIN     PHID     RESD
# ...
  371.000   79.303  170.918    0.237    0.041   12.399
  371.250   95.902  169.898    0.304    0.085   11.409
  371.500  113.115  172.959    0.369    0.123    9.862
  371.750  114.344  172.959    0.409    0.151    8.526
  372.000  115.574  172.959    0.404    0.156    7.370
  372.250  116.803  172.959    0.429    0.135    6.924
  372.500  118.033  173.980    0.436    0.122    6.924
  372.750  119.262  173.980    0.428    0.135    6.240
  373.000  119.262  175.000    0.407    0.142    6.924
  373.250  118.033  175.000    0.399    0.151    7.218
  373.500  118.033  175.000    0.403    0.160    7.683
  373.750  117.418  175.000    0.400    0.165    7.845
  374.000  118.033  175.000    0.389    0.167    8.010
  374.250  116.189  175.000    0.397    0.172    8.350
  374.500  115.574  173.980    0.409    0.156    8.010
  374.750  113.730  173.980    0.415    0.123    7.845
  375.000  113.730  173.980    0.414    0.112    7.370
  375.250  117.418  173.980    0.413    0.145    8.350
  375.500  121.721  173.980    0.418    0.146    9.659
  375.750  126.025  173.980    0.418    0.123    9.862
  376.000  129.098  173.980    0.408    0.099    9.075
  376.250  131.557  173.980    0.388    0.119    8.350
  376.500  130.943  172.959    0.399    0.157    7.525
  376.750  127.254  172.959    0.423    0.136    6.924
  377.000  119.877  172.959    0.423    0.110    6.371
  377.250  114.344  173.980    0.394    0.114    5.986
  377.500  113.730  175.000    0.392    0.142    6.505
  377.750  121.721  175.000    0.402    0.151    6.781
  378.000  124.180  175.000    0.410    0.145    7.218
  378.250  124.180  173.980    0.431    0.140    6.781
  378.500  124.795  173.980    0.426    0.138    6.781
  378.750  122.951  172.959    0.434    0.143    7.070
  379.000  119.877  172.959    0.432    0.147    7.370
  379.250  117.418  171.939    0.426    0.136    8.526
  379.500  115.574  172.959    0.413    0.133    8.705
  379.750  117.418  172.959    0.398    0.140    8.705
  380.000  120.000  172.959    0.383    0.145    8.705
  380.250  127.347  173.980    0.379    0.141    8.705
  380.500  127.347  175.000    0.383    0.140    8.705
  380.750  121.837  176.020    0.365    0.141    8.526
  381.000  115.102  176.020    0.358    0.143    8.350
  381.250  113.878  176.020    0.365    0.148    8.178
  381.500  115.102  175.000    0.369    0.155    9.075
  381.750  115.714  175.000    0.384    0.152    8.888
  382.000  115.102  175.000    0.408    0.140    8.888
  382.250  113.265  173.980    0.426    0.136    8.888
  382.500  113.878  173.980    0.432    0.140    7.683
  382.750  115.102  173.980    0.431    0.145    7.070
  383.000  120.000  172.959    0.442    0.136    7.218
  383.250  112.653  172.959    0.436    0.125    7.218
  383.500  107.755  172.959    0.431    0.123    7.218
  383.750  111.429  171.939    0.424    0.126    7.218
  384.000  117.551  171.939    0.426    0.128    7.370
  384.250  120.612  171.939    0.423    0.128    7.683
  384.500  118.163  170.918    0.417    0.122    8.010
  384.750  115.102  170.918    0.402    0.119    9.265
  385.000  108.367  170.918    0.373    0.132   10.497
  385.250   98.571  171.939    0.351    0.183   16.940
  385.500   85.102  170.918    0.338    0.233   16.591
  385.750   83.265  170.918    0.350    0.247   17.296
  386.000   80.816  169.898    0.370    0.246   21.297
  386.250   76.531  169.898    0.355    0.247   27.911
  386.500   69.796  169.898    0.329    0.248   45.989
  386.750   62.449  169.898    0.255    0.256   56.625
  387.000   58.776  169.898    0.246    0.284   69.723
  387.250   58.163  168.878    0.260    0.314   68.287
  387.500   60.612  168.878    0.276    0.308   62.834
  387.750   61.837  169.898    0.354    0.264   56.625
  388.000   61.224  169.898    0.368    0.266   47.943
  388.250   61.837  169.898    0.367    0.271   45.042
  388.500   64.286  168.878    0.334    0.253   41.445
  388.750   69.796  172.959    0.319    0.240   45.042
  389.000   65.510  167.857    0.254    0.273   49.980
  389.250   54.490  166.837    0.262    0.301   64.155
  389.500   52.041  161.735    0.271    0.304   60.273
  389.750   53.265  165.816    0.256    0.316   68.287
  390.000   53.878  165.816    0.208    0.326   84.081
  390.250   45.306  166.837    0.163    0.353  101.397
  390.500   31.224  164.796    0.068    0.363  127.474
  390.750   31.837  162.755    0.046    0.385  130.154
  391.000   31.837  160.714    0.049    0.380  141.450
  391.250   32.449  159.694    0.067    0.375  156.958
  391.500   32.449  160.714    0.131    0.367  160.258
  391.750   33.061  161.735    0.167    0.365  119.760
  392.000   36.122  161.735    0.207    0.357   93.300
  392.250   36.122  162.755    0.240    0.336   69.723
  392.500   37.805  163.776    0.286    0.327   47.389
  392.750   38.415  163.776    0.311    0.318   26.511
  393.000   39.634  164.796    0.328    0.319   26.511
  393.250   40.244  165.816    0.346    0.323   27.067
  393.500   40.854  166.837    0.335    0.327   28.804
  393.750   41.463  166.837    0.320    0.322   30.654
  394.000   42.683  166.837    0.326    0.317   34.004
  394.250   43.293  166.837    0.330    0.317   37.720
  394.500   43.902  166.837    0.336    0.314   49.396
  394.750   44.512  166.837    0.343    0.311   57.116
  395.000   45.732  166.837    0.353    0.307   63.358
  395.250   45.732  166.837    0.358    0.304   68.840
  395.500   45.732  166.837    0.354    0.299   76.363
  395.750   45.122  166.837    0.350    0.297   86.484
  396.000   44.512  165.816    0.348    0.294   95.936
  396.250   42.073  165.816    0.344    0.293  108.652
  396.500   40.244  164.796    0.339    0.291  123.052
  396.750   37.805  163.776    0.326    0.291  128.265
  397.000   35.976  162.755    0.308    0.292  142.283
  397.250   33.537  163.776    0.299    0.294  178.753
  397.500   31.707  164.796    0.315    0.298  219.959
  397.750   29.268  166.837    0.320    0.303  276.339
  398.000   29.268  168.878    0.323    0.303  385.111
  398.250   29.878  170.918    0.321    0.306  547.947
  398.500   31.401  170.918    0.316    0.309  660.419
  398.750   31.401  170.918    0.299    0.309  763.630
  399.000   33.012  169.898    0.297    0.306 1000.000
  399.250   34.622  169.898    0.297    0.298 1064.210
  399.500   37.038  168.878    0.299    0.296 1132.540
  399.750   38.648  168.878    0.297    0.291 1064.210
  400.000   41.063  167.857    0.297    0.284 1000.000
  400.250   41.868  167.857    0.297    0.276  959.361
  400.500   44.284  166.837    0.299    0.171  882.970
  400.750   50.725  164.796    0.303    0.160  583.131
  401.000   49.920  164.796    0.301    0.086  306.540
  401.250   57.167  162.755    0.301    0.052  306.540
  401.500   56.361  161.735    0.301    0.034  312.965
  401.750   57.167  160.714    0.301    0.032  319.525
  402.000   57.167  160.714    0.303    0.032  312.965
  402.250   57.972  158.673    0.299    0.032  312.965
  402.500   57.972  158.673    0.284    0.032  319.525
  402.750   58.777  158.673    0.285    0.031  319.525
  403.000   60.387  159.694    0.294    0.029  319.525
  403.250   60.387  159.694    0.297    0.045  319.525
  403.500   65.218  160.714    0.303    0.059  326.222
  403.750   66.829  162.755    0.306    0.064  326.222
  404.000   68.439  164.796    0.313    0.065  326.222
  404.250   70.049  165.816    0.290    0.055  326.222
  404.500   70.049  167.857    0.276    0.054  326.222
  404.750   71.660  170.918    0.272    0.051  333.060
