~VERSION INFORMATION
 VERS.                 2.0:   CWLS LOG ASCII STANDARD -VERSION 2.0
 WRAP.                  NO:   ONE LINE PER DEPTH STEP
~WELL INFORMATION BLOCK
#MNEM.UNIT           DATA                    DESCRIPTION OF MNEMONIC
#---------    -------------------            -------------------------------
# Generated from Intellog Unique Number	CW_73_75/WELL/1050
WELL.         TRICENT ET AL MITSUE 12-08     : Well_name    - WELL
LOC .         00/12-08-074-05W5/0            : Location     - LOCATION
UWI .         00/12-08-074-05W5/0            : Uwi          - UNIQUE WELL ID
ENTR.         JAYE                           : Entered      - ENTERED BY
SRVC.         SCHLUMBERGER                   : Scn          - SERVICE COMPANY
DATE.         11 JAN 84                      : Date         - LOG DATE
STRT.M        360                            : top_depth    - START DEPTH
STOP.M        590                            : bot_depth    - STOP DEPTH
STEP.M        0.25                           : increment    - STEP LENGTH
 NULL. -999.2500:NULL Value
~CURVE INFORMATION BLOCK
#MNEM UNIT       ERCB CURVE CODE    CURVE DESCRIPTION
#-----------   ------------------   ----------------------------------
DEPT.M        00 001 00 00         : DEPTH        - DEPTH
CALI.MM       00 280 01 00         : CAL          - CALIPER
GR  .API      00 310 00 00         : GR           - GAMMA RAY
NPHI.V/V      00 330 00 00         : PHIN         - NEUTRON POROSITY (SANDSTONE)
DPHI.V/V      00 890 00 00         : PHID         - DENSITY POROSITY (SANDSTONE)
ILD .OHMM     00 120 00 00         : RESD         - DEEP RESISTIVITY (DIL)
~PARAMETER INFORMATION
#MNEM.UNIT           DATA             DESCRIPTION OF MNEMONIC
#---------         -----------     ------------------------------
GL  .M        596.5                : gl           - GROUND LEVEL ELEVATION
EREF.M        600.65               : kb           - ELEVATION OF DEPTH REFERENCE
DATM.M        596.5                : datum        - DATUM ELEVATION
TDD .M        1689                 : tdd          - TOTAL DEPTH DRILLER
RUN .         ONE                  : Run          - RUN NUMBER
ENG .         GAGGINO              : Engineer     - RECORDING ENGINEER
WIT .         EARLE                : Witness      - WITNESSED BY
BASE.         EDM                  : Branch       - HOME BASE OF LOGGING UNIT
MUD .         GEL CHEM             : Mud_type     - MUD TYPE
MATR.         SANDSTONE            : Logunit      - NEUTRON MATRIX
TMAX.C        53                   : BHT          - MAXIMUM RECORDED TEMPERATURE
BHTD.M        1689.5               : BHTDEP       - MAXIMUM RECORDED TEMPERATURE
RMT .C        15                   : MDTP         - TEMPERATURE OF MUD
MUDD.KG/M     1130                 : MWT          - MUD DENSITY
NEUT.         1                    : NEUTRON      - NEUTRON TYPE
RESI.         0                    : RESIST       - RESISTIVITY TYPE
RM  .OHMM     0.618                : RM           - RESISTIVITY OF MUD
RMC .OHMM     0                    : RMC          - RESISTIVITY OF MUD CAKE
RMF .OHMM     1.15                 : RMF          - RESISTIVITY OF MUD FILTRATE
SUFT.C        0                    : SUFT         - SURFACE TEMPERATURE
~A  DEPTH      CAL       GR     PHIN     PHID     RESD
# ...
  469.500  268.597   57.712    0.430    0.250    3.415
  469.750  274.691   64.311    0.422    0.239    3.821
  470.000  282.545   66.651    0.423    0.243    4.235
  470.250  283.451   63.620    0.429    0.253    4.347
  470.500  271.615   61.021    0.425    0.263    4.169
  470.750  262.783   58.115    0.415    0.278    3.822
  471.000  261.827   54.775    0.405    0.293    3.708
  471.250  263.562   54.337    0.395    0.310    3.720
  471.500  266.651   54.208    0.395    0.347    3.949
  471.750  269.943   52.474    0.453    0.370    4.280
  472.000  271.890   49.197    0.471    0.334    4.509
  472.250  267.929   49.314    0.450    0.307    4.662
  472.500  265.312   51.222    0.419    0.308    4.758
  472.750  264.874   51.216    0.394    0.308    4.694
  473.000  264.852   50.531    0.385    0.299    4.596
  473.250  265.346   48.549    0.385    0.302    4.517
  473.500  266.772   47.001    0.390    0.301    4.456
  473.750  268.306   51.192    0.403    0.296    4.413
  474.000  270.874   55.383    0.428    0.292    4.378
  474.250  276.552   58.710    0.430    0.291    4.385
  474.500  283.678   61.359    0.422    0.296    4.375
  474.750  286.558   63.328    0.419    0.299    4.373
  475.000  281.974   60.853    0.423    0.300    4.371
  475.250  279.773   55.107    0.439    0.300    4.369
  475.500  281.410   56.397    0.470    0.301    4.335
  475.750  282.630   57.687    0.467    0.304    4.213
  476.000  278.771   54.781    0.409    0.306    4.079
  476.250  275.433   49.034    0.399    0.301    3.971
  476.500  275.410   49.522    0.403    0.296    3.874
  476.750  278.392   53.528    0.403    0.294    3.793
  477.000  281.891   57.288    0.381    0.293    3.792
  477.250  285.080   58.825    0.421    0.297    3.833
  477.500  286.405   56.782    0.431    0.301    3.832
  477.750  287.211   56.344    0.438    0.300    3.830
  478.000  287.806   56.152    0.441    0.294    3.822
  478.250  288.714   52.196    0.443    0.297    3.856
  478.500  289.521   52.005    0.445    0.299    3.920
  478.750  290.538   52.369    0.447    0.300    3.956
  479.000  292.278   51.931    0.454    0.303    4.007
  479.250  294.117   52.481    0.464    0.307    4.096
  479.500  295.857   53.895    0.470    0.308    4.324
  479.750  297.181   55.679    0.462    0.308    4.581
  480.000  299.128   58.822    0.446    0.306    4.684
  480.250  301.385   56.717    0.449    0.303    4.665
  480.500  303.329   54.427    0.447    0.299    4.671
  480.750  305.688   56.088    0.433    0.293    4.626
  481.000  308.048   60.218    0.424    0.270    4.564
  481.250  312.587   60.705    0.414    0.263    4.477
  481.500  319.714   59.526    0.400    0.261    4.318
  481.750  326.325   59.644    0.443    0.257    4.229
  482.000  330.551   60.316    0.445    0.252    4.125
  482.250  331.875   59.570    0.428    0.247    4.062
  482.500  334.858   59.750    0.404    0.242    3.955
  482.750  339.291   60.053    0.391    0.235    3.880
  483.000  343.829   59.120    0.408    0.231    3.856
  483.250  356.347   56.522    0.448    0.206    3.819
  483.500  364.717   55.590    0.453    0.210    3.889
  483.750  366.765   55.770    0.442    0.218    3.999
  484.000  366.018   57.307    0.417    0.216    4.081
  484.250  364.960   59.646    0.433    0.211    4.141
  484.500  364.520   60.073    0.448    0.204    4.163
  484.750  364.291   59.511    0.447    0.204    4.154
  485.000  364.993   59.505    0.441    0.209    4.167
  485.250  366.524   60.673    0.447    0.205    4.221
  485.500  367.331   62.704    0.445    0.204    4.291
  485.750  366.789   63.624    0.438    0.206    4.281
  486.000  364.796   62.074    0.447    0.208    3.985
  486.250  364.461   63.056    0.443    0.213    3.654
  486.500  365.682   63.606    0.441    0.219    3.485
  486.750  367.212   63.230    0.457    0.226    3.562
  487.000  367.191   63.409    0.488    0.231    3.725
  487.250  364.368   64.329    0.494    0.235    3.925
  487.500  358.128   65.619    0.487    0.237    4.089
  487.750  354.891   64.440    0.476    0.236    4.173
  488.000  356.318   64.064    0.464    0.222    4.226
  488.250  361.477   63.996    0.452    0.202    4.257
  488.500  367.565   60.102    0.446    0.192    4.311
  488.750  369.722   58.984    0.451    0.196    4.334
  489.000  371.461   59.410    0.445    0.207    4.324
  489.250  372.057   59.219    0.435    0.206    4.322
  489.500  372.034   58.657    0.448    0.205    4.304
  489.750  372.013   58.220    0.453    0.216    4.270
  490.000  371.990   59.202    0.470    0.224    4.237
  490.250  371.137   58.641    0.479    0.218    4.227
  490.500  367.694   58.758    0.468    0.207    4.226
  490.750  368.705   59.431    0.450    0.202    4.232
  491.000  370.963   60.845    0.429    0.197    4.246
  491.250  372.184   63.678    0.443    0.205    4.301
  491.500  372.367   64.413    0.469    0.202    4.348
  491.750  372.345   64.716    0.485    0.196    4.395
  492.000  370.558   65.759    0.493    0.194    4.443
  492.250  372.089   66.864    0.468    0.192    4.475
  492.500  379.632   65.932    0.441    0.183    4.473
  492.750  384.170   63.704    0.426    0.193    4.421
  493.000  380.934   60.983    0.407    0.240    4.362
  493.250  375.418   57.705    0.414    0.248    4.287
  493.500  374.877   57.267    0.441    0.231    4.237
  493.750  378.168   59.422    0.471    0.213    4.220
  494.000  372.653   61.515    0.492    0.210    4.194
  494.250  369.209   61.076    0.489    0.216    4.185
  494.500  368.668   63.910    0.482    0.212    4.160
  494.750  368.541   68.903    0.460    0.206    4.127
  495.000  369.140   72.416    0.439    0.203    4.048
  495.250  370.566   67.966    0.415    0.206    3.898
  495.500  373.859   64.010    0.458    0.282    3.745
  495.750  377.879   63.140    0.501    0.281    3.772
  496.000  379.618   66.343    0.501    0.259    3.849
  496.250  368.296   69.424    0.490    0.243    4.094
  496.500  367.652   66.640    0.496    0.232    4.521
  496.750  369.598   64.042    0.491    0.241    4.872
  497.000  360.870   61.444    0.472    0.250    5.191
  497.250  343.433   60.079    0.434    0.257    5.297
  497.500  330.557   62.913    0.387    0.263    5.325
  497.750  323.070   61.363    0.391    0.270    5.185
  498.000  321.599   56.605    0.400    0.284    5.057
  498.250  322.301   56.537    0.416    0.298    4.915
  498.500  322.588   58.321    0.430    0.289    4.759
  498.750  324.119   57.883    0.409    0.279    4.625
  499.000  327.515   59.729    0.406    0.268    4.402
  499.250  333.194   61.328    0.437    0.255    4.239
  499.500  338.974   63.483    0.464    0.248    4.050
  499.750  338.433   60.575    0.480    0.283    3.885
  500.000  337.477   59.027    0.469    0.293    3.256
  500.250  346.574   59.021    0.423    0.278    3.186
  500.500  352.873   60.435    0.435    0.264    3.153
  500.750  360.104   63.453    0.462    0.250    3.161
  501.000  368.269   66.966    0.471    0.248    3.194
  501.250  374.568   67.762    0.477    0.292    3.195
  501.500  376.306   66.151    0.487    0.301    3.169
  501.750  378.045   64.170    0.496    0.279    3.106
  502.000  380.717   62.498    0.491    0.280    2.966
  502.250  381.109   61.072    0.473    0.320    2.869
  502.500  379.013   60.202    0.465    0.348    2.813
  502.750  372.356   62.850    0.495    0.354    2.815
  503.000  368.392   61.301    0.511    0.326    2.942
  503.250  371.790   58.518    0.472    0.283    3.092
  503.500  375.810   61.968    0.446    0.316    3.280
  503.750  377.237   62.827    0.470    0.331    3.519
  504.000  373.172   59.487    0.495    0.316    3.754
  504.250  359.156   59.605    0.518    0.261    3.923
  504.500  331.669   60.155    0.477    0.246    4.008
  504.750  309.154   59.099    0.417    0.234    4.072
  505.000  304.571   60.637    0.411    0.220    4.091
  505.250  301.957   63.470    0.411    0.231    4.056
  505.500  299.445   64.760    0.413    0.245    4.066
  505.750  295.276   60.372    0.419    0.260    4.077
