~VERSION INFORMATION
 VERS.                 2.0:   CWLS LOG ASCII STANDARD -VERSION 2.0
 WRAP.                  NO:   ONE LINE PER DEPTH STEP
~WELL INFORMATION BLOCK
#MNEM.UNIT           DATA                    DESCRIPTION OF MNEMONIC
#---------    -------------------            -------------------------------
# Generated from Intellog Unique Number	CS_73_76/WELL/3276
WELL.         CWWE HARDY                     : Well_name    - WELL
LOC .         00/13-32-076-04W4/0            : Location     - LOCATION
UWI .         00/13-32-076-04W4/0            : Uwi          - UNIQUE WELL ID
ENTR.         SP                             : Entered      - ENTERED BY
SRVC.         SCHLUMBERGER                   : Scn          - SERVICE COMPANY
STRT.M        165                            : top_depth    - START DEPTH
STOP.M        425                            : bot_depth    - STOP DEPTH
STEP.M        0.25                           : increment    - STEP LENGTH
 NULL. -999.2500:NULL Value
~CURVE INFORMATION BLOCK
#MNEM UNIT       ERCB CURVE CODE    CURVE DESCRIPTION
#-----------   ------------------   ----------------------------------
DEPT.M        00 001 00 00         : DEPTH        - DEPTH
DPHI.V/V      00 890 00 00         : PHID         - DENSITY POROSITY (LIMESTONE)
NPHI.V/V      00 330 00 00         : PHIN         - NEUTRON POROSITY (LIMESTONE)
GR  .API      00 310 00 00         : GR           - GAMMA RAY
ILD .OHMM     00 120 00 00         : RESD         - DEEP RESISTIVITY (DIL)
~PARAMETER INFORMATION
#MNEM.UNIT           DATA             DESCRIPTION OF MNEMONIC
#---------         -----------     ------------------------------
GL  .M        580.54               : gl           - GROUND LEVEL ELEVATION
EREF.M        583.04               : kb           - ELEVATION OF DEPTH REFERENCE
DATM.M        580.54               : datum        - DATUM ELEVATION
TDD .M        428                  : tdd          - TOTAL DEPTH DRILLER
RUN .         ONE                  : Run          - RUN NUMBER
ENG .         BILL                 : Engineer     - RECORDING ENGINEER
WIT .         JIM                  : Witness      - WITNESSED BY
MUD .         GEL                  : Mud_type     - MUD TYPE
MATR.         LIMESTONE            : Logunit      - NEUTRON MATRIX
TMAX.C        60                   : BHT          - MAXIMUM RECORDED TEMPERATURE
BHTD.M        428                  : BHTDEP       - MAXIMUM RECORDED TEMPERATURE
MATR.         1                    : LOGUNIT      - NEUTRON MATRIX
RMT .C        25                   : MDTP         - TEMPERATURE OF MUD
NEUT.         1                    : NEUTRON      - NEUTRON TYPE
RESI.         0                    : RESIST       - RESISTIVITY TYPE
RMC .OHMM     0.25                 : RMC          - RESISTIVITY OF MUD CAKE
RMF .OHMM     0.25                 : RMF          - RESISTIVITY OF MUD FILTRATE
SUFT.C        15                   : SUFT         - SURFACE TEMPERATURE
~A  DEPTH     PHID     PHIN       GR     RESD
# ...
  382.500    0.298    0.301   44.610   74.720
  382.750    0.304    0.310   39.716   77.574
  383.000    0.314    0.312   34.210   73.344
  383.250    0.309    0.317   35.438   70.653
  383.500    0.292    0.323   32.994   68.060
  383.750    0.303    0.322   27.487   66.802
  384.000    0.312    0.337   23.205   68.068
  384.250    0.311    0.353   25.047   69.360
  384.500    0.309    0.346   28.724   70.675
  384.750    0.310    0.326   29.953   72.014
  385.000    0.304    0.311   30.570   74.765
  385.250    0.278    0.295   32.410   77.623
  385.500    0.268    0.275   33.638   74.776
  385.750    0.259    0.275   36.092   72.031
  386.000    0.291    0.285   33.646   63.189
  386.250    0.307    0.302   31.814   58.633
  386.500    0.327    0.327   31.818   52.407
  386.750    0.326    0.347   33.658   49.549
  387.000    0.317    0.336   33.051   49.551
  387.250    0.300    0.321   32.442   51.445
  387.500    0.299    0.314   33.059   55.449
  387.750    0.301    0.316   33.675   59.764
  388.000    0.298    0.322   33.066   63.220
  388.250    0.299    0.315   30.009   65.636
  388.500    0.300    0.315   34.299   65.642
  388.750    0.301    0.323   31.855   65.645
  389.000    0.300    0.330   30.634   66.889
  389.250    0.299    0.331   33.087   66.893
  389.500    0.306    0.326   30.642   64.439
  389.750    0.312    0.317   28.809   62.075
  390.000    0.300    0.322   30.038   60.927
  390.250    0.294    0.325   31.266   59.801
  390.500    0.297    0.321   32.495   57.608
  390.750    0.300    0.328   31.274   56.544
  391.000    0.304    0.331   33.117   55.497
  391.250    0.306    0.334   34.956   55.502
  391.500    0.310    0.327   37.409   54.476
  391.750    0.311    0.320   37.413   54.479
  392.000    0.307    0.321   38.642   54.481
  392.250    0.302    0.333   39.870   53.474
  392.500    0.296    0.332   38.650   52.486
  392.750    0.300    0.325   35.593   52.489
  393.000    0.307    0.328   39.270   52.493
  393.250    0.339    0.326   47.233   51.522
  393.500    0.344    0.320   44.788   49.632
  393.750    0.344    0.317   39.895   46.054
  394.000    0.339    0.336   35.000   42.734
  394.250    0.337    0.339   38.067   39.653
  394.500    0.342    0.344   41.744   37.490
  394.750    0.312    0.339   45.421   37.492
  395.000    0.303    0.328   44.814   37.495
  395.250    0.286    0.312   47.881   38.206
  395.500    0.275    0.307   48.496   36.121
  395.750    0.269    0.316   47.275   34.796
  396.000    0.281    0.329   45.441   33.519
  396.250    0.287    0.341   45.446   27.799
  396.500    0.269    0.316   50.348   21.391
  396.750    0.151    0.283   66.883   16.460
  397.000    0.142    0.288   76.683   13.398
  397.250    0.156    0.297   76.687   11.111
  397.500    0.173    0.297   76.079   10.119
  397.750    0.193    0.290   76.695    9.389
  398.000    0.193    0.288   73.026    9.390
  398.250    0.189    0.295   74.867    9.217
  398.500    0.183    0.292   77.320    9.217
  398.750    0.177    0.281   79.773    9.218
  399.000    0.173    0.284   81.613    9.047
  399.250    0.175    0.291   80.394    9.048
  399.500    0.180    0.290   77.336    8.881
  399.750    0.175    0.294   79.177    8.716
  400.000    0.173    0.302   83.468    8.555
  400.250    0.167    0.310   86.532    8.397
  400.500    0.157    0.331   90.209    8.089
  400.750    0.143    0.375   81.030    7.792
  401.000    0.157    0.342   70.013    7.506
  401.250    0.198    0.296   63.282    7.097
  401.500    0.221    0.296   56.552    6.837
  401.750    0.228    0.308   53.495    6.710
  402.000    0.236    0.307   51.049    6.711
  402.250    0.236    0.296   53.503    6.838
  402.500    0.233    0.306   56.568    7.233
  402.750    0.221    0.315   62.083    7.370
  403.000    0.197    0.303   68.209    7.652
  403.250    0.179    0.297   74.335    7.945
  403.500    0.156    0.321   78.013    7.945
  403.750    0.161    0.312   67.608    7.654
  404.000    0.185    0.300   57.816    6.714
  404.250    0.252    0.312   44.351    6.001
  404.500    0.272    0.333   40.069    5.568
  404.750    0.290    0.342   33.950    4.794
  405.000    0.302    0.337   26.607    4.366
  405.250    0.323    0.328   21.713    3.976
  405.500    0.336    0.332   19.268    3.759
  405.750    0.344    0.334   18.661    3.690
  406.000    0.342    0.328   18.664    3.622
  406.250    0.331    0.312   18.056    3.555
  406.500    0.326    0.305   18.061    3.622
  406.750    0.329    0.313   18.065    3.622
  407.000    0.333    0.313   17.456    3.622
  407.250    0.334    0.313   17.459    3.691
  407.500    0.330    0.312   18.076    3.691
  407.750    0.329    0.321   18.693    3.692
  408.000    0.324    0.346   18.697    3.692
  408.250    0.324    0.348   18.700    3.762
  408.500    0.328    0.340   18.705    3.762
  408.750    0.313    0.319   19.321    3.762
  409.000    0.324    0.308   20.549    3.834
  409.250    0.340    0.310   21.166    3.906
  409.500    0.350    0.349   23.006    3.907
  409.750    0.346    0.397   29.133    3.907
  410.000    0.336    0.383   26.076    3.907
  410.250    0.326    0.348   22.406    3.907
  410.500    0.328    0.319   18.737    3.835
  410.750    0.328    0.305   23.641    3.835
  411.000    0.326    0.305   23.643    3.836
  411.250    0.329    0.313   19.974    3.765
  411.500    0.336    0.313   17.529    4.058
  411.750    0.342    0.308   15.084    4.135
  412.000    0.339    0.308   16.312    4.213
  412.250    0.321    0.308   21.214    4.293
  412.500    0.286    0.319   27.341    4.374
  412.750    0.248    0.369   33.468    4.375
  413.000    0.244    0.366   34.697    4.375
  413.250    0.287    0.328   29.190    4.294
  413.500    0.326    0.318   26.745    4.215
  413.750    0.308    0.308   27.973    4.137
  414.000    0.300    0.307   26.753    4.060
  414.250    0.294    0.317   24.923    4.060
  414.500    0.302    0.321   24.313    4.137
  414.750    0.311    0.317   23.704    4.061
  415.000    0.314    0.301   24.320    3.986
  415.250    0.315    0.296   23.100    3.986
  415.500    0.320    0.297   21.268    3.986
  415.750    0.320    0.300   19.435    4.062
  416.000    0.316    0.300   17.602    4.062
  416.250    0.318    0.293   15.158    3.987
  416.500    0.308    0.288   20.059    3.987
  416.750    0.295    0.323   32.920    3.988
  417.000    0.289    0.336   36.598    3.988
  417.250    0.300    0.325   32.316    3.988
  417.500    0.311    0.317   28.035    4.064
  417.750    0.315    0.318   23.142    4.064
  418.000    0.316    0.322   21.308    4.219
  418.250    0.322    0.322   19.475    4.463
  418.500    0.322    0.323   18.254    4.811
  418.750    0.311    0.314   17.646    5.185
  419.000    0.287    0.301   20.712    5.589
  419.250    0.268    0.323   21.940    6.137
  419.500    0.249    0.285   20.720    7.264
  419.750    0.252    0.229   20.113    8.281
  420.000    0.266    0.222   20.117   10.176
  420.250    0.000    0.219   21.344   13.989
  420.500    0.000    0.177   21.349   20.344
  420.750    0.000    0.155   21.352   32.487
  421.000    0.001    0.141   22.581   33.729
  421.250    0.028    0.129   21.360   31.297
  421.500    0.051    0.129   20.140   26.946
  421.750    0.038    0.129   29.328   25.476
  422.000    0.028    0.131   74.639   24.086
  422.250    0.037    0.132   37.295   23.641
  422.500    0.028    0.132   21.380   23.204
  422.750    0.019    0.131   18.323   23.205
  423.000    0.011    0.131   17.715   23.646
  423.250    0.000    0.128   17.719   23.647
  423.500    0.014    0.128   17.111   24.096
  423.750    0.025    0.128   15.279   24.097
  424.000    0.021    0.145   15.282   24.098
  424.250    0.014    0.170   15.286   24.100
  424.500    0.004    0.165   13.453   24.101
  424.750    0.000    0.110   12.845   24.102
  425.000    0.000    0.039   12.850   24.104
