~VERSION INFORMATION
 VERS.                 2.0:   CWLS LOG ASCII STANDARD -VERSION 2.0
 WRAP.                  NO:   ONE LINE PER DEPTH STEP
~WELL INFORMATION BLOCK
#MNEM.UNIT           DATA                    DESCRIPTION OF MNEMONIC
#---------    -------------------            -------------------------------
# Generated from Intellog Unique Number	CC_80_83/WELL/2339
NULL.         -999.25                        : NULL_VALUE
WELL.         BVX ET AL HOUSE                : Well_name    - WELL
LOC .         10-08-082-15W4                 : Location     - LOCATION          
UWI .         00/10-08-082-15W400            : Uwi          - UNIQUE WELL ID    
ENTR.         DW                             : Entered      - ENTERED BY        
SRVC.         SCHLUMBERGER                   : Scn          - SERVICE COMPANY   
DATE.         23 MAR 80                      : Date         - LOG DATE
STRT.M        130                            : top_depth    - START DEPTH       
STOP.M        330.098                        : bot_depth    - STOP DEPTH        
STEP.M        0.3                            : increment    - STEP LENGTH       
~CURVE INFORMATION BLOCK
#MNEM UNIT       ERCB CURVE CODE    CURVE DESCRIPTION
#-----------   ------------------   ----------------------------------
DEPT.M        00 001 00 00         : DEPTH        - DEPTH                       
DPHI.V/V      00 890 00 00         : PHID         - DENSITY POROSITY (LIMESTONE)
NPHI.V/V      00 330 00 00         : PHIN         - NEUTRON POROSITY (LIMESTONE)
GR  .API      00 310 00 00         : GR           - GAMMA RAY                   
ILD .OHMM     00 120 00 00         : RESD         - DEEP RESISTIVITY (DIL)      
~PARAMETER INFORMATION       
#MNEM.UNIT           DATA             DESCRIPTION OF MNEMONIC
#---------         -----------     ------------------------------
GL  .M        563                  : gl           - GROUND LEVEL ELEVATION      
EREF.M        566.2                : kb           - ELEVATION OF DEPTH REFERENCE
DATM.M        566.2                : datum        - DATUM ELEVATION             
TDD .M        330                  : tdd          - TOTAL DEPTH DRILLER         
RUN .         ONE                  : Run          - RUN NUMBER                  
ENG .         BILL                 : Engineer     - RECORDING ENGINEER          
WIT .         JIM                  : Witness      - WITNESSED BY                
MUD .         GEL                  : Mud_type     - MUD TYPE                    
MATR.         LIMESTONE            : Logunit      - NEUTRON MATRIX              
TMAX.C        20                   : BHT          - MAXIMUM RECORDED TEMPERATURE
BHTD.M        330                  : BHTDEP       - MAXIMUM RECORDED TEMPERATURE
MATR.         1                    : LOGUNIT      - NEUTRON MATRIX              
RMT .C        25                   : MDTP         - TEMPERATURE OF MUD          
NEUT.         1                    : NEUTRON      - NEUTRON TYPE                
RESI.         0                    : RESIST       - RESISTIVITY TYPE            
RMC .OHMM     0.25                 : RMC          - RESISTIVITY OF MUD CAKE     
RMF .OHMM     0.25                 : RMF          - RESISTIVITY OF MUD FILTRATE 
SUFT.C        15                   : SUFT         - SURFACE TEMPERATURE         
~A  DEPTH     PHID     PHIN       GR     RESD
# ...
  182.201    0.342    0.493   58.962   13.007
  182.501    0.335    0.514   57.100   12.765
  182.801    0.324    0.492   55.865   12.774
  183.101    0.319    0.456   54.005   13.024
  183.401    0.319    0.476   54.644   13.281
  183.701    0.319    0.483   57.153   14.344
  184.001    0.318    0.460   55.915   14.908
  184.301    0.319    0.451   52.184   15.796
  184.601    0.334    0.465   47.830   16.106
  184.901    0.344    0.461   45.969   16.427
  185.201    0.336    0.463   43.488   17.071
  185.501    0.325    0.483   44.746   18.086
  185.801    0.323    0.487   50.376   19.160
  186.101    0.313    0.476   52.884   22.332
  186.401    0.324    0.488   51.647   29.748
  186.701    0.318    0.484   49.164   46.164
  187.001    0.289    0.464   45.433   66.376
  187.301    0.243    0.400   37.333   71.675
  187.601    0.000    0.178   36.721   63.950
  187.901    0.000    0.145   37.982   34.083
  188.201    0.077    0.194   46.107   25.127
  188.501    0.172    0.268   58.599   21.580
  188.801    0.243    0.403   67.348   22.011
  189.101    0.271    0.477   65.487   22.445
  189.401    0.269    0.470   65.501   23.776
  189.701    0.248    0.476   64.266   25.677
  190.001    0.227    0.449   63.654   26.684
  190.301    0.210    0.420   69.282   26.192
  190.601    0.192    0.429   78.653   25.225
  190.901    0.163    0.458   76.797   22.509
  191.201    0.239    0.514   79.302   21.677
  191.501    0.259    0.532   79.315   22.530
  191.801    0.275    0.514   68.095   24.327
  192.101    0.277    0.490   57.500   25.287
  192.401    0.275    0.468   58.141   24.353
  192.701    0.290    0.476   58.150   23.454
  193.001    0.302    0.477   61.909   22.584
  193.301    0.303    0.453   58.801   21.339
  193.601    0.300    0.450   55.693   20.547
  193.901    0.297    0.469   54.456   20.168
  194.201    0.295    0.475   51.352   19.796
  194.501    0.301    0.482   51.984   19.435
  194.801    0.307    0.460   54.494   19.441
  195.101    0.308    0.442   56.381   19.454
  195.401    0.306    0.446   58.887   19.837
  195.701    0.301    0.473   67.013   19.844
  196.001    0.291    0.476   64.528   19.856
  196.301    0.297    0.476   64.540   19.491
  196.601    0.291    0.472   67.048   18.769
  196.901    0.282    0.457   68.310   17.732
  197.201    0.286    0.443   71.442   16.129
  197.501    0.294    0.463   73.325   15.828
  197.801    0.295    0.479   71.467   15.245
  198.101    0.283    0.474   67.112   14.966
  198.401    0.287    0.483   64.627   15.261
  198.701    0.299    0.492   62.144   15.265
  199.001    0.305    0.472   60.908   15.870
  199.301    0.305    0.454   63.417   16.181
  199.601    0.304    0.469   62.807   16.190
  199.901    0.308    0.464   61.572   15.892
  200.201    0.320    0.462   61.584   15.600
  200.501    0.321    0.453   62.845   15.604
  200.801    0.306    0.442   62.857   15.915
  201.101    0.303    0.448   62.871   16.231
  201.401    0.291    0.456   62.882   16.236
  201.701    0.300    0.427   61.646   15.636
  202.001    0.308    0.416   61.658   15.059
  202.301    0.306    0.439   61.673   14.229
  202.601    0.302    0.450   61.683   14.234
  202.901    0.315    0.484   61.699   13.970
  203.201    0.320    0.483   62.332   13.456
  203.501    0.326    0.479   62.970   13.462
  203.801    0.331    0.479   59.861   13.466
  204.101    0.327    0.474   60.497   13.473
  204.401    0.322    0.470   66.125   13.226
  204.701    0.328    0.468   64.891   13.487
  205.001    0.328    0.461   59.911   13.238
  205.301    0.326    0.468   63.045   12.995
  205.601    0.321    0.474   62.434   12.999
  205.901    0.325    0.475   61.197   13.009
  206.201    0.337    0.465   58.713   13.012
  206.501    0.323    0.474   57.480   13.020
  206.801    0.322    0.484   58.741   13.277
  207.101    0.332    0.476   60.002   13.032
  207.401    0.334    0.461   60.010   12.550
  207.701    0.323    0.471   63.767   12.086
  208.001    0.324    0.479   67.523   11.864
  208.301    0.324    0.507   67.537   11.868
  208.601    0.313    0.513   66.300   11.429
  208.901    0.286    0.496   63.819   10.198
  209.201    0.273    0.462   63.205    8.928
  209.501    0.256    0.451   65.713    8.435
  209.801    0.288    0.486   73.838    7.969
  210.101    0.286    0.507   76.971    7.528
  210.401    0.286    0.526   77.606    7.390
  210.701    0.286    0.491   80.115    7.536
  211.001    0.287    0.492   75.761    8.295
  211.301    0.287    0.476   69.533    8.957
  211.601    0.288    0.465   68.923    9.673
  211.901    0.283    0.478   64.567    9.315
  212.201    0.280    0.458   63.330    8.800
  212.501    0.288    0.461   68.335    8.157
  212.801    0.285    0.486   70.849    7.707
  213.101    0.299    0.488   72.732    7.422
  213.401    0.264    0.474   74.612    7.427
  213.701    0.217    0.467   77.744    7.572
  214.001    0.229    0.458   74.014    7.872
  214.301    0.263    0.452   72.779    8.026
  214.601    0.264    0.461   74.041    8.188
  214.901    0.262    0.467   72.803    8.191
  215.201    0.278    0.469   68.449    8.194
  215.501    0.283    0.456   70.333    8.356
  215.801    0.279    0.468   71.595    8.360
  216.101    0.269    0.474   70.983    8.525
  216.401    0.288    0.475   70.993    9.031
  216.701    0.310    0.464   68.510    9.940
  217.001    0.336    0.473   63.531   10.735
  217.301    0.341    0.470   63.544   11.159
  217.601    0.336    0.463   58.564   11.380
  217.901    0.328    0.474   58.579   11.383
  218.201    0.335    0.478   61.709   11.391
  218.501    0.347    0.484   63.594   11.181
  218.801    0.341    0.464   61.733   11.185
  219.101    0.333    0.461   61.124   10.977
  219.401    0.338    0.475   63.632   10.775
  219.701    0.335    0.470   62.398   10.182
  220.001    0.331    0.491   62.409    9.437
  220.301    0.328    0.475   64.916    9.088
  220.601    0.320    0.482   68.051    9.813
  220.901    0.321    0.505   67.437   11.660
  221.201    0.301    0.479   61.209   12.590
  221.501    0.255    0.455   58.104   13.339
  221.801    0.280    0.476   56.870   13.094
  222.101    0.179    0.450   58.131   12.136
  222.401    0.166    0.338   63.131   10.424
  222.701    0.212    0.414   71.256    9.849
  223.001    0.334    0.460   67.527    9.485
  223.301    0.338    0.480   66.291    9.310
  223.601    0.335    0.503   63.806    9.137
  223.901    0.315    0.519   61.322    9.141
  224.201    0.319    0.521   63.208    9.145
  224.501    0.334    0.511   66.965    8.977
  224.801    0.325    0.501   68.848    9.156
  225.101    0.318    0.489   67.612    9.517
  225.401    0.323    0.484   67.005    9.891
  225.701    0.325    0.482   67.641   10.087
  226.001    0.315    0.489   67.028    9.900
  226.301    0.318    0.498   67.662    9.534
  226.601    0.310    0.496   70.172    9.182
  226.901    0.292    0.478   76.422    8.676
  227.201    0.280    0.461   80.806    8.847
  227.501    0.264    0.481   80.818    9.021
  227.801    0.283    0.494   76.463    8.687
  228.101    0.289    0.497   74.603    7.604
  228.401    0.291    0.497   75.861    6.916
  228.701    0.285    0.482   80.868    6.534
  229.001    0.267    0.488   81.503    6.175
  229.301    0.247    0.505   85.884    6.061
  229.601    0.249    0.540   88.393    5.949
  229.901    0.240    0.531   84.664    5.952
  230.201    0.238    0.504   84.049    6.068
  230.501    0.250    0.484   85.932    6.430
  230.801    0.258    0.483   79.082    6.943
  231.101    0.273    0.496   82.214    8.091
  231.401    0.278    0.501   81.603    8.907
  231.701    0.280    0.491   76.002    9.082
  232.001    0.284    0.473   74.142    8.916
  232.301    0.282    0.454   76.025    8.425
  232.601    0.281    0.468   78.533    8.268
  232.901    0.280    0.474   77.921    7.813
  233.201    0.280    0.461   80.431    7.668
  233.501    0.264    0.456   82.315    7.671
  233.801    0.274    0.484   79.209    7.974
  234.101    0.282    0.482   77.973    8.775
