~VERSION INFORMATION
 VERS.                 2.0:   CWLS LOG ASCII STANDARD -VERSION 2.0
 WRAP.                  NO:   ONE LINE PER DEPTH STEP
~WELL INFORMATION BLOCK
#MNEM.UNIT           DATA                    DESCRIPTION OF MNEMONIC
#---------    -------------------            -------------------------------
# Generated from Intellog Unique Number	CS_77_79/WELL/945
WELL.         DOME PETROLEUM LIMITED         : Well_name    - WELL
LOC .         00/10-11-077-16W4/0            : Location     - LOCATION
UWI .         00/10-11-077-16W4/0            : Uwi          - UNIQUE WELL ID
ENTR.         SP                             : Entered      - ENTERED BY
SRVC.         SCHLUMBERGER                   : Scn          - SERVICE COMPANY
STRT.M        310                            : top_depth    - START DEPTH
STOP.M        545                            : bot_depth    - STOP DEPTH
STEP.M        0.25                           : increment    - STEP LENGTH
 NULL. -999.2500:NULL Value
~CURVE INFORMATION BLOCK
#MNEM UNIT       ERCB CURVE CODE    CURVE DESCRIPTION
#-----------   ------------------   ----------------------------------
DEPT.M        00 001 00 00         : DEPTH        - DEPTH
DPHI.V/V      00 890 00 00         : PHID         - DENSITY POROSITY (LIMESTONE)
NPHI.V/V      00 330 00 00         : PHIN         - NEUTRON POROSITY (LIMESTONE)
GR  .API      00 310 00 00         : GR           - GAMMA RAY
ILD .OHMM     00 120 00 00         : RESD         - DEEP RESISTIVITY (DIL)
~PARAMETER INFORMATION
#MNEM.UNIT           DATA             DESCRIPTION OF MNEMONIC
#---------         -----------     ------------------------------
GL  .M        703                  : gl           - GROUND LEVEL ELEVATION
EREF.M        706.8                : kb           - ELEVATION OF DEPTH REFERENCE
DATM.M        703                  : datum        - DATUM ELEVATION
TDD .M        552                  : tdd          - TOTAL DEPTH DRILLER
RUN .         ONE                  : Run          - RUN NUMBER
ENG .         BILL                 : Engineer     - RECORDING ENGINEER
WIT .         JIM                  : Witness      - WITNESSED BY
MUD .         GEL                  : Mud_type     - MUD TYPE
MATR.         LIMESTONE            : Logunit      - NEUTRON MATRIX
TMAX.C        26                   : BHT          - MAXIMUM RECORDED TEMPERATURE
BHTD.M        552                  : BHTDEP       - MAXIMUM RECORDED TEMPERATURE
MATR.         1                    : LOGUNIT      - NEUTRON MATRIX
RMT .C        25                   : MDTP         - TEMPERATURE OF MUD
NEUT.         1                    : NEUTRON      - NEUTRON TYPE
RESI.         0                    : RESIST       - RESISTIVITY TYPE
RMC .OHMM     0.25                 : RMC          - RESISTIVITY OF MUD CAKE
RMF .OHMM     0.25                 : RMF          - RESISTIVITY OF MUD FILTRATE
SUFT.C        15                   : SUFT         - SURFACE TEMPERATURE
~A  DEPTH     PHID     PHIN       GR     RESD
  310.000    0.284    0.459   85.891    3.075
  310.250    0.261    0.457   85.903    2.854
  310.500    0.252    0.462   87.119    2.802
  310.750    0.244    0.465   88.941    2.802
  311.000    0.250    0.468   89.554    2.803
  311.250    0.265    0.477   90.775    2.804
  311.500    0.281    0.482   91.387    2.701
  311.750    0.291    0.491   91.398    2.603
  312.000    0.302    0.494   91.404    2.507
  312.250    0.316    0.493   90.808    2.508
  312.500    0.326    0.483   89.607    2.509
  312.750    0.304    0.482   88.407    2.509
  313.000    0.287    0.486   87.807    2.510
  313.250    0.271    0.496   87.211    2.511
  313.500    0.279    0.499   87.220    2.511
  313.750    0.293    0.499   89.651    2.559
  314.000    0.300    0.491   90.262    2.658
  314.250    0.298    0.478   89.059    2.708
  314.500    0.294    0.472   85.445    2.760
  314.750    0.281    0.472   84.243    2.813
  315.000    0.277    0.475   82.436    2.867
  315.250    0.278    0.481   82.439    2.922
  315.500    0.284    0.487   81.843    2.978
  315.750    0.286    0.497   83.064    3.034
  316.000    0.265    0.504   84.279    3.152
  316.250    0.255    0.504   87.918    3.212
  316.500    0.248    0.496   91.559    3.273
  316.750    0.259    0.482   93.985    3.274
  317.000    0.265    0.472   95.805    3.336
  317.250    0.265    0.462   95.813    3.400
  317.500    0.254    0.458   92.802    3.465
  317.750    0.247    0.447   90.996    3.466
  318.000    0.242    0.447   88.584    3.467
  318.250    0.248    0.450   87.984    3.403
  318.500    0.256    0.451   86.178    3.341
  318.750    0.259    0.450   86.793    3.280
  319.000    0.255    0.455   87.404    3.220
  319.250    0.261    0.465   88.623    3.221
  319.500    0.270    0.467   90.450    3.221
  319.750    0.270    0.470   91.059    3.222
  320.000    0.260    0.471   90.462    3.284
  320.250    0.259    0.472   89.266    3.285
  320.500    0.245    0.473   89.876    3.286
  320.750    0.257    0.474   91.698    3.286
  321.000    0.251    0.477   94.127    3.349
  321.250    0.244    0.477   93.534    3.350
  321.500    0.240    0.474   92.937    3.289
  321.750    0.233    0.468   92.339    3.289
  322.000    0.232    0.469   91.741    3.352
  322.250    0.244    0.474   90.538    3.481
  322.500    0.246    0.479   90.552    3.548
  322.750    0.237    0.483   91.767    3.293
  323.000    0.224    0.486   92.984    3.293
  323.250    0.221    0.467   93.602    3.294
  323.500    0.237    0.455   93.609    3.357
  323.750    0.247    0.441   93.613    3.552
  324.000    0.255    0.440   91.808    3.688
  324.250    0.264    0.444   90.003    3.902
  324.500    0.270    0.450   89.409    4.052
  324.750    0.273    0.457   89.415    4.053
  325.000    0.262    0.461   90.033    3.905
  325.250    0.274    0.466   91.854    3.906
  325.500    0.273    0.466   93.673    3.834
  325.750    0.263    0.464   99.127    3.764
  326.000    0.261    0.453  102.159    3.765
  326.250    0.263    0.430  102.771    3.910
  326.500    0.275    0.425  100.965    4.215
  326.750    0.291    0.398   97.949    4.717
  327.000    0.294    0.384   93.118    5.797
  327.250    0.299    0.377   87.683    6.735
  327.500    0.279    0.373   79.827    8.124
  327.750    0.263    0.374   74.393    8.436
  328.000    0.239    0.377   71.377    8.925
  328.250    0.231    0.378   70.174    9.443
  328.500    0.240    0.380   71.999    9.270
  328.750    0.241    0.388   75.639    9.100
  329.000    0.223    0.399   79.275    8.768
  329.250    0.216    0.403   84.124    8.448
  329.500    0.211    0.414   86.551    7.988
  329.750    0.228    0.419   87.165    7.554
  330.000    0.259    0.423   85.961    7.417
  330.250    0.280    0.407   79.319    7.557
  330.500    0.289    0.396   75.695    8.301
  330.750    0.303    0.390   69.050    8.949
  331.000    0.305    0.388   63.617    9.468
  331.250    0.303    0.389   61.809    9.831
  331.500    0.295    0.389   58.189    9.833
  331.750    0.293    0.390   56.383    9.837
  332.000    0.298    0.391   55.789   10.024
  332.250    0.300    0.389   55.796   10.027
  332.500    0.276    0.385   56.407   10.029
  332.750    0.256    0.383   60.652    9.663
  333.000    0.248    0.381   61.866    9.486
  333.250    0.263    0.379   64.295    9.489
  333.500    0.288    0.378   64.911    9.315
  333.750    0.315    0.382   64.916    9.317
  334.000    0.324    0.392   65.533    9.147
  334.250    0.323    0.404   66.146    8.978
  334.500    0.328    0.409   66.756    8.980
  334.750    0.333    0.414   69.185    8.984
  335.000    0.338    0.422   71.615    8.986
  335.250    0.347    0.425   74.650    8.988
  335.500    0.336    0.426   76.469    8.989
  335.750    0.324    0.422   81.922    8.992
  336.000    0.321    0.420   85.560    8.994
  336.250    0.307    0.421   87.380    8.996
  336.500    0.287    0.413   90.416    8.999
  336.750    0.277    0.407   91.030    9.171
  337.000    0.279    0.403   89.222    9.347
  337.250    0.282    0.406   84.391    9.348
  337.500    0.297    0.411   81.979    9.348
  337.750    0.302    0.414   80.778    9.353
  338.000    0.296    0.411   80.186    9.355
  338.250    0.296    0.399   78.981    9.356
  338.500    0.307    0.387   75.360    9.536
  338.750    0.313    0.377   69.924    9.538
  339.000    0.315    0.370   63.282    9.363
  339.250    0.309    0.360   60.868    9.365
  339.500    0.302    0.354   58.458    9.194
  339.750    0.295    0.352   56.651    9.026
  340.000    0.279    0.351   56.661    8.860
  340.250    0.268    0.361   57.272    9.030
  340.500    0.273    0.374   59.703    9.032
  340.750    0.279    0.378   60.918    9.034
  341.000    0.275    0.382   63.951    8.869
  341.250    0.284    0.396   68.801    8.707
  341.500    0.290    0.403   71.226    8.233
  341.750    0.270    0.406   77.284    7.641
  342.000    0.246    0.410   83.341    7.091
  342.250    0.221    0.422   90.003    6.581
  342.500    0.194    0.440   94.246    6.108
  342.750    0.185    0.458   97.282    5.669
  343.000    0.193    0.461   98.499    5.261
  343.250    0.200    0.448   99.718    4.792
  343.500    0.202    0.445  100.330    4.531
  343.750    0.207    0.446  100.942    4.285
  344.000    0.210    0.451  101.554    4.206
  344.250    0.217    0.464  102.773    4.129
  344.500    0.207    0.476  103.996    3.979
  344.750    0.200    0.477  104.606    3.906
  345.000    0.201    0.479  105.217    3.834
  345.250    0.202    0.480  106.438    3.835
  345.500    0.197    0.490  107.048    3.695
  345.750    0.209    0.500  108.874    3.696
  346.000    0.229    0.508  110.090    3.910
  346.250    0.228    0.508  109.497    4.989
  346.500    0.235    0.451  108.897    5.796
  346.750    0.239    0.430  107.092    6.735
  347.000    0.235    0.420  104.681    7.260
  347.250    0.243    0.415  103.479    7.681
  347.500    0.246    0.414  102.886    7.828
  347.750    0.235    0.419  102.893    7.685
  348.000    0.229    0.421  102.293    7.405
  348.250    0.232    0.414  101.095    7.269
  348.500    0.240    0.409   98.079    7.003
  348.750    0.246    0.406   96.875    6.500
  349.000    0.258    0.404   93.859    6.381
  349.250    0.263    0.406   92.056    6.382
  349.500    0.267    0.408   91.456    6.628
  349.750    0.266    0.412   92.674    6.754
  350.000    0.265    0.418   95.708    7.281
  350.250    0.264    0.412   93.298    8.148
  350.500    0.261    0.404   89.071    8.621
  350.750    0.272    0.404   84.243    8.952
  351.000    0.273    0.413   82.436    8.954
  351.250    0.270    0.418   81.840    8.790
  351.500    0.266    0.432   87.293    8.469
  351.750    0.258    0.439   90.325    8.160
  352.000    0.260    0.441   91.545    7.432
  352.250    0.266    0.439   90.947    7.029
  352.500    0.266    0.436   91.559    7.030
  352.750    0.266    0.433   93.987    7.032
  353.000    0.256    0.434   98.230    7.033
  353.250    0.257    0.433  101.869    6.905
