~VERSION INFORMATION
 VERS.                 2.0:   CWLS LOG ASCII STANDARD -VERSION 2.0
 WRAP.                  NO:   ONE LINE PER DEPTH STEP
~WELL INFORMATION BLOCK
#MNEM.UNIT           DATA                    DESCRIPTION OF MNEMONIC
#---------    -------------------            -------------------------------
# Generated from Intellog Unique Number	CS_71_72/WELL/887
WELL.         AMOCO AEC IPIATIK KIRBY        : Well_name    - WELL
LOC .         00/11-06-072-05W4/0            : Location     - LOCATION
UWI .         00/11-06-072-05W4/0            : Uwi          - UNIQUE WELL ID
ENTR.         SP                             : Entered      - ENTERED BY
SRVC.         SCHLUMBERGER                   : Scn          - SERVICE COMPANY
STRT.M        295                            : top_depth    - START DEPTH
STOP.M        535                            : bot_depth    - STOP DEPTH
STEP.M        0.25                           : increment    - STEP LENGTH
 NULL. -999.2500:NULL Value
~CURVE INFORMATION BLOCK
#MNEM UNIT       ERCB CURVE CODE    CURVE DESCRIPTION
#-----------   ------------------   ----------------------------------
DEPT.M        00 001 00 00         : DEPTH        - DEPTH
ILD .OHMM     00 120 00 00         : RESD         - DEEP RESISTIVITY (DIL)
DPHI.V/V      00 890 00 00         : PHID         - DENSITY POROSITY (LIMESTONE)
NPHI.V/V      00 330 00 00         : PHIN         - NEUTRON POROSITY (LIMESTONE)
GR  .API      00 310 00 00         : GR           - GAMMA RAY
~PARAMETER INFORMATION
#MNEM.UNIT           DATA             DESCRIPTION OF MNEMONIC
#---------         -----------     ------------------------------
GL  .M        668.3                : gl           - GROUND LEVEL ELEVATION
EREF.M        673.01               : kb           - ELEVATION OF DEPTH REFERENCE
DATM.M        668.3                : datum        - DATUM ELEVATION
TDD .M        562                  : tdd          - TOTAL DEPTH DRILLER
RUN .         ONE                  : Run          - RUN NUMBER
ENG .         BILL                 : Engineer     - RECORDING ENGINEER
WIT .         JIM                  : Witness      - WITNESSED BY
MUD .         GEL                  : Mud_type     - MUD TYPE
MATR.         LIMESTONE            : Logunit      - NEUTRON MATRIX
TMAX.C        20                   : BHT          - MAXIMUM RECORDED TEMPERATURE
BHTD.M        5622                 : BHTDEP       - MAXIMUM RECORDED TEMPERATURE
MATR.         1                    : LOGUNIT      - NEUTRON MATRIX
RMT .C        25                   : MDTP         - TEMPERATURE OF MUD
NEUT.         1                    : NEUTRON      - NEUTRON TYPE
RESI.         0                    : RESIST       - RESISTIVITY TYPE
RMC .OHMM     0.25                 : RMC          - RESISTIVITY OF MUD CAKE
RMF .OHMM     0.25                 : RMF          - RESISTIVITY OF MUD FILTRATE
SUFT.C        15                   : SUFT         - SURFACE TEMPERATURE
~A  DEPTH     RESD     PHID     PHIN       GR
  295.000    2.845    0.266    0.528  105.472
  295.250    2.845    0.261    0.536  105.419
  295.500    2.845    0.259    0.540  103.008
  295.750    2.792    0.259    0.523  103.007
  296.000    2.740    0.264    0.497  102.403
  296.250    2.690    0.249    0.511   98.185
  296.500    2.689    0.239    0.521   95.171
  296.750    2.689    0.227    0.527   94.567
  297.000    2.640    0.227    0.533   96.976
  297.250    2.640    0.230    0.528   99.384
  297.500    2.689    0.238    0.526   96.370
  297.750    2.740    0.247    0.536   92.754
  298.000    2.791    0.247    0.499   91.548
  298.250    2.844    0.241    0.504   91.547
  298.500    2.952    0.232    0.531   98.774
  298.750    3.008    0.221    0.559   96.363
  299.000    3.064    0.222    0.534   94.554
  299.250    3.064    0.233    0.505  102.384
  299.500    3.064    0.236    0.496  103.587
  299.750    3.064    0.209    0.498  103.586
  300.000    3.007    0.209    0.493  104.186
  300.250    3.007    0.221    0.483  105.390
  300.500    3.007    0.228    0.464  107.798
  300.750    3.007    0.216    0.476  112.013
  301.000    3.007    0.193    0.494  112.012
  301.250    3.007    0.181    0.499  108.999
  301.500    3.064    0.179    0.490  113.816
  301.750    3.121    0.193    0.480  118.032
  302.000    3.180    0.197    0.475  116.825
  302.250    3.240    0.200    0.469  112.005
  302.500    3.301    0.215    0.482  108.389
  302.750    3.426    0.222    0.503  103.568
  303.000    3.624    0.207    0.528   97.543
  303.250    3.761    0.165    0.469   92.722
  303.500    3.904    0.173    0.462   92.721
  303.750    3.978    0.196    0.492   98.743
  304.000    4.129    0.197    0.513   98.741
  304.250    4.207    0.198    0.527  102.957
  304.500    4.129    0.201    0.528  107.775
  304.750    4.052    0.210    0.508  108.978
  305.000    3.832    0.216    0.518  104.760
  305.250    3.556    0.211    0.526  105.963
  305.500    3.425    0.194    0.504  108.371
  305.750    3.362    0.193    0.522  107.767
  306.000    3.490    0.207    0.530  107.164
  306.250    3.623    0.213    0.528  104.752
  306.500    3.760    0.218    0.526  104.149
  306.750    3.831    0.207    0.502  104.750
  307.000    3.977    0.198    0.467  105.350
  307.250    3.977    0.191    0.458  104.144
  307.500    3.977    0.210    0.471  102.938
  307.750    3.976    0.224    0.481  101.732
  308.000    3.976    0.226    0.488   90.887
  308.250    3.976    0.256    0.492   80.644
  308.500    4.447    0.373    0.470   74.017
  308.750    4.792    0.422    0.439   69.798
  309.000    5.885    0.460    0.491   69.194
  309.250    6.582    0.488    0.580   69.193
  309.500    7.933    0.300    0.426   63.770
  309.750   10.694    0.273    0.379   55.335
  310.000   11.961    0.269    0.356   48.104
  310.250   13.132    0.263    0.369   57.741
  310.500   13.887    0.250    0.391   64.366
  310.750   14.416    0.275    0.408   71.594
  311.000   15.533    0.295    0.402   57.737
  311.250   16.427    0.303    0.361   47.495
  311.500   17.701    0.307    0.355   46.890
  311.750   18.374    0.310    0.374   51.708
  312.000   19.432    0.307    0.385   54.719
  312.250   19.431    0.286    0.390   57.730
  312.500   19.431    0.254    0.396   64.355
  312.750   18.032    0.224    0.402   73.991
  313.000   16.425    0.202    0.397   79.412
  313.250   15.243    0.163    0.393   86.037
  313.500   14.146    0.148    0.399   88.445
  313.750   13.127    0.178    0.405   90.251
  314.000   12.412    0.209    0.408   91.454
  314.250   12.182    0.229    0.417   89.645
  314.500   12.182    0.258    0.425   90.246
  314.750   12.411    0.274    0.431   91.449
  315.000   12.883    0.282    0.427   92.051
  315.250   13.881    0.275    0.417   91.447
  315.500   14.143    0.276    0.423   89.035
  315.750   14.409    0.283    0.434   89.034
  316.000   14.680    0.286    0.431   90.238
  316.250   14.957    0.280    0.418   98.670
  316.500   14.956    0.264    0.399  101.680
  316.750   15.238    0.243    0.400   98.667
  317.000   14.956    0.231    0.413   94.448
  317.250   14.679    0.212    0.421   93.242
  317.500   13.123    0.191    0.414   95.650
  317.750   11.953    0.167    0.425   98.661
  318.000   11.093    0.173    0.434  102.876
  318.250   10.488    0.208    0.438  104.080
  318.500   10.104    0.242    0.418  101.066
  318.750   10.294    0.261    0.408   96.245
  319.000   10.886    0.271    0.412   99.255
  319.250   11.300    0.263    0.418  102.267
  319.500   11.513    0.257    0.425  107.686
  319.750   11.513    0.264    0.435  111.299
  320.000   10.684    0.237    0.447  113.106
  320.250    9.732    0.195    0.447  113.104
  320.500    8.864    0.145    0.446  101.657
  320.750    7.925    0.106    0.440   99.246
  321.000    7.354    0.074    0.452  106.473
  321.250    6.575    0.138    0.465  120.327
  321.500    6.216    0.165    0.476  127.554
  321.750    5.878    0.186    0.484  122.734
  322.000    5.354    0.163    0.518  117.311
  322.250    4.968    0.163    0.536  120.321
  322.500    4.698    0.175    0.502  124.536
  322.750    4.442    0.175    0.479  123.330
  323.000    4.122    0.174    0.478  122.726
  323.250    3.897    0.197    0.501  122.725
  323.500    3.685    0.215    0.520  125.735
  323.750    3.550    0.234    0.547  123.927
  324.000    3.484    0.234    0.484  114.889
  324.250    3.484    0.232    0.455  101.635
  324.500    3.685    0.340    0.453   89.585
  324.750    4.359    0.376    0.485   70.909
  325.000    5.453    0.389    0.506   63.077
  325.250    7.215    0.330    0.390   63.075
  325.500    9.197    0.321    0.374   69.700
  325.750   11.294    0.328    0.387   77.530
  326.000   12.632    0.319    0.415   85.359
  326.250   12.870    0.314    0.447   87.768
  326.500   12.870    0.308    0.444   83.550
  326.750   12.168    0.309    0.433   73.307
  327.000   11.943    0.317    0.440   70.293
  327.250   11.722    0.314    0.451   72.099
  327.500   11.505    0.316    0.439   79.929
  327.750   11.292    0.330    0.459   82.939
  328.000   11.291    0.320    0.478   81.131
  328.250   11.291    0.302    0.477   75.708
  328.500   11.082    0.297    0.457   72.694
  328.750   11.082    0.320    0.440   78.114
  329.000   10.877    0.323    0.424   81.125
  329.250   10.876    0.308    0.418   86.544
  329.500   10.675    0.287    0.417   88.351
  329.750   10.477    0.271    0.417   89.555
  330.000   10.093    0.271    0.421   85.939
  330.250    9.906    0.292    0.430   73.889
  330.500    9.906    0.299    0.433   66.056
  330.750    9.906    0.304    0.418   60.031
  331.000    9.905    0.315    0.409   57.620
  331.250   10.092    0.326    0.421   65.449
  331.500   10.092    0.337    0.434   69.062
  331.750   10.091    0.307    0.427   72.675
  332.000   10.091    0.291    0.416   79.300
  332.250   10.281    0.283    0.419   84.720
  332.500   10.281    0.287    0.428   86.526
  332.750   10.281    0.268    0.415   89.537
  333.000   10.280    0.260    0.399   80.499
  333.250   10.280    0.248    0.389   74.474
  333.500   10.090    0.247    0.393   71.460
  333.750    9.903    0.236    0.401   78.085
  334.000    9.720    0.224    0.415   82.301
  334.250    9.363    0.218    0.411   88.323
  334.500    9.190    0.213    0.404   90.129
  334.750    8.853    0.206    0.398   90.127
  335.000    8.852    0.205    0.404   87.114
  335.250    8.852    0.213    0.418   85.908
  335.500    9.019    0.234    0.429   79.882
  335.750    9.362    0.263    0.409   66.026
  336.000    9.538    0.277    0.387   53.976
  336.250    9.901    0.297    0.382   48.553
  336.500   10.087    0.298    0.406   51.563
  336.750   10.277    0.283    0.412   54.574
  337.000   10.277    0.271    0.396   56.380
  337.250   10.470    0.258    0.384   58.185
  337.500   10.470    0.253    0.376   55.172
  337.750   10.470    0.290    0.389   49.146
  338.000   10.469    0.301    0.404   44.928
  338.250   10.469    0.322    0.418   41.914
