~VERSION INFORMATION
 VERS.                 2.0:   CWLS LOG ASCII STANDARD -VERSION 2.0
 WRAP.                  NO:   ONE LINE PER DEPTH STEP
~WELL INFORMATION BLOCK
#MNEM.UNIT           DATA                    DESCRIPTION OF MNEMONIC
#---------    -------------------            -------------------------------
# Generated from Intellog Unique Number	CW_82_90/WELL/3071
WELL.         PACIFIC LIVOCK 10-08           : Well_name    - WELL
LOC .         00/10-08-085-19W4/0            : Location     - LOCATION
UWI .         00/10-08-085-19W4/0            : Uwi          - UNIQUE WELL ID
ENTR.         JAYE                           : Entered      - ENTERED BY
SRVC.         SCHLUMBERGER                   : Scn          - SERVICE COMPANY
DATE.         7 MAR 75                       : Date         - LOG DATE
STRT.M        192.024                        : top_depth    - START DEPTH
STOP.M        350.524                        : bot_depth    - STOP DEPTH
STEP.M        0.25                           : increment    - STEP LENGTH
 NULL. -999.2500:NULL Value
~CURVE INFORMATION BLOCK
#MNEM UNIT       ERCB CURVE CODE    CURVE DESCRIPTION
#-----------   ------------------   ----------------------------------
DEPT.M        00 001 00 00         : DEPTH        - DEPTH
NPHI.V/V      00 330 00 00         : PHIN         - NEUTRON POROSITY (SANDSTONE)
DPHI.V/V      00 890 00 00         : PHID         - DENSITY POROSITY (SANDSTONE)
ILD .OHMM     00 120 00 00         : RESD         - DEEP RESISTIVITY (DLL)
CALI.MM       00 280 01 00         : CAL          - CALIPER
GR  .API      00 310 00 00         : GR           - GAMMA RAY
~PARAMETER INFORMATION
#MNEM.UNIT           DATA             DESCRIPTION OF MNEMONIC
#---------         -----------     ------------------------------
GL  .M        604.845              : gl           - GROUND LEVEL ELEVATION
EREF.M        607.344              : kb           - ELEVATION OF DEPTH REFERENCE
DATM.M        604.845              : datum        - DATUM ELEVATION
TDD .M        356.006              : tdd          - TOTAL DEPTH DRILLER
RUN .         ONE                  : Run          - RUN NUMBER
ENG .         CROCKFORD            : Engineer     - RECORDING ENGINEER
WIT .         KOSS                 : Witness      - WITNESSED BY
BASE.         EDMONTON             : Branch       - HOME BASE OF LOGGING UNIT
MUD .         GEL CHEM             : Mud_type     - MUD TYPE
MATR.         SANDSTONE            : Logunit      - NEUTRON MATRIX
TMAX.C        17.2222              : BHT          - MAXIMUM RECORDED TEMPERATURE
BHTD.M        356.006              : BHTDEP       - MAXIMUM RECORDED TEMPERATURE
RMT .C        18.8889              : MDTP         - TEMPERATURE OF MUD
MUDD.KG/M     0                    : MWT          - MUD DENSITY
NEUT.         0                    : NEUTRON      - NEUTRON TYPE
RESI.         1                    : RESIST       - RESISTIVITY TYPE
RM  .OHMM     1.73                 : RM           - RESISTIVITY OF MUD
RMC .OHMM     0                    : RMC          - RESISTIVITY OF MUD CAKE
RMF .OHMM     1.59                 : RMF          - RESISTIVITY OF MUD FILTRATE
SUFT.C        -17.7778             : SUFT         - SURFACE TEMPERATURE
~A  DEPTH     PHIN     PHID     RESD      CAL       GR
# ...
  301.524    0.466    0.130   10.410  158.927  107.452
  301.774    0.460    0.204   10.343  159.253  109.071
  302.024    0.453    0.213   10.275  160.135  107.112
  302.274    0.449    0.183   10.190  160.039  102.255
  302.524    0.442    0.161   10.086  160.698  103.753
  302.774    0.440    0.143    9.909  160.725  105.130
  303.024    0.474    0.192    9.754  161.198  105.149
  303.274    0.465    0.218    9.551  161.417  106.093
  303.524    0.456    0.198    9.450  162.513  107.217
  303.774    0.450    0.194    9.199  162.621  104.952
  304.024    0.450    0.196    9.004  163.381  106.144
  304.274    0.458    0.198    8.780  166.665  107.703
  304.524    0.481    0.181    8.627  168.263  107.287
  304.774    0.476    0.204    8.603  168.800  106.009
  305.024    0.468    0.247    9.023  167.994  104.177
  305.274    0.465    0.236    9.734  161.671  104.626
  305.524    0.450    0.223   10.346  160.321  105.753
  305.774    0.424    0.217   10.629  157.844  106.512
  306.024    0.413    0.211   10.904  158.394  104.492
  306.274    0.419    0.202   11.120  161.359  103.400
  306.524    0.428    0.193   11.363  162.217  104.342
  306.774    0.438    0.189   11.918  163.414  103.869
  307.024    0.422    0.191   12.477  163.320  105.180
  307.274    0.419    0.175   13.310  159.692  105.014
  307.524    0.426    0.216   14.171  154.813  103.304
  307.774    0.431    0.232   15.722  154.813  100.976
  308.024    0.413    0.227   17.314  150.382   99.634
  308.274    0.414    0.208   18.023  151.144   97.372
  308.524    0.366    0.193   18.313  152.739   94.426
  308.774    0.324    0.141   17.826  152.739   92.347
  309.024    0.330    0.124   15.308  157.306   94.337
  309.274    0.345    0.193   14.462  157.948   97.317
  309.524    0.405    0.212   14.130  159.126   99.247
  309.774    0.408    0.212   14.277  159.574   97.042
  310.024    0.417    0.205   15.090  158.999   94.406
  310.274    0.434    0.209   15.827  158.899   95.722
  310.524    0.416    0.200   16.660  157.688   96.170
  310.774    0.406    0.194   17.280  157.077   95.817
  311.024    0.382    0.179   16.602  156.907   95.711
  311.274    0.362    0.161   15.219  156.907   97.704
  311.524    0.366    0.151   13.144  156.907   99.633
  311.774    0.405    0.139   11.850  157.094  102.922
  312.024    0.421    0.155   10.643  160.152  105.714
  312.274    0.467    0.201    9.208  165.523  108.881
  312.524    0.479    0.194    8.057  167.949  111.920
  312.774    0.482    0.229    7.129  170.376  115.209
  313.024    0.474    0.218    6.659  172.286  116.584
  313.274    0.473    0.205    6.350  171.703  114.628
  313.524    0.476    0.208    6.356  171.827  110.140
  313.774    0.487    0.201    7.158  175.329  108.183
  314.024    0.490    0.196    9.449  176.167  104.621
  314.274    0.482    0.219   10.741  180.270   97.111
  314.524    0.417    0.239   11.805  174.868   92.502
  314.774    0.328    0.212   11.775  155.882   95.233
  315.024    0.379    0.168   11.144  155.389  100.496
  315.274    0.420    0.232    9.859  155.735  104.091
  315.524    0.443    0.208    7.740  156.493  108.429
  315.774    0.447    0.209    7.004  159.136  110.237
  316.024    0.451    0.207    6.895  161.150  112.229
  316.274    0.460    0.198    7.098  163.794  112.432
  316.524    0.460    0.190    7.615  165.406  107.079
  316.774    0.464    0.178    8.030  165.625  104.443
  317.024    0.470    0.170    8.567  163.881  106.374
  317.274    0.446    0.163    9.139  160.984  108.921
  317.524    0.439    0.144    9.267  156.751  110.607
  317.774    0.460    0.215    9.141  157.498  111.919
  318.024    0.459    0.217    8.799  158.044  113.046
  318.274    0.455    0.207    8.358  160.789  114.733
  318.524    0.490    0.191    7.910  164.477  115.798
  318.774    0.490    0.176    7.569  170.698  117.235
  319.024    0.488    0.194    7.205  171.121  119.351
  319.274    0.485    0.186    6.871  173.347  120.846
  319.524    0.486    0.198    6.775  175.155  121.975
  319.774    0.484    0.186    7.014  176.013  122.610
  320.024    0.493    0.187    7.426  176.048  122.071
  320.274    0.484    0.168    8.131  174.323  118.079
  320.524    0.466    0.142    8.838  174.223  112.974
  320.774    0.435    0.123   10.646  167.779  108.858
  321.024    0.415    0.101   13.235  157.265  108.199
  321.274    0.407    0.147   15.017  156.130  108.895
  321.524    0.406    0.151   15.146  155.219  109.961
  321.774    0.419    0.131   14.468  155.460  111.027
  322.024    0.423    0.197   13.876  155.804  111.664
  322.274    0.418    0.186   13.478  156.798  111.678
  322.524    0.415    0.195   13.316  157.012  112.684
  322.774    0.418    0.193   13.331  157.145  114.490
  323.024    0.420    0.191   13.751  157.801  107.537
  323.274    0.413    0.172   14.075  157.829  105.272
  323.524    0.395    0.174   14.764  157.652  104.607
  323.774    0.389    0.160   15.605  156.740  104.935
  324.024    0.385    0.157   16.367  156.876  103.965
  324.274    0.383    0.180   17.399  156.173  102.377
  324.524    0.368    0.180   17.874  156.412  101.347
  324.774    0.357    0.176   18.503  157.283   98.897
  325.024    0.353    0.165   19.302  156.995  100.213
  325.274    0.358    0.157   19.867  156.995   96.586
  325.524    0.362    0.148   20.226  157.278   91.236
  325.774    0.384    0.157   20.512  155.205   87.614
  326.024    0.389    0.156   20.844  151.574   84.052
  326.274    0.384    0.137   21.578  150.874   82.096
  326.524    0.386    0.114   22.637  150.874   81.251
  326.774    0.382    0.169   23.130  152.518   80.773
  327.024    0.376    0.166   23.281  152.738   80.853
  327.274    0.370    0.163   22.832  152.738   80.998
  327.524    0.366    0.167   22.304  152.738   81.444
  327.774    0.364    0.172   21.670  156.179   82.571
  328.024    0.368    0.178   21.174  156.930   84.192
  328.274    0.372    0.178   21.035  157.384   85.814
  328.524    0.373    0.179   21.256  157.830   86.634
  328.774    0.370    0.167   22.213  157.830   87.516
  329.024    0.367    0.153   23.477  159.053   89.631
  329.274    0.351    0.144   23.898  159.169   90.700
  329.524    0.336    0.130   23.566  160.034   87.938
  329.774    0.336    0.122   21.807  159.132   89.497
  330.024    0.356    0.137   20.218  158.631   92.233
  330.274    0.368    0.206   19.315  158.242   95.457
  330.524    0.378    0.212   18.213  157.752   96.832
  330.774    0.401    0.194   17.143  159.166   97.285
  331.024    0.394    0.172   16.375  159.275   97.917
  331.274    0.397    0.176   15.614  159.197   98.860
  331.524    0.410    0.200   14.861  158.081  100.047
  331.774    0.421    0.215   14.174  156.230  101.855
  332.024    0.429    0.207   13.640  156.047  104.525
  332.274    0.438    0.200   13.225  158.607  111.641
  332.524    0.448    0.205   12.564  158.929  116.283
  332.774    0.468    0.202   12.094  161.271  114.822
  333.024    0.449    0.198   11.880  162.122   39.871
  333.274    0.438    0.196   11.608  163.826  106.469
  333.524    0.427    0.200   11.362  164.585  107.414
  333.774    0.386    0.197   10.874  164.927  107.548
  334.024    0.364    0.196   10.348  164.927  111.761
  334.274    0.375    0.213    9.685  164.686  122.701
  334.524    0.391    0.205    8.799  164.494  130.923
  334.774    0.399    0.213    8.202  165.359  146.428
  335.024    0.410    0.210    7.380  166.956  149.840
  335.274    0.420    0.203    6.268  168.239  151.776
  335.524    0.425    0.207    5.693  166.914  152.406
  335.774    0.419    0.223    5.190  163.805  152.731
  336.024    0.405    0.208    4.831  160.284  152.439
  336.274    0.382    0.156    4.746  163.135  151.533
  336.524    0.367    0.123    4.796  167.657  150.936
  336.774    0.372    0.193    4.956  172.285  149.967
  337.024    0.383    0.199    5.149  174.195  148.689
  337.274    0.394    0.205    5.442  174.537  147.099
  337.524    0.400    0.211    5.826  172.380  144.833
  337.774    0.406    0.210    6.273  170.730  142.506
