~VERSION INFORMATION
 VERS.                 2.0:   CWLS LOG ASCII STANDARD -VERSION 2.0
 WRAP.                  NO:   ONE LINE PER DEPTH STEP
~WELL INFORMATION BLOCK
#MNEM.UNIT           DATA                    DESCRIPTION OF MNEMONIC
#---------    -------------------            -------------------------------
# Generated from Intellog Unique Number	CS_73_76/WELL/3252
WELL.         10-32-076-12W4                 : Well_name    - WELL
LOC .         00/10-32-076-12W4/0            : Location     - LOCATION
UWI .         00/10-32-076-12W4/0            : Uwi          - UNIQUE WELL ID
ENTR.         SP                             : Entered      - ENTERED BY
SRVC.         SCHLUMBERGER                   : Scn          - SERVICE COMPANY
STRT.M        295.656                        : top_depth    - START DEPTH
STOP.M        533.156                        : bot_depth    - STOP DEPTH
STEP.M        0.25                           : increment    - STEP LENGTH
 NULL. -999.2500:NULL Value
~CURVE INFORMATION BLOCK
#MNEM UNIT       ERCB CURVE CODE    CURVE DESCRIPTION
#-----------   ------------------   ----------------------------------
DEPT.M        00 001 00 00         : DEPTH        - DEPTH
GR  .API      00 310 00 00         : GR           - GAMMA RAY
DPHI.V/V      00 890 00 00         : PHID         - DENSITY POROSITY (SANDSTONE)
NPHI.V/V      00 330 00 00         : PHIN         - NEUTRON POROSITY (SANDSTONE)
ILD .OHMM     00 120 00 00         : RESD         - DEEP RESISTIVITY (DIL)
~PARAMETER INFORMATION
#MNEM.UNIT           DATA             DESCRIPTION OF MNEMONIC
#---------         -----------     ------------------------------
GL  .M        686.653              : gl           - GROUND LEVEL ELEVATION
EREF.M        689.762              : kb           - ELEVATION OF DEPTH REFERENCE
DATM.M        686.653              : datum        - DATUM ELEVATION
TDD .M        544.068              : tdd          - TOTAL DEPTH DRILLER
RUN .         ONE                  : Run          - RUN NUMBER
ENG .         BILL                 : Engineer     - RECORDING ENGINEER
WIT .         JIM                  : Witness      - WITNESSED BY
MUD .         GEL                  : Mud_type     - MUD TYPE
MATR.         SANDSTONE            : Logunit      - NEUTRON MATRIX
TMAX.C        25.5556              : BHT          - MAXIMUM RECORDED TEMPERATURE
BHTD.M        544.068              : BHTDEP       - MAXIMUM RECORDED TEMPERATURE
MATR.         1                    : LOGUNIT      - NEUTRON MATRIX
RMT .C        25                   : MDTP         - TEMPERATURE OF MUD
NEUT.         1                    : NEUTRON      - NEUTRON TYPE
RESI.         0                    : RESIST       - RESISTIVITY TYPE
RMC .OHMM     0.25                 : RMC          - RESISTIVITY OF MUD CAKE
RMF .OHMM     0.25                 : RMF          - RESISTIVITY OF MUD FILTRATE
SUFT.C        15                   : SUFT         - SURFACE TEMPERATURE
~A  DEPTH       GR     PHID     PHIN     RESD
# ...
  339.156  103.514    0.267    0.471    7.098
  339.406  101.444    0.253    0.454    7.402
  339.656   96.141    0.256    0.441    7.715
  339.906   89.096    0.270    0.445    8.199
  340.156   82.154    0.279    0.440    8.893
  340.406   71.938    0.277    0.437    9.571
  340.656   65.058    0.288    0.424   10.278
  340.906   60.258    0.303    0.412   11.094
  341.156   57.798    0.317    0.415   11.933
  341.406   57.675    0.315    0.412   12.507
  341.656   58.061    0.315    0.398   13.140
  341.906   62.137    0.318    0.390   13.282
  342.156   67.177    0.305    0.377   13.121
  342.406   73.816    0.292    0.387   12.537
  342.656   78.330    0.280    0.397   11.997
  342.906   82.095    0.264    0.408   10.902
  343.156   84.851    0.233    0.413   10.465
  343.406   90.300    0.183    0.421    9.838
  343.656   98.357    0.215    0.442    9.088
  343.906  102.485    0.223    0.452    8.449
  344.156   99.068    0.233    0.469    8.210
  344.406   94.611    0.260    0.454    8.091
  344.656   89.879    0.281    0.441    8.416
  344.906   86.012    0.320    0.429    8.757
  345.156   81.963    0.335    0.420    9.468
  345.406   78.433    0.335    0.418   10.012
  345.656   75.867    0.333    0.427   10.531
  345.906   76.771    0.315    0.434    9.961
  346.156   80.132    0.307    0.444    8.787
  346.406   80.853    0.296    0.478    7.516
  346.656   71.908    0.292    0.513    6.731
  346.906   67.418    0.327    0.540    6.035
  347.156   66.857    0.330    0.501    5.785
  347.406   64.214    0.328    0.470    6.482
  347.656   62.365    0.317    0.449    7.084
  347.906   61.310    0.320    0.429    8.590
  348.156   61.757    0.326    0.425    9.866
  348.406   60.662    0.335    0.427   11.876
  348.656   60.690    0.339    0.423   13.895
  348.906   60.683    0.341    0.421   14.984
  349.156   60.681    0.337    0.421   16.126
  349.406   60.746    0.339    0.418   16.611
  349.656   60.003    0.351    0.417   17.061
  349.906   60.066    0.357    0.418   17.031
  350.156   59.744    0.358    0.429   16.873
  350.406   58.699    0.359    0.440   16.403
  350.656   57.708    0.356    0.435   16.129
  350.906   57.034    0.353    0.424   15.988
  351.156   56.373    0.350    0.419   15.507
  351.406   55.909    0.347    0.415   15.277
  351.656   56.024    0.345    0.416   15.262
  351.906   57.052    0.350    0.410   14.935
  352.156   58.454    0.349    0.421   14.741
  352.406   60.264    0.349    0.429   14.695
  352.656   61.887    0.352    0.428   14.393
  352.906   61.909    0.357    0.428   14.355
  353.156   61.079    0.355    0.435   12.752
  353.406   60.101    0.350    0.446   12.875
  353.656   59.478    0.347    0.447   12.871
  353.906   58.881    0.349    0.444   12.867
  354.156   59.413    0.356    0.451   12.882
  354.406   60.063    0.355    0.436   12.504
  354.656   60.736    0.352    0.434   12.116
  354.906   61.776    0.354    0.436   11.681
  355.156   61.911    0.353    0.427   11.940
  355.406   61.246    0.349    0.421   12.168
  355.656   60.825    0.352    0.414   12.466
  355.906   60.633    0.346    0.416   12.857
  356.156   61.227    0.350    0.410   13.098
  356.406   61.829    0.351    0.407   13.091
  356.656   62.505    0.354    0.404   13.058
  356.906   63.006    0.344    0.403   12.651
  357.156   64.338    0.335    0.401   12.401
  357.406   65.633    0.324    0.402   12.171
  357.656   65.729    0.320    0.404   12.404
  357.906   64.128    0.327    0.406   12.496
  358.156   64.930    0.331    0.409   12.627
  358.406   64.841    0.342    0.414   13.061
  358.656   65.726    0.344    0.418   13.177
  358.906   67.360    0.340    0.423   13.340
  359.156   69.617    0.338    0.425   13.314
  359.406   70.337    0.345    0.428   13.616
  359.656   68.646    0.339    0.425   13.588
  359.906   67.313    0.336    0.422   13.585
  360.156   66.675    0.339    0.424   13.575
  360.406   66.248    0.341    0.428   13.817
  360.656   64.221    0.349    0.432   13.956
  360.906   62.965    0.344    0.435   14.067
  361.156   62.449    0.328    0.434   13.834
  361.406   62.893    0.333    0.438   13.943
  361.656   64.307    0.347    0.429   14.098
  361.906   64.902    0.341    0.429   13.907
  362.156   64.725    0.345    0.434   13.829
  362.406   63.672    0.351    0.438   14.088
  362.656   63.001    0.345    0.432   14.402
  362.906   62.999    0.350    0.430   14.064
  363.156   63.645    0.352    0.431   14.108
  363.406   63.069    0.349    0.424   13.833
  363.656   61.580    0.356    0.430   13.551
  363.906   59.612    0.354    0.428   13.597
  364.156   57.840    0.357    0.424   13.291
  364.406   56.904    0.358    0.429   13.302
  364.656   57.377    0.361    0.440   13.088
  364.906   58.422    0.364    0.427   12.825
  365.156   58.761    0.359    0.431   12.593
  365.406   59.218    0.357    0.441   12.592
  365.656   59.645    0.350    0.449   12.518
  365.906   61.194    0.356    0.437   12.579
  366.156   61.564    0.359    0.436   12.424
  366.406   61.823    0.352    0.447   12.630
  366.656   61.248    0.353    0.453   12.382
  366.906   60.836    0.357    0.458   12.364
  367.156   61.229    0.360    0.453   12.358
  367.406   61.698    0.367    0.449   12.357
  367.656   62.047    0.362    0.442   12.357
  367.906   62.426    0.363    0.438   12.356
  368.156   63.399    0.364    0.440   12.324
  368.406   65.157    0.361    0.447   12.537
  368.656   65.456    0.355    0.455   12.352
  368.906   65.863    0.356    0.460   12.204
  369.156   66.158    0.359    0.468   12.142
  369.406   67.231    0.365    0.471   11.915
  369.656   68.490    0.365    0.459   11.929
  369.906   70.427    0.366    0.454   11.668
  370.156   69.447    0.358    0.445   11.495
  370.406   66.267    0.364    0.431   11.489
  370.656   64.733    0.359    0.419   11.237
  370.906   63.351    0.357    0.417   11.253
  371.156   61.435    0.360    0.426   11.266
  371.406   61.153    0.367    0.441   11.036
  371.656   61.255    0.364    0.455   11.039
  371.906   63.268    0.360    0.464   10.994
  372.156   63.597    0.359    0.468   10.639
  372.406   64.648    0.357    0.468   10.658
  372.656   64.879    0.352    0.463   10.416
  372.906   66.512    0.350    0.470   10.449
  373.156   67.286    0.353    0.460   10.219
  373.406   67.239    0.360    0.461   10.217
  373.656   65.138    0.356    0.450   10.056
  373.906   63.933    0.344    0.454    9.768
  374.156   63.608    0.331    0.468    9.683
  374.406   63.184    0.338    0.479    9.818
  374.656   62.184    0.350    0.473    9.845
  374.906   61.151    0.358    0.461   10.050
  375.156   61.657    0.360    0.460   10.025
  375.406   64.073    0.360    0.450   10.256
  375.656   64.817    0.357    0.452   10.235
  375.906   64.793    0.353    0.456   10.233
  376.156   64.711    0.351    0.460   10.223
  376.406   64.121    0.351    0.467   10.429
  376.656   64.808    0.353    0.456    9.936
  376.906   65.479    0.355    0.451    9.438
  377.156   66.912    0.353    0.453    8.651
  377.406   68.922    0.350    0.460    7.369
  377.656   70.918    0.344    0.484    6.910
  377.906   70.455    0.336    0.494    6.490
  378.156   70.444    0.330    0.496    6.263
  378.406   71.470    0.325    0.487    6.187
  378.656   72.072    0.323    0.492    6.199
  378.906   72.712    0.329    0.484    6.063
  379.156   74.244    0.336    0.490    5.988
  379.406   77.720    0.337    0.497    5.518
  379.656   78.697    0.325    0.489    5.063
  379.906   77.069    0.311    0.493    4.458
  380.156   76.249    0.313    0.499    4.390
  380.406   76.996    0.309    0.491    4.787
  380.656   77.078    0.300    0.475    6.091
  380.906   75.478    0.302    0.460    7.719
  381.156   74.533    0.314    0.465    9.317
  381.406   76.758    0.303    0.450    9.502
  381.656   80.953    0.280    0.436    9.232
  381.906   82.944    0.264    0.437    8.519
  382.156   83.557    0.251    0.439    7.766
  382.406   80.222    0.259    0.430    7.277
