~VERSION INFORMATION
 VERS.                 2.0:   CWLS LOG ASCII STANDARD -VERSION 2.0
 WRAP.                  NO:   ONE LINE PER DEPTH STEP
~WELL INFORMATION BLOCK
#MNEM.UNIT           DATA                    DESCRIPTION OF MNEMONIC
#---------    -------------------            -------------------------------
# Generated from Intellog Unique Number	CW_76_78/WELL/2578
WELL.         10-20-078-24W4                 : Well_name    - WELL
LOC .         00/10-20-078-24W4/0            : Location     - LOCATION
UWI .         00/10-20-078-24W4/0            : Uwi          - UNIQUE WELL ID
ENTR.         MAX                            : Entered      - ENTERED BY
SRVC.         SCHLUMBERGER                   : Scn          - SERVICE COMPANY
STRT.M        274.32                         : top_depth    - START DEPTH
STOP.M        518.07                         : bot_depth    - STOP DEPTH
STEP.M        0.25                           : increment    - STEP LENGTH
 NULL. -999.2500:NULL Value
~CURVE INFORMATION BLOCK
#MNEM UNIT       ERCB CURVE CODE    CURVE DESCRIPTION
#-----------   ------------------   ----------------------------------
DEPT.M        00 001 00 00         : DEPTH        - DEPTH
ILD .OHMM     00 120 00 00         : RESD         - DEEP RESISTIVITY (DIL)
NPHI.V/V      00 330 00 00         : PHIN         - NEUTRON POROSITY (SANDSTONE)
DPHI.V/V      00 890 00 00         : PHID         - DENSITY POROSITY (SANDSTONE)
CALI.MM       00 280 01 00         : CAL          - CALIPER
GR  .API      00 310 00 00         : GR           - GAMMA RAY
~PARAMETER INFORMATION
#MNEM.UNIT           DATA             DESCRIPTION OF MNEMONIC
#---------         -----------     ------------------------------
GL  .M        588.874              : gl           - GROUND LEVEL ELEVATION
EREF.M        592.836              : kb           - ELEVATION OF DEPTH REFERENCE
DATM.M        588.874              : datum        - DATUM ELEVATION
TDD .M        536.448              : tdd          - TOTAL DEPTH DRILLER
RUN .         ONE                  : Run          - RUN NUMBER
ENG .         BILL                 : Engineer     - RECORDING ENGINEER
WIT .         JIM                  : Witness      - WITNESSED BY
MUD .         GEL                  : Mud_type     - MUD TYPE
MATR.         SANDSTONE            : Logunit      - NEUTRON MATRIX
TMAX.C        16.6667              : BHT          - MAXIMUM RECORDED TEMPERATURE
BHTD.M        536.448              : BHTDEP       - MAXIMUM RECORDED TEMPERATURE
RMT .C        19.4444              : MDTP         - TEMPERATURE OF MUD
MUDD.KG/M     9300                 : MWT          - MUD DENSITY
NEUT.         1                    : NEUTRON      - NEUTRON TYPE
RESI.         0                    : RESIST       - RESISTIVITY TYPE
RM  .OHMM     3.82                 : RM           - RESISTIVITY OF MUD
RMC .OHMM     0                    : RMC          - RESISTIVITY OF MUD CAKE
RMF .OHMM     3.9                  : RMF          - RESISTIVITY OF MUD FILTRATE
SUFT.C        -20.5556             : SUFT         - SURFACE TEMPERATURE
~A  DEPTH     RESD     PHIN     PHID      CAL       GR
# ...
  383.820    9.257    0.484    0.225  203.892   92.077
  384.070    9.257    0.486    0.220  203.892   93.806
  384.320    8.995    0.473    0.208  203.815   94.954
  384.570    8.995    0.458    0.201  204.272   94.638
  384.820    8.897    0.460    0.183  204.236   93.741
  385.070    8.895    0.475    0.214  204.195   94.009
  385.320    9.129    0.480    0.216  204.159   93.990
  385.570    9.542    0.493    0.201  204.122   93.961
  385.820   10.064    0.479    0.188  204.082   92.778
  386.070   10.804    0.457    0.190  204.045   88.673
  386.320   11.090    0.446    0.179  203.506   81.357
  386.570   11.082    0.425    0.174  203.479   76.377
  386.820   10.585    0.412    0.130  203.433   77.808
  387.070   10.024    0.408    0.110  203.433   80.998
  387.320    9.405    0.437    0.134  203.361   85.643
  387.570    9.067    0.482    0.165  203.320   93.203
  387.820    8.898    0.487    0.174  203.777   93.473
  388.070    8.810    0.478    0.198  203.736   91.118
  388.320    8.725    0.483    0.202  203.709   89.930
  388.570    8.720    0.489    0.192  204.153   93.992
  388.820    8.951    0.480    0.206  204.611   96.593
  389.070    9.438    0.479    0.187  206.056   95.113
  389.320    9.952    0.487    0.189  206.029   90.425
  389.570   10.308    0.473    0.187  205.489   83.695
  389.820   10.301    0.437    0.174  205.489   81.332
  390.070   10.111    0.407    0.170  205.399   83.644
  390.320    9.657    0.430    0.128  204.891   86.253
  390.570    9.657    0.447    0.148  205.335   90.607
  390.820    9.558    0.492    0.184  205.299   90.871
  391.070    9.048    0.481    0.183  205.267   90.850
  391.320    8.880    0.468    0.175  205.720   91.706
  391.570    9.034    0.459    0.182  206.182   91.977
  391.820    9.358    0.458    0.171  207.134   91.364
  392.070    9.957    0.460    0.193  207.093   91.053
  392.320   10.788    0.454    0.183  207.052   87.534
  392.570   13.370    0.461    0.146  207.011   79.051
  392.820   16.875    0.437    0.100  206.485   69.988
  393.070   20.362    0.393    0.065  206.485   66.461
  393.320   23.281    0.231    0.015  206.408   68.484
  393.570   24.330    0.314   -0.009  206.866   72.546
  393.820   23.456    0.361    0.056  207.328   78.066
  394.070   19.062    0.372    0.087  207.772   81.542
  394.320   14.812    0.349    0.121  207.744   83.854
  394.570   13.052    0.416    0.130  207.703   88.205
  394.820   11.707    0.469    0.193  206.679   91.684
  395.070   10.986    0.480    0.224  203.675   91.371
  395.320   10.591    0.465    0.198  201.174   90.472
  395.570   10.488    0.453    0.165  200.634   91.034
  395.820   10.480    0.467    0.173  201.590   91.598
  396.070   10.472    0.462    0.172  203.521   93.616
  396.320   10.472    0.463    0.178  204.477   94.175
  396.570   10.358    0.468    0.189  204.934   94.448
  396.820   10.260    0.476    0.200  204.898   95.593
  397.070   10.161    0.478    0.196  204.861   97.030
  397.320   10.153    0.485    0.196  204.825   96.420
  397.570   10.153    0.470    0.176  204.784   94.940
  397.820   10.137    0.456    0.168  204.784   94.921
  398.070   10.221    0.455    0.157  204.195   94.022
  398.320   10.210    0.475    0.180  204.666   92.251
  398.570   10.022    0.484    0.189  204.666   91.938
  398.820    9.488    0.483    0.181  204.571   92.497
  399.070    9.147    0.485    0.192  205.051   92.764
  399.320    8.818    0.486    0.188  205.051   93.329
  399.570    8.499    0.487    0.184  204.965   96.222
  399.820    8.267    0.490    0.190  205.431   97.369
  400.070    7.898    0.487    0.188  205.431   98.512
  400.320    7.613    0.486    0.184  205.834   99.365
  400.570    7.472    0.485    0.167  205.812  101.386
  400.820    7.601    0.493    0.154  205.771  103.112
  401.070    7.732    0.491    0.171  205.744  101.049
  401.320    7.658    0.480    0.180  205.694   95.772
  401.570    7.383    0.478    0.162  206.160   94.878
  401.820    7.245    0.486    0.156  207.112   95.729
  402.070    7.571    0.487    0.154  208.059   97.168
  402.320    7.985    0.500    0.161  209.006   98.605
  402.570    8.573    0.526    0.168  209.463   98.581
  402.820    9.287    0.532    0.191  209.431   95.929
  403.070    9.287    0.542    0.188  207.913   93.871
  403.320    9.695    0.519    0.187  204.406   89.472
  403.570   11.089    0.480    0.182  203.391   86.825
  403.820   12.013    0.481    0.185  203.350   87.385
  404.070   12.332    0.475    0.205  203.314   89.113
  404.320   12.771    0.479    0.218  203.273   89.386
  404.570   13.230    0.495    0.212  203.237   86.734
  404.820   13.825    0.499    0.203  203.196   87.004
  405.070   14.710    0.490    0.205  203.155   87.861
  405.320   15.238    0.471    0.201  203.128   86.664
  405.570   15.364    0.461    0.195  203.091   86.646
  405.820   15.352    0.446    0.191  203.055   86.619
  406.070   15.899    0.444    0.188  203.014   86.894
  406.320   16.177    0.474    0.196  203.462   87.745
  406.570   16.456    0.502    0.197  203.435   87.143
  406.820   16.741    0.486    0.216  203.884   85.080
  407.070   16.880    0.462    0.203  203.852   83.889
  407.320   17.019    0.446    0.189  204.305   87.076
  407.570   17.469    0.470    0.176  204.273   87.346
  407.820   17.612    0.448    0.163  204.232   83.825
  408.070   17.443    0.425    0.179  204.187   86.717
  408.320   16.813    0.428    0.180  204.644   86.110
  408.570   16.061    0.434    0.170  204.617   86.672
  408.820   15.206    0.457    0.174  204.572   88.986
  409.070   14.526    0.463    0.178  204.540   88.960
  409.320   14.004    0.453    0.184  204.499   87.771
  409.570   13.500    0.448    0.179  204.463   90.378
  409.820   13.014    0.445    0.173  204.422   94.731
  410.070   12.430    0.463    0.200  204.390   94.999
  410.320   11.983    0.473    0.204  204.345   94.972
  410.570   11.657    0.474    0.195  204.304   96.415
  410.820   11.336    0.471    0.193  204.272   96.974
  411.070   11.125    0.471    0.184  204.236   96.369
  411.320   11.119    0.471    0.190  204.195   96.639
  411.570   11.581    0.470    0.199  207.335   99.307
  411.820   11.261    0.478    0.203  207.306  100.468
  412.070   11.049    0.485    0.206  207.277  101.335
  412.320   11.043    0.497    0.204  207.244  103.083
  412.570   10.933    0.504    0.199  207.211  102.774
  412.820   10.933    0.504    0.182  206.683  103.049
  413.070   10.919    0.484    0.186  206.654  104.210
  413.320   10.911    0.468    0.200  206.624  105.075
  413.570   11.001    0.467    0.205  206.592  103.879
  413.820   10.992    0.461    0.191  206.559  100.326
  414.070   11.287    0.473    0.174  206.526   96.478
  414.320   11.485    0.486    0.191  206.500   96.163
  414.570   11.371    0.478    0.192  206.966   97.910
  414.820   11.161    0.476    0.175  206.933   97.897
  415.070   10.952    0.471    0.179  207.403   98.467
  415.320   10.745    0.461    0.184  207.880  100.805
  415.570   10.635    0.462    0.189  207.847  104.031
  415.820   10.536    0.465    0.187  208.313  106.077
  416.070   10.246    0.472    0.190  208.284  105.463
  416.320   10.239    0.467    0.177  208.251  105.450
  416.570   10.418    0.463    0.174  208.251  105.726
  416.820   10.698    0.454    0.180  208.189  103.056
  417.070   11.084    0.448    0.183  207.162   97.733
  417.320   11.382    0.457    0.174  207.632   97.124
  417.570   11.687    0.464    0.162  208.101   98.288
  417.820   11.784    0.460    0.167  208.571   97.681
  418.070   11.565    0.455    0.176  208.036   96.775
  418.320   11.043    0.449    0.183  207.988   97.644
  418.570   10.449    0.458    0.183  206.983  100.279
  418.820    9.979    0.470    0.186  206.451  102.914
  419.070    9.189    0.467    0.179  210.912  106.132
  419.320    8.696    0.471    0.189  209.889  106.998
  419.570    8.532    0.480    0.176  217.840  107.280
  419.820    8.683    0.488    0.174  216.812  104.609
  420.070    9.161    0.484    0.191  211.793  101.053
