~VERSION INFORMATION
 VERS.                 2.0:   CWLS LOG ASCII STANDARD -VERSION 2.0
 WRAP.                  NO:   ONE LINE PER DEPTH STEP
~WELL INFORMATION BLOCK
#MNEM.UNIT           DATA                    DESCRIPTION OF MNEMONIC
#---------    -------------------            -------------------------------
# Generated from Intellog Unique Number	CS_71_72/WELL/911
WELL.         ESSO IPIATIK                   : Well_name    - WELL
LOC .         00/11-32-072-09W4/0            : Location     - LOCATION
UWI .         00/11-32-072-09W4/0            : Uwi          - UNIQUE WELL ID
ENTR.         SP                             : Entered      - ENTERED BY
SRVC.         SCHLUMBERGER                   : Scn          - SERVICE COMPANY
STRT.M        295                            : top_depth    - START DEPTH
STOP.M        490                            : bot_depth    - STOP DEPTH
STEP.M        0.25                           : increment    - STEP LENGTH
 NULL. -999.2500:NULL Value
~CURVE INFORMATION BLOCK
#MNEM UNIT       ERCB CURVE CODE    CURVE DESCRIPTION
#-----------   ------------------   ----------------------------------
DEPT.M        00 001 00 00         : DEPTH        - DEPTH
ILD .OHMM     00 120 00 00         : RESD         - DEEP RESISTIVITY (DIL)
DPHI.V/V      00 890 00 00         : PHID         - DENSITY POROSITY (LIMESTONE)
NPHI.V/V      00 330 00 00         : PHIN         - NEUTRON POROSITY (LIMESTONE)
GR  .API      00 310 00 00         : GR           - GAMMA RAY
~PARAMETER INFORMATION
#MNEM.UNIT           DATA             DESCRIPTION OF MNEMONIC
#---------         -----------     ------------------------------
GL  .M        659.68               : gl           - GROUND LEVEL ELEVATION
EREF.M        663.56               : kb           - ELEVATION OF DEPTH REFERENCE
DATM.M        659.68               : datum        - DATUM ELEVATION
TDD .M        493                  : tdd          - TOTAL DEPTH DRILLER
RUN .         ONE                  : Run          - RUN NUMBER
ENG .         BILL                 : Engineer     - RECORDING ENGINEER
WIT .         JIM                  : Witness      - WITNESSED BY
MUD .         GEL                  : Mud_type     - MUD TYPE
MATR.         LIMESTONE            : Logunit      - NEUTRON MATRIX
TMAX.C        18                   : BHT          - MAXIMUM RECORDED TEMPERATURE
BHTD.M        493                  : BHTDEP       - MAXIMUM RECORDED TEMPERATURE
MATR.         1                    : LOGUNIT      - NEUTRON MATRIX
RMT .C        25                   : MDTP         - TEMPERATURE OF MUD
NEUT.         1                    : NEUTRON      - NEUTRON TYPE
RESI.         0                    : RESIST       - RESISTIVITY TYPE
RMC .OHMM     0.25                 : RMC          - RESISTIVITY OF MUD CAKE
RMF .OHMM     0.25                 : RMF          - RESISTIVITY OF MUD FILTRATE
SUFT.C        15                   : SUFT         - SURFACE TEMPERATURE
~A  DEPTH     RESD     PHID     PHIN       GR
# ...
  425.500    6.239    0.192    0.445   86.105
  425.750    5.902    0.192    0.455   87.924
  426.000    5.482    0.195    0.454   89.747
  426.250    5.092    0.189    0.464   92.783
  426.500    4.559    0.212    0.490   94.602
  426.750    4.082    0.232    0.509   96.427
  427.000    3.723    0.254    0.540   98.250
  427.250    3.395    0.241    0.580   99.467
  427.500    3.096    0.221    0.564   98.871
  427.750    3.039    0.217    0.530   97.067
  428.000    3.330    0.237    0.520   94.050
  428.250    3.716    0.261    0.506   90.431
  428.500    3.998    0.260    0.485   88.622
  428.750    4.302    0.242    0.477   89.841
  429.000    4.544    0.224    0.494   93.481
  429.250    4.713    0.210    0.488   94.697
  429.500    4.887    0.207    0.471   96.522
  429.750    5.068    0.204    0.468   97.132
  430.000    5.256    0.204    0.501   96.537
  430.250    5.351    0.194    0.554   92.918
  430.500    5.449    0.182    0.582   90.506
  430.750    5.549    0.155    0.607   89.304
  431.000    5.971    0.028    0.499   81.450
  431.250    7.719   -0.000    0.150   71.175
  431.500    9.444    0.088    0.178   70.581
  431.750   10.350    0.148    0.308   78.451
  432.000    9.791    0.166    0.412   85.716
  432.250    8.607    0.174    0.524   93.589
  432.500    7.706    0.173    0.496   93.597
  432.750    7.158    0.171    0.466   91.791
  433.000    6.526    0.168    0.460   91.799
  433.250    6.406    0.164    0.474   93.622
  433.500    6.288    0.163    0.458   94.236
  433.750    6.285    0.174    0.449   93.038
  434.000    6.284    0.196    0.437   93.648
  434.250    6.281    0.208    0.441   96.077
  434.500    6.279    0.194    0.467   97.296
  434.750    6.278    0.184    0.478   97.303
  435.000    6.276    0.192    0.451   94.289
  435.250    6.160    0.196    0.437   91.880
  435.500    6.157    0.185    0.449   90.675
  435.750    6.155    0.178    0.466   90.683
  436.000    6.267    0.186    0.483   91.903
  436.250    6.265    0.194    0.500   94.938
  436.500    6.263    0.195    0.505   96.757
  436.750    6.261    0.186    0.490  101.608
  437.000    6.033    0.175    0.448  103.429
  437.250    6.031    0.164    0.426  105.252
  437.500    5.920    0.195    0.459   99.213
  437.750    5.498    0.209    0.490   94.383
  438.000    5.202    0.206    0.504   92.574
  438.250    5.013    0.180    0.515   91.373
  438.500    4.742    0.187    0.522   92.594
  438.750    4.405    0.188    0.491   93.206
  439.000    3.944    0.186    0.441   92.005
  439.250    3.731    0.192    0.454   90.808
  439.500    3.279    0.210    0.504   91.417
  439.750    2.991    0.234    0.544   91.429
  440.000    2.727    0.241    0.587   90.829
  440.250    2.487    0.249    0.543   89.022
  440.500    2.310    0.235    0.513   89.033
  440.750    2.226    0.226    0.545   92.671
  441.000    2.106    0.218    0.551   96.913
  441.250    2.067    0.224    0.528   97.525
  441.500    2.067    0.231    0.517   96.323
  441.750    2.183    0.235    0.535   97.542
  442.000    2.264    0.248    0.551   97.551
  442.250    2.391    0.250    0.526   93.934
  442.500    2.621    0.218    0.481   92.124
  442.750    2.979    0.203    0.443   87.900
  443.000    3.325    0.230    0.426   86.698
  443.250    3.578    0.250    0.455   86.704
  443.500    3.710    0.259    0.475   87.925
  443.750    3.777    0.230    0.487   87.935
  444.000    3.847    0.256    0.498   87.940
  444.250    3.916    0.239    0.501   86.137
  444.500    3.988    0.218    0.456   85.538
  444.750    4.060    0.280    0.459   85.546
  445.000    4.059    0.286    0.528   83.135
  445.250    4.133    0.269    0.539   79.516
  445.500    4.287    0.254    0.527   75.289
  445.750    4.528    0.240    0.540   67.437
  446.000    5.147    0.102    0.521   62.605
  446.250    5.960    0.086    0.280   61.403
  446.500    7.030    0.071    0.246   63.228
  446.750    8.140    0.060    0.228   64.445
  447.000    9.253    0.055    0.249   66.879
  447.250    9.775    0.203    0.285   68.093
  447.500   10.137    0.238    0.339   71.736
  447.750    8.433    0.255    0.373   72.348
  448.000    6.887    0.259    0.442   72.353
  448.250    6.167    0.267    0.488   72.359
  448.500    5.322    0.274    0.492   70.556
  448.750    4.766    0.259    0.476   69.958
  449.000    4.592    0.216    0.534   69.964
  449.250    4.676    0.185    0.526   71.186
  449.500    4.849    0.161    0.481   72.404
  449.750    4.937    0.216    0.411   73.624
  450.000    5.027    0.245    0.437   74.841
  450.250    5.118    0.242    0.472   75.453
  450.500    5.117    0.239    0.514   76.064
  450.750    5.116    0.247    0.475   76.678
  451.000    4.928    0.254    0.462   74.872
  451.250    4.927    0.248    0.456   75.488
  451.500    4.925    0.242    0.471   76.708
  451.750    5.015    0.235    0.462   77.317
  452.000    5.106    0.230    0.437   77.325
  452.250    5.200    0.236    0.426   77.333
  452.500    5.198    0.229    0.432   76.740
  452.750    5.390    0.215    0.454   77.956
  453.000    5.290    0.204    0.454   79.175
  453.250    5.289    0.216    0.450   81.002
  453.500    5.004    0.228    0.441   81.609
  453.750    4.822    0.218    0.429   82.224
  454.000    4.397    0.201    0.467   91.912
  454.250    3.865    0.202    0.489   99.178
  454.500    3.461    0.207    0.507  106.444
  454.750    3.156    0.198    0.521  109.476
  455.000    2.878    0.200    0.552  111.299
  455.250    2.723    0.194    0.579  110.704
  455.500    2.722    0.192    0.513  107.687
  455.750    2.983    0.200    0.486   99.835
  456.000    3.151    0.192    0.473   96.818
  456.250    3.453    0.181    0.484   95.617
  456.500    3.783    0.176    0.476   94.419
  456.750    4.071    0.183    0.454   94.423
  457.000    4.300    0.189    0.438   93.222
  457.250    4.712    0.183    0.420   90.206
  457.500    4.887    0.177    0.411   83.562
  457.750    5.258    0.176    0.416   77.522
  458.000    5.977    0.188    0.425   74.505
  458.250    6.671    0.208    0.426   70.281
  458.500    7.048    0.208    0.417   75.736
  458.750    7.445    0.200    0.417   79.371
  459.000    7.443    0.197    0.439   83.008
  459.250    7.578    0.215    0.477   86.645
  459.500    8.303    0.232    0.444   82.420
  459.750    9.439    0.243    0.414   76.984
  460.000   10.157    0.239    0.417   83.045
  460.250   11.336    0.242    0.435   85.471
  460.500   12.423    0.248    0.429   84.874
  460.750   12.650    0.237    0.378   90.327
  461.000   10.331    0.198    0.365   96.987
  461.250    8.754    0.166    0.369  104.858
  461.500    7.984    0.144    0.436  103.661
  461.750    7.415    0.139    0.424  101.247
  462.000    6.887    0.139    0.416   97.629
  462.250    6.886    0.132    0.385   97.634
  462.500    6.883    0.132    0.367  103.087
  462.750    7.008    0.143    0.388  105.517
  463.000    7.268    0.131    0.427  106.128
  463.250    7.401    0.178    0.470   97.670
  463.500    7.817    0.201    0.493   87.397
  463.750    8.410    0.217    0.448   80.146
  464.000    8.564    0.186    0.403   84.391
  464.250    9.046    0.156    0.413   89.840
  464.500    9.211    0.182    0.457   96.505
  464.750    9.378    0.216    0.483   95.904
  465.000    9.376    0.184    0.443  105.594
  465.250    9.201    0.152    0.394  115.882
  465.500    9.032    0.163    0.414  128.594
  465.750    8.702    0.179    0.452  118.318
  466.000    8.540    0.193    0.481  103.814
  466.250    8.538    0.191    0.435   97.772
  466.500    9.018    0.179    0.370   92.336
  466.750    9.183    0.170    0.331   86.900
  467.000    9.700    0.175    0.334   81.468
  467.250   10.246    0.193    0.357   81.476
  467.500   10.434    0.200    0.379   80.877
  467.750   10.820    0.212    0.388   81.492
  468.000   11.017    0.205    0.371   83.920
  468.250   11.218    0.189    0.369   86.347
  468.500   11.009    0.182    0.365   89.988
  468.750   11.006    0.180    0.360   91.807
