~VERSION INFORMATION
 VERS.                 2.0:   CWLS LOG ASCII STANDARD -VERSION 2.0
 WRAP.                  NO:   ONE LINE PER DEPTH STEP
~WELL INFORMATION BLOCK
#MNEM.UNIT           DATA                    DESCRIPTION OF MNEMONIC
#---------    -------------------            -------------------------------
# Generated from Intellog Unique Number	CW_70_72/WELL/1045
NULL.         -999.25                        : NULL_VALUE
WELL.         SUNDANCE MCMORGAN SMITH 10-31  : Well_name    - WELL              
LOC .         10-31-072-24W4                 : Location     - LOCATION          
UWI .         00/10-31-072-24W4/0            : Uwi          - UNIQUE WELL ID    
ENTR.         JAYE                           : Entered      - ENTERED BY        
SRVC.         SCHLUMBERGER                   : Scn          - SERVICE COMPANY   
DATE.         20 JAN 74                      : Date         - LOG DATE          
STRT.M        399.288                        : top_depth    - START DEPTH       
STOP.M        655.288                        : bot_depth    - STOP DEPTH        
STEP.M        0.25                           : increment    - STEP LENGTH       
~CURVE INFORMATION BLOCK
#MNEM UNIT       ERCB CURVE CODE    CURVE DESCRIPTION
#-----------   ------------------   ----------------------------------
DEPT.M        00 001 00 00         : DEPTH        - DEPTH                       
CALI.MM       00 280 01 00         : CAL          - CALIPER                     
GR  .API      00 310 00 00         : GR           - GAMMA RAY                   
DPHI.V/V      00 890 00 00         : PHID         - DENSITY POROSITY (SANDSTONE)
NPHI.V/V      00 330 00 00         : PHIN         - NEUTRON POROSITY (SANDSTONE)
ILD .OHMM     00 120 00 00         : RESD         - DEEP RESISTIVITY (DIL)      
~PARAMETER INFORMATION       
#MNEM.UNIT           DATA             DESCRIPTION OF MNEMONIC
#---------         -----------     ------------------------------
GL  .M        648.767              : gl           - GROUND LEVEL ELEVATION      
EREF.M        651.815              : kb           - ELEVATION OF DEPTH REFERENCE
DATM.M        648.767              : datum        - DATUM ELEVATION             
TDD .M        664.464              : tdd          - TOTAL DEPTH DRILLER         
RUN .         ONE                  : Run          - RUN NUMBER                  
ENG .         WOON                 : Engineer     - RECORDING ENGINEER          
WIT .         TIEFENBACH           : Witness      - WITNESSED BY                
BASE.         EDM                  : Branch       - HOME BASE OF LOGGING UNIT   
MUD .         GEL CHEM             : Mud_type     - MUD TYPE                    
MATR.         SANDSTONE            : Logunit      - NEUTRON MATRIX              
TMAX.C        30                   : BHT          - MAXIMUM RECORDED TEMPERATURE
BHTD.M        663.55               : BHTDEP       - MAXIMUM RECORDED TEMPERATURE
RMT .C        15.5556              : MDTP         - TEMPERATURE OF MUD          
MUDD.KG/M     1080                 : MWT          - MUD DENSITY                 
NEUT.         1                    : NEUTRON      - NEUTRON TYPE                
RESI.         0                    : RESIST       - RESISTIVITY TYPE            
RM  .OHMM     5.63                 : RM           - RESISTIVITY OF MUD          
RMC .OHMM     0                    : RMC          - RESISTIVITY OF MUD CAKE     
RMF .OHMM     6.8                  : RMF          - RESISTIVITY OF MUD FILTRATE 
SUFT.C        -17.7778             : SUFT         - SURFACE TEMPERATURE         
~A  DEPTH      CAL       GR     PHID     PHIN     RESD
# ...
  508.788  159.651   66.402    0.236    0.391    7.615
  509.038  161.149   68.565    0.220    0.342    6.983
  509.288  162.035   70.543    0.201    0.344    7.017
  509.538  161.984   72.824    0.163    0.385    7.450
  509.788  160.907   74.380    0.130    0.358    8.234
  510.038  159.111   77.333    0.122    0.355    9.319
  510.288  159.994   80.164    0.118    0.452   10.056
  510.538  164.791   80.137    0.116    0.449   10.254
  510.788  169.069   74.394    0.105    0.437   10.210
  511.038  167.578   69.870    0.090    0.433    9.910
  511.288  165.991   72.028    0.104    0.452    9.496
  511.538  164.403   75.529    0.182    0.453    9.032
  511.788  163.432   77.384    0.208    0.441    8.513
  512.038  162.044   78.333    0.202    0.443    7.995
  512.288  159.428   81.772    0.210    0.455    7.631
  512.538  158.864   84.723    0.215    0.463    7.313
  512.788  160.980   87.976    0.194    0.466    7.007
  513.038  162.997   90.323    0.189    0.457    6.714
  513.288  164.905   93.092    0.193    0.456    6.721
  513.538  164.245   95.619    0.193    0.456    6.680
  513.788  162.964   96.931    0.193    0.447    6.652
  514.038  165.800   96.114    0.180    0.453    6.647
  514.288  166.784   93.779    0.186    0.460    6.571
  514.538  166.219   91.380    0.174    0.467    6.567
  514.788  166.896   90.684    0.170    0.473    6.563
  515.038  167.979   92.661    0.183    0.463    6.511
  515.288  168.248   94.703    0.191    0.456    6.482
  515.538  168.308   95.527    0.200    0.446    6.442
  515.788  168.261   96.046    0.195    0.451    6.534
  516.038  168.008   96.202    0.158    0.473    6.614
  516.288  168.060   96.784    0.154    0.467    6.719
  516.538  168.216   97.060    0.175    0.469    6.826
  516.788  168.389   97.155    0.179    0.486    6.923
  517.038  170.403   97.188    0.193    0.493    6.982
  517.288  169.737   96.007    0.195    0.473    7.002
  517.538  168.662   91.666    0.178    0.447    6.859
  517.788  170.265   89.875    0.175    0.448    6.560
  518.038  171.039   91.123    0.160    0.456    6.274
  518.288  171.205   94.500    0.161    0.463    6.078
  518.538  171.051   99.036    0.175    0.459    5.997
  518.788  170.390   98.097    0.171    0.441    6.115
  519.038  169.317   96.185    0.147    0.421    6.353
  519.288  166.592   97.310    0.133    0.413    6.524
  519.538  162.425   98.683    0.163    0.421    6.700
  519.788  161.140   99.567    0.172    0.431    6.934
  520.038  161.204   99.847    0.153    0.424    7.082
  520.288  161.260   98.238    0.164    0.427    7.183
  520.538  161.219   91.768    0.163    0.436    7.204
  520.788  162.613   88.519    0.149    0.453    7.213
  521.038  164.833   90.739    0.160    0.473    7.156
  521.288  167.876   93.264    0.186    0.487    7.125
  521.538  168.033   96.038    0.198    0.489    7.107
  521.788  163.772   96.740    0.177    0.474    7.039
  522.038  168.251   95.678    0.201    0.449    6.982
  522.288  160.179   95.103    0.194    0.483    6.964
  522.538  157.040   94.897    0.179    0.487    6.935
  522.788  159.262   94.930    0.159    0.473    6.956
  523.038  162.204   95.085    0.169    0.453    7.002
  523.288  164.732   94.390    0.183    0.423    7.101
  523.538  164.375   92.477    0.197    0.370    7.375
  523.788  163.201   90.566    0.179    0.309    8.135
  524.038  163.259   87.986    0.178    0.253    9.040
  524.288  162.489   85.770    0.150    0.232   10.009
  524.538  166.761   83.069    0.095    0.216   11.123
  524.788  169.191   78.783    0.056    0.221   12.940
  525.038  169.250   78.026    0.025    0.240   15.669
  525.288  164.268   77.029    0.015    0.281   19.468
  525.538  160.101   73.111    0.019    0.344   25.462
  525.788  159.852   65.486    0.013    0.370   34.603
  526.038  160.518   57.737   -0.003    0.391   37.076
  526.288  161.613   58.072    0.054    0.410   33.565
  526.538  163.107   60.355    0.087    0.424   20.432
  526.788  163.374   62.761    0.110    0.437   13.626
  527.038  162.194   66.808    0.141    0.433   11.402
  527.288  160.707   70.915    0.160    0.427    9.970
  527.538  160.963   74.902    0.190    0.428    9.059
  527.788  162.465   78.828    0.181    0.433    8.156
  528.038  162.736   82.508    0.173    0.426    7.466
  528.288  161.968   85.823    0.153    0.432    6.986
  528.538  161.609   90.174    0.160    0.443    6.780
  528.788  161.256   91.910    0.196    0.455    6.740
  529.038  160.791   92.004    0.183    0.446    6.734
  529.288  160.752   92.648    0.166    0.439    6.830
  529.538  160.805   94.204    0.146    0.447    6.875
  529.788  160.962   95.634    0.177    0.455    7.089
  530.038  160.722   97.553    0.172    0.443    7.362
  530.288  160.569   99.716    0.166    0.424    7.644
  530.538  160.522   98.412    0.167    0.417    8.026
  530.788  160.581   95.163    0.173    0.430    8.442
  531.038  160.745   92.947    0.179    0.425    8.849
  531.288  162.756   92.184    0.187    0.409    9.122
  531.538  165.698   91.128    0.176    0.387    9.319
  531.788  164.417   90.192    0.151    0.408    9.330
  532.038  162.930   88.705    0.144    0.424    9.173
  532.288  166.382   87.096    0.142    0.439    8.950
  532.538  168.192   84.881    0.144    0.435    8.719
  532.788  167.838   83.274    0.174    0.432    8.354
  533.038  167.376   84.342    0.177    0.443    7.946
  533.288  166.306   86.622    0.170    0.456    7.586
  533.538  163.789   90.487    0.164    0.453    7.335
  533.788  163.230   94.108    0.165    0.441    7.317
  534.038  166.069   97.060    0.183    0.429    7.326
  534.288  165.818   98.618    0.181    0.437    7.335
  534.538  163.092   99.258    0.172    0.457    7.263
  534.788  162.120   96.801    0.154    0.458    7.167
  535.038  161.150   92.397    0.145    0.455    7.072
  535.288  161.405   92.915    0.158    0.448    6.976
  535.538  162.907   93.740    0.138    0.436    6.857
  535.788  164.306   94.139    0.124    0.419    6.791
  536.038  164.975   96.058    0.142    0.392    6.800
  536.288  164.211   99.921    0.174    0.408    6.882
  536.538  163.040   97.099    0.140    0.438    7.134
  536.788  159.390   93.120    0.093    0.443    7.368
  537.038  160.993   90.598    0.098    0.438    7.500
  537.288  167.840   91.786    0.115    0.430    7.564
  537.538  168.417   93.038    0.094    0.421    7.517
  537.788  167.954   93.316    0.110    0.406    7.337
  538.038  167.909   93.229    0.123    0.422    7.224
  538.288  167.969   92.410    0.138    0.437    7.247
  538.538  168.026   91.410    0.156    0.445    7.484
  538.788  167.768   88.888    0.169    0.446    7.990
  539.038  167.422   86.798    0.177    0.438    8.344
  539.288  167.162   82.516    0.172    0.427    8.323
  539.538  167.019   79.327    0.163    0.417    8.211
  539.788  166.968   82.763    0.154    0.419    8.087
  540.038  166.818   87.723    0.150    0.431    8.038
  540.288  166.576   92.012    0.140    0.435    8.046
  540.538  166.428   94.114    0.129    0.432    8.102
  540.788  166.170   94.877    0.150    0.434    8.171
  541.038  165.926   94.850    0.162    0.429    8.240
  541.288  165.879   94.579    0.156    0.425    8.327
  541.538  163.981   94.494    0.179    0.435    8.382
  541.788  160.228   94.588    0.165    0.440    8.361
  542.038  161.001   94.804    0.160    0.442    8.249
  542.288  162.194   95.385    0.156    0.438    8.109
  542.538  163.696   96.815    0.149    0.432    7.971
  542.788  166.321   98.371    0.147    0.426    7.821
  543.038  165.763   99.378    0.163    0.418    7.647
  543.288  166.545   98.803    0.170    0.425    7.449
  543.538  169.895   99.568    0.175    0.432    7.309
  543.788  169.439   98.750    0.178    0.435    7.318
  544.038  168.564   97.326    0.161    0.434    7.367
  544.288  168.316   94.683    0.152    0.436    7.485
  544.538  167.854   92.650    0.152    0.396    7.604
  544.788  167.493   88.306    0.145    0.347    7.796
  545.038  167.347   84.631    0.139    0.305    7.951
