~VERSION INFORMATION
 VERS.                 2.0:   CWLS LOG ASCII STANDARD -VERSION 2.0
 WRAP.                  NO:   ONE LINE PER DEPTH STEP
~WELL INFORMATION BLOCK
#MNEM.UNIT           DATA                    DESCRIPTION OF MNEMONIC
#---------    -------------------            -------------------------------
# Generated from Intellog Unique Number	CN_91_93/WELL/3069
WELL.         CANADIAN SUPERIOR OIL LTD.     : Well_name    - WELL
LOC .         00/12-23-092-21W4/0            : Location     - LOCATION
UWI .         00/12-23-092-21W4/0            : Uwi          - UNIQUE WELL ID
ENTR.         JOETTE                         : Entered      - ENTERED BY
SRVC.         SCHLUMBERGER                   : Scn          - SERVICE COMPANY
DATE.         04/10/92                       : Date         - LOG DATE
STRT.M        50                             : top_depth    - START DEPTH
STOP.M        252                            : bot_depth    - STOP DEPTH
STEP.M        0.25                           : increment    - STEP LENGTH
 NULL. -999.2500:NULL Value
~CURVE INFORMATION BLOCK
#MNEM UNIT       ERCB CURVE CODE    CURVE DESCRIPTION
#-----------   ------------------   ----------------------------------
DEPT.M        00 001 00 00         : DEPTH        - DEPTH
CALI.MM       00 280 01 00         : CAL          - CALIPER
GR  .API      00 310 00 00         : GR           - GAMMA RAY
NPHI.V/V      00 330 00 00         : PHIN         - NEUTRON POROSITY (SANDSTONE)
DPHI.V/V      00 890 00 00         : PHID         - DENSITY POROSITY (SANDSTONE)
ILD .OHMM     00 120 00 00         : RESD         - DEEP RESISTIVITY (DIL)
~PARAMETER INFORMATION
#MNEM.UNIT           DATA             DESCRIPTION OF MNEMONIC
#---------         -----------     ------------------------------
GL  .M        534.92               : gl           - GROUND LEVEL ELEVATION
EREF.M        538.77               : kb           - ELEVATION OF DEPTH REFERENCE
DATM.M        538.77               : datum        - DATUM ELEVATION
TDD .M        253.1                : tdd          - TOTAL DEPTH DRILLER
RUN .         ONE                  : Run          - RUN NUMBER
ENG .         BILL                 : Engineer     - RECORDING ENGINEER
WIT .         JIM                  : Witness      - WITNESSED BY
MUD .         GEL                  : Mud_type     - MUD TYPE
MATR.         SANDSTONE            : Logunit      - NEUTRON MATRIX
TMAX.C        20                   : BHT          - MAXIMUM RECORDED TEMPERATURE
BHTD.M        253.1                : BHTDEP       - MAXIMUM RECORDED TEMPERATURE
RMT .C        14                   : MDTP         - TEMPERATURE OF MUD
MUDD.KG/M     1120                 : MWT          - MUD DENSITY
NEUT.         1                    : NEUTRON      - NEUTRON TYPE
RESI.         0                    : RESIST       - RESISTIVITY TYPE
RM  .OHMM     5.11                 : RM           - RESISTIVITY OF MUD
RMC .OHMM     3.3                  : RMC          - RESISTIVITY OF MUD CAKE
RMF .OHMM     3.3                  : RMF          - RESISTIVITY OF MUD FILTRATE
SUFT.C        4                    : SUFT         - SURFACE TEMPERATURE
~A  DEPTH      CAL       GR     PHIN     PHID     RESD
# ...
  232.500  259.151   89.269    0.455    0.180   10.736
  232.750  261.199   90.499    0.467    0.166   10.730
  233.000  262.203   94.236    0.469    0.163   10.918
  233.250  262.151   96.713    0.465    0.203   10.913
  233.500  263.154   97.322    0.466    0.219   10.901
  233.750  263.113   97.918    0.474    0.215   10.681
  234.000  263.071   97.899    0.490    0.215   10.670
  234.250  263.030   94.105    0.498    0.213   11.072
  234.500  262.967   89.691    0.467    0.053   11.710
  234.750  262.946   89.666    0.410   -0.003   12.626
  235.000  262.905  103.436    0.407    0.069   13.099
  235.250  262.853  100.276    0.424    0.203   12.122
  235.500  262.811   98.364    0.446    0.220   11.663
  235.750  263.815   99.587    0.477    0.210   10.388
  236.000  263.763   99.574    0.511    0.174   10.181
  236.250  264.787   94.533    0.514    0.042   10.170
  236.500  264.746  102.033    0.472    0.080   10.352
  236.750  264.694  100.741    0.425    0.182   10.545
  237.000  263.596  101.349    0.454    0.212   10.531
  237.250  263.555  102.579    0.462    0.211   10.322
  237.500  263.513  104.435    0.467    0.214   10.308
  237.750  263.482  109.433    0.461    0.222   10.299
  238.000  263.430  113.797    0.456    0.222   10.489
  238.250  263.389  109.377    0.446    0.225   10.884
  238.500  260.201  105.589    0.423    0.216   11.079
  238.750  259.135   98.666    0.344    0.225   11.945
  239.000  257.003   42.825    0.283    0.237   13.376
  239.250  256.941   37.157    0.225    0.253   16.163
  239.500  256.910   32.742    0.130    0.293   51.560
  239.750  256.858   27.694    0.127    0.349   58.861
  240.000  256.816   29.550    0.126    0.395   81.263
  240.250  257.830   28.271    0.113    0.411  128.179
  240.500  259.868   30.748    0.103    0.433  160.854
  240.750  261.917   29.476    0.098    0.449  157.653
  241.000  262.921   25.682    0.098    0.461  151.602
  241.250  262.879   25.657    0.107    0.458  151.481
  241.500  260.747   26.259    0.158    0.438  154.185
  241.750  258.626   26.234    0.171    0.411  156.980
  242.000  258.584   25.582    0.193    0.406  156.855
  242.250  258.543   26.184    0.184    0.421  156.687
  242.500  258.501   26.786    0.205    0.422  162.550
  242.750  258.449   28.643    0.240    0.396  168.676
  243.000  257.362   30.499    0.261    0.380  162.203
  243.250  256.265   34.870    0.292    0.380  126.512
  243.500  255.168   46.132    0.326    0.383   59.007
  243.750  255.147   63.666    0.412    0.410   43.469
  244.000  257.196   73.674    0.446    0.405   27.492
  244.250  259.234   82.422    0.466    0.378   24.976
  244.500  260.227   84.905    0.528    0.358   20.620
  244.750  261.252   79.237    0.536    0.346   18.728
  245.000  260.165   79.839    0.497    0.339   17.670
  245.250  254.877   77.933    0.485    0.320   16.991
  245.500  254.856   77.287    0.466    0.303   16.649
  245.750  256.884   76.628    0.444    0.287   16.317
  246.000  261.023   77.858    0.432    0.295   15.989
  246.250  264.127   80.341    0.436    0.310   15.679
  246.500  264.075   79.689    0.449    0.329   15.363
  246.750  256.718   76.529    0.469    0.329   14.773
  247.000  257.732   71.487    0.458    0.324   14.479
  247.250  257.690   67.693    0.459    0.355   13.923
  247.500  258.694   64.533    0.478    0.392   13.643
  247.750  258.652   61.379    0.471    0.435   13.632
  248.000  259.645   58.839    0.297    0.453   13.617
  248.250  260.649   56.927    0.111    0.457   13.860
  248.500  261.663   55.021    0.022    0.441   14.115
  248.750  261.621   54.996    0.022    0.409   14.647
  249.000  262.604   60.621    0.022    0.414   15.199
  249.250  263.608   63.725    0.022    0.410   15.764
  249.500  264.621   64.327    0.022    0.408   16.058
  249.750  264.569   66.183    0.022    0.400   16.983
  250.000  265.583   68.667    0.022    0.369   17.624
  250.250  265.531   69.896    0.022    0.341   18.288
  250.500  265.500   69.238    0.021    0.323   18.967
  250.750  265.448   69.225    0.021    0.309   18.952
  251.000  265.407   68.573    0.020    0.296   19.290
  251.250  265.355   68.536    0.020    0.291   19.645
  251.500  265.334   69.138    0.020    0.296   20.001
  251.750  265.272   69.740    0.019    0.312   19.980
  252.000  265.230   69.088    0.019    0.311   19.577
