~VERSION INFORMATION
 VERS.                 2.0:   CWLS LOG ASCII STANDARD -VERSION 2.0
 WRAP.                  NO:   ONE LINE PER DEPTH STEP
~WELL INFORMATION BLOCK
#MNEM.UNIT           DATA                    DESCRIPTION OF MNEMONIC
#---------    -------------------            -------------------------------
# Generated from Intellog Unique Number	CS_69_70/WELL/875
WELL.         ALOA MINERAL ENTERPRISE        : Well_name    - WELL
LOC .         00/10-32-069-17W4/0            : Location     - LOCATION
UWI .         00/10-32-069-17W4/0            : Uwi          - UNIQUE WELL ID
ENTR.         SP                             : Entered      - ENTERED BY
SRVC.         SCHLUMBERGER                   : Scn          - SERVICE COMPANY
STRT.M        304.8                          : top_depth    - START DEPTH
STOP.M        472.3                          : bot_depth    - STOP DEPTH
STEP.M        0.25                           : increment    - STEP LENGTH
 NULL. -999.2500:NULL Value
~CURVE INFORMATION BLOCK
#MNEM UNIT       ERCB CURVE CODE    CURVE DESCRIPTION
#-----------   ------------------   ----------------------------------
DEPT.M        00 001 00 00         : DEPTH        - DEPTH
GR  .API      00 310 00 00         : GR           - GAMMA RAY
DPHI.V/V      00 890 00 00         : PHID         - DENSITY POROSITY (SANDSTONE)
NPHI.V/V      00 330 00 00         : PHIN         - NEUTRON POROSITY (SANDSTONE)
ILD .OHMM     00 120 00 00         : RESD         - DEEP RESISTIVITY (DIL)
~PARAMETER INFORMATION
#MNEM.UNIT           DATA             DESCRIPTION OF MNEMONIC
#---------         -----------     ------------------------------
GL  .M        562.051              : gl           - GROUND LEVEL ELEVATION
EREF.M        565.099              : kb           - ELEVATION OF DEPTH REFERENCE
DATM.M        562.051              : datum        - DATUM ELEVATION
TDD .M        512.064              : tdd          - TOTAL DEPTH DRILLER
RUN .         ONE                  : Run          - RUN NUMBER
ENG .         BILL                 : Engineer     - RECORDING ENGINEER
WIT .         JIM                  : Witness      - WITNESSED BY
MUD .         GEL                  : Mud_type     - MUD TYPE
MATR.         SANDSTONE            : Logunit      - NEUTRON MATRIX
TMAX.C        26.6667              : BHT          - MAXIMUM RECORDED TEMPERATURE
BHTD.M        512.064              : BHTDEP       - MAXIMUM RECORDED TEMPERATURE
MATR.         1                    : LOGUNIT      - NEUTRON MATRIX
RMT .C        25                   : MDTP         - TEMPERATURE OF MUD
NEUT.         1                    : NEUTRON      - NEUTRON TYPE
RESI.         0                    : RESIST       - RESISTIVITY TYPE
RMC .OHMM     0.25                 : RMC          - RESISTIVITY OF MUD CAKE
RMF .OHMM     0.25                 : RMF          - RESISTIVITY OF MUD FILTRATE
SUFT.C        15                   : SUFT         - SURFACE TEMPERATURE
~A  DEPTH       GR     PHID     PHIN     RESD
# ...
  391.800   93.631    0.223    0.391    3.421
  392.050   92.519    0.226    0.387    3.290
  392.300   91.584    0.234    0.379    3.141
  392.550   89.829    0.242    0.379    3.006
  392.800   91.140    0.238    0.389    2.847
  393.050   94.570    0.238    0.392    2.768
  393.300   96.016    0.240    0.381    2.666
  393.550   97.146    0.241    0.385    2.624
  393.800   96.471    0.240    0.398    2.614
  394.050   96.039    0.238    0.415    2.618
  394.300   95.325    0.233    0.392    2.654
  394.550   95.372    0.229    0.379    2.685
  394.800   96.204    0.225    0.378    2.722
  395.050   98.236    0.222    0.403    2.701
  395.300   99.852    0.219    0.394    2.616
  395.550  101.853    0.229    0.484    2.243
  395.800  103.670    0.307    0.593    2.011
  396.050  105.037    0.508    0.597    1.729
  396.300  106.661    0.489    0.591    1.540
  396.550  107.416    0.475    0.579    1.386
  396.800  107.217    0.476    0.573    1.306
  397.050  106.478    0.449    0.560    1.320
  397.300  106.159    0.375    0.541    1.454
  397.550  107.531    0.388    0.519    1.671
  397.800  109.574    0.388    0.483    2.022
  398.050  111.550    0.297    0.414    2.259
  398.300  113.730    0.251    0.395    2.527
  398.550  112.383    0.215    0.415    2.856
  398.800  108.032    0.192    0.418    3.117
  399.050  106.535    0.178    0.415    3.371
  399.300  106.653    0.172    0.404    3.592
  399.550  106.787    0.179    0.391    3.749
  399.800  107.311    0.184    0.372    3.843
  400.050  107.241    0.189    0.384    3.882
  400.300  108.964    0.191    0.395    3.856
  400.550  111.350    0.193    0.391    3.750
  400.800  110.767    0.195    0.391    3.605
  401.050  108.307    0.199    0.400    3.396
  401.300  104.953    0.204    0.396    3.247
  401.550  101.542    0.206    0.375    3.155
  401.800   98.953    0.200    0.396    3.110
  402.050   97.077    0.190    0.413    3.117
  402.300   95.733    0.166    0.395    3.150
  402.550   90.983    0.131    0.364    3.052
  402.800   94.380    0.211    0.403    2.920
  403.050   95.114    0.252    0.420    2.825
  403.300   93.432    0.261    0.411    2.778
  403.550   89.408    0.227    0.393    2.844
  403.800   82.994    0.143    0.321    2.978
  404.050   76.763    0.085    0.240    3.048
  404.300   74.142    0.061    0.245    2.856
  404.550   73.030    0.050    0.279    2.620
  404.800   73.550    0.202    0.313    2.387
  405.050   74.166    0.248    0.381    2.079
  405.300   76.451    0.279    0.373    1.805
  405.550   79.020    0.283    0.391    1.624
  405.800   80.890    0.287    0.393    1.566
  406.050   79.379    0.291    0.378    1.543
  406.300   80.052    0.293    0.366    1.536
  406.550   81.753    0.295    0.364    1.539
  406.800   83.513    0.299    0.349    1.549
  407.050   84.485    0.303    0.365    1.566
  407.300   85.005    0.304    0.400    1.587
  407.550   85.544    0.299    0.405    1.607
  407.800   86.661    0.297    0.394    1.637
  408.050   87.721    0.295    0.390    1.684
  408.300   88.289    0.298    0.385    1.740
  408.550   87.872    0.297    0.384    1.980
  408.800   87.570    0.282    0.391    2.172
  409.050   87.992    0.269    0.379    2.623
  409.300   88.123    0.148    0.339    2.992
  409.550   87.109    0.067    0.279    3.295
  409.800   90.143    0.037    0.249    3.573
  410.050   95.084    0.133    0.276    3.689
  410.300   98.674    0.206    0.310    3.517
  410.550  100.758    0.245    0.339    3.284
  410.800   99.738    0.255    0.378    3.063
  411.050   96.592    0.242    0.396    2.939
  411.300   93.687    0.231    0.387    2.858
  411.550   97.540    0.221    0.387    2.864
  411.800   95.272    0.213    0.379    2.900
  412.050   93.473    0.210    0.371    2.967
  412.300   93.955    0.205    0.382    3.050
  412.550   95.484    0.200    0.396    3.139
  412.800   97.776    0.195    0.398    3.299
  413.050   98.728    0.196    0.388    3.409
  413.300  100.103    0.195    0.388    3.577
  413.550  101.941    0.190    0.381    3.720
  413.800  103.833    0.182    0.369    3.895
  414.050  105.973    0.175    0.361    4.035
  414.300  103.676    0.172    0.394    4.172
  414.550  103.905    0.169    0.376    4.310
  414.800  105.703    0.166    0.389    4.402
  415.050  106.724    0.164    0.368    4.408
  415.300  106.736    0.167    0.358    4.264
  415.550  105.666    0.178    0.370    3.897
  415.800  103.224    0.184    0.355    3.654
  416.050  100.723    0.191    0.351    3.359
  416.300   98.608    0.193    0.370    3.005
  416.550   98.880    0.251    0.395    2.720
  416.800  101.957    0.349    0.429    2.534
  417.050  104.368    0.375    0.467    2.324
  417.300  107.164    0.346    0.475    2.139
  417.550  109.359    0.284    0.485    2.079
  417.800  110.468    0.241    0.462    2.072
  418.050  111.912    0.209    0.453    2.101
  418.300  112.297    0.208    0.444    2.128
  418.550  109.766    0.217    0.448    2.149
  418.800  109.241    0.220    0.450    2.095
  419.050  109.666    0.218    0.446    2.026
  419.300  109.535    0.227    0.447    1.819
  419.550  108.561    0.238    0.454    1.742
  419.800  106.676    0.246    0.519    1.721
  420.050  107.731    0.247    0.535    1.758
  420.300  111.660    0.235    0.516    1.838
  420.550  113.185    0.230    0.510    1.920
  420.800  107.493    0.230    0.488    2.036
  421.050  107.273    0.203    0.444    2.160
  421.300  109.655    0.171    0.422    2.358
  421.550  110.062    0.156    0.426    2.525
  421.800  112.097    0.171    0.442    2.707
  422.050  115.413    0.183    0.438    2.831
  422.300  117.932    0.170    0.420    2.857
  422.550  113.205    0.157    0.413    2.802
  422.800  106.634    0.178    0.419    2.794
  423.050  101.733    0.198    0.408    2.832
  423.300   99.776    0.213    0.389    2.899
  423.550   99.496    0.232    0.383    3.022
  423.800  100.487    0.230    0.395    3.156
  424.050   96.644    0.217    0.345    3.402
  424.300   86.443    0.207    0.311    3.681
  424.550   80.100    0.165    0.227    4.099
  424.800   75.808    0.058    0.190    4.535
  425.050   77.238    0.033    0.176    5.032
  425.300   81.257    0.061    0.227    5.566
  425.550   82.992    0.131    0.313    5.759
  425.800   85.541    0.173    0.367    5.312
  426.050   88.665    0.202    0.384    4.554
  426.300   92.094    0.217    0.387    4.136
  426.550   96.412    0.208    0.390    3.827
  426.800  100.852    0.196    0.403    3.544
  427.050  103.949    0.184    0.415    3.361
  427.300  107.748    0.173    0.431    3.280
  427.550  106.472    0.162    0.444    3.244
  427.800  109.493    0.163    0.426    3.260
  428.050  107.382    0.163    0.407    3.325
  428.300  104.237    0.159    0.398    3.393
  428.550  103.732    0.154    0.415    3.503
  428.800  105.086    0.151    0.400    3.598
  429.050  106.411    0.151    0.390    3.696
  429.300  106.109    0.151    0.383    3.757
  429.550  106.819    0.151    0.384    3.836
  429.800  107.714    0.150    0.385    3.908
  430.050  105.488    0.151    0.401    3.971
  430.300  106.908    0.151    0.389    4.053
  430.550  108.978    0.153    0.395    4.117
  430.800  105.027    0.157    0.385    4.149
  431.050  103.768    0.158    0.356    4.133
  431.300  106.523    0.164    0.360    4.083
  431.550  109.118    0.167    0.373    4.025
  431.800  112.059    0.169    0.367    3.840
  432.050  114.865    0.164    0.380    3.699
  432.300  115.111    0.160    0.417    3.590
  432.550  112.695    0.155    0.404    3.532
  432.800  108.936    0.162    0.405    3.516
  433.050  104.380    0.171    0.432    3.568
  433.300  103.457    0.188    0.372    3.781
  433.550  102.876    0.201    0.347    3.984
  433.800   99.688    0.147    0.325    4.034
  434.050  102.820    0.072    0.307    4.040
  434.300  106.533    0.098    0.339    3.960
  434.550  109.104    0.128    0.369    3.848
  434.800  106.969    0.145    0.388    3.729
  435.050  105.787    0.154    0.383    3.658
