~VERSION INFORMATION
 VERS.                 2.0:   CWLS LOG ASCII STANDARD -VERSION 2.0
 WRAP.                  NO:   ONE LINE PER DEPTH STEP
~WELL INFORMATION BLOCK
#MNEM.UNIT           DATA                    DESCRIPTION OF MNEMONIC
#---------    -------------------            -------------------------------
# Generated from Intellog Unique Number	CS_73_76/WELL/3275
WELL.         CANADIAN WORLDWIDE ENERGY      : Well_name    - WELL
LOC .         00/13-17-076-04W4/0            : Location     - LOCATION
UWI .         00/13-17-076-04W4/0            : Uwi          - UNIQUE WELL ID
ENTR.         SP                             : Entered      - ENTERED BY
SRVC.         SCHLUMBERGER                   : Scn          - SERVICE COMPANY
STRT.M        150                            : top_depth    - START DEPTH
STOP.M        450                            : bot_depth    - STOP DEPTH
STEP.M        0.25                           : increment    - STEP LENGTH
 NULL. -999.2500:NULL Value
~CURVE INFORMATION BLOCK
#MNEM UNIT       ERCB CURVE CODE    CURVE DESCRIPTION
#-----------   ------------------   ----------------------------------
DEPT.M        00 001 00 00         : DEPTH        - DEPTH
ILD .OHMM     00 120 00 00         : RESD         - DEEP RESISTIVITY (DIL)
GR  .API      00 310 00 00         : GR           - GAMMA RAY
DPHI.V/V      00 890 00 00         : PHID         - DENSITY POROSITY (LIMESTONE)
NPHI.V/V      00 330 00 00         : PHIN         - NEUTRON POROSITY (LIMESTONE)
~PARAMETER INFORMATION
#MNEM.UNIT           DATA             DESCRIPTION OF MNEMONIC
#---------         -----------     ------------------------------
GL  .M        623.19               : gl           - GROUND LEVEL ELEVATION
EREF.M        626.29               : kb           - ELEVATION OF DEPTH REFERENCE
DATM.M        623.19               : datum        - DATUM ELEVATION
TDD .M        453                  : tdd          - TOTAL DEPTH DRILLER
RUN .         ONE                  : Run          - RUN NUMBER
ENG .         BILL                 : Engineer     - RECORDING ENGINEER
WIT .         JIM                  : Witness      - WITNESSED BY
MUD .         GEL                  : Mud_type     - MUD TYPE
MATR.         LIMESTONE            : Logunit      - NEUTRON MATRIX
TMAX.C        18                   : BHT          - MAXIMUM RECORDED TEMPERATURE
BHTD.M        453                  : BHTDEP       - MAXIMUM RECORDED TEMPERATURE
MATR.         1                    : LOGUNIT      - NEUTRON MATRIX
RMT .C        25                   : MDTP         - TEMPERATURE OF MUD
NEUT.         1                    : NEUTRON      - NEUTRON TYPE
RESI.         0                    : RESIST       - RESISTIVITY TYPE
RMC .OHMM     0.25                 : RMC          - RESISTIVITY OF MUD CAKE
RMF .OHMM     0.25                 : RMF          - RESISTIVITY OF MUD FILTRATE
SUFT.C        15                   : SUFT         - SURFACE TEMPERATURE
~A  DEPTH     RESD       GR     PHID     PHIN
# ...
  367.500    6.339   88.581    0.189    0.393
  367.750    5.881   94.091    0.218    0.406
  368.000    5.355  100.819    0.243    0.416
  368.250    4.786  105.715    0.256    0.428
  368.500    4.277  110.002    0.261    0.483
  368.750    4.119  110.021    0.272    0.513
  369.000    4.197  106.382    0.254    0.516
  369.250    4.357   99.696    0.223    0.434
  369.500    4.522   97.275    0.217    0.434
  369.750    4.607   98.520    0.220    0.441
  370.000    4.607   99.151    0.227    0.453
  370.250    4.521  100.996    0.224    0.464
  370.500    4.355  101.017    0.227    0.459
  370.750    4.194  100.424    0.232    0.451
  371.000    3.891   99.833    0.228    0.458
  371.250    3.678   99.862    0.223    0.467
  371.500    3.477  101.098    0.238    0.485
  371.750    3.543  101.119    0.243    0.483
  372.000    4.779  101.132    0.244    0.448
  372.250    5.656   98.106    0.243    0.423
  372.500    6.210   94.467    0.238    0.415
  372.750    6.947   93.263    0.234    0.404
  373.000    7.487   94.505    0.215    0.413
  373.250    8.221   89.037    0.195    0.419
  373.500    9.197   82.959    0.226    0.387
  373.750   10.290   79.320    0.256    0.293
  374.000   11.729   76.292    0.289    0.267
  374.250   13.122   73.877    0.323    0.264
  374.500   13.621   73.895    0.323    0.277
  374.750   13.877   76.351    0.292    0.291
  375.000   13.876   76.978    0.241    0.307
  375.250   14.954   70.903    0.221    0.319
  375.500   17.046   66.651    0.150    0.288
  375.750   18.370   61.184    0.094    0.242
  376.000   18.368   63.040    0.190    0.238
  376.250   18.026   70.374    0.214    0.248
  376.500   19.066   74.662    0.323    0.242
  376.750   19.423   73.465    0.345    0.227
  377.000   19.061   74.092    0.364    0.244
  377.250   18.360   77.158    0.367    0.270
  377.500   16.407   81.449    0.322    0.339
  377.750   11.073   85.732    0.259    0.387
  378.000    6.434   89.414    0.287    0.408
  378.250    8.680   85.162    0.324    0.438
  378.500   11.279   66.280    0.360    0.093
  378.750   32.783   44.957    0.381    0.076
  379.000   68.026   43.765    0.399    0.071
  379.250   73.310   45.612    0.402    0.071
  379.500   73.301   49.895    0.403    0.080
  379.750   65.509   54.795    0.404    0.092
  380.000   48.549   57.861    0.402    0.106
  380.250   35.980   63.978    0.386    0.122
  380.500   28.205   74.975    0.284    0.153
  380.750   19.035   85.971    0.278    0.206
  381.000   17.011   94.527    0.285    0.245
  381.250   18.332   97.600    0.292    0.272
  381.500   16.692   95.178    0.303    0.290
  381.750   15.200  105.563    0.284    0.298
  382.000   13.584  110.461    0.235    0.307
  382.250   10.257  112.308    0.205    0.326
  382.500    8.347  112.940    0.180    0.343
  382.750    7.322  113.568    0.191    0.379
  383.000    6.921  111.760    0.198    0.373
  383.250    7.320  106.899    0.185    0.367
  383.500    8.344  108.748    0.195    0.357
  383.750    9.162  109.991    0.200    0.355
  384.000   10.250  108.789    0.185    0.357
  384.250   11.046  104.540    0.193    0.358
  384.500   12.830   95.415    0.211    0.344
  384.750   14.354   95.436    0.236    0.332
  385.000   15.181   94.846    0.220    0.328
  385.250   17.305   88.156    0.217    0.334
  385.500   20.479   77.809    0.245    0.261
  385.750   26.613   78.443    0.266    0.246
  386.000   32.695   77.848    0.288    0.228
  386.250   39.421   71.771    0.311    0.210
  386.500   44.937   65.082    0.330    0.194
  386.750   51.224   60.229    0.343    0.164
  387.000   55.202   58.414    0.353    0.146
  387.250   56.237   58.440    0.358    0.140
  387.500   56.234   59.066    0.352    0.150
  387.750   54.161   57.870    0.337    0.158
  388.000   50.251   56.666    0.335    0.148
  388.250   44.908   56.684    0.348    0.158
  388.500   37.942   63.411    0.324    0.176
  388.750   35.866   68.918    0.252    0.196
  389.000   37.231   65.892    0.248    0.239
  389.250   50.228   62.254    0.287    0.226
  389.500   75.816   58.611    0.316    0.185
  389.750   78.701   51.318    0.338    0.154
  390.000   70.331   46.457    0.355    0.145
  390.250   67.742   46.480    0.360    0.169
  390.500   61.684   48.937    0.330    0.199
  390.750   49.268   60.542    0.306    0.214
  391.000   38.623   66.050    0.259    0.227
  391.250   40.092   61.196    0.274    0.254
  391.500   44.854   57.550    0.291    0.236
  391.750   57.206   50.261    0.308    0.203
  392.000   59.384   49.053    0.327    0.186
  392.250   56.135   50.295    0.338    0.192
  392.500   47.427   52.754    0.315    0.226
  392.750   51.110   57.041    0.292    0.258
  393.000   56.120   52.792    0.288    0.276
  393.250   61.620   46.105    0.301    0.296
  393.500   65.173   48.565    0.305    0.329
  393.750   67.654   50.411    0.298    0.350
  394.000   67.647   49.211    0.289    0.364
  394.250   65.155   48.012    0.301    0.372
  394.500   61.591   49.259    0.295    0.370
  394.750   60.443   51.101    0.287    0.366
  395.000   57.137   52.954    0.290    0.366
  395.250   54.012   52.361    0.307    0.383
  395.500   54.008   53.597    0.307    0.391
  395.750   52.016   51.794    0.292    0.392
  396.000   50.102   48.766    0.292    0.389
  396.250   46.482   53.049    0.304    0.381
  396.500   45.614   57.337    0.271    0.375
  396.750   44.766   53.094    0.283    0.378
  397.000   43.117   51.892    0.305    0.369
  397.250   40.002   53.742    0.283    0.362
  397.500   37.113   58.027    0.260    0.358
  397.750   35.746   58.657    0.247    0.348
  398.000   33.791   56.844    0.261    0.364
  398.250   31.942   59.306    0.275    0.360
  398.500   30.195   61.763    0.290    0.357
  398.750   29.082   66.053    0.270    0.370
  399.000   29.080   67.293    0.255    0.362
  399.250   31.930   56.337    0.246    0.365
  399.500   35.060   51.477    0.261    0.370
  399.750   39.224   49.669    0.268    0.360
  400.000   41.486   49.688    0.284    0.350
  400.250   39.957   50.320    0.295    0.341
  400.500   37.772   47.285    0.293    0.334
  400.750   35.706   47.918    0.289    0.329
  401.000   35.040   59.524    0.290    0.343
  401.250   34.386   58.936    0.293    0.373
  401.500   33.120   54.072    0.305    0.371
  401.750   33.117   51.653    0.293    0.366
  402.000   33.740   52.892    0.294    0.357
  402.250   37.748   52.914    0.299    0.361
  402.500   33.108   47.443    0.302    0.366
  402.750   29.039   51.128    0.304    0.358
  403.000   25.470   56.631    0.272    0.346
  403.250   23.192   65.798    0.245    0.328
  403.500   21.118   68.865    0.239    0.329
  403.750   20.725   65.227    0.232    0.339
  404.000   23.186   67.076    0.233    0.338
  404.250   26.430   71.367    0.238    0.330
  404.500   22.330   75.656    0.243    0.323
  404.750   19.956   76.892    0.222    0.339
  405.000   21.505   73.254    0.223    0.355
  405.250   24.977   65.957    0.238    0.369
  405.500   30.685   59.272    0.247    0.363
  405.750   38.411   52.581    0.255    0.359
  406.000   45.455   50.161    0.262    0.348
  406.250   50.854   39.814    0.288    0.358
  406.500   49.905   32.520    0.318    0.385
  406.750   46.301   33.148    0.339    0.374
  407.000   37.681   36.828    0.318    0.362
  407.250   26.899   45.381    0.272    0.351
  407.500   22.726   51.498    0.245    0.337
  407.750   21.483   59.456    0.221    0.327
  408.000   20.307   61.294    0.215    0.315
  408.250   19.560   65.582    0.223    0.314
  408.500   19.927   66.214    0.234    0.332
  408.750   22.715   66.843    0.232    0.341
  409.000   27.907   64.423    0.223    0.375
  409.250   31.221   57.734    0.239    0.394
  409.500   31.809   52.884    0.259    0.365
  409.750   29.511   48.633    0.255    0.343
  410.000   23.134   43.772    0.266    0.354
  410.250   20.291   48.056    0.295    0.347
  410.500   18.133   60.882    0.294    0.293
  410.750   16.205   72.487    0.246    0.296
