~VERSION INFORMATION
 VERS.                 2.0:   CWLS LOG ASCII STANDARD -VERSION 2.0
 WRAP.                  NO:   ONE LINE PER DEPTH STEP
~WELL INFORMATION BLOCK
#MNEM.UNIT           DATA                    DESCRIPTION OF MNEMONIC
#---------    -------------------            -------------------------------
# Generated from Intellog Unique Number	CS_67_68/WELL/858
WELL.         AEC MARGUERITA                 : Well_name    - WELL
LOC .         00/15-26-068-05W4/0            : Location     - LOCATION
UWI .         00/15-26-068-05W4/0            : Uwi          - UNIQUE WELL ID
ENTR.         SP                             : Entered      - ENTERED BY
SRVC.         SCHLUMBERGER                   : Scn          - SERVICE COMPANY
STRT.M        360                            : top_depth    - START DEPTH
STOP.M        605                            : bot_depth    - STOP DEPTH
STEP.M        0.25                           : increment    - STEP LENGTH
 NULL. -999.2500:NULL Value
~CURVE INFORMATION BLOCK
#MNEM UNIT       ERCB CURVE CODE    CURVE DESCRIPTION
#-----------   ------------------   ----------------------------------
DEPT.M        00 001 00 00         : DEPTH        - DEPTH
ILD .OHMM     00 120 00 00         : RESD         - DEEP RESISTIVITY (DIL)
DPHI.V/V      00 890 00 00         : PHID         - DENSITY POROSITY (LIMESTONE)
NPHI.V/V      00 330 00 00         : PHIN         - NEUTRON POROSITY (LIMESTONE)
GR  .API      00 310 00 00         : GR           - GAMMA RAY
~PARAMETER INFORMATION
#MNEM.UNIT           DATA             DESCRIPTION OF MNEMONIC
#---------         -----------     ------------------------------
GL  .M        713.2                : gl           - GROUND LEVEL ELEVATION
EREF.M        716.8                : kb           - ELEVATION OF DEPTH REFERENCE
DATM.M        713.2                : datum        - DATUM ELEVATION
TDD .M        610                  : tdd          - TOTAL DEPTH DRILLER
RUN .         ONE                  : Run          - RUN NUMBER
ENG .         BILL                 : Engineer     - RECORDING ENGINEER
WIT .         JIM                  : Witness      - WITNESSED BY
MUD .         GEL                  : Mud_type     - MUD TYPE
MATR.         LIMESTONE            : Logunit      - NEUTRON MATRIX
TMAX.C        24                   : BHT          - MAXIMUM RECORDED TEMPERATURE
BHTD.M        610                  : BHTDEP       - MAXIMUM RECORDED TEMPERATURE
MATR.         1                    : LOGUNIT      - NEUTRON MATRIX
RMT .C        25                   : MDTP         - TEMPERATURE OF MUD
NEUT.         1                    : NEUTRON      - NEUTRON TYPE
RESI.         0                    : RESIST       - RESISTIVITY TYPE
RMC .OHMM     0.25                 : RMC          - RESISTIVITY OF MUD CAKE
RMF .OHMM     0.25                 : RMF          - RESISTIVITY OF MUD FILTRATE
SUFT.C        15                   : SUFT         - SURFACE TEMPERATURE
~A  DEPTH     RESD     PHID     PHIN       GR
# ...
  490.500   14.689    0.319    0.492   56.892
  490.750   15.566    0.333    0.483   55.602
  491.000   15.711    0.348    0.477   57.628
  491.250   15.858    0.354    0.471   57.382
  491.500   15.447    0.299    0.455   55.415
  491.750   14.520    0.277    0.439   57.135
  492.000   13.881    0.258    0.419   60.451
  492.250   13.420    0.272    0.422   63.337
  492.500   13.319    0.296    0.465   63.643
  492.750   13.318    0.321    0.471   63.029
  493.000   13.392    0.341    0.483   60.571
  493.250   13.594    0.348    0.492   58.912
  493.500   13.772    0.352    0.491   57.191
  493.750   13.592    0.353    0.495   56.331
  494.000   13.116    0.348    0.492   56.944
  494.250   13.091    0.340    0.484   58.786
  494.500   13.262    0.336    0.494   59.953
  494.750   13.716    0.338    0.496   60.443
  495.000   14.755    0.345    0.484   59.583
  495.250   15.724    0.328    0.476   57.862
  495.500   15.960    0.264    0.440   57.677
  495.750   14.975    0.232    0.400   59.335
  496.000   13.457    0.218    0.377   61.300
  496.250   12.674    0.252    0.432   63.510
  496.500   11.914    0.319    0.485   64.431
  496.750   11.475    0.347    0.478   65.597
  497.000   11.240    0.340    0.467   67.132
  497.250   11.114    0.334    0.465   66.702
  497.500   11.197    0.334    0.472   62.954
  497.750   11.344    0.339    0.476   62.093
  498.000   11.450    0.333    0.471   62.216
  498.250   11.492    0.329    0.471   61.785
  498.500   11.534    0.331    0.477   60.310
  498.750   11.405    0.332    0.467   60.678
  499.000   10.883    0.330    0.468   61.353
  499.250    9.438    0.329    0.473   59.264
  499.500    7.767    0.339    0.455   59.386
  499.750    6.145    0.333    0.447   65.221
  500.000    5.260    0.309    0.438   71.117
  500.250    4.701    0.289    0.465   75.293
  500.500    4.502    0.275    0.504   78.609
  500.750    4.410    0.274    0.516   77.319
  501.000    4.320    0.270    0.508   75.537
  501.250    4.320    0.273    0.498   74.738
  501.500    4.376    0.269    0.488   74.245
  501.750    4.426    0.261    0.478   74.552
  502.000    4.492    0.256    0.476   75.350
  502.250    4.655    0.256    0.489   76.578
  502.500    5.179    0.259    0.482   77.560
  502.750    5.827    0.258    0.473   77.313
  503.000    6.471    0.255    0.461   75.040
  503.250    7.531    0.251    0.453   72.214
  503.500    8.780    0.257    0.461   72.766
  503.750   10.809    0.271    0.478   72.397
  504.000   12.322    0.294    0.481   66.192
  504.250   13.230    0.318    0.474   61.584
  504.500   13.479    0.328    0.476   57.346
  504.750   13.328    0.329    0.472   53.721
  505.000   12.204    0.324    0.471   54.580
  505.250   11.429    0.317    0.470   57.589
  505.500   11.864    0.318    0.464   58.633
  505.750   12.835    0.314    0.477   59.983
  506.000   14.094    0.291    0.504   61.580
  506.250   15.361    0.173    0.495   61.333
  506.500   16.649    0.099    0.373   52.487
  506.750   18.044    0.129    0.351   50.091
  507.000   18.418    0.220    0.400   53.100
  507.250   17.941    0.282    0.461   56.478
  507.500   17.410    0.323    0.479   59.180
  507.750   16.612    0.302    0.452   57.705
  508.000   14.624    0.276    0.421   58.011
  508.250   12.613    0.254    0.426   61.266
  508.500   10.149    0.266    0.443   64.337
  508.750    8.228    0.292    0.457   67.838
  509.000    6.074    0.309    0.463   69.864
  509.250    4.352    0.314    0.464   68.819
  509.500    3.469    0.311    0.447   71.214
  509.750    2.755    0.307    0.453   74.591
  510.000    2.376    0.291    0.477   78.829
  510.250    2.084    0.281    0.507   84.111
  510.500    1.890    0.295    0.531   85.646
  510.750    1.866    0.306    0.546   77.599
  511.000    1.862    0.320    0.565   75.325
  511.250    1.855    0.330    0.575   72.868
  511.500    1.851    0.326    0.582   70.103
  511.750    1.851    0.318    0.595   67.461
  512.000    1.855    0.315    0.606   65.986
  512.250    1.875    0.321    0.605   67.705
  512.500    1.900    0.324    0.590   70.161
  512.750    1.918    0.324    0.571   72.925
  513.000    1.976    0.321    0.551   74.644
  513.250    2.036    0.319    0.552   73.046
  513.500    2.086    0.325    0.566   72.186
  513.750    2.202    0.327    0.560   73.414
  514.000    2.308    0.316    0.574   73.106
  514.250    2.387    0.309    0.567   73.044
  514.500    2.414    0.295    0.548   74.456
  514.750    2.413    0.286    0.529   77.096
  515.000    2.409    0.278    0.549   78.631
  515.250    2.418    0.272    0.571   79.245
  515.500    2.427    0.278    0.583   79.551
  515.750    2.436    0.286    0.564   79.981
  516.000    2.472    0.290    0.557   80.349
  516.250    2.552    0.291    0.559   78.567
  516.500    2.684    0.287    0.541   71.871
  516.750    2.807    0.255    0.517   74.204
  517.000    2.903    0.222    0.506   77.029
  517.250    2.980    0.218    0.514   80.775
  517.500    2.930    0.249    0.522   81.941
  517.750    2.860    0.261    0.530   81.326
  518.000    2.908    0.266    0.541   82.739
  518.250    2.974    0.271    0.524   85.195
  518.500    3.042    0.284    0.497   82.921
  518.750    3.140    0.269    0.490   77.700
  519.000    3.284    0.256    0.513   74.874
  519.250    3.613    0.267    0.516   76.716
  519.500    3.757    0.271    0.492   75.118
  519.750    3.893    0.166    0.462   71.800
  520.000    4.103    0.162    0.457   75.424
  520.250    4.212    0.187    0.473   79.415
  520.500    4.331    0.212    0.470   82.732
  520.750    4.331    0.231    0.460   83.591
  521.000    4.156    0.228    0.454   82.730
  521.250    4.018    0.236    0.465   82.730
  521.500    3.928    0.235    0.476   85.125
  521.750    3.834    0.227    0.487   88.195
  522.000    3.679    0.223    0.494   89.362
  522.250    3.530    0.228    0.493   86.904
  522.500    3.847    0.237    0.484   88.132
  522.750    4.781    0.244    0.505   89.851
  523.000    6.041    0.248    0.526   78.548
  523.250    7.736    0.250    0.509   62.393
  523.500   10.244    0.110    0.437   56.004
  523.750   15.409    0.165    0.364   48.632
  524.000   18.513    0.227    0.415   48.201
  524.250   20.177    0.309    0.445   50.105
  524.500   20.404    0.320    0.451   51.824
  524.750   19.542    0.330    0.443   53.605
  525.000   18.612    0.331    0.433   56.061
  525.250   18.232    0.316    0.424   58.149
  525.500   20.170    0.312    0.415   59.745
  525.750   20.667    0.320    0.420   59.069
  526.000   21.535    0.328    0.417   53.478
  526.250   21.818    0.337    0.422   49.178
  526.500   19.607    0.343    0.427   51.511
  526.750   18.089    0.341    0.417   57.653
  527.000   16.409    0.337    0.409   64.716
  527.250   14.941    0.327    0.426   71.104
  527.500   13.862    0.325    0.448   68.339
  527.750   12.933    0.336    0.443   66.250
  528.000   12.456    0.334    0.432   62.748
  528.250   12.202    0.326    0.432   61.642
  528.500   11.427    0.331    0.448   63.177
  528.750    9.690    0.332    0.437   68.028
  529.000    8.595    0.315    0.429   72.512
  529.250    7.510    0.296    0.423   76.504
  529.500    7.033    0.277    0.418   79.083
  529.750    6.501    0.252    0.418   81.847
  530.000    5.930    0.232    0.404   82.829
  530.250    5.648    0.216    0.364   79.573
  530.500    5.522    0.204    0.364   83.380
  530.750    5.389    0.199    0.398   89.276
  531.000    5.460    0.206    0.430   93.207
  531.250    5.721    0.217    0.449   86.142
  531.500    6.017    0.227    0.473   82.272
  531.750    6.294    0.237    0.487   78.156
  532.000    6.497    0.244    0.430   75.329
  532.250    6.682    0.238    0.381   77.417
  532.500    7.147    0.231    0.380   82.760
  532.750    8.209    0.224    0.392   79.627
  533.000    9.015    0.231    0.405   68.447
  533.250   10.105    0.255    0.434   57.943
  533.500   10.412    0.280    0.439   46.640
  533.750   10.372    0.280    0.343   48.298
