~VERSION INFORMATION
 VERS.                 2.0:   CWLS LOG ASCII STANDARD -VERSION 2.0
 WRAP.                  NO:   ONE LINE PER DEPTH STEP
~WELL INFORMATION BLOCK
#MNEM.UNIT           DATA                    DESCRIPTION OF MNEMONIC
#---------    -------------------            -------------------------------
# Generated from Intellog Unique Number	CW_73_75/WELL/3025
WELL.         11-21-075-26W4                 : Well_name    - WELL
LOC .         00/11-21-075-26W4/0            : Location     - LOCATION
UWI .         00/11-21-075-26W4/0            : Uwi          - UNIQUE WELL ID
ENTR.         JJ                             : Entered      - ENTERED BY
SRVC.         WESTERN ATLAS                  : Scn          - SERVICE COMPANY
DATE.         1 APR 68                       : Date         - LOG DATE
STRT.M        649.224                        : top_depth    - START DEPTH
STOP.M        777.224                        : bot_depth    - STOP DEPTH
STEP.M        0.25                           : increment    - STEP LENGTH
 NULL. -999.2500:NULL Value
~CURVE INFORMATION BLOCK
#MNEM UNIT       ERCB CURVE CODE    CURVE DESCRIPTION
#-----------   ------------------   ----------------------------------
DEPT.M        00 001 00 00         : DEPTH        - DEPTH
DELT.US/F     00 520 00 00         : DELT         - SONIC TRAVEL TIME
GR  .API      00 310 00 00         : GR           - GAMMA RAY
ILD .OHMM     00 120 00 00         : RESD         - DEEP RESISTIVITY (DIL)
~PARAMETER INFORMATION
#MNEM.UNIT           DATA             DESCRIPTION OF MNEMONIC
#---------         -----------     ------------------------------
GL  .M        870.417              : gl           - GROUND LEVEL ELEVATION
EREF.M        874.776              : kb           - ELEVATION OF DEPTH REFERENCE
DATM.M        870.417              : datum        - DATUM ELEVATION
TDD .M        776.021              : tdd          - TOTAL DEPTH DRILLER
RUN .         ONE                  : Run          - RUN NUMBER
ENG .         MOORE                : Engineer     - RECORDING ENGINEER
WIT .         SANDERSON            : Witness      - WITNESSED BY
BASE.         S.L.                 : Branch       - HOME BASE OF LOGGING UNIT
MUD .         GEL                  : Mud_type     - MUD TYPE
MATR.         SANDSTONE            : Logunit      - NEUTRON MATRIX
TMAX.C        30.5556              : BHT          - MAXIMUM RECORDED TEMPERATURE
BHTD.M        776.63               : BHTDEP       - MAXIMUM RECORDED TEMPERATURE
RMT .C        20.5556              : MDTP         - TEMPERATURE OF MUD
MUDD.KG/M     1224                 : MWT          - MUD DENSITY
NEUT.         1                    : NEUTRON      - NEUTRON TYPE
RESI.         0                    : RESIST       - RESISTIVITY TYPE
RM  .OHMM     6.1                  : RM           - RESISTIVITY OF MUD
RMC .OHMM     6.4                  : RMC          - RESISTIVITY OF MUD CAKE
RMF .OHMM     5.9                  : RMF          - RESISTIVITY OF MUD FILTRATE
SUFT.C        5                    : SUFT         - SURFACE TEMPERATURE
~A  DEPTH     DELT       GR     RESD
# ...
  703.474  310.088   64.206    6.822
  703.724  318.625   64.636    6.917
  703.974  314.971   67.700    7.092
  704.224  308.906   73.359    7.563
  704.474  305.394   69.253    7.924
  704.724  309.982   68.186    8.368
  704.974  303.650   66.421    8.981
  705.224  289.486   68.743    9.593
  705.474  259.989   67.577   10.059
  705.724  235.041   65.114   10.321
  705.974  279.873   59.013   10.291
  706.224  281.446   67.363    9.954
  706.474  255.562   70.681    9.637
  706.724  277.025   65.379    9.441
  706.974  310.874   66.154    9.208
  707.224  288.273   62.846    9.037
  707.474  288.102   59.387    8.903
  707.724  315.190   61.759    8.753
  707.974  316.428   66.022    8.580
  708.224  303.199   63.960    8.343
  708.474  313.008   65.531    8.006
  708.724  331.457   69.147    7.771
  708.974  323.321   70.121    7.496
  709.224  332.259   64.023    7.361
  709.474  338.251   66.395    7.211
  709.724  326.966   65.675    7.098
  709.974  324.051   66.652    7.113
  710.224  331.583   67.229    7.206
  710.474  341.125   72.388    7.431
  710.724  339.751   67.685    7.527
  710.974  330.742   66.567    7.727
  711.224  312.625   73.071    7.837
  711.474  322.635   70.660    7.994
  711.724  326.355   70.042    8.006
  711.974  335.426   72.167    7.733
  712.224  328.557   73.638    7.599
  712.474  331.999   69.729    7.467
  712.724  336.193   68.065    7.956
  712.974  341.311   74.121    8.505
  713.224  315.832   73.204    9.076
  713.474  297.248   68.051    9.584
  713.724  285.160   60.310   10.133
  713.974  302.937   65.420   10.847
  714.224  319.110   70.484   11.377
  714.474  294.094   74.942    9.802
  714.724  271.829   65.555    8.615
  714.974  316.325   57.263    7.453
  715.224  333.233   68.354    6.520
  715.474  340.965   70.973    6.217
  715.724  340.862   74.538    6.005
  715.974  340.762   75.714    6.203
  716.224  340.058   75.990    6.422
  716.474  341.162   72.584    6.910
  716.724  336.974   74.755    6.531
  716.974  325.959   68.057    6.192
  717.224  318.558   67.238    6.288
  717.474  348.724   68.114    6.962
  717.724  340.653   75.964    7.675
  717.974  318.723   72.955    9.752
  718.224  285.808   63.120   14.947
  718.474  335.595   52.787   24.744
  718.724  357.189   48.979   37.164
  718.974  360.771   47.821   36.992
  719.224  353.772   46.445   31.100
  719.474  335.725   44.733   25.231
  719.724  307.762   45.160   22.435
  719.974  315.163   39.756   19.147
  720.224  334.950   45.265   17.220
  720.474  348.508   46.144   15.930
  720.724  356.573   48.612   14.664
  720.974  350.844   45.652   13.850
  721.224  342.040   49.765   13.763
  721.474  323.392   50.645   14.787
  721.724  277.823   50.726   15.809
  721.974  245.976   50.751   17.743
  722.224  250.629   47.590   19.158
  722.474  263.384   49.660   20.492
  722.724  283.911   48.147   19.101
  722.974  326.266   49.072   16.678
  723.224  355.360   52.041   14.959
  723.474  347.893   50.872   13.816
  723.724  344.638   53.398   13.024
  723.974  343.599   49.688   12.460
  724.224  342.224   46.178   12.202
  724.474  340.115   43.067   12.234
  724.724  340.620   46.084   12.701
  724.974  339.108   52.690   13.830
  725.224  331.378   48.092   15.022
  725.474  264.444   51.849   15.654
  725.724  259.857   47.995   15.664
  725.974  318.415   56.194   15.121
  726.224  350.457   57.073   14.389
  726.474  356.114   52.167   12.770
  726.724  358.155   53.389   11.380
  726.974  367.497   53.769   11.168
  727.224  377.238   52.801   11.530
  727.474  354.566   52.432   12.202
  727.724  335.517   52.658   13.642
  727.974  299.854   47.859   14.604
  728.224  313.550   45.392   15.567
  728.474  322.623   45.421   16.240
  728.724  314.817   48.343   16.583
  728.974  304.003   51.657   16.388
  729.224  298.947   45.857   15.617
  729.474  326.033   47.280   15.505
  729.724  327.267   53.593   16.100
  729.974  309.084   49.133   16.769
  730.224  293.180   46.576   18.188
  730.474  276.204   45.754   19.565
  730.724  262.375   46.777   20.876
  730.974  273.789   40.732   22.126
  731.224  290.765   40.408   20.550
  731.474  304.188   46.316   18.129
  731.724  312.123   43.906   16.860
  731.974  323.942   46.477   15.884
  732.224  320.897   50.144   15.339
  732.474  278.004   53.757   14.999
  732.724  261.363   49.698   15.096
  732.974  283.560   47.188   15.149
  733.224  313.589   50.307   14.959
  733.474  318.447   52.226   14.682
  733.724  324.706   50.962   14.403
  733.974  333.038   50.791   14.457
  734.224  320.150   50.369   15.215
  734.474  292.593   56.377   15.639
  734.724  292.086   48.887   15.838
  734.974  306.381   53.148   15.664
  735.224  319.945   50.487   15.100
  735.474  329.280   56.243   14.433
  735.724  328.915   58.816   14.094
  735.974  324.188   57.005   13.737
  736.224  318.935   55.987   13.565
  736.474  307.582   53.123   13.574
  736.724  319.598   50.063   13.940
  736.974  328.474   52.481   14.467
  737.224  317.120   50.320   15.284
  737.474  284.274   52.937   16.477
  737.724  265.356   53.467   17.230
  737.974  249.516   49.263   17.533
  738.224  274.189   45.701   16.040
  738.474  303.418   54.550   13.739
  738.724  316.378   52.490   12.720
  738.974  339.511   52.366   12.341
  739.224  325.883   56.626   11.987
  739.474  259.888   48.436   11.831
  739.724  275.721   47.468   11.370
  739.974  313.725   53.626   10.781
  740.224  331.974   63.667    9.474
  740.474  322.093   65.889    8.455
  740.724  313.757   56.653    7.766
  740.974  327.314   64.852    7.490
  741.224  315.758   64.184    7.401
  741.474  314.724   65.608    7.350
  741.724  332.099   68.375    7.388
  741.974  328.848   60.879    7.504
  742.224  295.066   57.426    7.493
  742.474  286.193   55.407    7.320
  742.724  316.761   63.656    7.125
  742.974  317.794   67.421    6.666
  743.224  292.047   61.625    6.285
  743.474  293.017   61.757    5.846
  743.724  313.807   66.711    5.609
  743.974  329.176   72.323    5.457
  744.224  324.856   75.538    5.385
  744.474  330.507   72.729    5.336
  744.724  331.145   68.670    5.577
  744.974  333.389   72.635    6.048
  745.224  332.079   77.747    6.431
  745.474  322.404   78.523    7.021
  745.724  307.505   68.888    7.797
  745.974  300.572   66.427    8.573
  746.224  313.323   61.572    9.411
  746.474  318.648   62.549   10.685
  746.724  311.718   63.570   11.501
  746.974  284.630   64.646   12.671
  747.224  265.712   59.396   13.592
  747.474  251.814   55.686   13.811
  747.724  277.091   70.462   12.133
  747.974  314.424   73.582   10.907
  748.224  314.178   74.654    9.782
  748.474  312.141   66.414    9.467
  748.724  310.169   57.275    9.828
  748.974  298.683   60.248   11.020
  749.224  280.968   62.518   11.652
  749.474  278.584   62.544   11.870
  749.724  299.513   65.314   11.593
  749.974  314.683   63.100   10.906
  750.224  307.482   71.100   10.113
  750.474  304.569   68.988    9.032
  750.724  307.543   70.160    7.995
  750.974  313.472   77.115    7.570
  751.224  323.482   77.842    7.091
  751.474  332.823   80.064    6.977
  751.724  317.184   79.146    7.197
  751.974  285.208   61.736    8.841
  752.224  262.606   50.904   10.298
  752.474  276.499   54.870   11.941
  752.724  298.093   59.434   13.441
  752.974  288.083   56.124   11.412
  753.224  323.070   59.589    9.938
  753.474  333.616   63.658    8.650
  753.724  315.299   62.493    7.754
  753.974  302.408   62.817    7.332
  754.224  317.104   65.736    7.079
  754.474  327.850   68.056    7.071
  754.724  331.167   70.025    7.123
  754.974  305.216   66.121    7.179
  755.224  288.037   65.051    7.606
  755.474  297.640   58.956    7.948
  755.724  311.139   59.179    8.393
  755.974  321.818   65.187    9.272
  756.224  292.518   69.201   10.504
  756.474  305.811   59.914    9.649
  756.724  322.115   65.623    8.568
  756.974  336.345   72.927    8.128
  757.224  304.496   67.722    7.896
  757.474  298.230   61.575    7.847
