~VERSION INFORMATION
 VERS.                 2.0:   CWLS LOG ASCII STANDARD -VERSION 2.0
 WRAP.                  NO:   ONE LINE PER DEPTH STEP
~WELL INFORMATION BLOCK
#MNEM.UNIT           DATA                    DESCRIPTION OF MNEMONIC
#---------    -------------------            -------------------------------
# Generated from Intellog Unique Number	CW_76_78/WELL/2779
WELL.         ASHLAND ET AL PELICAN          : Well_name    - WELL
LOC .         00/10-28-077-20W4/0            : Location     - LOCATION
UWI .         00/10-28-077-20W4/0            : Uwi          - UNIQUE WELL ID
ENTR.         JOE                            : Entered      - ENTERED BY
SRVC.         SCHLUMBERGER                   : Scn          - SERVICE COMPANY
STRT.M        228.6                          : top_depth    - START DEPTH
STOP.M        466.35                         : bot_depth    - STOP DEPTH
STEP.M        0.25                           : increment    - STEP LENGTH
 NULL. -999.2500:NULL Value
~CURVE INFORMATION BLOCK
#MNEM UNIT       ERCB CURVE CODE    CURVE DESCRIPTION
#-----------   ------------------   ----------------------------------
DEPT.M        00 001 00 00         : DEPTH        - DEPTH
ILD .OHMM     00 120 00 00         : RESD         - DEEP RESISTIVITY (DIL)
DPHI.V/V      00 890 00 00         : PHID         - DENSITY POROSITY (SANDSTONE)
NPHI.V/V      00 330 00 00         : PHIN         - NEUTRON POROSITY (SANDSTONE)
GR  .API      00 310 00 00         : GR           - GAMMA RAY
CALI.MM       00 280 01 00         : CAL          - CALIPER
~PARAMETER INFORMATION
#MNEM.UNIT           DATA             DESCRIPTION OF MNEMONIC
#---------         -----------     ------------------------------
GL  .M        571.195              : gl           - GROUND LEVEL ELEVATION
EREF.M        574.853              : kb           - ELEVATION OF DEPTH REFERENCE
DATM.M        574.853              : datum        - DATUM ELEVATION
TDD .M        499.872              : tdd          - TOTAL DEPTH DRILLER
RUN .         ONE                  : Run          - RUN NUMBER
ENG .         McNAUGHTON           : Engineer     - RECORDING ENGINEER
WIT .         LINKE                : Witness      - WITNESSED BY
MUD .         GEL                  : Mud_type     - MUD TYPE
MATR.         SANDSTONE            : Logunit      - NEUTRON MATRIX
TMAX.C        22.7778              : BHT          - MAXIMUM RECORDED TEMPERATURE
BHTD.M        499.872              : BHTDEP       - MAXIMUM RECORDED TEMPERATURE
RMT .C        16.1111              : MDTP         - TEMPERATURE OF MUD
MUDD.KG/M     61000                : MWT          - MUD DENSITY
NEUT.         1                    : NEUTRON      - NEUTRON TYPE
RESI.         0                    : RESIST       - RESISTIVITY TYPE
RM  .OHMM     1.1                  : RM           - RESISTIVITY OF MUD
RMC .OHMM     1.34                 : RMC          - RESISTIVITY OF MUD CAKE
RMF .OHMM     2.87                 : RMF          - RESISTIVITY OF MUD FILTRATE
SUFT.C        -12.2222             : SUFT         - SURFACE TEMPERATURE
~A  DEPTH     RESD     PHID     PHIN       GR      CAL
# ...
  265.100    6.183    0.228    0.563  118.197  186.752
  265.350    6.178    0.235    0.471  114.984  185.255
  265.600    6.273    0.253    0.456  113.518  182.767
  265.850    6.859    0.243    0.464  111.756  180.774
  266.100    7.446    0.234    0.470  110.580  178.782
  266.350    8.427    0.235    0.477  109.405  177.282
  266.600    9.310    0.237    0.476  107.355  178.240
  266.850   10.389    0.225    0.476  105.305  179.200
  267.100   11.174    0.227    0.483  101.510  179.676
  267.350   11.267    0.242    0.524   88.988  179.159
  267.600   10.869    0.283    0.528   80.247  177.659
  267.850   10.373    0.291    0.509   75.577  174.189
  268.100    9.974    0.291    0.480   75.564  169.238
  268.350    9.575    0.302    0.466   78.169  166.756
  268.600    9.374    0.298    0.444   81.067  163.773
  268.850    9.174    0.304    0.421   84.835  163.258
  269.100    9.071    0.300    0.424   87.439  163.220
  269.350    9.066    0.297    0.420   89.168  163.707
  269.600    9.161    0.282    0.415   89.158  164.673
  269.850    9.649    0.265    0.417   86.526  165.633
  270.100    9.645    0.273    0.421   84.476  166.104
  270.350    9.641    0.275    0.427   83.007  166.104
  270.600    9.538    0.283    0.423   82.414  166.057
  270.850    9.041    0.295    0.417   83.272  167.020
  271.100    8.347    0.301    0.415   86.461  166.998
  271.350    7.654    0.286    0.426   91.972  166.998
  271.600    7.354    0.284    0.448   96.615  167.436
  271.850    7.251    0.291    0.469  100.384  167.918
  272.100    7.345    0.287    0.454  102.986  168.388
  272.350    7.637    0.281    0.439  104.721  168.358
  272.600    8.125    0.272    0.429  105.872  168.829
  272.850    8.515    0.263    0.419  105.857  168.809
  273.100    8.215    0.255    0.430  102.935  169.283
  273.350    7.718    0.245    0.454   90.704  169.258
  273.600    7.123    0.256    0.468   68.290  168.248
  273.850    6.725    0.292    0.476   61.877  167.244
  274.100    6.426    0.311    0.471   62.151  165.744
  274.350    6.126    0.307    0.485   63.884  164.734
  274.600    5.826    0.285    0.479   65.909  163.724
  274.850    5.624    0.266    0.484   67.349  163.702
  275.100    5.522    0.255    0.480   67.919  163.702
  275.350    5.518    0.261    0.475   69.065  163.655
  275.600    5.710    0.279    0.467   70.801  163.630
  275.850    5.903    0.278    0.481   74.277  163.614
  276.100    6.096    0.283    0.508   74.847  164.082
  276.350    6.387    0.290    0.488   73.089  164.060
  276.600    6.679    0.292    0.478   68.129  164.528
  276.850    6.773    0.298    0.502   63.170  164.503
  277.100    6.966    0.304    0.525   62.576  164.486
  277.350    7.158    0.315    0.511   63.723  164.464
  277.600    7.253    0.316    0.472   62.839  164.932
  277.850    7.446    0.305    0.469   60.788  165.400
  278.100    7.442    0.294    0.430   59.031  165.868
  278.350    7.536    0.275    0.402   57.273  166.344
  278.600    7.531    0.250    0.364   55.511  166.812
  278.850    7.626    0.206    0.304   54.334  167.283
  279.100    7.917    0.202    0.325   54.323  167.750
  279.350    8.109    0.243    0.417   55.181  168.224
  279.600    8.008    0.332    0.484   55.457  168.692
  279.850    7.905    0.325    0.494   55.446  168.672
  280.100    7.704    0.335    0.495   55.724  168.648
  280.350    7.704    0.348    0.488   55.711  168.623
  280.600    7.595    0.355    0.485   56.278  168.108
  280.850    7.493    0.361    0.508   57.136  167.596
  281.100    7.391    0.366    0.526   57.416  167.558
  281.350    7.387    0.354    0.525   57.400  167.057
  281.600    7.383    0.355    0.512   57.096  166.047
  281.850    7.280    0.353    0.465   56.212  165.043
  282.100    7.178    0.339    0.490   55.906  163.537
  282.350    7.074    0.336    0.467   55.892  163.020
  282.600    6.972    0.340    0.464   55.880  163.001
  282.850    6.967    0.346    0.462   58.194  162.979
  283.100    7.160    0.344    0.472   59.927  162.954
  283.350    7.353    0.331    0.489   60.203  162.929
  283.600    7.349    0.324    0.512   59.026  162.910
  283.850    7.345    0.334    0.530   58.142  162.910
  284.100    7.341    0.341    0.546   58.708  162.855
  284.350    7.238    0.339    0.521   59.279  162.841
  284.600    7.036    0.331    0.486   61.011  162.822
  284.850    6.737    0.318    0.492   66.816  162.800
  285.100    6.339    0.303    0.499   73.201  163.265
  285.350    5.743    0.293    0.531   72.898  163.249
  285.600    5.148    0.308    0.536   76.668  163.719
  285.850    4.454    0.311    0.496   80.726  164.182
  286.100    4.352    0.301    0.501   84.784  164.658
  286.350    4.939    0.281    0.507   88.264  166.108
  286.600    5.722    0.240    0.531   91.160  168.549
  286.850    6.408    0.198    0.526   94.053  170.498
  287.100    7.586    0.202    0.512   95.207  171.461
  287.350    8.566    0.209    0.516   83.847  171.461
  287.600   10.040    0.222    0.524   78.015  171.907
  287.850   10.331    0.236    0.515   70.146  172.875
  288.100   10.327    0.257    0.484   61.115  172.358
  288.350   10.323    0.282    0.462   53.538  166.917
  288.600   10.220    0.303    0.477   51.197  162.952
  288.850   10.117    0.341    0.494   49.727  162.927
  289.100    9.916    0.358    0.502   50.005  163.890
  289.350    9.813    0.356    0.495   50.285  164.853
  289.600    9.613    0.343    0.480   50.852  165.814
  289.850    9.510    0.330    0.463   50.256  166.783
  290.100    9.407    0.330    0.447   49.661  168.236
  290.350    9.402    0.343    0.458   48.483  169.689
  290.600    9.201    0.331    0.469   47.891  171.147
  290.850    9.001    0.328    0.470   47.582  173.583
  291.100    8.700    0.343    0.453   48.445  174.056
  291.350    8.401    0.350    0.457   50.760  173.542
  291.600    7.805    0.343    0.457   52.490  170.561
  291.850    7.210    0.329    0.462   52.188  167.088
  292.100    6.713    0.322    0.467   53.043  164.606
  292.350    6.611    0.332    0.476   53.906  163.599
  292.600    6.605    0.326    0.487   55.348  162.592
  292.850    6.800    0.316    0.497   57.371  161.582
  293.100    7.287    0.302    0.490   61.138  161.562
  293.350    7.677    0.287    0.493   63.452  161.048
  293.600    8.362    0.286    0.514   64.312  160.531
  293.850    8.655    0.289    0.538   62.845  160.508
  294.100    8.847    0.288    0.555   58.757  159.988
  294.350    8.744    0.297    0.553   54.381  159.972
  294.600    8.543    0.336    0.513   52.622  159.947
  294.850    8.243    0.341    0.476   52.900  160.415
  295.100    7.944    0.341    0.499   53.760  160.396
  295.350    7.643    0.329    0.500   54.618  161.359
  295.600    7.443    0.305    0.511   56.640  163.305
  295.850    7.143    0.319    0.516   60.700  165.253
  296.100    6.745    0.328    0.501   64.470  166.214
  296.350    6.543    0.329    0.477   67.655  165.206
  296.600    6.243    0.322    0.472   69.971  164.199
  296.850    6.141    0.328    0.479   72.576  162.207
  297.100    5.940    0.319    0.493   71.978  161.197
  297.350    5.639    0.301    0.537   71.676  161.178
  297.600    5.537    0.308    0.540   71.372  162.138
  297.850    5.632    0.313    0.514   71.650  162.609
  298.100    5.825    0.295    0.527   72.799  162.587
  298.350    6.411    0.279    0.549   73.077  162.562
  298.600    6.801    0.256    0.573   75.972  162.047
  298.850    6.994    0.259    0.555   82.069  162.025
  299.100    7.285    0.276    0.564   89.038  162.499
  299.350    7.575    0.284    0.583   89.316  165.427
  299.600    7.572    0.264    0.569   86.101  166.883
  299.850    7.470    0.254    0.552   84.634  168.341
  300.100    7.367    0.263    0.540   83.166  169.792
  300.350    7.265    0.278    0.525   79.081  170.265
  300.600    6.965    0.285    0.507   76.154  168.762
  300.850    6.664    0.282    0.467   78.471  167.265
  301.100    6.464    0.269    0.494   83.113  166.751
  301.350    6.459    0.253    0.541   82.518  166.236
