~VERSION INFORMATION
 VERS.                 2.0:   CWLS LOG ASCII STANDARD -VERSION 2.0
 WRAP.                  NO:   ONE LINE PER DEPTH STEP
~WELL INFORMATION BLOCK
#MNEM.UNIT           DATA                    DESCRIPTION OF MNEMONIC
#---------    -------------------            -------------------------------
# Generated from Intellog Unique Number	CW_82_90/WELL/992
WELL.         10-33-084-23W4                 : Well_name    - WELL
LOC .         00/10-33-084-23W4/0            : Location     - LOCATION
UWI .         00/10-33-084-23W4/0            : Uwi          - UNIQUE WELL ID
ENTR.         JAYE                           : Entered      - ENTERED BY
SRVC.         SCHLUMBERGER                   : Scn          - SERVICE COMPANY
DATE.         11 MAR 76                      : Date         - LOG DATE
STRT.M        182.88                         : top_depth    - START DEPTH
STOP.M        393.88                         : bot_depth    - STOP DEPTH
STEP.M        0.25                           : increment    - STEP LENGTH
 NULL. -999.2500:NULL Value
~CURVE INFORMATION BLOCK
#MNEM UNIT       ERCB CURVE CODE    CURVE DESCRIPTION
#-----------   ------------------   ----------------------------------
DEPT.M        00 001 00 00         : DEPTH        - DEPTH
CALI.MM       00 280 01 00         : CAL          - CALIPER
GR  .API      00 310 00 00         : GR           - GAMMA RAY
NPHI.V/V      00 330 00 00         : PHIN         - NEUTRON POROSITY (SANDSTONE)
DPHI.V/V      00 890 00 00         : PHID         - DENSITY POROSITY (SANDSTONE)
ILD .OHMM     00 120 00 00         : RESD         - DEEP RESISTIVITY (DIL)
~PARAMETER INFORMATION
#MNEM.UNIT           DATA             DESCRIPTION OF MNEMONIC
#---------         -----------     ------------------------------
GL  .M        573.329              : gl           - GROUND LEVEL ELEVATION
EREF.M        576.682              : kb           - ELEVATION OF DEPTH REFERENCE
DATM.M        573.329              : datum        - DATUM ELEVATION
TDD .M        404.774              : tdd          - TOTAL DEPTH DRILLER
RUN .         ONE                  : Run          - RUN NUMBER
BASE.         EDMONTON             : Branch       - HOME BASE OF LOGGING UNIT
MUD .         GEL CHEM             : Mud_type     - MUD TYPE
MATR.         SANDSTONE            : Logunit      - NEUTRON MATRIX
TMAX.C        21.6667              : BHT          - MAXIMUM RECORDED TEMPERATURE
BHTD.M        404.774              : BHTDEP       - MAXIMUM RECORDED TEMPERATURE
RMT .C        10                   : MDTP         - TEMPERATURE OF MUD
MUDD.KG/M     9200                 : MWT          - MUD DENSITY
NEUT.         1                    : NEUTRON      - NEUTRON TYPE
RESI.         0                    : RESIST       - RESISTIVITY TYPE
RM  .OHMM     1.9                  : RM           - RESISTIVITY OF MUD
RMC .OHMM     0                    : RMC          - RESISTIVITY OF MUD CAKE
RMF .OHMM     1.77                 : RMF          - RESISTIVITY OF MUD FILTRATE
SUFT.C        -17.7778             : SUFT         - SURFACE TEMPERATURE
~A  DEPTH      CAL       GR     PHIN     PHID     RESD
  182.880  169.069  101.956    0.574    0.236    2.900
  183.130  166.287   99.596    0.561    0.222    2.855
  183.380  164.520   99.357    0.555    0.205    2.817
  183.630  164.339  101.496    0.569    0.165    2.739
  183.880  164.709  104.362    0.596    0.185    2.731
  184.130  165.652  108.158    0.586    0.254    2.749
  184.380  165.699  110.101    0.584    0.242    2.813
  184.630  165.624  110.320    0.573    0.232    2.899
  184.880  165.214  108.227    0.551    0.229    2.999
  185.130  165.138  104.148    0.541    0.218    3.120
  185.380  164.827  103.579    0.545    0.220    3.216
  185.630  165.207  103.733    0.545    0.221    3.320
  185.880  165.586  105.543    0.536    0.225    3.447
  186.130  165.392  109.075    0.522    0.249    3.540
  186.380  165.328  106.450    0.545    0.255    3.543
  186.630  165.133  107.465    0.566    0.234    3.476
  186.880  165.616  110.335    0.592    0.214    3.367
  187.130  166.440  106.256    0.592    0.202    3.322
  187.380  166.821  104.827    0.579    0.213    3.306
  187.630  166.855  106.172    0.579    0.210    3.304
  187.880  165.202  108.774    0.584    0.213    3.325
  188.130  164.337  102.381    0.580    0.232    3.415
  188.380  163.586   93.804    0.552    0.233    3.759
  188.630  164.647   87.674    0.545    0.235    4.412
  188.880  166.705   80.353    0.557    0.230    5.684
  189.130  169.904   71.975    0.549    0.221    8.174
  189.380  164.642   63.727    0.523    0.214   10.805
  189.630  155.655   59.321    0.494    0.247   13.795
  189.880  154.794   60.466    0.512    0.300   16.308
  190.130  155.285   61.549    0.524    0.331   19.353
  190.380  156.231   55.556    0.513    0.354   21.977
  190.630  156.494   52.730    0.454    0.328   24.916
  190.880  156.069   51.363    0.442    0.319   25.963
  191.130  154.987   51.257    0.448    0.331   26.813
  191.380  154.237   51.743    0.464    0.348   27.581
  191.630  154.152   52.032    0.466    0.336   28.377
  191.880  154.310   50.804    0.481    0.335   29.358
  192.130  154.350   50.158    0.488    0.337   30.319
  192.380  154.282   48.066    0.489    0.344   30.396
  192.630  153.979   44.714    0.479    0.337   30.427
  192.880  153.223   42.359    0.473    0.336   30.742
  193.130  152.915   41.453    0.469    0.334   30.488
  193.380  152.171   41.810    0.447    0.333   30.023
  193.630  152.215   42.030    0.443    0.326   29.234
  193.880  152.477   42.449    0.448    0.323   28.060
  194.130  152.282   45.846    0.456    0.332   27.185
  194.380  152.540   47.259    0.470    0.333   26.810
  194.630  152.917   44.969    0.463    0.329   26.309
  194.880  153.407   43.138    0.468    0.324   25.991
  195.130  153.670   44.289    0.471    0.325   25.408
  195.380  153.717   45.303    0.456    0.331   24.883
  195.630  153.748   45.457    0.455    0.333   24.587
  195.880  153.556   45.217    0.455    0.331   24.430
  196.130  153.479   45.111    0.455    0.331   24.232
  196.380  153.187   44.935    0.458    0.326   24.168
  196.630  153.337   44.296    0.447    0.321   24.372
  196.880  153.498   43.987    0.445    0.318   24.799
  197.130  153.527   42.226    0.442    0.329   26.320
  197.380  153.446   41.392    0.431    0.338   29.622
  197.630  153.951   41.413    0.424    0.333   32.372
  197.880  154.331   41.635    0.428    0.319   34.860
  198.130  154.805   39.674    0.418    0.319   37.135
  198.380  154.960   37.447    0.429    0.318   38.486
  198.630  154.987   38.411    0.441    0.315   39.819
  198.880  154.916   39.081    0.438    0.317   40.742
  199.130  155.410   37.452    0.425    0.318   41.150
  199.380  155.904   34.496    0.429    0.319   41.269
  199.630  156.158   33.793    0.450    0.313   41.317
  199.880  156.158   35.008    0.448    0.307   41.119
  200.130  156.158   35.891    0.448    0.309   41.011
  200.380  157.193   36.644    0.450    0.315   40.751
  200.630  157.325   36.731    0.453    0.330   40.647
  200.880  154.684   37.814    0.457    0.319   40.688
  201.130  154.688   39.490    0.462    0.322   40.803
  201.380  156.534   41.499    0.456    0.328   41.443
  201.630  156.464   40.595    0.451    0.326   42.408
  201.880  156.273   38.702    0.445    0.306   42.760
  202.130  156.758   39.452    0.444    0.297   42.723
  202.380  156.913   40.933    0.462    0.307   42.534
  202.630  157.064   41.220    0.465    0.321   42.413
  202.880  156.988   40.448    0.461    0.306   42.151
  203.130  156.796   40.209    0.469    0.311   42.128
  203.380  155.598   39.639    0.471    0.320   42.158
  203.630  154.845   39.860    0.457    0.297   41.963
  203.880  154.204   40.344    0.457    0.291   41.778
  204.130  153.680   39.640    0.455    0.301   41.515
  204.380  153.834   37.219    0.448    0.308   41.252
  204.630  154.429   35.453    0.448    0.309   41.063
  204.880  154.584   35.477    0.458    0.311   40.808
  205.130  154.731   39.933    0.455    0.308   40.635
  205.380  155.113   40.626    0.450    0.308   40.670
  205.630  155.933   40.246    0.453    0.309   40.708
  205.880  156.313   39.142    0.458    0.317   40.597
  206.130  156.238   41.415    0.465    0.327   40.270
  206.380  156.049   42.765    0.473    0.325   40.013
  206.630  156.422   42.851    0.474    0.323   39.840
  206.880  157.476   43.142    0.453    0.321   39.652
  207.130  157.969   42.633    0.439    0.312   39.401
  207.380  157.895   42.461    0.453    0.302   39.080
  207.630  157.477   43.147    0.453    0.295   38.762
  207.880  156.273   43.635    0.447    0.286   38.449
  208.130  155.303   43.988    0.474    0.270   38.067
  208.380  155.447   46.918    0.475    0.262   37.210
  208.630  155.034   48.464    0.469    0.267   36.436
  208.880  154.400   48.686    0.467    0.286   35.226
  209.130  154.433   49.109    0.471    0.307   33.811
  209.380  154.808   49.333    0.479    0.313   32.448
  209.630  155.301   50.080    0.484    0.311   31.200
  209.880  155.228   52.421    0.474    0.304   30.220
  210.130  154.812   56.610    0.470    0.291   29.862
  210.380  154.734   61.728    0.480    0.274   29.297
  210.630  156.588   69.891    0.480    0.241   28.637
  210.880  157.408   75.406    0.453    0.212   27.585
  211.130  158.797   82.376    0.453    0.293   25.151
  211.380  159.631   86.434    0.466    0.315   22.110
  211.630  160.686   79.511    0.470    0.312   18.199
  211.880  161.505   69.940    0.471    0.307   15.765
  212.130  161.319   64.737    0.476    0.286   13.934
  212.380  160.905   64.297    0.484    0.270   12.160
  212.630  160.499   65.645    0.486    0.195   10.827
  212.880  160.416   65.999    0.451    0.184    9.448
  213.130  160.342   69.727    0.466    0.228    8.679
  213.380  159.821   77.360    0.488    0.237    8.736
  213.630  159.065   74.806    0.508    0.227    9.187
  213.880  157.971   71.782    0.520    0.244   10.703
  214.130  156.997   69.027    0.508    0.278   12.244
  214.380  156.471   67.199    0.513    0.269   12.506
  214.630  156.059   69.935    0.467    0.294    9.342
  214.880  155.649   78.755    0.466    0.291    7.225
  215.130  155.678   90.159    0.493    0.237    5.871
  215.380  156.621   98.651    0.514    0.206    4.676
  215.630  161.507  100.990    0.568    0.178    4.999
  215.880  170.793   96.914    0.584    0.234    5.910
  216.130  174.213   90.914    0.489    0.246    8.133
  216.380  167.146   82.007    0.455    0.253   11.997
  216.630  161.997   81.698    0.449    0.270   19.111
  216.880  160.572   81.326    0.469    0.293   27.582
  217.130  159.480   75.725    0.482    0.308   32.136
  217.380  158.499   69.466    0.495    0.317   33.002
  217.630  157.863   63.336    0.467    0.329   33.161
  217.880  157.000   64.085    0.477    0.330   33.252
  218.130  155.683   61.728    0.481    0.328   33.292
  218.380  154.933   59.105    0.483    0.320   33.381
  218.630  154.972   57.410    0.460    0.311   33.596
  218.880  155.006   57.960    0.465    0.302   33.686
  219.130  153.915   58.912    0.461    0.301   33.843
