~VERSION INFORMATION
 VERS.                 2.0:   CWLS LOG ASCII STANDARD -VERSION 2.0
 WRAP.                  NO:   ONE LINE PER DEPTH STEP
~WELL INFORMATION BLOCK
#MNEM.UNIT           DATA                    DESCRIPTION OF MNEMONIC
#---------    -------------------            -------------------------------
# Generated from Intellog Unique Number	CW_82_90/WELL/879
WELL.         10-20-083-20W4                 : Well_name    - WELL
LOC .         00/10-20-083-20W4/0            : Location     - LOCATION
UWI .         00/10-20-083-20W4/0            : Uwi          - UNIQUE WELL ID
ENTR.         JAYE                           : Entered      - ENTERED BY
SRVC.         SCHLUMBERGER                   : Scn          - SERVICE COMPANY
DATE.         16 MAR 74                      : Date         - LOG DATE
STRT.M        222.504                        : top_depth    - START DEPTH
STOP.M        436.504                        : bot_depth    - STOP DEPTH
STEP.M        0.25                           : increment    - STEP LENGTH
 NULL. -999.2500:NULL Value
~CURVE INFORMATION BLOCK
#MNEM UNIT       ERCB CURVE CODE    CURVE DESCRIPTION
#-----------   ------------------   ----------------------------------
DEPT.M        00 001 00 00         : DEPTH        - DEPTH
ILD .OHMM     00 120 00 00         : RESD         - DEEP RESISTIVITY (DIL)
CALI.MM       00 280 01 00         : CAL          - CALIPER
GR  .API      00 310 00 00         : GR           - GAMMA RAY
NPHI.V/V      00 330 00 00         : PHIN         - NEUTRON POROSITY (SANDSTONE)
DPHI.V/V      00 890 00 00         : PHID         - DENSITY POROSITY (SANDSTONE)
~PARAMETER INFORMATION
#MNEM.UNIT           DATA             DESCRIPTION OF MNEMONIC
#---------         -----------     ------------------------------
GL  .M        632.765              : gl           - GROUND LEVEL ELEVATION
EREF.M        637.032              : kb           - ELEVATION OF DEPTH REFERENCE
DATM.M        632.765              : datum        - DATUM ELEVATION
TDD .M        444.094              : tdd          - TOTAL DEPTH DRILLER
RUN .         ONE                  : Run          - RUN NUMBER
ENG .         AUGUSTIN             : Engineer     - RECORDING ENGINEER
WIT .         FYFFE                : Witness      - WITNESSED BY
BASE.         EDMONTON             : Branch       - HOME BASE OF LOGGING UNIT
MUD .         GEL CHEM             : Mud_type     - MUD TYPE
MATR.         SANDSTONE            : Logunit      - NEUTRON MATRIX
TMAX.C        22.2222              : BHT          - MAXIMUM RECORDED TEMPERATURE
BHTD.M        444.094              : BHTDEP       - MAXIMUM RECORDED TEMPERATURE
RMT .C        15.5556              : MDTP         - TEMPERATURE OF MUD
MUDD.KG/M     8500                 : MWT          - MUD DENSITY
NEUT.         1                    : NEUTRON      - NEUTRON TYPE
RESI.         0                    : RESIST       - RESISTIVITY TYPE
RM  .OHMM     4.85                 : RM           - RESISTIVITY OF MUD
RMC .OHMM     0                    : RMC          - RESISTIVITY OF MUD CAKE
RMF .OHMM     0                    : RMF          - RESISTIVITY OF MUD FILTRATE
SUFT.C        -17.7778             : SUFT         - SURFACE TEMPERATURE
~A  DEPTH     RESD      CAL       GR     PHIN     PHID
  222.504    3.301  210.571   88.347    0.492    0.320
  222.754    3.476  209.904   85.278    0.490    0.335
  223.004    3.812  212.011   73.636    0.490    0.361
  223.254    4.480  214.854   67.588    0.490    0.375
  223.504    7.016  215.835   58.622    0.486    0.297
  223.754   10.212  195.197   53.121    0.510    0.323
  224.004   17.361  191.442   48.654    0.516    0.337
  224.254   25.363  193.761   47.102    0.516    0.371
  224.504   30.529  191.963   48.048    0.532    0.373
  224.754   32.930  191.092   48.688    0.538    0.372
  225.004   32.896  190.732   49.024    0.524    0.370
  225.254   32.093  190.993   48.756    0.537    0.373
  225.504   32.408  191.144   50.303    0.530    0.378
  225.754   33.894  191.413   51.187    0.552    0.379
  226.004   34.982  190.851   52.010    0.503    0.375
  226.254   37.663  190.076   52.777    0.526    0.376
  226.504   42.524  189.307   53.902    0.538    0.380
  226.754   49.445  188.957   53.812    0.543    0.373
  227.004   57.791  189.528   52.691    0.540    0.361
  227.254   71.624  190.502   51.446    0.535    0.374
  227.504   82.958  191.795   50.751    0.532    0.378
  227.754   84.092  192.565   50.049    0.525    0.373
  228.004   78.082  193.237   49.782    0.518    0.359
  228.254   67.026  193.607   50.057    0.516    0.348
  228.504   58.916  193.765   51.059    0.516    0.342
  228.754   51.689  192.892   51.703    0.537    0.341
  229.004   46.021  191.306   51.614    0.550    0.355
  229.254   43.677  188.786   50.790    0.552    0.360
  229.504   42.760  186.474   50.522    0.550    0.363
  229.754   43.267  187.454   49.459    0.537    0.366
  230.004   44.908  188.431   48.153    0.533    0.371
  230.254   46.194  189.313   46.547    0.555    0.375
  230.504   45.728  189.780   45.114    0.569    0.373
  230.754   45.375  190.349   45.640    0.573    0.377
  231.004   45.377  190.608   46.401    0.571    0.380
  231.254   45.580  190.562   46.127    0.563    0.380
  231.504   49.435  190.510   45.129    0.547    0.373
  231.754   52.840  190.263   43.701    0.547    0.367
  232.004   57.098  189.901   42.456    0.553    0.361
  232.254   61.924  189.962   41.269    0.544    0.354
  232.504   65.700  189.600   41.245    0.533    0.349
  232.754   68.074  189.246   43.583    0.522    0.346
  233.004   66.531  188.888   45.927    0.520    0.341
  233.254   65.017  188.324   47.118    0.528    0.352
  233.504   65.907  187.961   47.937    0.527    0.372
  233.754   68.161  187.508   47.669    0.510    0.380
  234.004   67.469  187.349   45.086    0.509    0.380
  234.254   64.503  187.312   45.483    0.510    0.382
  234.504   58.704  187.470   46.127    0.511    0.385
  234.754   50.112  187.723   45.974    0.515    0.382
  235.004   43.251  187.984   45.036    0.514    0.376
  235.254   38.790  188.146   44.519    0.497    0.377
  235.504   36.347  188.712   43.940    0.484    0.381
  235.754   34.559  189.588   42.879    0.489    0.378
  236.004   33.657  190.786   42.608    0.515    0.377
  236.254   33.492  191.973   44.161    0.536    0.383
  236.504   33.274  192.852   46.141    0.555    0.384
  236.754   33.183  192.493   46.535    0.549    0.376
  237.004   33.389  192.751   46.263    0.520    0.380
  237.254   33.779  192.914   45.931    0.521    0.380
  237.504   34.055  192.854   45.600    0.552    0.383
  237.754   34.022  192.699   45.877    0.557    0.387
  238.004   33.803  192.650   47.240    0.551    0.386
  238.254   33.637  192.403   47.883    0.552    0.383
  238.504   33.238  192.459   48.409    0.545    0.376
  238.754   33.202  191.901   48.497    0.525    0.369
  239.004   33.776  192.162   48.655    0.508    0.371
  239.254   34.178  192.314   48.749    0.521    0.375
  239.504   34.075  192.469   47.322    0.528    0.378
  239.754   33.607  192.636   45.713    0.521    0.383
  240.004   32.724  192.591   46.717    0.515    0.383
  240.254   31.577  192.532   48.390    0.513    0.380
  240.504   30.968  192.389   49.756    0.516    0.361
  240.754   30.157  192.027   49.795    0.509    0.358
  241.004   29.739  192.092   49.521    0.512    0.359
  241.254   29.442  192.144   49.371    0.517    0.355
  241.504   29.408  192.095   48.981    0.507    0.353
  241.754   29.484  191.933   48.948    0.494    0.358
  242.004   30.216  191.780   49.471    0.480    0.369
  242.254   31.305  191.746   51.688    0.471    0.371
  242.504   33.340  192.109   52.514    0.507    0.368
  242.754   34.862  192.977   51.332    0.525    0.365
  243.004   35.659  193.448   50.756    0.540    0.366
  243.254   34.532  193.810   50.911    0.535    0.367
  243.504   30.410  194.180   51.850    0.519    0.366
  243.754   24.664  194.440   53.102    0.504    0.363
  244.004   18.026  194.707   54.960    0.491    0.355
  244.254   13.271  195.065   58.580    0.502    0.331
  244.504    8.183  196.155   62.805    0.524    0.313
  244.754    4.335  198.781   66.670    0.541    0.319
  245.004    3.967  203.369   68.892    0.545    0.309
  245.254    4.202  208.882   71.783    0.552    0.334
  245.504    4.515  215.216   76.798    0.565    0.344
  245.754    5.080  216.197   81.025    0.578    0.357
  246.004    6.092  210.484   83.737    0.586    0.341
  246.254    6.929  210.229   82.850    0.563    0.377
  246.504    7.808  218.314   82.037    0.561    0.392
  246.754    8.720  229.594   82.613    0.557    0.347
  247.004    9.685  231.502   84.106    0.541    0.317
  247.254   10.797  227.129   84.325    0.511    0.316
  247.504   11.817  219.259   82.712    0.490    0.265
  247.754   13.075  206.753   80.492    0.479    0.269
  248.004   14.953  197.234   78.403    0.490    0.287
  248.254   17.608  195.738   74.786    0.503    0.298
  248.504   19.270  195.180   69.648    0.481    0.300
  248.754   21.017  194.504   62.873    0.452    0.293
  249.004   21.895  194.545   53.602    0.437    0.295
  249.254   22.154  194.621   43.725    0.422    0.299
  249.504   22.209  194.575   44.604    0.427    0.306
  249.754   22.474  194.622   44.393    0.442    0.306
  250.004   22.988  194.577   43.271    0.434    0.308
  250.254   23.950  194.738   42.332    0.437    0.312
  250.504   25.272  194.885   42.305    0.461    0.319
  250.754   27.263  194.433   42.276    0.458    0.333
  251.004   28.924  194.286   41.999    0.454    0.341
  251.254   30.522  194.551   42.525    0.457    0.337
  251.504   31.165  194.480   44.316    0.464    0.338
  251.754   32.114  194.544   44.836    0.463    0.338
  252.004   32.733  194.709   44.809    0.477    0.337
  252.254   32.936  195.273   42.892    0.466    0.340
  252.504   32.900  196.053   41.831    0.452    0.349
  252.754   32.567  196.116   41.321    0.459    0.349
  253.004   32.060  196.471   41.351    0.487    0.350
  253.254   31.851  196.523   41.079    0.477    0.353
  253.504   31.528  196.169   41.236    0.480    0.352
  253.754   31.443  195.805   41.204    0.506    0.351
  254.004   31.640  195.344   42.335    0.497    0.357
  254.254   31.722  194.881   44.794    0.481    0.359
  254.504   31.802  194.645   45.193    0.477    0.362
  254.754   31.591  194.481   45.290    0.476    0.367
  255.004   31.159  194.443   45.259    0.467    0.368
  255.254   30.618  194.701   44.686    0.470    0.360
  255.504   29.433  194.649   43.682    0.461    0.362
  255.754   28.294  194.818   43.655    0.458    0.368
  256.004   27.250  194.963   43.686    0.472    0.367
  256.254   26.004  194.911   44.206    0.474    0.367
  256.504   23.926  194.911   45.273    0.460    0.370
  256.754   21.974  194.807   46.885    0.451    0.367
  257.004   21.049  194.578   48.196    0.485    0.359
  257.254   21.451  195.249   49.197    0.493    0.361
  257.504   22.475  194.366   50.023    0.499    0.357
  257.754   23.373  194.322   50.784    0.490    0.360
  258.004   24.213  195.307   51.547    0.474    0.365
  258.254   25.597  196.191   52.005    0.469    0.371
  258.504   27.014  196.858   52.220    0.464    0.368
  258.754   28.195  196.705   52.010    0.463    0.371
