~VERSION INFORMATION
 VERS.                 2.0:   CWLS LOG ASCII STANDARD -VERSION 2.0
 WRAP.                  NO:   ONE LINE PER DEPTH STEP
~WELL INFORMATION BLOCK
#MNEM.UNIT           DATA                    DESCRIPTION OF MNEMONIC
#---------    -------------------            -------------------------------
# Generated from Intellog Unique Number	CS_73_76/WELL/3269
WELL.         BAILEY SELBURN OIL & GAS       : Well_name    - WELL
LOC .         00/11-35-075-18W4/0            : Location     - LOCATION
UWI .         00/11-35-075-18W4/0            : Uwi          - UNIQUE WELL ID
ENTR.         SP                             : Entered      - ENTERED BY
SRVC.         SCHLUMBERGER                   : Scn          - SERVICE COMPANY
STRT.M        243.84                         : top_depth    - START DEPTH
STOP.M        450.84                         : bot_depth    - STOP DEPTH
STEP.M        0.25                           : increment    - STEP LENGTH
 NULL. -999.2500:NULL Value
~CURVE INFORMATION BLOCK
#MNEM UNIT       ERCB CURVE CODE    CURVE DESCRIPTION
#-----------   ------------------   ----------------------------------
DEPT.M        00 001 00 00         : DEPTH        - DEPTH
GR  .API      00 310 00 00         : GR           - GAMMA RAY
DPHI.V/V      00 890 00 00         : PHID         - DENSITY POROSITY (SANDSTONE)
NPHI.V/V      00 330 00 00         : PHIN         - NEUTRON POROSITY (SANDSTONE)
ILD .OHMM     00 120 00 00         : RESD         - DEEP RESISTIVITY (DIL)
~PARAMETER INFORMATION
#MNEM.UNIT           DATA             DESCRIPTION OF MNEMONIC
#---------         -----------     ------------------------------
GL  .M        598.932              : gl           - GROUND LEVEL ELEVATION
EREF.M        598.932              : kb           - ELEVATION OF DEPTH REFERENCE
DATM.M        598.932              : datum        - DATUM ELEVATION
TDD .M        459.029              : tdd          - TOTAL DEPTH DRILLER
RUN .         ONE                  : Run          - RUN NUMBER
ENG .         BILL                 : Engineer     - RECORDING ENGINEER
WIT .         JIM                  : Witness      - WITNESSED BY
MUD .         GEL                  : Mud_type     - MUD TYPE
MATR.         SANDSTONE            : Logunit      - NEUTRON MATRIX
TMAX.C        26.6667              : BHT          - MAXIMUM RECORDED TEMPERATURE
BHTD.M        559.308              : BHTDEP       - MAXIMUM RECORDED TEMPERATURE
MATR.         1                    : LOGUNIT      - NEUTRON MATRIX
RMT .C        25                   : MDTP         - TEMPERATURE OF MUD
NEUT.         1                    : NEUTRON      - NEUTRON TYPE
RESI.         0                    : RESIST       - RESISTIVITY TYPE
RMC .OHMM     0.25                 : RMC          - RESISTIVITY OF MUD CAKE
RMF .OHMM     0.25                 : RMF          - RESISTIVITY OF MUD FILTRATE
SUFT.C        15                   : SUFT         - SURFACE TEMPERATURE
~A  DEPTH       GR     PHID     PHIN     RESD
# ...
  374.340  106.174    0.207    0.449    6.293
  374.590  107.039    0.218    0.446    6.288
  374.840  108.596    0.225    0.450    6.476
  375.090  107.011    0.224    0.449    6.671
  375.340  106.055    0.223    0.444    6.877
  375.590  104.732    0.215    0.438    7.099
  375.840  104.147    0.211    0.444    7.164
  376.090  104.533    0.215    0.449    7.281
  376.340  106.482    0.215    0.454    7.436
  376.590  107.810    0.220    0.445    7.420
  376.840  106.185    0.223    0.442    7.419
  377.090  104.351    0.221    0.442    7.418
  377.340  102.958    0.222    0.441    7.417
  377.590  102.846    0.222    0.436    7.416
  377.840  104.403    0.223    0.432    7.416
  378.090  105.338    0.227    0.428    7.415
  378.340  106.400    0.222    0.422    7.413
  378.590  106.636    0.220    0.432    7.408
  378.840  106.720    0.216    0.451    6.956
  379.090  106.074    0.218    0.477    6.418
  379.340  104.720    0.231    0.477    6.030
  379.590  102.808    0.215    0.467    5.452
  379.840  100.116    0.234    0.451    5.308
  380.090   96.891    0.236    0.445    5.417
  380.340   91.400    0.237    0.438    6.212
  380.590   82.364    0.244    0.412    6.932
  380.840   76.408    0.223    0.355    8.489
  381.090   71.160    0.198    0.270   10.748
  381.340   68.320    0.144    0.228   13.061
  381.590   65.747    0.090    0.189   17.477
  381.840   64.936    0.076    0.186   23.019
  382.090   66.485    0.125    0.218   28.183
  382.340   68.890    0.177    0.260   26.415
  382.590   72.905    0.138    0.307   20.493
  382.840   76.237    0.221    0.351   14.788
  383.090   77.741    0.265    0.425   11.868
  383.340   75.688    0.288    0.423    9.658
  383.590   74.928    0.307    0.426    8.591
  383.840   74.694    0.313    0.428    7.927
  384.090   73.082    0.318    0.421    7.485
  384.340   71.528    0.300    0.415    7.285
  384.590   68.769    0.287    0.411    6.987
  384.840   66.781    0.280    0.415    6.856
  385.090   65.248    0.316    0.424    6.869
  385.340   65.562    0.321    0.430    6.869
  385.590   68.341    0.309    0.431    6.872
  385.840   69.588    0.299    0.436    7.091
  386.090   65.302    0.284    0.435    7.343
  386.340   62.737    0.267    0.413    7.812
  386.590   61.701    0.200    0.304    8.679
  386.840   65.642    0.140    0.242    9.314
  387.090   73.581    0.139    0.267    9.724
  387.340   77.950    0.227    0.384    9.923
  387.590   83.546    0.288    0.433    9.872
  387.840   89.313    0.295    0.440    9.112
  388.090   91.706    0.278    0.449    8.168
  388.340   94.659    0.266    0.447    7.490
  388.590   94.341    0.250    0.452    7.032
  388.840   97.254    0.240    0.457    6.805
  389.090  100.244    0.243    0.451    6.599
  389.340  102.076    0.234    0.445    6.488
  389.590   98.446    0.230    0.463    6.315
  389.840   95.288    0.253    0.478    6.251
  390.090   96.197    0.259    0.490    6.062
  390.340   92.935    0.260    0.500    5.879
  390.590   89.407    0.257    0.485    5.803
  390.840   87.617    0.256    0.473    5.864
  391.090   86.632    0.271    0.466    5.925
  391.340   85.665    0.267    0.458    6.015
  391.590   83.458    0.265    0.450    6.146
  391.840   81.138    0.269    0.442    6.139
  392.090   79.382    0.272    0.440    6.238
  392.340   80.814    0.282    0.432    6.374
  392.590   80.020    0.293    0.426    6.359
  392.840   76.916    0.303    0.422    6.629
  393.090   74.653    0.297    0.428    7.043
  393.340   72.136    0.295    0.434    7.609
  393.590   72.094    0.292    0.425    8.439
  393.840   72.994    0.181    0.366    8.724
  394.090   74.491    0.149    0.342    8.998
  394.340   75.196    0.206    0.398    8.897
  394.590   75.920    0.248    0.426    7.976
  394.840   79.041    0.294    0.449    7.274
  395.090   80.203    0.291    0.450    6.859
  395.340   78.819    0.302    0.443    6.461
  395.590   77.874    0.297    0.449    6.474
  395.840   77.010    0.284    0.455    6.505
  396.090   77.066    0.276    0.450    6.586
  396.340   77.158    0.266    0.444    6.586
  396.590   76.553    0.280    0.440    6.585
  396.840   77.076    0.283    0.439    6.584
  397.090   80.062    0.291    0.439    6.596
  397.340   82.950    0.297    0.439    6.453
  397.590   83.582    0.289    0.433    6.463
  397.840   82.697    0.283    0.434    6.458
  398.090   85.231    0.277    0.442    6.451
  398.340   87.646    0.273    0.445    6.336
  398.590   85.291    0.273    0.448    6.349
  398.840   85.107    0.283    0.456    6.223
  399.090   87.246    0.282    0.448    6.238
  399.340   88.656    0.278    0.428    6.096
  399.590   91.170    0.276    0.410    6.112
  399.840   92.806    0.272    0.419    5.984
  400.090   93.393    0.270    0.424    5.974
  400.340   91.341    0.269    0.436    5.883
  400.590   89.978    0.265    0.449    5.874
  400.840   89.393    0.262    0.462    6.003
  401.090   88.915    0.261    0.450    5.984
  401.340   88.572    0.252    0.442    6.155
  401.590   88.197    0.240    0.431    6.341
  401.840   87.466    0.211    0.421    6.534
  402.090   89.264    0.198    0.431    6.733
  402.340   91.294    0.223    0.459    6.941
  402.590   90.594    0.247    0.478    6.920
  402.840   91.695    0.249    0.476    7.049
  403.090   95.377    0.246    0.473    6.940
  403.340   99.026    0.258    0.474    6.726
  403.590  103.653    0.249    0.468    6.678
  403.840  107.038    0.243    0.461    6.357
  404.090  109.508    0.247    0.461    6.095
  404.340  110.399    0.253    0.460    5.980
  404.590  111.402    0.233    0.472    5.794
  404.840  112.417    0.221    0.476    5.652
  405.090  113.428    0.215    0.467    5.660
  405.340  114.017    0.222    0.456    5.728
  405.590  113.666    0.219    0.441    5.930
  405.840  112.260    0.203    0.431    6.314
  406.090  107.616    0.215    0.418    6.553
  406.340  102.729    0.226    0.426    7.103
  406.590   97.753    0.228    0.433    7.429
  406.840   94.708    0.238    0.438    7.695
  407.090   92.537    0.246    0.440    7.816
  407.340   90.646    0.221    0.441    7.474
  407.590   86.890    0.193    0.431    7.663
  407.840   83.955    0.165    0.383    8.207
  408.090   85.008    0.141    0.366    8.746
  408.340   89.341    0.199    0.392    9.123
  408.590   94.507    0.243    0.427    8.634
  408.840   96.953    0.254    0.426    8.140
  409.090   98.599    0.238    0.424    7.490
  409.340  101.186    0.227    0.454    7.185
  409.590  101.678    0.217    0.454    7.234
  409.840   99.887    0.211    0.445    7.640
  410.090   95.317    0.203    0.427    8.241
  410.340   88.787    0.181    0.415    9.024
  410.590   82.391    0.161    0.359    9.872
  410.840   82.687    0.132    0.320   10.326
  411.090   87.333    0.157    0.356   10.549
  411.340   97.277    0.195    0.386    9.794
  411.590  103.995    0.212    0.402    8.745
  411.840  107.543    0.215    0.425    7.950
  412.090  104.494    0.191    0.447    7.177
  412.340  102.925    0.203    0.446    6.825
  412.590  100.270    0.219    0.435    6.651
  412.840  100.007    0.202    0.432    6.654
  413.090  102.470    0.195    0.439    6.851
  413.340  102.402    0.207    0.442    7.058
  413.590  102.360    0.203    0.434    7.273
  413.840  105.481    0.189    0.420    7.494
  414.090  109.504    0.188    0.411    7.720
  414.340  110.355    0.213    0.413    7.610
  414.590  106.961    0.237    0.409    7.346
  414.840  104.427    0.236    0.414    6.901
  415.090  102.342    0.221    0.420    6.537
  415.340  102.038    0.218    0.433    6.299
  415.590  102.022    0.224    0.435    6.184
  415.840  102.349    0.204    0.435    6.169
  416.090  103.516    0.205    0.431    6.304
  416.340  104.504    0.207    0.430    6.281
  416.590  104.183    0.216    0.460    6.373
  416.840  103.843    0.226    0.484    5.356
  417.090  102.782    0.226    0.511    4.561
  417.340  101.587    0.252    0.554    3.819
  417.590   99.516    0.269    0.551    3.101
