~VERSION INFORMATION
 VERS.                 2.0:   CWLS LOG ASCII STANDARD -VERSION 2.0
 WRAP.                  NO:   ONE LINE PER DEPTH STEP
~WELL INFORMATION BLOCK
#MNEM.UNIT           DATA                    DESCRIPTION OF MNEMONIC
#---------    -------------------            -------------------------------
# Generated from Intellog Unique Number	CX_WELLS/WELL/2829
WELL.         BANKENO THORDARY               : Well_name    - WELL
LOC .         00/10-28-081-12W4/0            : Location     - LOCATION
UWI .         00/10-28-081-12W400            : Uwi          - UNIQUE WELL ID
ENTR.         T                              : Entered      - ENTERED BY
SRVC.         SCHLUMBERGER                   : Scn          - SERVICE COMPANY
STRT.M        300                            : top_depth    - START DEPTH
STOP.M        525                            : bot_depth    - STOP DEPTH
STEP.M        0.25                           : increment    - STEP LENGTH
 NULL. -999.2500:NULL Value
~CURVE INFORMATION BLOCK
#MNEM UNIT       ERCB CURVE CODE    CURVE DESCRIPTION
#-----------   ------------------   ----------------------------------
DEPT.M        00 001 00 00         : DEPTH        - DEPTH
GR  .API      00 310 00 00         : GR           - GAMMA RAY
NPHI.V/V      00 330 00 00         : PHIN         - NEUTRON POROSITY (SANDSTONE)
DPHI.V/V      00 890 00 00         : PHID         - DENSITY POROSITY (SANDSTONE)
ILD .OHMM     00 120 00 00         : RESD         - DEEP RESISTIVITY (OTHER)
~PARAMETER INFORMATION
#MNEM.UNIT           DATA             DESCRIPTION OF MNEMONIC
#---------         -----------     ------------------------------
GL  .M        732.4                : gl           - GROUND LEVEL ELEVATION
EREF.M        750.3                : kb           - ELEVATION OF DEPTH REFERENCE
DATM.M        750.3                : datum        - DATUM ELEVATION
TDD .M        637                  : tdd          - TOTAL DEPTH DRILLER
RUN .         ONE                  : Run          - RUN NUMBER
ENG .         BILL                 : Engineer     - RECORDING ENGINEER
WIT .         JIM                  : Witness      - WITNESSED BY
MUD .         GEL                  : Mud_type     - MUD TYPE
MATR.         SANDSTONE            : Logunit      - NEUTRON MATRIX
TMAX.C        22                   : BHT          - MAXIMUM RECORDED TEMPERATURE
BHTD.M        642                  : BHTDEP       - MAXIMUM RECORDED TEMPERATURE
MATR.         1                    : LOGUNIT      - NEUTRON MATRIX
RMT .C        22                   : MDTP         - TEMPERATURE OF MUD
NEUT.         1                    : NEUTRON      - NEUTRON TYPE
RESI.         0.3                  : RESIST       - RESISTIVITY TYPE
RMC .OHMM     0.25                 : RMC          - RESISTIVITY OF MUD CAKE
RMF .OHMM     0.25                 : RMF          - RESISTIVITY OF MUD FILTRATE
SUFT.C        4                    : SUFT         - SURFACE TEMPERATURE
~A  DEPTH       GR     PHIN     PHID     RESD
# ...
  474.000  104.645    0.373    0.232    8.745
  474.250   99.850    0.366    0.238    9.251
  474.500   92.652    0.339    0.240   10.344
  474.750   84.850    0.282    0.245   11.781
  475.000   77.049    0.280    0.257   14.978
  475.250   70.454    0.288    0.270   19.042
  475.500   66.876    0.304    0.292   25.124
  475.750   66.928    0.305    0.310   30.232
  476.000   67.562    0.303    0.322   34.446
  476.250   67.614    0.296    0.317   32.065
  476.500   68.872    0.290    0.306   30.387
  476.750   69.496    0.286    0.288   27.772
  477.000   77.983    0.291    0.255   25.852
  477.250   81.051    0.301    0.226   22.787
  477.500   81.082    0.318    0.184   21.202
  477.750   82.943    0.339    0.158   18.023
  478.000   84.815    0.346    0.198   16.762
  478.250   86.042    0.354    0.208   15.041
  478.500   89.713    0.358    0.201   13.022
  478.750   91.554    0.368    0.191   12.336
  479.000   97.025    0.373    0.195   11.700
  479.250   99.490    0.361    0.208   11.294
  479.500   95.901    0.346    0.213   11.736
  479.750   90.513    0.334    0.222   15.490
  480.000   83.315    0.333    0.227   17.968
  480.250   86.975    0.330    0.222   18.663
  480.500   83.397    0.329    0.217   18.022
  480.750   78.009    0.337    0.225   18.053
  481.000   70.811    0.353    0.309   18.418
  481.250   63.010    0.303    0.358   20.994
  481.500   54.002    0.275    0.388   23.476
  481.750   46.793    0.232    0.408   27.724
  482.000   43.215    0.170    0.417   35.914
  482.250   41.446    0.173    0.412   44.830
  482.500   44.525    0.251    0.395   54.942
  482.750   49.392    0.321    0.356   73.864
  483.000   54.853    0.352    0.335   73.990
  483.250   59.117    0.365    0.324   68.845
  483.500   61.582    0.376    0.320   57.408
  483.750   63.433    0.382    0.310   46.148
  484.000   67.094    0.387    0.297   39.919
  484.250   71.358    0.390    0.289   36.469
  484.500   70.193    0.393    0.283   34.576
  484.750   67.831    0.400    0.281   32.795
  485.000   66.656    0.401    0.289   31.668
  485.250   64.284    0.399    0.295   32.907
  485.500   60.102    0.397    0.300   34.842
  485.750   58.947    0.394    0.302   35.547
  486.000   60.798    0.391    0.303   36.922
  486.250   62.649    0.381    0.303   36.985
  486.500   65.104    0.379    0.294   35.065
  486.750   67.548    0.375    0.284   30.332
  487.000   71.219    0.375    0.272   26.250
  487.250   75.483    0.377    0.264   23.555
  487.500   81.557    0.385    0.253   21.519
  487.750   85.821    0.388    0.244   19.667
  488.000   84.666    0.378    0.246   17.328
  488.250   86.528    0.370    0.251   15.266
  488.500   88.358    0.362    0.244   13.206
  488.750   94.453    0.358    0.233   11.640
  489.000   99.310    0.361    0.222   10.830
  489.250  104.791    0.366    0.216    9.903
  489.500  108.452    0.369    0.216    9.735
  489.750  111.510    0.377    0.210    9.066
  490.000  109.741    0.381    0.199    8.913
  490.250  105.560    0.383    0.200    8.928
  490.500  102.574    0.372    0.211    8.943
  490.750   97.186    0.363    0.213    9.124
  491.000   91.195    0.354    0.196    9.835
  491.250   88.823    0.365    0.197   10.602
  491.500   93.087    0.378    0.207   12.536
  491.750   97.362    0.388    0.217   13.513
  492.000   98.016    0.392    0.231   14.036
  492.250   95.634    0.388    0.238   13.318
  492.500   92.669    0.383    0.235   13.088
  492.750   91.504    0.378    0.234   12.877
  493.000   89.736    0.370    0.232   12.665
  493.250   85.544    0.361    0.231   13.415
  493.500   81.362    0.356    0.231   13.681
  493.750   80.197    0.350    0.230   13.698
  494.000   81.455    0.346    0.229   13.982
  494.250   81.486    0.339    0.229   14.264
  494.500   80.945    0.335    0.229   14.559
  494.750   80.362    0.329    0.229   14.572
  495.000   79.810    0.324    0.229   14.880
  495.250   78.645    0.320    0.230   14.892
  495.500   78.073    0.317    0.231   14.930
  495.750   76.907    0.314    0.233   15.239
  496.000   76.356    0.314    0.232   15.252
  496.250   76.387    0.314    0.231   15.284
  496.500   76.438    0.314    0.229   15.594
  496.750   76.490    0.313    0.222   15.627
  497.000   76.521    0.313    0.216   15.937
  497.250   76.572    0.310    0.218   15.971
  497.500   76.593    0.310    0.220   15.991
  497.750   76.634    0.316    0.219   16.018
  498.000   76.686    0.326    0.217   15.468
  498.250   76.748    0.338    0.209   15.206
  498.500   76.779    0.341    0.210   14.690
  498.750   76.820    0.344    0.216   14.448
  499.000   76.851    0.345    0.221   13.951
  499.250   76.903    0.340    0.226   13.727
  499.500   77.557    0.329    0.231   13.500
  499.750   78.181    0.319    0.225   13.518
  500.000   78.836    0.313    0.212   13.295
  500.250   79.481    0.321    0.217   13.323
  500.500   79.512    0.336    0.220   13.593
  500.750   79.563    0.348    0.222   13.868
  501.000   78.991    0.348    0.218   14.677
  501.250   76.619    0.348    0.218   15.258
  501.500   74.851    0.347    0.224   16.148
  501.750   72.479    0.357    0.228   16.773
  502.000   70.721    0.361    0.235   18.415
  502.250   68.338    0.364    0.246   21.369
  502.500   64.770    0.367    0.259   24.348
  502.750   60.589    0.380    0.272   26.234
  503.000   57.603    0.392    0.277   29.891
  503.250   53.432    0.389    0.283   31.622
  503.500   53.473    0.386    0.295   32.262
  503.750   57.124    0.377    0.296   32.915
  504.000   60.795    0.376    0.279   31.824
  504.250   62.043    0.376    0.274   31.299
  504.500   57.872    0.374    0.279   30.770
  504.750   55.489    0.372    0.282   30.822
  505.000   52.514    0.371    0.283   30.875
  505.250   51.952    0.374    0.286   32.083
  505.500   50.787    0.379    0.291   33.955
  505.750   47.822    0.384    0.295   37.969
  506.000   46.657    0.390    0.307   40.928
  506.250   47.302    0.405    0.308   42.529
  506.500   47.946    0.414    0.305   41.068
  506.750   48.580    0.405    0.299   38.969
  507.000   49.235    0.398    0.300   39.002
  507.250   49.287    0.400    0.301   39.791
  507.500   49.307    0.402    0.303   42.131
  507.750   49.349    0.405    0.309   41.436
  508.000   49.993    0.405    0.312   37.855
  508.250   51.855    0.406    0.311   33.969
  508.500   54.319    0.412    0.309   30.482
  508.750   56.170    0.417    0.257   27.352
  509.000   59.821    0.412    0.259   25.020
  509.250   63.482    0.402    0.264   24.586
  509.500   64.127    0.393    0.269   24.639
  509.750   60.548    0.387    0.277   23.350
  510.000   59.383    0.388    0.288   20.953
  510.250   57.614    0.398    0.294   16.236
  510.500   54.639    0.403    0.297   13.790
  510.750   53.474    0.395    0.302   11.712
  511.000   57.738    0.392    0.300   10.514
  511.250   60.806    0.393    0.284    9.783
  511.500   58.424    0.385    0.267    9.107
  511.750   54.846    0.376    0.275    8.477
  512.000   59.724    0.367    0.286    8.186
  512.250   69.417    0.361    0.258    8.667
  512.500   79.111    0.360    0.235    9.687
  512.750   85.195    0.372    0.214   10.832
  513.000   87.046    0.392    0.234   12.342
  513.250   85.278    0.408    0.255   13.304
  513.500   79.286    0.397    0.263   14.341
  513.750   75.094    0.386    0.270   15.184
  514.000   77.559    0.383    0.262   15.778
  514.250   83.633    0.376    0.258   16.396
  514.500   89.104    0.370    0.249   17.037
  514.750   93.368    0.367    0.238   16.763
  515.000   97.632    0.367    0.225   16.187
  515.250   95.864    0.355    0.228   15.914
  515.500   92.909    0.343    0.228   15.094
  515.750   94.157    0.345    0.222   14.845
  516.000   95.395    0.366    0.206   14.329
  516.250   97.246    0.382    0.193   14.092
  516.500  101.510    0.377    0.184   13.614
  516.750  106.991    0.367    0.178   13.140
  517.000  104.619    0.353    0.172   12.463
  517.250  102.851    0.357    0.172   12.253
