~VERSION INFORMATION
 VERS.                 2.0:   CWLS LOG ASCII STANDARD -VERSION 2.0
 WRAP.                  NO:   ONE LINE PER DEPTH STEP
~WELL INFORMATION BLOCK
#MNEM.UNIT           DATA                    DESCRIPTION OF MNEMONIC
#---------    -------------------            -------------------------------
# Generated from Intellog Unique Number	CW_70_72/WELL/1031
NULL.         -999.25                        : NULL_VALUE
WELL.         SUNCOR TOMATO 10-01            : Well_name    - WELL              
LOC .         10-01-072-24W4                 : Location     - LOCATION          
UWI .         00/10-01-072-24W4/0            : Uwi          - UNIQUE WELL ID    
ENTR.         JAYE                           : Entered      - ENTERED BY        
SRVC.         COMPUTALOG                     : Scn          - SERVICE COMPANY   
DATE.         3 MAR 80                       : Date         - LOG DATE          
STRT.M        435                            : top_depth    - START DEPTH       
STOP.M        645                            : bot_depth    - STOP DEPTH        
STEP.M        0.25                           : increment    - STEP LENGTH       
~CURVE INFORMATION BLOCK
#MNEM UNIT       ERCB CURVE CODE    CURVE DESCRIPTION
#-----------   ------------------   ----------------------------------
DEPT.M        00 001 00 00         : DEPTH        - DEPTH                       
DPHI.V/V      00 890 00 00         : PHID         - DENSITY POROSITY (SANDSTONE)
NPHI.V/V      00 330 00 00         : PHIN         - NEUTRON POROSITY (SANDSTONE)
GR  .API      00 310 00 00         : GR           - GAMMA RAY                   
CALI.MM       00 280 01 00         : CAL          - CALIPER                     
ILD .OHMM     00 120 00 00         : RESD         - DEEP RESISTIVITY (DIL)      
~PARAMETER INFORMATION       
#MNEM.UNIT           DATA             DESCRIPTION OF MNEMONIC
#---------         -----------     ------------------------------
GL  .M        670.96               : gl           - GROUND LEVEL ELEVATION      
EREF.M        674.31               : kb           - ELEVATION OF DEPTH REFERENCE
DATM.M        670.96               : datum        - DATUM ELEVATION             
TDD .M        662                  : tdd          - TOTAL DEPTH DRILLER         
RUN .         ONE                  : Run          - RUN NUMBER                  
ENG .         JESIOLOWSKI          : Engineer     - RECORDING ENGINEER          
WIT .         KOKOTOTLO            : Witness      - WITNESSED BY                
BASE.         EDM                  : Branch       - HOME BASE OF LOGGING UNIT   
MUD .         GEL CHEM             : Mud_type     - MUD TYPE                    
MATR.         SANDSTONE            : Logunit      - NEUTRON MATRIX              
TMAX.C        21                   : BHT          - MAXIMUM RECORDED TEMPERATURE
BHTD.M        662                  : BHTDEP       - MAXIMUM RECORDED TEMPERATURE
RMT .C        16.6                 : MDTP         - TEMPERATURE OF MUD          
MUDD.KG/M     1140                 : MWT          - MUD DENSITY                 
NEUT.         1                    : NEUTRON      - NEUTRON TYPE                
RESI.         0                    : RESIST       - RESISTIVITY TYPE            
RM  .OHMM     6                    : RM           - RESISTIVITY OF MUD          
RMC .OHMM     0                    : RMC          - RESISTIVITY OF MUD CAKE     
RMF .OHMM     5.8                  : RMF          - RESISTIVITY OF MUD FILTRATE 
SUFT.C        0                    : SUFT         - SURFACE TEMPERATURE         
~A  DEPTH     PHID     PHIN       GR      CAL     RESD
# ...
  617.500    0.072    0.275  120.097  162.294    4.426
  617.750    0.091    0.285  114.716  163.562    4.491
  618.000    0.098    0.303  112.993  163.897    4.449
  618.250    0.101    0.306  118.592  164.027    4.333
  618.500    0.108    0.289  122.579  164.054    4.213
  618.750    0.115    0.293  123.464  163.874    4.181
  619.000    0.121    0.297  132.291  163.695    4.204
  619.250    0.117    0.292  137.456  163.614    4.213
  619.500    0.109    0.301  134.369  163.437    4.236
  619.750    0.101    0.308  127.313  163.254    4.315
  620.000    0.099    0.291  120.751  163.177    4.420
  620.250    0.106    0.307  113.632  163.106    4.598
  620.500    0.017    0.286  107.194  163.125    4.754
  620.750   -0.005    0.254  103.426  162.944    4.898
  621.000    0.056    0.304  111.569  162.663    5.038
  621.250    0.085    0.301  112.329  162.171    5.104
  621.500    0.079    0.275  107.941  160.749    5.073
  621.750    0.072    0.260  109.755  159.327    4.961
  622.000    0.082    0.248  116.038  159.354    4.886
  622.250    0.107    0.259  125.235  160.520    4.734
  622.500    0.116    0.334  127.237  162.508    4.558
  622.750    0.115    0.324  126.819  164.500    4.341
  623.000    0.108    0.307  129.440  165.871    4.134
  623.250    0.105    0.314  131.690  166.208    4.004
  623.500    0.094    0.347  126.555  165.510    3.922
  623.750    0.083    0.287  118.444  163.260    3.952
  624.000    0.061    0.242  107.105  161.013    4.072
  624.250    0.093    0.248  120.833  159.383    4.250
  624.500    0.107    0.336  133.443  158.168    4.436
  624.750    0.100    0.353  140.534  157.576    4.799
  625.000    0.082    0.315  141.789  156.988    5.076
  625.250    0.066    0.281  136.470  156.594    4.780
  625.500    0.063    0.270  130.777  156.207    5.248
  625.750    0.074    0.278  129.429  156.029    5.710
  626.000    0.082    0.296  128.575  155.950    6.096
  626.250    0.076    0.270  131.506  156.184    6.375
  626.500    0.068    0.256  133.261  156.936    6.545
  626.750    0.062    0.238  134.951  157.788    6.632
  627.000    0.073    0.229  128.948  158.229    6.654
  627.250    0.084    0.250  118.168  158.666    6.656
  627.500    0.091    0.269  101.431  158.900    6.642
  627.750    0.080    0.280  107.094  159.547    6.639
  628.000    0.081    0.292  108.227  159.984    6.639
  628.250    0.097    0.269  119.720  161.148    6.576
  628.500    0.101    0.266  130.656  162.314    6.489
  628.750    0.091    0.257  126.887  161.926    6.465
  629.000    0.127    0.247  112.446  158.644    6.537
  629.250    0.226    0.278  -63.467  156.912    6.852
  629.500    0.410    0.484  -64.946  153.111    7.178
  629.750    0.264    0.473  -90.617  149.209    7.808
  630.000    0.204    0.216 -109.091  146.545    8.622
  630.250    0.152    0.218  -66.450  145.125    8.669
  630.500    0.167    0.239    3.242  146.082    7.604
  630.750    0.170    0.271  128.837  148.177    6.496
  631.000    0.146    0.313  128.046  150.167    5.687
  631.250    0.121    0.312  107.897  152.986    5.138
  631.500    0.102    0.241   46.551  153.735    4.776
  631.750    0.043    0.243   16.227  154.176    4.592
  632.000    0.034    0.294   27.597  154.718    4.422
  632.250    0.042    0.320   36.981  155.883    4.149
  632.500    0.046    0.360   32.840  157.564    3.937
  632.750    0.058    0.352   29.133  159.349    3.870
  633.000    0.068    0.269   37.339  161.132    3.908
  633.250    0.087    0.299   37.540  162.504    3.950
  633.500    0.117    0.362  -19.401  163.770    4.054
  633.750    0.112    0.375  -37.998  164.726    4.296
  634.000    0.081    0.254  -17.568  165.996    4.604
  634.250    0.093    0.235   -5.517  166.228    4.806
  634.500    0.082    0.300   95.011  165.220    4.594
  634.750   -0.094    0.332   73.684  163.694    4.278
  635.000   -0.137    0.354   55.830  161.549    3.874
  635.250   -0.149    0.386   35.930  158.989    3.608
  635.500   -0.163    0.375   20.373  157.467    3.521
  635.750   -0.097    0.354    7.917  158.645    3.560
  636.000    0.001    0.368  152.000  158.034    3.674
  636.250    0.009    0.359  162.000  157.027    3.886
  636.500    0.020    0.329  162.000  156.128    4.180
  636.750    0.039    0.309  161.000  156.253    4.513
  637.000    0.064    0.348  163.000  156.700    4.874
  637.250    0.090    0.230  170.000  156.720    5.135
  637.500    0.090    0.180  167.000  156.434    5.310
  637.750    0.085    0.252  157.000  155.944    5.124
  638.000    0.098    0.303  157.000  155.767    4.899
  638.250    0.113    0.315  158.000  155.999    4.726
  638.500    0.069    0.309  156.000  156.230    4.665
  638.750    0.050    0.300  152.000  156.358    4.673
  639.000    0.026    0.285  122.000  156.902    4.646
  639.250    0.016    0.272  107.000  157.139    4.550
  639.500    0.062    0.336  119.000  157.269    4.375
  639.750    0.077    0.358  130.000  156.877    4.113
  640.000    0.092    0.318  142.000  156.077    3.910
  640.250    0.103    0.317  151.000  155.482    3.807
  640.500    0.119    0.449  170.000  155.096    3.751
  640.750    0.118    0.484  195.000  154.711    3.750
  641.000    0.075    0.399  105.000  154.429    3.757
  641.250    0.052    0.272  116.000  153.936    3.757
  641.500    0.047    0.248 1127.000  153.342    3.672
  641.750    0.103    0.254  119.000  152.645    3.452
  642.000    0.133    0.309  118.000  151.635    3.226
  642.250    0.158    0.374  124.000  150.422    2.921
  642.500    0.147    0.345  123.000  149.722    2.720
  642.750    0.137    0.315  123.000  148.819    2.615
  643.000    0.119    0.352  124.000  148.436    2.614
  643.250    0.065    0.304  124.000  148.353    2.684
  643.500    0.055    0.257  124.000  148.794    2.781
  643.750    0.077    0.299  120.000  149.544    2.963
  644.000    0.080    0.331  113.000  150.606    3.248
  644.250    0.067    0.259  113.000  151.048    3.500
  644.500    0.074    0.238  116.000  151.070    3.653
  644.750    0.087    0.283  120.000  150.992    3.730
  645.000    0.099    0.324  124.000  151.021    3.660
