~VERSION INFORMATION
 VERS.                 2.0:   CWLS LOG ASCII STANDARD -VERSION 2.0
 WRAP.                  NO:   ONE LINE PER DEPTH STEP
~WELL INFORMATION BLOCK
#MNEM.UNIT           DATA                    DESCRIPTION OF MNEMONIC
#---------    -------------------            -------------------------------
# Generated from Intellog Unique Number	CW_79_81/WELL/2465
WELL.         10-10-080-24W4                 : Well_name    - WELL
LOC .         00/10-10-080-24W4/0            : Location     - LOCATION
UWI .         00/10-10-080-24W4/0            : Uwi          - UNIQUE WELL ID
ENTR.         MAX                            : Entered      - ENTERED BY
SRVC.         SCHLUMBERGER                   : Scn          - SERVICE COMPANY
STRT.M        200                            : top_depth    - START DEPTH
STOP.M        455                            : bot_depth    - STOP DEPTH
STEP.M        0.25                           : increment    - STEP LENGTH
 NULL. -999.2500:NULL Value
~CURVE INFORMATION BLOCK
#MNEM UNIT       ERCB CURVE CODE    CURVE DESCRIPTION
#-----------   ------------------   ----------------------------------
DEPT.M        00 001 00 00         : DEPTH        - DEPTH
ILD .OHMM     00 120 00 00         : RESD         - DEEP RESISTIVITY (DIL)
NPHI.V/V      00 330 00 00         : PHIN         - NEUTRON POROSITY (SANDSTONE)
DPHI.V/V      00 890 00 00         : PHID         - DENSITY POROSITY (SANDSTONE)
GR  .API      00 310 00 00         : GR           - GAMMA RAY
CALI.MM       00 280 01 00         : CAL          - CALIPER
~PARAMETER INFORMATION
#MNEM.UNIT           DATA             DESCRIPTION OF MNEMONIC
#---------         -----------     ------------------------------
GL  .M        558.63               : gl           - GROUND LEVEL ELEVATION
EREF.M        562.83               : kb           - ELEVATION OF DEPTH REFERENCE
DATM.M        558.63               : datum        - DATUM ELEVATION
TDD .M        456.5                : tdd          - TOTAL DEPTH DRILLER
RUN .         ONE                  : Run          - RUN NUMBER
ENG .         BILL                 : Engineer     - RECORDING ENGINEER
WIT .         JIM                  : Witness      - WITNESSED BY
MUD .         GEL                  : Mud_type     - MUD TYPE
MATR.         SANDSTONE            : Logunit      - NEUTRON MATRIX
TMAX.C        24.5                 : BHT          - MAXIMUM RECORDED TEMPERATURE
BHTD.M        456.5                : BHTDEP       - MAXIMUM RECORDED TEMPERATURE
MATR.         1                    : LOGUNIT      - NEUTRON MATRIX
RMT .C        18.5                 : MDTP         - TEMPERATURE OF MUD
NEUT.         1                    : NEUTRON      - NEUTRON TYPE
RESI.         0                    : RESIST       - RESISTIVITY TYPE
RMC .OHMM     7.95                 : RMC          - RESISTIVITY OF MUD CAKE
RMF .OHMM     5.82                 : RMF          - RESISTIVITY OF MUD FILTRATE
SUFT.C        -20                  : SUFT         - SURFACE TEMPERATURE
~A  DEPTH     RESD     PHIN     PHID       GR      CAL
# ...
  309.500    7.015    0.478    0.217   77.454  217.676
  309.750    7.278    0.470    0.228   74.822  217.280
  310.000    7.798    0.463    0.236   78.834  217.184
  310.250    8.131    0.468    0.243   82.667  217.187
  310.500    8.057    0.488    0.247   83.746  217.190
  310.750    7.633    0.524    0.250   83.898  217.110
  311.000    7.021    0.543    0.248   84.648  216.698
  311.250    6.231    0.555    0.242   86.565  216.302
  311.500    5.796    0.556    0.244   87.585  215.906
  311.750    5.591    0.555    0.251   87.228  215.709
  312.000    5.550    0.555    0.259   85.434  215.812
  312.250    5.676    0.549    0.261   81.914  216.298
  312.500    5.900    0.546    0.262   78.674  216.717
  312.750    5.988    0.553    0.247   76.521  217.119
  313.000    6.044    0.546    0.229   74.008  217.521
  313.250    6.045    0.527    0.226   74.848  218.123
  313.500    6.013    0.503    0.241   78.322  218.724
  313.750    6.077    0.499    0.263   79.531  218.728
  314.000    6.415    0.543    0.258   80.780  218.731
  314.250    6.704    0.526    0.262   87.485  218.335
  314.500    6.706    0.499    0.258   88.984  217.939
  314.750    6.510    0.475    0.250   87.789  217.743
  315.000    6.243    0.461    0.242   85.576  217.646
  315.250    6.010    0.461    0.237   82.087  217.250
  315.500    5.965    0.491    0.222   76.602  217.254
  315.750    6.279    0.506    0.206   75.167  216.858
  316.000    6.932    0.502    0.185   76.964  216.762
  316.250    7.616    0.461    0.178   81.276  216.565
  316.500    7.952    0.412    0.192   85.827  216.069
  316.750    7.614    0.439    0.224   86.537  215.108
  317.000    7.110    0.477    0.230   85.292  214.280
  317.250    6.504    0.493    0.228   83.618  213.485
  317.500    6.368    0.496    0.228   84.638  212.989
  317.750    6.298    0.498    0.228   86.076  212.393
  318.000    6.231    0.504    0.229   87.155  211.698
  318.250    6.457    0.512    0.235   88.544  211.303
  318.500    6.922    0.504    0.238   88.297  211.306
  318.750    7.393    0.499    0.236   86.862  211.709
  319.000    7.522    0.487    0.230   86.325  212.111
  319.250    7.328    0.474    0.227   87.524  212.313
  319.500    6.962    0.466    0.229   89.561  212.415
  319.750    6.585    0.473    0.225   89.055  212.985
  320.000    6.436    0.482    0.216   85.315  213.820
  320.250    6.726    0.469    0.212   77.895  214.621
  320.500    7.606    0.450    0.217   72.629  214.823
  320.750    8.616    0.445    0.232   69.399  214.627
  321.000    9.702    0.454    0.239   67.306  214.230
  321.250   12.603    0.446    0.194   63.826  213.752
  321.500   14.612    0.408    0.138   59.588  213.340
  321.750   16.178    0.373    0.148   59.111  212.944
  322.000   17.645    0.391    0.223   59.711  213.146
  322.250   18.937    0.419    0.279   61.988  213.349
  322.500   19.916    0.435    0.294   65.102  213.352
  322.750   20.396    0.437    0.299   66.382  213.439
  323.000   20.556    0.452    0.294   64.388  213.857
  323.250   20.864    0.448    0.299   63.672  213.861
  323.500   21.060    0.442    0.301   64.212  213.864
  323.750   21.140    0.445    0.301   62.298  213.667
  324.000   21.143    0.456    0.300   58.051  213.271
  324.250   21.147    0.465    0.299   55.419  212.876
  324.500   21.149    0.469    0.300   55.421  212.879
  324.750   20.997    0.478    0.302   56.620  212.882
  325.000   20.127    0.475    0.303   60.625  213.129
  325.250   19.465    0.473    0.303   62.976  213.492
  325.500   19.221    0.472    0.303   62.679  213.690
  325.750   19.028    0.456    0.303   62.302  213.211
  326.000   18.746    0.447    0.306   62.798  212.798
  326.250   18.341    0.449    0.311   65.178  212.798
  326.500   17.449    0.445    0.302   65.952  212.500
  326.750   15.378    0.437    0.279   67.619  212.500
  327.000   13.187    0.434    0.241   71.071  212.996
  327.250   11.531    0.445    0.194   75.298  213.790
  327.500    9.360    0.433    0.227   73.809  213.790
  327.750    8.439    0.433    0.231   75.952  213.790
  328.000    7.968    0.446    0.231   78.095  213.790
  328.250    7.713    0.462    0.235   79.524  213.790
  328.500    7.631    0.473    0.242   79.881  213.690
  328.750    7.850    0.471    0.240   79.415  213.294
  329.000    8.096    0.458    0.231   80.655  213.294
  329.250    8.217    0.453    0.230   84.940  213.690
  329.500    8.249    0.456    0.234   86.548  214.385
  329.750    8.069    0.465    0.238   85.833  214.782
  330.000    7.798    0.471    0.238   84.821  214.782
  330.250    7.755    0.467    0.235   86.508  214.782
  330.500    7.816    0.471    0.232   83.036  214.782
  330.750    7.991    0.455    0.230   81.845  214.782
  331.000    8.170    0.456    0.226   81.726  215.079
  331.250    8.323    0.462    0.223   82.560  215.476
  331.500    8.386    0.466    0.224   83.750  215.774
  331.750    8.203    0.463    0.227   84.127  215.691
  332.000    7.899    0.451    0.227   83.631  215.278
  332.250    7.786    0.444    0.226   82.203  213.691
  332.500    7.717    0.434    0.227   79.703  212.401
  332.750    7.775    0.428    0.237   77.559  211.409
  333.000    7.992    0.431    0.257   75.476  210.813
  333.250    8.514    0.447    0.284   70.784  210.813
  333.500    9.413    0.465    0.287   67.559  210.813
  333.750   10.344    0.484    0.292   66.369  210.417
  334.000   11.433    0.480    0.284   65.536  210.020
  334.250   12.238    0.462    0.268   65.417  209.623
  334.500   12.422    0.439    0.248   66.250  209.325
  334.750   11.677    0.421    0.234   68.948  209.325
  335.000   10.051    0.421    0.263   72.917  209.325
  335.250    9.762    0.447    0.283   73.393  209.722
  335.500   10.069    0.458    0.286   73.333  209.821
  335.750   10.488    0.454    0.283   72.857  209.821
  336.000   10.726    0.445    0.278   72.083  209.722
  336.250   10.825    0.446    0.270   70.784  209.325
  336.500   11.337    0.452    0.258   69.048  209.325
  336.750   11.591    0.460    0.251   68.809  209.325
  337.000   11.150    0.447    0.254   67.857  209.325
  337.250   10.153    0.430    0.249   68.810  209.325
  337.500    9.067    0.422    0.236   72.202  209.524
  337.750    8.263    0.435    0.240   77.282  210.483
  338.000    8.017    0.444    0.248   81.250  211.310
  338.250    7.960    0.445    0.248   82.916  211.706
  338.500    8.167    0.449    0.238   79.762  211.806
  338.750    8.772    0.438    0.223   75.238  212.004
  339.000    9.910    0.415    0.209   71.012  212.401
  339.250   11.986    0.397    0.198   67.311  212.963
  339.500   13.780    0.384    0.190   69.048  213.790
  339.750   14.608    0.382    0.183   74.047  214.186
  340.000   15.408    0.385    0.186   74.405  214.583
  340.250   16.563    0.382    0.188   70.595  214.782
  340.500   18.202    0.364    0.178   64.881  214.782
  340.750   20.495    0.321    0.141   60.417  214.782
  341.000   24.122    0.280    0.100   55.952  214.782
  341.250   29.253    0.253    0.061   54.524  214.782
  341.500   34.526    0.230    0.042   54.881  214.484
  341.750   37.738    0.211    0.032   55.119  213.889
  342.000   37.739    0.197    0.024   55.119  213.194
  342.250   34.585    0.187    0.017   57.093  212.798
  342.500   28.485    0.187    0.020   59.821  212.798
  342.750   25.490    0.225    0.056   62.440  211.607
  343.000   23.090    0.283    0.111   66.131  210.417
  343.250   21.162    0.334    0.157   70.417  209.425
  343.500   19.651    0.368    0.181   73.869  208.829
  343.750   18.460    0.390    0.196   74.107  208.829
  344.000   18.049    0.400    0.214   74.107  208.829
  344.250   17.659    0.399    0.214   72.203  209.226
  344.500   16.705    0.407    0.210   73.512  209.325
  344.750   14.976    0.416    0.214   77.560  209.325
  345.000   12.845    0.425    0.224   82.797  209.325
  345.250   10.488    0.438    0.226   86.310  209.408
  345.500    9.095    0.455    0.221   84.821  209.821
  345.750    8.704    0.468    0.214   84.107  210.615
