~VERSION INFORMATION
 VERS.                 2.0:   CWLS LOG ASCII STANDARD -VERSION 2.0
 WRAP.                  NO:   ONE LINE PER DEPTH STEP
~WELL INFORMATION BLOCK
#MNEM.UNIT           DATA                    DESCRIPTION OF MNEMONIC
#---------    -------------------            -------------------------------
# Generated from Intellog Unique Number	CS_71_72/WELL/926
WELL.         CAVALIER ET AL NIXON           : Well_name    - WELL
LOC .         00/15-17-072-14W4/0            : Location     - LOCATION
UWI .         00/15-17-072-14W4/0            : Uwi          - UNIQUE WELL ID
ENTR.         SP                             : Entered      - ENTERED BY
SRVC.         SCHLUMBERGER                   : Scn          - SERVICE COMPANY
STRT.M        285                            : top_depth    - START DEPTH
STOP.M        485                            : bot_depth    - STOP DEPTH
STEP.M        0.25                           : increment    - STEP LENGTH
 NULL. -999.2500:NULL Value
~CURVE INFORMATION BLOCK
#MNEM UNIT       ERCB CURVE CODE    CURVE DESCRIPTION
#-----------   ------------------   ----------------------------------
DEPT.M        00 001 00 00         : DEPTH        - DEPTH
ILD .OHMM     00 120 00 00         : RESD         - DEEP RESISTIVITY (DIL)
DPHI.V/V      00 890 00 00         : PHID         - DENSITY POROSITY (LIMESTONE)
NPHI.V/V      00 330 00 00         : PHIN         - NEUTRON POROSITY (LIMESTONE)
GR  .API      00 310 00 00         : GR           - GAMMA RAY
~PARAMETER INFORMATION
#MNEM.UNIT           DATA             DESCRIPTION OF MNEMONIC
#---------         -----------     ------------------------------
GL  .M        614.5                : gl           - GROUND LEVEL ELEVATION
EREF.M        618                  : kb           - ELEVATION OF DEPTH REFERENCE
DATM.M        614.5                : datum        - DATUM ELEVATION
TDD .M        491                  : tdd          - TOTAL DEPTH DRILLER
RUN .         ONE                  : Run          - RUN NUMBER
ENG .         BILL                 : Engineer     - RECORDING ENGINEER
WIT .         JIM                  : Witness      - WITNESSED BY
MUD .         GEL                  : Mud_type     - MUD TYPE
MATR.         LIMESTONE            : Logunit      - NEUTRON MATRIX
TMAX.C        20                   : BHT          - MAXIMUM RECORDED TEMPERATURE
BHTD.M        491                  : BHTDEP       - MAXIMUM RECORDED TEMPERATURE
MATR.         1                    : LOGUNIT      - NEUTRON MATRIX
RMT .C        25                   : MDTP         - TEMPERATURE OF MUD
NEUT.         1                    : NEUTRON      - NEUTRON TYPE
RESI.         0                    : RESIST       - RESISTIVITY TYPE
RMC .OHMM     0.25                 : RMC          - RESISTIVITY OF MUD CAKE
RMF .OHMM     0.25                 : RMF          - RESISTIVITY OF MUD FILTRATE
SUFT.C        15                   : SUFT         - SURFACE TEMPERATURE
~A  DEPTH     RESD     PHID     PHIN       GR
# ...
  372.000    4.732    0.274    0.417   84.113
  372.250    4.912    0.262    0.407   85.323
  372.500    4.912    0.255    0.405   85.909
  372.750    5.004    0.251    0.407   88.339
  373.000    4.911    0.249    0.413   90.166
  373.250    4.643    0.240    0.424   90.764
  373.500    4.229    0.231    0.432   91.359
  373.750    4.073    0.214    0.444   91.334
  374.000    3.851    0.199    0.459   90.087
  374.250    3.641    0.194    0.481   88.224
  374.500    3.641    0.207    0.494   87.588
  374.750    3.922    0.214    0.503   88.790
  375.000    4.387    0.224    0.484   88.774
  375.250    4.999    0.235    0.451   84.447
  375.500    5.696    0.253    0.418   79.508
  375.750    6.138    0.288    0.405   72.724
  376.000    6.864    0.303    0.390   68.404
  376.250    7.677    0.299    0.373   61.007
  376.500    8.748    0.168    0.347   52.374
  376.750    9.251    0.107    0.308   47.439
  377.000    9.602    0.072    0.282   49.266
  377.250    9.250    0.101    0.316   55.383
  377.500    8.425    0.213    0.354   58.440
  377.750    7.392    0.268    0.382   62.102
  378.000    6.486    0.308    0.400   63.927
  378.250    5.798    0.343    0.419   65.754
  378.500    5.585    0.330    0.429   67.570
  378.750    5.280    0.320    0.433   68.778
  379.000    5.481    0.315    0.402   69.369
  379.250    6.016    0.298    0.382   69.356
  379.500    6.362    0.272    0.365   69.938
  379.750    6.984    0.235    0.350   70.536
  380.000    7.115    0.220    0.342   71.745
  380.250    6.854    0.242    0.345   71.723
  380.500    6.480    0.271    0.367   70.475
  380.750    6.013    0.293    0.391   67.997
  381.000    5.580    0.293    0.402   64.289
  381.250    5.375    0.302    0.408   66.727
  381.500    5.275    0.304    0.402   71.617
  381.750    5.177    0.317    0.396   74.666
  382.000    5.274    0.326    0.390   76.482
  382.250    5.577    0.317    0.395   78.305
  382.500    5.898    0.300    0.408   78.292
  382.750    6.008    0.282    0.425   78.274
  383.000    6.008    0.277    0.442   77.018
  383.250    5.896    0.269    0.465   77.004
  383.500    5.786    0.265    0.468   78.820
  383.750    5.679    0.260    0.475   81.254
  384.000    5.573    0.254    0.497   83.081
  384.250    5.470    0.248    0.480   86.128
  384.500    5.469    0.237    0.446   87.345
  384.750    5.367    0.231    0.441   84.865
  385.000    5.367    0.236    0.451   79.926
  385.250    5.366    0.257    0.462   79.287
  385.500    5.366    0.270    0.416   81.727
  385.750    5.365    0.281    0.393   86.621
  386.000    5.365    0.242    0.392   84.750
  386.250    5.364    0.245    0.399   81.652
  386.500    5.364    0.252    0.402   80.411
  386.750    5.364    0.257    0.405   78.543
  387.000    5.363    0.266    0.409   80.357
  387.250    5.362    0.273    0.409   80.338
  387.500    5.362    0.269    0.410   80.325
  387.750    5.262    0.269    0.418   79.687
  388.000    5.262    0.260    0.426   77.825
  388.250    5.261    0.253    0.420   74.723
  388.500    5.261    0.249    0.404   72.860
  388.750    5.163    0.251    0.397   73.450
  389.000    5.163    0.261    0.418   74.662
  389.250    5.162    0.267    0.420   77.709
  389.500    5.161    0.272    0.411   80.152
  389.750    5.161    0.261    0.417   83.198
  390.000    5.065    0.254    0.431   84.416
  390.250    5.065    0.243    0.442   84.394
  390.500    5.064    0.240    0.423   82.528
  390.750    5.064    0.237    0.416   80.044
  391.000    5.063    0.238    0.412   80.641
  391.250    5.063    0.243    0.398   83.694
  391.500    5.662    0.229    0.373   78.140
  391.750    6.101    0.189    0.350   65.201
  392.000    6.333    0.093    0.321   59.653
  392.250    6.823    0.054    0.301   52.259
  392.500    7.215    0.095    0.271   57.140
  392.750    6.822    0.190    0.292   60.811
  393.000    6.213    0.235    0.327   63.255
  393.250    5.985    0.266    0.360   66.311
  393.500    5.554    0.286    0.375   69.971
  393.750    5.450    0.286    0.386   71.795
  394.000    5.250    0.284    0.391   73.612
  394.250    5.349    0.280    0.396   74.831
  394.500    5.348    0.285    0.402   77.259
  394.750    5.348    0.278    0.405   77.861
  395.000    5.347    0.271    0.407   78.451
  395.250    5.347    0.266    0.409   79.658
  395.500    5.247    0.277    0.415   80.861
  395.750    5.247    0.289    0.429   79.619
  396.000    5.149    0.302    0.435   74.669
  396.250    5.149    0.310    0.395   74.658
  396.500    5.148    0.309    0.397   78.312
  396.750    5.053    0.304    0.408   80.143
  397.000    4.958    0.293    0.449   82.574
  397.250    4.867    0.289    0.480   83.178
  397.500    4.432    0.282    0.515   82.540
  397.750    4.037    0.278    0.470   81.291
  398.000    3.477    0.275    0.472   83.719
  398.250    3.108    0.304    0.538   85.550
  398.500    2.676    0.319    0.572   89.212
  398.750    2.530    0.332    0.583   91.644
  399.000    2.392    0.339    0.596   92.247
  399.250    2.348    0.319    0.607   89.150
  399.500    2.530    0.298    0.619   86.055
  399.750    2.777    0.297    0.584   85.416
  400.000    3.224    0.298    0.524   86.627
  400.250    3.346    0.284    0.533   88.447
  400.500    3.813    0.269    0.551   86.581
  400.750    4.108    0.262    0.502   85.939
  401.000    4.510    0.253    0.473   85.924
  401.250    4.681    0.263    0.457   86.511
  401.500    4.859    0.250    0.444   87.113
  401.750    4.858    0.238    0.445   86.466
  402.000    4.858    0.232    0.448   86.451
  402.250    4.857    0.226    0.443   86.436
  402.500    4.857    0.237    0.427   86.404
  402.750    4.856    0.248    0.425   85.775
  403.000    4.856    0.256    0.441   85.739
  403.250    4.766    0.267    0.424   85.722
  403.500    4.765    0.266    0.409   85.707
  403.750    4.765    0.265    0.401   85.686
  404.000    4.676    0.272    0.397   85.058
  404.250    4.676    0.272    0.397   80.115
  404.500    4.675    0.262    0.420   74.566
  404.750    4.675    0.252    0.452   69.621
  405.000    4.674    0.253    0.468   67.754
  405.250    4.762    0.275    0.414   68.960
  405.500    4.762    0.300    0.421   68.948
  405.750    4.851    0.317    0.406   64.623
  406.000    4.942    0.330    0.387   57.222
  406.250    5.129    0.338    0.376   53.512
  406.500    5.324    0.345    0.393   51.648
  406.750    5.955    0.353    0.400   49.166
  407.000    6.785    0.354    0.388   46.692
  407.250    7.589    0.349    0.372   46.051
  407.500    8.331    0.342    0.366   47.874
  407.750    9.145    0.332    0.363   48.464
  408.000    9.317    0.326    0.380   49.055
  408.250    8.023    0.320    0.389   52.721
  408.500    7.040    0.324    0.406   54.551
  408.750    6.293    0.318    0.415   58.209
  409.000    5.840    0.312    0.397   59.423
  409.250    5.319    0.308    0.393   60.015
  409.500    5.123    0.306    0.402   58.768
  409.750    4.935    0.322    0.410   59.354
  410.000    4.843    0.327    0.416   60.570
  410.250    4.753    0.334    0.423   64.231
  410.500    4.665    0.331    0.416   66.669
  410.750    4.665    0.313    0.412   67.883
  411.000    4.752    0.304    0.418   64.780
  411.250    4.751    0.293    0.419   66.609
  411.500    4.751    0.282    0.409   70.887
  411.750    4.751    0.269    0.417   74.549
  412.000    4.750    0.262    0.411   76.990
  412.250    4.750    0.260    0.395   78.194
  412.500    4.661    0.265    0.402   78.180
  412.750    4.661    0.282    0.427   73.230
  413.000    4.661    0.298    0.450   71.992
  413.250    4.660    0.303    0.467   78.726
  413.500    4.574    0.305    0.485   80.552
  413.750    4.573    0.308    0.460   76.844
  414.000    4.573    0.307    0.433   71.287
  414.250    4.572    0.311    0.405   68.810
  414.500    4.572    0.322    0.393   67.556
  414.750    4.571    0.336    0.406   66.918
  415.000    4.657    0.344    0.414   66.288
  415.250    4.657    0.346    0.420   65.029
