~VERSION INFORMATION
 VERS.                 2.0:   CWLS LOG ASCII STANDARD -VERSION 2.0
 WRAP.                  NO:   ONE LINE PER DEPTH STEP
~WELL INFORMATION BLOCK
#MNEM.UNIT           DATA                    DESCRIPTION OF MNEMONIC
#---------    -------------------            -------------------------------
# Generated from Intellog Unique Number	CS_69_70/WELL/888
WELL.         ALGAS MINERAL ENTERPRISES      : Well_name    - WELL
LOC .         00/11-15-070-17W4/0            : Location     - LOCATION
UWI .         00/11-15-070-17W4/0            : Uwi          - UNIQUE WELL ID
ENTR.         SP                             : Entered      - ENTERED BY
SRVC.         SCHLUMBERGER                   : Scn          - SERVICE COMPANY
STRT.M        274.32                         : top_depth    - START DEPTH
STOP.M        472.07                         : bot_depth    - STOP DEPTH
STEP.M        0.25                           : increment    - STEP LENGTH
 NULL. -999.2500:NULL Value
~CURVE INFORMATION BLOCK
#MNEM UNIT       ERCB CURVE CODE    CURVE DESCRIPTION
#-----------   ------------------   ----------------------------------
DEPT.M        00 001 00 00         : DEPTH        - DEPTH
GR  .API      00 310 00 00         : GR           - GAMMA RAY
DPHI.V/V      00 890 00 00         : PHID         - DENSITY POROSITY (SANDSTONE)
NPHI.V/V      00 330 00 00         : PHIN         - NEUTRON POROSITY (SANDSTONE)
ILD .OHMM     00 120 00 00         : RESD         - DEEP RESISTIVITY (DIL)
~PARAMETER INFORMATION
#MNEM.UNIT           DATA             DESCRIPTION OF MNEMONIC
#---------         -----------     ------------------------------
GL  .M        556.108              : gl           - GROUND LEVEL ELEVATION
EREF.M        559.003              : kb           - ELEVATION OF DEPTH REFERENCE
DATM.M        556.108              : datum        - DATUM ELEVATION
TDD .M        484.632              : tdd          - TOTAL DEPTH DRILLER
RUN .         ONE                  : Run          - RUN NUMBER
ENG .         BILL                 : Engineer     - RECORDING ENGINEER
WIT .         JIM                  : Witness      - WITNESSED BY
MUD .         GEL                  : Mud_type     - MUD TYPE
MATR.         SANDSTONE            : Logunit      - NEUTRON MATRIX
TMAX.C        56                   : BHT          - MAXIMUM RECORDED TEMPERATURE
BHTD.M        1590                 : BHTDEP       - MAXIMUM RECORDED TEMPERATURE
MATR.         1                    : LOGUNIT      - NEUTRON MATRIX
RMT .C        25                   : MDTP         - TEMPERATURE OF MUD
NEUT.         1                    : NEUTRON      - NEUTRON TYPE
RESI.         0                    : RESIST       - RESISTIVITY TYPE
RMC .OHMM     0.25                 : RMC          - RESISTIVITY OF MUD CAKE
RMF .OHMM     0.25                 : RMF          - RESISTIVITY OF MUD FILTRATE
SUFT.C        15                   : SUFT         - SURFACE TEMPERATURE
~A  DEPTH       GR     PHID     PHIN     RESD
# ...
  361.320  104.325    0.240    0.377    3.455
  361.570   95.540    0.242    0.383    3.363
  361.820   88.788    0.254    0.383    3.193
  362.070   85.007    0.265    0.380    3.091
  362.320   87.230    0.266    0.379    3.160
  362.570   89.891    0.255    0.374    3.385
  362.820   92.664    0.246    0.371    3.571
  363.070   92.613    0.232    0.371    3.787
  363.320   92.917    0.224    0.368    4.043
  363.570   95.157    0.221    0.362    4.187
  363.820   97.194    0.226    0.357    4.349
  364.070   94.391    0.223    0.353    4.402
  364.320   95.854    0.211    0.360    4.391
  364.570   97.703    0.199    0.365    4.376
  364.820   94.918    0.191    0.362    4.318
  365.070   92.490    0.191    0.361    4.231
  365.320   91.941    0.197    0.374    4.188
  365.570   93.234    0.191    0.383    4.120
  365.820   93.846    0.193    0.390    4.065
  366.070   93.995    0.197    0.397    4.068
  366.320   87.055    0.215    0.337    4.185
  366.570   79.485    0.231    0.300    4.384
  366.820   69.918    0.173    0.276    4.582
  367.070   60.728    0.122    0.246    4.715
  367.320   55.505    0.090    0.219    4.714
  367.570   64.351    0.105    0.247    4.635
  367.820   68.417    0.161    0.273    4.256
  368.070   69.404    0.191    0.315    4.046
  368.320   69.729    0.219    0.345    4.294
  368.570   67.799    0.173    0.249    4.955
  368.820   63.129    0.120    0.200    6.086
  369.070   60.363    0.079    0.175    7.703
  369.320   64.217    0.118    0.183    9.550
  369.570   68.639    0.149    0.216    8.215
  369.820   72.978    0.170    0.247    4.826
  370.070   77.042    0.191    0.277    3.628
  370.320   79.741    0.265    0.310    3.112
  370.570   82.583    0.294    0.349    2.816
  370.820   85.272    0.275    0.357    2.625
  371.070   86.306    0.277    0.358    2.564
  371.320   82.891    0.276    0.368    2.564
  371.570   79.893    0.260    0.375    2.960
  371.820   78.352    0.255    0.378    3.104
  372.070   78.038    0.222    0.350    3.324
  372.320   74.643    0.183    0.309    3.767
  372.570   70.760    0.137    0.279    4.236
  372.820   68.263    0.101    0.257    4.653
  373.070   67.311    0.093    0.239    5.128
  373.320   75.540    0.173    0.227    4.883
  373.570   84.818    0.220    0.262    4.427
  373.820   91.430    0.248    0.300    3.984
  374.070   94.635    0.260    0.352    3.743
  374.320   93.571    0.259    0.368    3.558
  374.570   89.682    0.236    0.362    3.542
  374.820   86.118    0.226    0.361    3.605
  375.070   83.874    0.217    0.365    3.658
  375.320   82.978    0.223    0.365    3.803
  375.570   85.543    0.229    0.360    3.920
  375.820   86.789    0.218    0.354    3.984
  376.070   87.726    0.211    0.346    4.064
  376.320   87.864    0.231    0.342    4.105
  376.570   88.311    0.241    0.341    4.115
  376.820   88.229    0.243    0.343    4.136
  377.070   87.225    0.249    0.343    4.108
  377.320   85.193    0.254    0.344    4.098
  377.570   84.140    0.247    0.353    4.069
  377.820   83.781    0.242    0.362    4.011
  378.070   85.260    0.234    0.364    4.011
  378.320   86.341    0.230    0.364    3.908
  378.570   84.862    0.240    0.370    3.731
  378.820   83.626    0.247    0.378    3.658
  379.070   84.264    0.252    0.384    3.552
  379.320   84.104    0.263    0.381    3.459
  379.570   81.676    0.259    0.373    3.359
  379.820   81.689    0.248    0.368    3.346
  380.070   80.812    0.257    0.363    3.413
  380.320   80.092    0.262    0.358    3.469
  380.570   80.877    0.261    0.354    3.456
  380.820   82.100    0.256    0.352    3.419
  381.070   83.145    0.239    0.367    3.385
  381.320   81.270    0.221    0.376    3.343
  381.570   79.176    0.224    0.378    3.291
  381.820   77.947    0.257    0.369    3.248
  382.070   78.278    0.274    0.366    3.200
  382.320   78.620    0.268    0.364    3.175
  382.570   79.668    0.263    0.366    3.141
  382.820   81.833    0.266    0.369    3.113
  383.070   84.827    0.273    0.370    3.089
  383.320   85.515    0.289    0.368    3.069
  383.570   86.313    0.296    0.367    3.052
  383.820   85.394    0.285    0.364    3.032
  384.070   85.378    0.275    0.360    3.033
  384.320   84.705    0.270    0.356    3.015
  384.570   84.056    0.264    0.360    2.984
  384.820   82.923    0.255    0.366    2.951
  385.070   81.671    0.253    0.364    2.918
  385.320   82.047    0.258    0.359    2.858
  385.570   90.493    0.263    0.365    2.767
  385.820   98.676    0.258    0.377    2.685
  386.070  103.412    0.247    0.390    2.489
  386.320  107.331    0.227    0.406    2.273
  386.570  110.010    0.220    0.438    2.070
  386.820  111.185    0.232    0.459    1.942
  387.070  112.936    0.247    0.467    1.838
  387.320  115.613    0.241    0.473    1.772
  387.570  111.258    0.223    0.477    1.847
  387.820  108.262    0.212    0.484    2.076
  388.070  109.066    0.216    0.440    2.415
  388.320  109.970    0.224    0.416    2.776
  388.570  106.319    0.219    0.402    3.136
  388.820  103.691    0.212    0.391    3.419
  389.070  101.744    0.217    0.383    3.657
  389.320  102.679    0.201    0.382    3.769
  389.570  101.688    0.195    0.377    3.798
  389.820   98.941    0.189    0.372    3.799
  390.070   98.101    0.187    0.376    3.790
  390.320  100.612    0.196    0.379    3.800
  390.570  101.976    0.202    0.376    3.801
  390.820   99.541    0.212    0.367    3.776
  391.070   96.755    0.215    0.361    3.721
  391.320   96.014    0.211    0.357    3.687
  391.570   96.196    0.219    0.354    3.704
  391.820   96.338    0.227    0.361    3.787
  392.070   95.616    0.218    0.370    3.851
  392.320   93.555    0.213    0.377    3.975
  392.570   91.254    0.211    0.375    4.087
  392.820   86.101    0.207    0.367    4.148
  393.070   81.674    0.222    0.368    4.016
  393.320   80.873    0.241    0.379    3.851
  393.570   83.881    0.261    0.384    3.629
  393.820   86.358    0.283    0.373    3.431
  394.070   87.567    0.265    0.367    3.213
  394.320   89.256    0.267    0.370    3.020
  394.570   87.443    0.283    0.371    2.847
  394.820   81.364    0.294    0.370    2.713
  395.070   76.343    0.302    0.365    2.590
  395.320   73.262    0.306    0.360    2.480
  395.570   72.167    0.306    0.355    2.366
  395.820   70.659    0.295    0.344    2.324
  396.070   71.481    0.278    0.315    2.545
  396.320   70.071    0.267    0.274    3.150
  396.570   68.598    0.118    0.238    3.721
  396.820   66.175    0.111    0.231    3.994
  397.070   66.030    0.151    0.353    4.115
  397.320   70.634    0.207    0.363    4.034
  397.570   74.886    0.267    0.373    3.689
  397.820   79.073    0.294    0.377    3.236
  398.070   80.558    0.294    0.379    2.907
  398.320   81.892    0.282    0.378    2.707
  398.570   84.864    0.254    0.376    2.712
  398.820   87.777    0.243    0.379    2.883
  399.070   90.705    0.229    0.375    3.136
  399.320   91.912    0.223    0.365    3.239
  399.570   90.126    0.234    0.357    3.328
  399.820   87.995    0.238    0.352    3.339
  400.070   87.827    0.242    0.363    3.331
  400.320   88.621    0.234    0.371    3.316
  400.570   89.543    0.229    0.375    3.303
  400.820   90.011    0.239    0.371    3.322
  401.070   89.380    0.246    0.364    3.355
  401.320   87.317    0.232    0.363    3.447
  401.570   83.189    0.220    0.362    3.571
  401.820   79.885    0.217    0.357    3.700
  402.070   77.929    0.212    0.353    3.832
  402.320   79.246    0.206    0.353    3.969
  402.570   82.414    0.214    0.348    4.114
  402.820   85.904    0.221    0.343    4.275
  403.070   88.270    0.210    0.332    4.446
  403.320   90.687    0.199    0.326    4.570
  403.570   93.712    0.193    0.322    4.674
  403.820   94.516    0.193    0.327    4.755
  404.070   94.493    0.192    0.329    4.794
  404.320   93.566    0.205    0.329    4.842
  404.570   94.076    0.209    0.330    4.851
