~VERSION INFORMATION
 VERS.                 2.0:   CWLS LOG ASCII STANDARD -VERSION 2.0
 WRAP.                  NO:   ONE LINE PER DEPTH STEP
~WELL INFORMATION BLOCK
#MNEM.UNIT           DATA                    DESCRIPTION OF MNEMONIC
#---------    -------------------            -------------------------------
# Generated from Intellog Unique Number	CC_80_83/WELL/2326
WELL.         NOVALTA NEWBY                  : Well_name    - WELL
LOC .         00/12-07-083-04W4/0            : Location     - LOCATION
UWI .         00/12-07-083-04W4/0            : Uwi          - UNIQUE WELL ID
ENTR.         DW                             : Entered      - ENTERED BY
SRVC.         SCHLUMBERGER                   : Scn          - SERVICE COMPANY
STRT.M        70                             : top_depth    - START DEPTH
STOP.M        279.75                         : bot_depth    - STOP DEPTH
STEP.M        0.25                           : increment    - STEP LENGTH
 NULL. -999.2500:NULL Value
~CURVE INFORMATION BLOCK
#MNEM UNIT       ERCB CURVE CODE    CURVE DESCRIPTION
#-----------   ------------------   ----------------------------------
DEPT.M        00 001 00 00         : DEPTH        - DEPTH
GR  .API      00 310 00 00         : GR           - GAMMA RAY
DPHI.V/V      00 890 00 00         : PHID         - DENSITY POROSITY (SANDSTONE)
NPHI.V/V      00 330 00 00         : PHIN         - NEUTRON POROSITY (SANDSTONE)
ILD .OHMM     00 120 00 00         : RESD         - DEEP RESISTIVITY (DIL)
~PARAMETER INFORMATION
#MNEM.UNIT           DATA             DESCRIPTION OF MNEMONIC
#---------         -----------     ------------------------------
GL  .M        462.29               : gl           - GROUND LEVEL ELEVATION
EREF.M        465.29               : kb           - ELEVATION OF DEPTH REFERENCE
DATM.M        465.29               : datum        - DATUM ELEVATION
TDD .M        288.9                : tdd          - TOTAL DEPTH DRILLER
RUN .         ONE                  : Run          - RUN NUMBER
ENG .         BILL                 : Engineer     - RECORDING ENGINEER
WIT .         JIM                  : Witness      - WITNESSED BY
MUD .         GEL                  : Mud_type     - MUD TYPE
MATR.         SANDSTONE            : Logunit      - NEUTRON MATRIX
TMAX.C        19                   : BHT          - MAXIMUM RECORDED TEMPERATURE
BHTD.M        288.9                : BHTDEP       - MAXIMUM RECORDED TEMPERATURE
MATR.         1                    : LOGUNIT      - NEUTRON MATRIX
RMT .C        25                   : MDTP         - TEMPERATURE OF MUD
NEUT.         1                    : NEUTRON      - NEUTRON TYPE
RESI.         0                    : RESIST       - RESISTIVITY TYPE
RMC .OHMM     0.25                 : RMC          - RESISTIVITY OF MUD CAKE
RMF .OHMM     0.25                 : RMF          - RESISTIVITY OF MUD FILTRATE
SUFT.C        15                   : SUFT         - SURFACE TEMPERATURE
~A  DEPTH       GR     PHID     PHIN     RESD
# ...
  200.500  103.339    0.214    0.433    4.978
  200.750  101.743    0.230    0.388    5.520
  201.000   94.015    0.256    0.317    6.445
  201.250   75.319    0.310    0.238    7.447
  201.500   52.880    0.384    0.142    9.105
  201.750   38.130    0.437    0.056   13.487
  202.000   32.141    0.447    0.040   22.380
  202.250   28.361    0.452    0.042   33.089
  202.500   26.401    0.455    0.043   36.610
  202.750   25.418    0.456    0.044   36.654
  203.000   27.288    0.455    0.045   36.130
  203.250   31.625    0.460    0.046   35.163
  203.500   34.003    0.471    0.051   35.203
  203.750   35.654    0.468    0.056   32.152
  204.000   36.492    0.468    0.061   24.038
  204.250   39.084    0.448    0.070   17.521
  204.500   46.194    0.396    0.175   12.581
  204.750   62.469    0.333    0.324    7.833
  205.000   85.994    0.283    0.342    6.843
  205.250   97.563    0.257    0.360    5.793
  205.500   99.419    0.250    0.382    4.896
  205.750   98.458    0.241    0.386    4.521
  206.000   96.052    0.229    0.362    4.394
  206.250   99.138    0.220    0.346    4.354
  206.500  113.919    0.213    0.381    4.433
  206.750  120.775    0.210    0.407    4.571
  207.000  111.770    0.213    0.393    4.727
  207.250   98.545    0.223    0.357    4.828
  207.500   95.220    0.221    0.368    4.900
  207.750  101.835    0.202    0.409    4.969
  208.000  108.404    0.192    0.390    4.960
  208.250  112.081    0.190    0.379    4.877
  208.500  109.888    0.220    0.378    4.862
  208.750  104.708    0.223    0.379    4.856
  209.000  102.996    0.203    0.390    4.898
  209.250  106.044    0.197    0.405    4.952
  209.500  109.065    0.194    0.402    4.863
  209.750  109.998    0.200    0.392    4.852
  210.000  107.148    0.200    0.392    4.920
  210.250  105.700    0.195    0.390    5.001
  210.500  109.089    0.193    0.392    5.078
  210.750  113.313    0.194    0.417    5.157
  211.000  113.442    0.195    0.447    5.239
  211.250  112.358    0.206    0.436    5.327
  211.500  111.895    0.209    0.402    5.340
  211.750  110.889    0.200    0.405    5.342
  212.000  113.698    0.188    0.444    5.311
  212.250  121.899    0.194    0.472    5.218
  212.500  128.314    0.220    0.471    5.137
  212.750  129.211    0.226    0.465    5.051
  213.000  121.543    0.207    0.453    5.034
  213.250  111.213    0.189    0.407    5.042
  213.500  103.217    0.185    0.363    5.032
  213.750   97.686    0.189    0.354    4.895
  214.000   94.910    0.192    0.345    4.586
  214.250   95.659    0.187    0.341    4.435
  214.500   93.051    0.193    0.335    4.340
  214.750   91.603    0.209    0.339    4.396
  215.000   94.605    0.217    0.350    4.774
  215.250   97.729    0.211    0.354    5.172
  215.500   97.417    0.208    0.349    5.226
  215.750   97.415    0.206    0.350    5.398
  216.000  102.828    0.200    0.383    5.351
  216.250  108.236    0.197    0.411    4.531
  216.500  111.833    0.187    0.415    3.541
  216.750  105.418    0.201    0.399    3.078
  217.000   86.331    0.270    0.367    2.860
  217.250   88.645    0.280    0.338    2.792
  217.500   97.326    0.233    0.329    2.961
  217.750  102.651    0.194    0.355    3.297
  218.000  104.788    0.184    0.371    3.984
  218.250  105.786    0.184    0.358    4.765
  218.500  107.370    0.186    0.362    4.842
  218.750  106.802    0.188    0.374    4.362
  219.000  102.467    0.197    0.381    3.848
  219.250  101.510    0.208    0.381    3.638
  219.500  103.836    0.204    0.382    3.675
  219.750  105.183    0.195    0.392    3.827
  220.000  105.558    0.206    0.398    4.080
  220.250  103.228    0.205    0.384    4.152
  220.500  103.550    0.200    0.380    3.465
  220.750   94.147    0.195    0.389    2.366
  221.000   73.498    0.224    0.371    1.675
  221.250   55.058    0.286    0.332    1.503
  221.500   47.362    0.318    0.323    1.320
  221.750   49.083    0.316    0.325    1.229
  222.000   52.217    0.313    0.333    1.220
  222.250   55.777    0.312    0.342    1.220
  222.500   55.592    0.314    0.356    1.233
  222.750   50.980    0.325    0.368    1.241
  223.000   48.022    0.334    0.367    1.177
  223.250   43.248    0.340    0.362    1.119
  223.500   41.041    0.344    0.353    1.105
  223.750   42.085    0.343    0.341    1.134
  224.000   44.996    0.334    0.328    1.215
  224.250   49.712    0.318    0.326    1.343
  224.500   56.021    0.297    0.337    1.473
  224.750   61.472    0.278    0.346    1.554
  225.000   63.421    0.294    0.350    1.533
  225.250   58.281    0.313    0.348    1.444
  225.500   51.473    0.319    0.353    1.305
  225.750   46.054    0.324    0.366    1.184
  226.000   39.396    0.329    0.366    1.175
  226.250   40.977    0.328    0.358    1.192
  226.500   44.321    0.316    0.350    1.225
  226.750   42.422    0.324    0.344    1.270
  227.000   39.341    0.341    0.348    1.296
  227.250   42.425    0.341    0.365    1.285
  227.500   51.703    0.330    0.375    1.266
  227.750   61.252    0.305    0.359    1.300
  228.000   62.543    0.295    0.350    1.384
  228.250   61.381    0.316    0.342    1.449
  228.500   65.212    0.336    0.328    1.484
  228.750   72.227    0.313    0.329    1.497
  229.000   75.966    0.271    0.354    1.498
  229.250   73.818    0.277    0.355    1.587
  229.500   64.223    0.296    0.346    1.726
  229.750   63.235    0.291    0.335    1.819
  230.000   70.699    0.275    0.337    1.850
  230.250   74.468    0.264    0.357    1.832
  230.500   75.974    0.261    0.364    1.741
  230.750   78.186    0.282    0.346    1.613
  231.000   61.951    0.311    0.328    1.472
  231.250   46.718    0.325    0.349    1.333
  231.500   44.390    0.327    0.374    1.231
  231.750   45.969    0.329    0.364    1.189
  232.000   46.911    0.324    0.351    1.193
  232.250   48.146    0.317    0.350    1.251
  232.500   52.331    0.312    0.344    1.285
  232.750   54.044    0.303    0.334    1.279
  233.000   52.409    0.302    0.339    1.248
  233.250   48.123    0.320    0.361    1.208
  233.500   40.787    0.345    0.380    1.171
  233.750   38.994    0.350    0.381    1.134
  234.000   37.772    0.344    0.366    1.098
  234.250   36.097    0.344    0.352    1.070
  234.500   33.042    0.347    0.344    1.070
  234.750   33.001    0.351    0.339    1.119
  235.000   43.157    0.348    0.341    1.213
  235.250   53.934    0.306    0.336    1.314
  235.500   59.274    0.286    0.337    1.394
  235.750   54.855    0.304    0.343    1.415
  236.000   46.643    0.315    0.342    1.412
  236.250   43.937    0.301    0.334    1.406
  236.500   45.750    0.296    0.334    1.359
  236.750   44.832    0.308    0.339    1.315
  237.000   44.016    0.315    0.343    1.289
  237.250   43.783    0.309    0.342    1.278
  237.500   45.837    0.302    0.342    1.295
  237.750   47.315    0.310    0.341    1.341
  238.000   44.543    0.326    0.336    1.383
  238.250   48.929    0.314    0.330    1.410
  238.500   52.756    0.282    0.338    1.377
  238.750   50.565    0.282    0.343    1.335
  239.000   46.098    0.314    0.339    1.275
  239.250   41.619    0.335    0.335    1.204
  239.500   37.751    0.332    0.337    1.189
  239.750   42.872    0.318    0.341    1.150
  240.000   45.441    0.311    0.344    1.172
  240.250   47.567    0.316    0.341    1.390
  240.500   53.485    0.322    0.324    1.601
  240.750   62.774    0.303    0.326    1.641
  241.000   74.855    0.253    0.376    1.636
  241.250   81.928    0.255    0.389    1.517
  241.500   64.655    0.315    0.392    1.396
  241.750   46.467    0.347    0.377    1.300
  242.000   46.753    0.327    0.349    1.300
  242.250   51.170    0.304    0.334    1.397
  242.500   44.668    0.301    0.330    1.487
  242.750   45.270    0.301    0.324    1.614
  243.000   52.354    0.281    0.330    1.665
  243.250   55.034    0.271    0.343    1.657
  243.500   51.847    0.285    0.357    1.606
  243.750   50.441    0.306    0.372    1.487
