~VERSION INFORMATION
 VERS.                 2.0:   CWLS LOG ASCII STANDARD -VERSION 2.0
 WRAP.                  NO:   ONE LINE PER DEPTH STEP
~WELL INFORMATION BLOCK
#MNEM.UNIT           DATA                    DESCRIPTION OF MNEMONIC
#---------    -------------------            -------------------------------
# Generated from Intellog Unique Number	CS_67_68/WELL/834
WELL.         COBRA OIL & GAS  LTD           : Well_name    - WELL
LOC .         00/11-12-068-17W4/0            : Location     - LOCATION
UWI .         00/11-12-068-17W4/0            : Uwi          - UNIQUE WELL ID
ENTR.         SP                             : Entered      - ENTERED BY
SRVC.         SCHLUMBERGER                   : Scn          - SERVICE COMPANY
STRT.M        340                            : top_depth    - START DEPTH
STOP.M        530                            : bot_depth    - STOP DEPTH
STEP.M        0.25                           : increment    - STEP LENGTH
 NULL. -999.2500:NULL Value
~CURVE INFORMATION BLOCK
#MNEM UNIT       ERCB CURVE CODE    CURVE DESCRIPTION
#-----------   ------------------   ----------------------------------
DEPT.M        00 001 00 00         : DEPTH        - DEPTH
ILD .OHMM     00 120 00 00         : RESD         - DEEP RESISTIVITY (DIL)
DPHI.V/V      00 890 00 00         : PHID         - DENSITY POROSITY (LIMESTONE)
NPHI.V/V      00 330 00 00         : PHIN         - NEUTRON POROSITY (LIMESTONE)
GR  .API      00 310 00 00         : GR           - GAMMA RAY
~PARAMETER INFORMATION
#MNEM.UNIT           DATA             DESCRIPTION OF MNEMONIC
#---------         -----------     ------------------------------
GL  .M        595.4                : gl           - GROUND LEVEL ELEVATION
EREF.M        599.2                : kb           - ELEVATION OF DEPTH REFERENCE
DATM.M        595.4                : datum        - DATUM ELEVATION
TDD .M        530                  : tdd          - TOTAL DEPTH DRILLER
RUN .         ONE                  : Run          - RUN NUMBER
ENG .         BILL                 : Engineer     - RECORDING ENGINEER
WIT .         JIM                  : Witness      - WITNESSED BY
MUD .         GEL                  : Mud_type     - MUD TYPE
MATR.         LIMESTONE            : Logunit      - NEUTRON MATRIX
TMAX.C        13                   : BHT          - MAXIMUM RECORDED TEMPERATURE
BHTD.M        530                  : BHTDEP       - MAXIMUM RECORDED TEMPERATURE
MATR.         1                    : LOGUNIT      - NEUTRON MATRIX
RMT .C        25                   : MDTP         - TEMPERATURE OF MUD
NEUT.         1                    : NEUTRON      - NEUTRON TYPE
RESI.         0                    : RESIST       - RESISTIVITY TYPE
RMC .OHMM     0.25                 : RMC          - RESISTIVITY OF MUD CAKE
RMF .OHMM     0.25                 : RMF          - RESISTIVITY OF MUD FILTRATE
SUFT.C        15                   : SUFT         - SURFACE TEMPERATURE
~A  DEPTH     RESD     PHID     PHIN       GR
# ...
  470.500    5.232    0.159    0.374   68.555
  470.750    6.262    0.147    0.360   64.849
  471.000    7.578    0.032    0.302   60.176
  471.250    8.486    0.010    0.218   57.800
  471.500    9.108    0.000    0.211   60.489
  471.750    7.274    0.042    0.226   69.217
  472.000    5.799    0.100    0.271   76.796
  472.250    4.789    0.151    0.329   82.686
  472.500    3.983    0.174    0.401   83.265
  472.750    3.627    0.187    0.420   81.070
  473.000    3.421    0.193    0.418   83.579
  473.250    3.398    0.175    0.404   87.595
  473.500    3.653    0.170    0.390   90.348
  473.750    4.373    0.162    0.381   92.252
  474.000    5.043    0.155    0.390   91.084
  474.250    6.148    0.145    0.390   77.482
  474.500    6.962    0.126    0.371   64.118
  474.750    7.335    0.062    0.327   56.308
  475.000    7.393    0.054    0.284   68.232
  475.250    5.971    0.081    0.301   77.804
  475.500    5.298    0.111    0.375   84.781
  475.750    4.861    0.161    0.396   91.154
  476.000    4.576    0.155    0.414   88.955
  476.250    4.503    0.146    0.428   85.851
  476.500    4.505    0.147    0.424   84.499
  476.750    4.541    0.157    0.419   86.702
  477.000    4.586    0.153    0.412   88.375
  477.250    4.597    0.158    0.407   90.644
  477.500    4.583    0.170    0.407   92.365
  477.750    4.576    0.180    0.413   93.548
  478.000    4.587    0.184    0.409   93.889
  478.250    4.607    0.172    0.402   93.381
  478.500    4.609    0.181    0.397   91.968
  478.750    4.620    0.169    0.398   90.193
  479.000    4.648    0.168    0.411   89.566
  479.250    4.720    0.169    0.421   90.385
  479.500    4.811    0.172    0.427   91.319
  479.750    4.921    0.148    0.417   92.326
  480.000    5.044    0.129    0.420   93.390
  480.250    5.121    0.129    0.427   94.632
  480.500    5.181    0.163    0.438   95.392
  480.750    5.242    0.181    0.419   95.789
  481.000    5.187    0.182    0.406   95.707
  481.250    5.161    0.168    0.401   94.892
  481.500    5.154    0.170    0.408   94.026
  481.750    5.147    0.183    0.416   92.131
  482.000    4.954    0.154    0.427   87.278
  482.250    4.339    0.171    0.422   84.055
  482.500    3.739    0.165    0.419   83.366
  482.750    3.361    0.160    0.426   87.685
  483.000    3.010    0.184    0.435   92.368
  483.250    2.676    0.201    0.448   96.269
  483.500    2.441    0.211    0.477   97.330
  483.750    2.285    0.220    0.493   97.426
  484.000    2.249    0.217    0.498   98.182
  484.250    2.318    0.228    0.487   98.579
  484.500    2.644    0.212    0.479   98.075
  484.750    3.106    0.186    0.465   95.576
  485.000    3.603    0.172    0.455   91.329
  485.250    3.874    0.176    0.445   87.380
  485.500    4.204    0.153    0.419   85.909
  485.750    4.587    0.128    0.398   85.099
  486.000    4.833    0.134    0.390   82.298
  486.250    5.121    0.151    0.400   77.445
  486.500    5.258    0.145    0.389   79.773
  486.750    5.309    0.119    0.375   85.295
  487.000    5.283    0.121    0.366   88.414
  487.250    5.113    0.133    0.384   92.070
  487.500    4.831    0.172    0.399   94.764
  487.750    4.607    0.199    0.414   98.359
  488.000    4.459    0.241    0.417  100.992
  488.250    4.316    0.227    0.427  101.023
  488.500    4.239    0.158    0.437   98.105
  488.750    4.202    0.133    0.441   94.035
  489.000    4.143    0.116    0.437   92.199
  489.250    4.062    0.130    0.436   91.635
  489.500    3.960    0.142    0.436   93.722
  489.750    3.812    0.163    0.430   99.913
  490.000    3.696    0.131    0.429  105.862
  490.250    3.650    0.144    0.438  109.341
  490.500    3.633    0.161    0.447  111.790
  490.750    3.654    0.160    0.462  107.236
  491.000    3.656    0.162    0.461  103.231
  491.250    3.651    0.170    0.450  101.395
  491.500    3.627    0.170    0.440  101.666
  491.750    3.622    0.176    0.442  102.733
  492.000    3.637    0.187    0.453  103.433
  492.250    3.646    0.159    0.464  103.891
  492.500    3.675    0.170    0.470  104.773
  492.750    3.704    0.168    0.467  105.892
  493.000    3.720    0.157    0.451  106.836
  493.250    3.770    0.150    0.448  107.415
  493.500    3.814    0.139    0.436  104.373
  493.750    3.852    0.127    0.412  101.873
  494.000    3.839    0.131    0.400  101.426
  494.250    3.458    0.122    0.390  107.616
  494.500    3.029    0.140    0.419  113.685
  494.750    2.794    0.170    0.451  117.285
  495.000    2.760    0.190    0.479  118.105
  495.250    3.130    0.182    0.481  111.440
  495.500    4.217    0.157    0.473  102.965
  495.750    5.236    0.131    0.416   96.425
  496.000    6.443    0.113    0.369   89.156
  496.250    7.162    0.110    0.346   81.468
  496.500    7.574    0.111    0.351   74.140
  496.750    8.189    0.122    0.362   78.522
  497.000    9.086    0.141    0.374   82.414
  497.250   10.175    0.161    0.373   83.422
  497.500   11.416    0.171    0.363   76.517
  497.750   12.666    0.195    0.356   68.526
  498.000   13.873    0.208    0.361   63.551
  498.250   15.280    0.183    0.362   61.595
  498.500   16.953    0.161    0.355   60.245
  498.750   20.179    0.145    0.347   57.804
  499.000   23.882    0.119    0.340   53.313
  499.250   29.549    0.075    0.313   48.401
  499.500   35.824   -0.013    0.217   46.023
  499.750   43.355   -0.006    0.204   44.791
  500.000   47.135    0.016    0.204   39.697
  500.250   49.390    0.026    0.215   33.213
  500.500   49.507   -0.010    0.222   29.870
  500.750   47.297    0.005    0.237   27.973
  501.000   43.631    0.000    0.248   27.468
  501.250   42.858   -0.014    0.249   28.166
  501.500   43.758   -0.016    0.223   28.986
  501.750   46.532   -0.016    0.209   29.384
  502.000   44.706   -0.016    0.202   29.120
  502.250   39.742   -0.017    0.196   31.930
  502.500   31.743   -0.011    0.200   38.848
  502.750   26.113    0.001    0.217   45.944
  503.000   21.052    0.015    0.235   52.559
  503.250   20.337    0.028    0.253   55.432
  503.500   22.480    0.044    0.273   52.208
  503.750   23.425    0.062    0.287   46.872
  504.000   17.251    0.091    0.277   56.864
  504.250   13.855    0.025    0.284   80.379
  504.500   10.704    0.045    0.352  101.055
  504.750    8.822    0.036    0.370  101.087
  505.000    7.572    0.011    0.363   97.987
  505.250    8.264    0.044    0.353   92.953
  505.500    9.289    0.008    0.340   87.438
  505.750   10.933   -0.009    0.332   80.111
  506.000   13.304   -0.006    0.326   73.084
  506.250   16.769    0.005    0.321   66.301
  506.500   19.411   -0.003    0.308   57.827
  506.750   21.458   -0.003    0.283   42.592
  507.000   22.484    0.015    0.264   39.188
  507.250   21.362    0.006    0.271   53.408
  507.500   18.817   -0.009    0.299   62.617
  507.750   16.915   -0.010    0.312   65.127
  508.000   15.777   -0.011    0.323   57.915
  508.250   14.771    0.005    0.285   51.920
  508.500   13.525    0.005    0.266   52.620
  508.750   11.609   -0.001    0.293   79.453
  509.000    9.946    0.018    0.331   90.231
  509.250    8.762    0.036    0.352   96.424
  509.500    8.067    0.049    0.366   97.665
  509.750    7.414    0.060    0.378   96.434
  510.000    7.613    0.050    0.387   91.459
  510.250    8.994    0.011    0.342   83.409
  510.500   11.915    0.018    0.288   63.768
  510.750   15.755    0.028    0.252   45.940
  511.000   20.718    0.009    0.247   41.750
  511.250   25.396    0.003    0.251   42.510
  511.500   26.075    0.018    0.257   45.081
  511.750   20.296    0.010    0.242   51.213
  512.000   16.945   -0.007    0.234   72.373
  512.250   14.175   -0.009    0.266   83.452
  512.500   12.554   -0.001    0.288   83.247
  512.750   10.856   -0.004    0.316   77.066
  513.000   11.291    0.005    0.330   62.497
  513.250   13.765    0.035    0.316   51.425
  513.500   16.383    0.085    0.271   43.558
  513.750   17.616    0.084    0.250   66.287
