~VERSION INFORMATION
 VERS.                 2.0:   CWLS LOG ASCII STANDARD -VERSION 2.0
 WRAP.                  NO:   ONE LINE PER DEPTH STEP
~WELL INFORMATION BLOCK
#MNEM.UNIT           DATA                    DESCRIPTION OF MNEMONIC
#---------    -------------------            -------------------------------
# Generated from Intellog Unique Number	CC_80_83/WELL/2361
NULL.         -999.25                        : NULL_VALUE
WELL.         KASISER DIVIDE                 : Well_name    - WELL              
LOC .         10-21-082-13W4                 : Location     - LOCATION          
UWI .         00/10-21-082-13W400            : Uwi          - UNIQUE WELL ID    
ENTR.         DW                             : Entered      - ENTERED BY        
SRVC.         SCHLUMBERGER                   : Scn          - SERVICE COMPANY   
DATE.         24 FEB 79                      : Date         - LOG DATE
STRT.M        145                            : top_depth    - START DEPTH       
STOP.M        375.996                        : bot_depth    - STOP DEPTH        
STEP.M        0.3                            : increment    - STEP LENGTH       
~CURVE INFORMATION BLOCK
#MNEM UNIT       ERCB CURVE CODE    CURVE DESCRIPTION
#-----------   ------------------   ----------------------------------
DEPT.M        00 001 00 00         : DEPTH        - DEPTH                       
DPHI.V/V      00 890 00 00         : PHID         - DENSITY POROSITY (LIMESTONE)
NPHI.V/V      00 330 00 00         : PHIN         - NEUTRON POROSITY (LIMESTONE)
GR  .API      00 310 00 00         : GR           - GAMMA RAY                   
ILD .OHMM     00 120 00 00         : RESD         - DEEP RESISTIVITY (DIL)      
~PARAMETER INFORMATION       
#MNEM.UNIT           DATA             DESCRIPTION OF MNEMONIC
#---------         -----------     ------------------------------
GL  .M        593.2                : gl           - GROUND LEVEL ELEVATION      
EREF.M        596.85               : kb           - ELEVATION OF DEPTH REFERENCE
DATM.M        596.85               : datum        - DATUM ELEVATION             
TDD .M        382                  : tdd          - TOTAL DEPTH DRILLER         
RUN .         ONE                  : Run          - RUN NUMBER                  
ENG .         BILL                 : Engineer     - RECORDING ENGINEER          
WIT .         JIM                  : Witness      - WITNESSED BY                
MUD .         GEL                  : Mud_type     - MUD TYPE                    
MATR.         LIMESTONE            : Logunit      - NEUTRON MATRIX              
TMAX.C        20                   : BHT          - MAXIMUM RECORDED TEMPERATURE
BHTD.M        382                  : BHTDEP       - MAXIMUM RECORDED TEMPERATURE
MATR.         1                    : LOGUNIT      - NEUTRON MATRIX              
RMT .C        25                   : MDTP         - TEMPERATURE OF MUD          
NEUT.         1                    : NEUTRON      - NEUTRON TYPE                
RESI.         0                    : RESIST       - RESISTIVITY TYPE            
RMC .OHMM     0.25                 : RMC          - RESISTIVITY OF MUD CAKE     
RMF .OHMM     0.25                 : RMF          - RESISTIVITY OF MUD FILTRATE 
SUFT.C        4                    : SUFT         - SURFACE TEMPERATURE         
~A  DEPTH     PHID     PHIN       GR     RESD
# ...
  249.401    0.329    0.457   70.142   12.153
  249.701    0.337    0.441   73.809   11.899
  250.001    0.342    0.441   68.844   12.108
  250.301    0.347    0.454   66.340   12.088
  250.601    0.346    0.464   67.540   11.845
  250.901    0.335    0.482   66.898   11.388
  251.201    0.325    0.478   73.041   11.161
  251.501    0.324    0.469   74.861   10.533
  251.801    0.325    0.451   76.058   10.518
  252.101    0.319    0.462   77.272   10.696
  252.401    0.323    0.417   79.707   10.881
  252.701    0.321    0.435   84.614   10.461
  253.001    0.287    0.472   92.606    8.988
  253.301    0.247    0.505   99.368    7.580
  253.601    0.242    0.507  106.739    4.913
  253.901    0.279    0.498  104.242    3.916
  254.201    0.259    0.515  101.741    3.302
  254.501    0.274    0.496  101.098    2.944
  254.801    0.267    0.481   97.358    2.831
  255.101    0.244    0.512   96.713    2.935
  255.401    0.291    0.519   94.831    3.099
  255.701    0.304    0.490   86.776    3.273
  256.001    0.305    0.456   79.337    3.590
  256.301    0.304    0.432   81.778    4.088
  256.601    0.293    0.436   91.004    5.208
  256.901    0.272    0.447   92.210    6.515
  257.201    0.259    0.476   94.646    7.278
  257.501    0.244    0.470  101.403    7.544
  257.801    0.247    0.462  101.376    7.532
  258.101    0.255    0.475   97.641    7.380
  258.401    0.252    0.470   95.759    6.829
  258.701    0.237    0.458   95.110    6.571
  259.001    0.238    0.454   91.990    6.084
  259.301    0.258    0.503   88.254    5.741
  259.601    0.301    0.476   84.524    5.521
  259.901    0.281    0.444   87.578    5.408
  260.201    0.243    0.443   93.098    5.401
  260.501    0.264    0.468   93.691    5.494
  260.801    0.275    0.517   88.722    5.483
  261.101    0.291    0.501   82.519    5.580
  261.401    0.301    0.461   75.700    5.893
  261.701    0.301    0.447   76.282    6.343
  262.001    0.301    0.459   76.243    7.220
  262.301    0.295    0.448   75.593    7.918
  262.601    0.291    0.440   76.186    8.521
  262.901    0.277    0.456   78.006    8.998
  263.201    0.286    0.458   77.978    9.157
  263.501    0.298    0.450   74.865    9.140
  263.801    0.298    0.437   71.747    8.623
  264.101    0.304    0.429   73.567    8.610
  264.401    0.301    0.422   72.918    8.435
  264.701    0.290    0.433   69.802    8.414
  265.001    0.275    0.443   65.455    8.405
  265.301    0.123    0.334   53.075    8.395
  265.601    0.000    0.166   48.107    8.863
  265.901    0.000    0.182   49.929    9.723
  266.201    0.027    0.230   55.455   16.116
  266.501    0.157    0.251   60.975   19.052
  266.801    0.211    0.307   65.270   16.672
  267.101    0.279    0.410   75.730   13.039
  267.401    0.295    0.436   77.544   10.199
  267.701    0.268    0.447   78.754    7.829
  268.001    0.270    0.428   83.045    6.978
  268.301    0.272    0.414   86.716    6.842
  268.601    0.267    0.418   86.683    6.574
  268.901    0.259    0.476   87.265    6.443
  269.201    0.255    0.484   89.090    6.316
  269.501    0.276    0.478   92.145    5.847
  269.801    0.288    0.455   91.501    5.316
  270.101    0.265    0.459   86.534    4.922
  270.401    0.253    0.480   89.587    5.103
  270.701    0.282    0.450   90.787    5.593
  271.001    0.297    0.478   85.206    5.910
  271.301    0.297    0.457   83.940    6.238
  271.600    0.258    0.457   93.784    6.350
  271.900    0.268    0.468   94.984    6.339
  272.200    0.290    0.507   95.569    6.329
  272.500    0.302    0.514   93.077    6.083
  272.800    0.294    0.459   85.023    6.427
  273.100    0.279    0.453   88.075    6.915
  273.400    0.236    0.442   89.280    7.442
  273.700    0.191    0.421   80.609    7.861
  274.000    0.124    0.360   86.751    7.998
  274.300    0.142    0.407   94.741    7.836
  274.600    0.233    0.438   99.652    7.532
  274.900    0.239    0.425   95.295    7.376
  275.200    0.223    0.441   94.026    7.229
  275.500    0.209    0.440   94.620    6.948
  275.800    0.250    0.446   94.590    6.939
  276.100    0.250    0.448   97.644    6.671
  276.400    0.227    0.467  102.552    6.540
  276.700    0.238    0.485   98.819    6.172
  277.000    0.245    0.472   90.761    5.823
  277.300    0.259    0.463   93.814    5.392
  277.600    0.285    0.475   94.406    5.087
  277.900    0.263    0.501   91.903    4.987
  278.200    0.297    0.503   86.320    4.791
  278.500    0.317    0.490   85.672    4.697
  278.800    0.271    0.452   87.492    4.867
  279.100    0.282    0.469   93.012    5.239
  279.400    0.270    0.451   99.157    5.639
  279.700    0.279    0.464   95.425    6.070
  280.000    0.271    0.462   89.218    6.529
  280.300    0.260    0.449   88.571    6.895
  280.600    0.273    0.444   87.924    7.019
  280.900    0.256    0.449   84.184    7.411
  281.200    0.250    0.439   84.159    7.679
  281.500    0.232    0.471   94.623    7.672
  281.800    0.235    0.455  103.234    7.803
  282.100    0.231    0.436   97.031    7.791
  282.400    0.225    0.399   93.290    7.772
  282.700    0.222    0.420   92.030    7.764
  283.000    0.254    0.441   95.699    7.607
  283.300    0.308    0.459   93.198    7.592
  283.600    0.295    0.449   94.397    7.868
  283.900    0.230    0.456   96.228    7.852
  284.200    0.247    0.468   96.197    7.700
  284.500    0.254    0.463   89.377    7.401
  284.800    0.265    0.453   84.408    6.982
  285.100    0.279    0.461   86.226    6.589
  285.400    0.246    0.475   92.982    6.339
  285.700    0.215    0.487   93.567    5.761
  286.000    0.221    0.480   99.717    5.236
  286.300    0.264    0.488  100.917    4.850
  286.600    0.260    0.497   94.708    4.573
  286.900    0.261    0.489   95.921    4.483
  287.200    0.264    0.488   97.736    4.560
  287.500    0.318    0.472   97.087    5.094
  287.800    0.314    0.455   94.594    5.589
  288.100    0.246    0.412   91.476    6.358
  288.400    0.263    0.411   94.529    6.594
  288.700    0.208    0.417   97.584    6.702
  289.000    0.251    0.469  105.578    6.569
  289.300    0.234    0.449  104.312    6.439
  289.600    0.210    0.437  104.901    5.851
  289.900    0.220    0.460  104.251    5.220
  290.200    0.223    0.472  108.543    4.927
  290.500    0.232    0.483  105.422    4.825
  290.800    0.256    0.470  106.630    4.911
  291.100    0.263    0.453  110.915    5.486
  291.400    0.208    0.411  110.885    6.365
  291.700    0.182    0.396  107.156    7.384
  292.000    0.169    0.371  104.038    8.894
  292.300    0.118    0.334   99.070   10.319
  292.600    0.156    0.339  102.735   11.749
  292.900    0.220    0.393  106.415   12.408
  293.200    0.210    0.399  112.554   12.380
  293.500    0.214    0.411  110.671   11.690
  293.800    0.240    0.412  105.703   10.235
  294.100    0.229    0.425  100.119    8.154
  294.400    0.220    0.430  101.925    7.006
  294.700    0.209    0.439  102.526    6.250
  295.000    0.223    0.454  102.494    6.123
  295.300    0.202    0.462  109.254    6.110
  295.600    0.274    0.464  106.753    6.337
  295.900    0.236    0.414  100.552    6.690
  296.199    0.239    0.425  100.516    7.335
  296.499    0.268    0.404   96.782    8.198
  296.799    0.271    0.377   96.751    9.158
  297.099    0.241    0.381   98.577    9.316
  297.399    0.224    0.390  103.481    9.483
  297.699    0.202    0.418   99.748    9.290
  297.999    0.222    0.433   96.632    8.599
  298.299    0.238    0.410   94.130    8.115
  298.599    0.261    0.416   86.696    7.950
  298.899    0.271    0.416   84.809    7.937
  299.199    0.249    0.397   88.481    8.073
  299.499    0.237    0.393   92.159    8.211
  299.799    0.230    0.411   99.534    8.202
  300.099    0.257    0.417   93.944    8.617
  300.399    0.264    0.409   93.915    8.773
  300.699    0.256    0.397   95.732    8.769
  300.999    0.245    0.414   98.793    8.601
  301.299    0.245    0.402  101.230    8.596
