~Version Information
VERS.                2.00:
WRAP.                  NO:
~Well Information Block
#MNEM.UNIT       Data Type    Information
#---------    -------------   -------------------
FLD.   :FIELD
FLD.   :FIELD
FLD.   :FIELD
FLD.   :FIELD
STRT.M          1950.0000:
STOP.M          4060.0000:
STEP.M             0.8202:
NULL.           -999.2500:
COMP.  MUTUAL EXPLORATION FUNDS:COMPANY
WELL.  MUTES IOE SEAFORTH:WELL
FLD.   :FIELD
LOC.   15-20-095-20W4:LOCATION
CTRY.  CANADA:COUNTRY
PROV.  ALBERTA:PROVINCE
SRVC.  SCHLUMBERGER:SERVICE COMPANY
DATE.  01 MAR 69:LOG DATE
UWI.   00/15-20-095-20W4/0:UNIQUE WELL ID
~Curve Information Block
#MNEM.UNIT        API CODE    Curve Description
#---------    ------------    -----
DEPT.M                    :   DEPTH
CALI.in                   :   CALI
GR  .API                  :   GR
SNP .V/V                  :   SNP
~A  Depth           CALI          GR         SNP
# ...
2219.0256         9.8437     49.0357      0.1412
2219.8458         9.8471     49.6384      0.1478
2220.6660         9.8506     48.9803      0.1489
2221.4862         9.8541     48.2167      0.1507
2222.3064         9.8576     47.0822      0.1542
2223.1266         9.8611     46.2719      0.1581
2223.9468         9.8646     47.4447      0.1546
2224.7670         9.8681     48.2139      0.1504
2225.5872         9.8716     46.1023      0.1502
2226.4074         9.8372     43.7808      0.1429
2227.2276         9.8381     41.1007      0.1375
2228.0478         9.8106     42.2846      0.1351
2228.8680         9.8048     44.1829      0.1339
2229.6882         9.8078     45.9053      0.1364
2230.5084         9.7347     46.4496      0.1414
2231.3286         9.7036     44.2977      0.1542
2232.1488         9.6208     37.9731      0.1712
2232.9690         9.5431     32.8224      0.1838
2233.7892         9.5032     26.6560      0.1769
2234.6094         9.4283     22.3350      0.1306
2235.4296         9.4261     22.6851      0.0906
2236.2498         9.4292     25.4521      0.0671
2237.0700         9.4327     28.0257      0.0549
2237.8902         9.4362     24.6409      0.0570
2238.7104         9.4397     21.8797      0.0777
2239.5306         9.4432     25.6153      0.0807
2240.3508         9.4467     32.2969      0.0697
2241.1710         9.4502     38.1739      0.0593
2241.9912         9.4537     32.6203      0.0591
2242.8114         9.4572     28.8120      0.0740
2243.6316         9.4606     27.4619      0.0870
2244.4518         9.4641     31.7280      0.0914
2245.2720         9.4676     36.0558      0.0876
2246.0922         9.5116     41.6241      0.0920
2246.9124         9.5480     45.1410      0.1169
2247.7326         9.5909     45.8457      0.1305
2248.5528         9.6352     45.6768      0.1393
2249.3730         9.6461     45.3435      0.1416
2250.1932         9.6507     45.3087      0.1453
2251.0134         9.6546     45.3307      0.1505
2251.8336         9.6582     46.2043      0.1539
2252.6538         9.6617     47.0688      0.1507
2253.4740         9.6652     48.4586      0.1435
2254.2942         9.6687     48.3388      0.1488
2255.1144         9.6722     49.0572      0.1543
2255.9346         9.6756     51.3697      0.1562
2256.7548         9.6446     53.1376      0.1564
2257.5750         9.6429     54.8460      0.1534
2258.3952         9.6171     56.5493      0.1501
2259.2154         9.6101     56.2589      0.1556
2260.0356         9.5427     51.4845      0.1625
2260.8558         9.4668     45.9022      0.1661
2261.6760         9.4238     40.8667      0.1692
2262.4962         9.3858     34.7143      0.1668
2263.3164         9.3485     29.0355      0.1485
2264.1366         9.3458     27.7546      0.1216
2264.9568         9.3484     27.6469      0.0994
2265.7770         9.3518     26.5843      0.0975
2266.5972         9.3552     27.5966      0.0910
2267.4174         9.3587     30.3989      0.0814
2268.2376         9.3622     35.8756      0.0832
2269.0578         9.3303     43.0781      0.0930
2269.8780         9.3292     47.3853      0.1189
2270.6982         9.3680     51.3084      0.1357
2271.5184         9.3757     53.5043      0.1430
2272.3386         9.4160     55.2097      0.1469
2273.1588         9.4527     57.2605      0.1595
2273.9790         9.4669     59.7376      0.1703
2274.7992         9.5086     61.5492      0.1632
2275.6194         9.5153     61.4356      0.1675
2276.4396         9.5191     61.4529      0.1669
2277.2598         9.4851     58.6935      0.1644
2278.0800         9.4862     56.6250      0.1627
2278.9002         9.4890     54.9811      0.1762
2279.7204         9.5307     53.7310      0.1748
2280.5406         9.5365     55.2595      0.1738
2281.3608         9.5401     57.6599      0.1698
2282.1810         9.4667     57.2853      0.1631
2283.0012         9.5048     57.9827      0.1618
2283.8214         9.5098     57.7380      0.1588
2284.6416         9.4819     56.6749      0.1602
2285.4618         9.4766     57.2886      0.1631
2286.2820         9.4406     58.4902      0.1635
2287.1022         9.4035     55.4555      0.1635
2287.9224         9.4055     52.6898      0.1674
2288.7426         9.4089     46.1391      0.1696
2289.5628         9.4124     34.9401      0.1421
2290.3830         9.4159     34.8301      0.1195
2291.2032         9.4194     35.5741      0.0985
2292.0234         9.3828     35.3213      0.0847
2292.8436         9.3456     35.6918      0.0928
2293.6638         9.3487     35.0300      0.0927
2294.4840         9.3118     34.9932      0.0941
2295.3042         9.3149     33.8384      0.1001
2296.1244         9.3184     32.0570      0.1012
2296.9446         9.2947     30.8109      0.0968
2297.7648         9.2621     27.9403      0.0987
2298.5850         9.2511     25.1919      0.0934
2299.4052         9.2523     22.1479      0.0826
2300.2254         9.2550     21.2400      0.0729
2301.0456         9.2582     20.2331      0.0657
2301.8658         9.2616     19.4575      0.0596
2302.6860         9.2651     20.4665      0.0559
2303.5062         9.2686     21.3562      0.0544
2304.3264         9.2721     21.5494      0.0539
2305.1466         9.2756     22.2874      0.0603
2305.9668         9.2791     24.1741      0.0609
2306.7870         9.2826     28.8961      0.0615
2307.6072         9.3204     34.9317      0.0586
2308.4274         9.3293     42.0488      0.0583
2309.2476         9.3684     48.3896      0.0724
2310.0678         9.3770     53.3347      0.0828
2310.8880         9.3812     57.5186      0.0897
2311.7082         9.3848     58.9942      0.0967
2312.5284         9.3883     57.9462      0.1092
2313.3486         9.3918     54.9103      0.1228
2314.1688         9.3953     47.8868      0.1427
2314.9890         9.3988     42.7668      0.1609
2315.8092         9.3664     37.4861      0.1571
2316.6294         9.3664     33.1263      0.1446
2317.4496         9.3688     32.1662      0.1285
2318.2698         9.3722     32.3389      0.0833
2319.0900         9.3756     35.0553      0.0781
2319.9102         9.3791     36.5916      0.0812
2320.7304         9.3826     37.9133      0.0872
2321.5506         9.3861     39.9217      0.0974
2322.3708         9.3896     43.1769      0.1055
2323.1910         9.3559     39.9287      0.1101
2324.0112         9.3568     36.1486      0.1103
2324.8314         9.3595     35.5764      0.1089
2325.6516         9.3937     36.2120      0.1024
2326.4718         9.4064     38.1217      0.0925
2327.2920         9.4105     40.2250      0.0848
2328.1122         9.4527     44.3350      0.1035
2328.9324         9.4581     46.9774      0.1147
2329.7526         9.4617     44.7141      0.1199
2330.5728         9.4652     43.4982      0.1215
2331.3930         9.5082     45.0810      0.1250
2332.2132         9.5128     46.7514      0.1271
2333.0334         9.5163     49.8371      0.1279
2333.8536         9.5198     52.1313      0.1305
2334.6738         9.5233     53.2025      0.1412
2335.4940         9.5268     54.0915      0.1385
2336.3142         9.5303     50.1457      0.1343
2337.1344         9.5338     48.1952      0.1343
2337.9546         9.4398     44.1632      0.1421
2338.7748         9.4237     42.2014      0.1430
2339.5950         9.4233     40.6262      0.1397
2340.4152         9.4536     45.3107      0.1343
2341.2354         9.5345     51.6088      0.1271
2342.0556         9.6540     54.6155      0.1188
2342.8758         9.7456     57.6161      0.1361
2343.6960         9.8325     62.4191      0.1442
2344.5162         9.8478     67.2154      0.1794
2345.3364         9.8530     71.2388      0.2048
2346.1566         9.8215     69.5431      0.2152
2346.9768         9.7852     66.6071      0.2127
2347.7970         9.7481     58.5493      0.2078
2348.6172         9.6074     55.3532      0.2084
2349.4374         9.4804     51.8865      0.2051
2350.2576         9.3680     45.7629      0.1905
2351.0778         9.3187     37.1497      0.1708
2351.8980         9.2796     28.1295      0.1516
2352.7182         9.2775     16.8773      0.1352
