~VERSION INFORMATION
 VERS.                 2.0:   CWLS LOG ASCII STANDARD -VERSION 2.0
 WRAP.                  NO:   ONE LINE PER DEPTH STEP
~WELL INFORMATION BLOCK
#MNEM.UNIT           DATA                    DESCRIPTION OF MNEMONIC
#---------    -------------------            -------------------------------
# Generated from Intellog Unique Number	CW_70_72/WELL/2908
NULL.         -999.25                        : NULL_VALUE
WELL.         NOVALTA RICHMOND               : Well_name    - WELL              
LOC .         16-01-070-20W4                 : Location     - LOCATION          
UWI .         00/16-01-070-20W4/0            : Uwi          - UNIQUE WELL ID    
ENTR.         MAX                            : Entered      - ENTERED BY        
SRVC.         WELEX                          : Scn          - SERVICE COMPANY   
DATE.         04 OCT 85                      : Date         - LOG DATE
STRT.M        325                            : top_depth    - START DEPTH       
STOP.M        490                            : bot_depth    - STOP DEPTH        
STEP.M        0.25                           : increment    - STEP LENGTH       
~CURVE INFORMATION BLOCK
#MNEM UNIT       ERCB CURVE CODE    CURVE DESCRIPTION
#-----------   ------------------   ----------------------------------
DEPT.M        00 001 00 00         : DEPTH        - DEPTH                       
ILD .OHMM     00 120 00 00         : RESD         - DEEP RESISTIVITY (DIL)      
NPHI.V/V      00 330 00 00         : PHIN         - NEUTRON POROSITY (SANDSTONE)
DPHI.V/V      00 890 00 00         : PHID         - DENSITY POROSITY (SANDSTONE)
CALI.MM       00 280 01 00         : CAL          - CALIPER                     
GR  .API      00 310 00 00         : GR           - GAMMA RAY                   
~PARAMETER INFORMATION       
#MNEM.UNIT           DATA             DESCRIPTION OF MNEMONIC
#---------         -----------     ------------------------------
GL  .M        577.31               : gl           - GROUND LEVEL ELEVATION      
EREF.M        580.3                : kb           - ELEVATION OF DEPTH REFERENCE
DATM.M        577.31               : datum        - DATUM ELEVATION             
TDD .M        555.8                : tdd          - TOTAL DEPTH DRILLER         
RUN .         ONE                  : Run          - RUN NUMBER                  
ENG .         BILL                 : Engineer     - RECORDING ENGINEER          
WIT .         JIM                  : Witness      - WITNESSED BY                
MUD .         GEL                  : Mud_type     - MUD TYPE                    
MATR.         SANDSTONE            : Logunit      - NEUTRON MATRIX              
TMAX.C        25                   : BHT          - MAXIMUM RECORDED TEMPERATURE
BHTD.M        555.8                : BHTDEP       - MAXIMUM RECORDED TEMPERATURE
RMT .C        19                   : MDTP         - TEMPERATURE OF MUD          
MUDD.KG/M     1160                 : MWT          - MUD DENSITY                 
NEUT.         1                    : NEUTRON      - NEUTRON TYPE                
RESI.         0                    : RESIST       - RESISTIVITY TYPE            
RM  .OHMM     4.5                  : RM           - RESISTIVITY OF MUD          
RMC .OHMM     3.5                  : RMC          - RESISTIVITY OF MUD CAKE     
RMF .OHMM     4.4                  : RMF          - RESISTIVITY OF MUD FILTRATE 
SUFT.C        -20                  : SUFT         - SURFACE TEMPERATURE         
~A  DEPTH     RESD     PHIN     PHID      CAL       GR
# ...
  361.500    4.420    0.425    0.256  155.145   77.704
  361.750    4.300    0.427    0.254  154.660   79.196
  362.000    4.261    0.426    0.258  154.195   79.210
  362.250    4.261    0.422    0.270  153.730   75.094
  362.500    4.300    0.406    0.269  153.758   75.703
  362.750    4.380    0.416    0.265  154.280   79.852
  363.000    4.420    0.413    0.258  154.311   86.660
  363.250    4.461    0.435    0.257  154.328   87.266
  363.500    4.461    0.441    0.249  153.867   85.214
  363.750    4.461    0.427    0.257  153.894   79.918
  364.000    4.420    0.426    0.257  154.417   82.002
  364.250    4.420    0.410    0.258  154.448   84.083
  364.500    4.461    0.393    0.259  154.472   86.463
  364.750    4.585    0.386    0.254  154.499   84.118
  365.000    4.627    0.386    0.255  154.526   85.319
  365.250    4.627    0.403    0.258  154.554   88.283
  365.500    4.585    0.432    0.252  154.085   91.842
  365.750    4.461    0.448    0.238  155.097   91.860
  366.000    4.340    0.458    0.234  157.587   90.991
  366.250    4.183    0.431    0.219  161.058   87.463
  366.500    4.107    0.419    0.229  162.077   85.415
  366.750    4.183    0.399    0.235  163.580   81.592
  367.000    4.261    0.386    0.268  165.575   78.661
  367.250    4.380    0.385    0.279  165.595   79.267
  367.500    4.543    0.380    0.281  163.658   79.872
  367.750    4.627    0.379    0.266  159.261   80.481
  368.000    4.713    0.407    0.257  157.321   82.857
  368.250    4.713    0.409    0.247  158.817   87.301
  368.500    4.670    0.390    0.248  163.771   91.452
  368.750    4.543    0.375    0.249  162.319   93.832
  369.000    4.340    0.404    0.249  158.411   95.322
  369.250    4.183    0.423    0.249  162.869   96.817
  369.500    4.070    0.402    0.249  165.852  100.373
  369.750    4.033    0.401    0.246  166.364  103.050
  370.000    3.923    0.420    0.237  166.391  100.701
  370.250    3.852    0.428    0.225  166.419   94.816
  370.500    3.817    0.426    0.227  166.952   92.766
  370.750    3.852    0.427    0.237  166.969   93.666
  371.000    3.959    0.426    0.243  166.504   94.275
  371.250    4.183    0.423    0.252  165.055   96.654
  371.500    4.502    0.415    0.263  163.607   94.603
  371.750    4.670    0.399    0.275  161.181   89.896
  372.000    4.800    0.396    0.295  158.253   79.874
  372.250    4.627    0.396    0.309  156.801   71.625
  372.500    4.380    0.425    0.315  156.835   66.033
  372.750    4.070    0.427    0.320  156.863   57.194
  373.000    3.852    0.381    0.333  156.391   52.197
  373.250    3.579    0.368    0.345  156.429   53.982
  373.500    3.326    0.376    0.353  155.964   58.428
  373.750    3.206    0.377    0.354  155.496   57.262
  374.000    3.119    0.382    0.353  155.527   56.097
  374.250    3.091    0.416    0.339  155.554   55.523
  374.500    3.062    0.400    0.332  155.581   52.000
  374.750    3.062    0.370    0.329  155.602   53.492
  375.000    3.091    0.369    0.325  155.629   55.868
  375.250    3.091    0.373    0.333  155.660   58.543
  375.500    3.119    0.372    0.323  155.687   57.379
  375.750    3.119    0.364    0.325  155.715   55.329
  376.000    3.091    0.364    0.322  155.250   51.508
  376.250    3.091    0.365    0.317  155.281   49.462
  376.500    3.091    0.364    0.321  154.816   49.478
  376.750    3.062    0.360    0.321  154.847   50.675
  377.000    3.062    0.356    0.325  154.867   51.868
  377.250    3.062    0.353    0.327  154.406   53.658
  377.500    3.062    0.359    0.324  154.433   54.265
  377.750    3.062    0.365    0.325  155.451   54.576
  378.000    3.062    0.364    0.324  155.475   58.432
  378.250    3.062    0.366    0.330  155.499   61.694
  378.500    3.091    0.380    0.330  155.034   66.138
  378.750    3.091    0.384    0.326  155.561   66.449
  379.000    3.062    0.368    0.320  156.076   62.923
  379.250    3.062    0.366    0.322  155.608   58.512
  379.500    3.034    0.369    0.324  155.636   59.119
  379.750    2.979    0.367    0.331  155.666   59.430
  380.000    2.979    0.369    0.342  155.198   57.973
  380.250    2.952    0.373    0.346  155.198   60.058
  380.500    2.952    0.388    0.353  155.256   61.552
  380.750    2.952    0.386    0.351  154.795   62.450
  381.000    2.979    0.389    0.351  154.819   61.583
  381.250    2.979    0.388    0.349  154.850   59.826
  381.500    2.952    0.376    0.330  155.366   60.138
  381.750    2.925    0.369    0.333  155.393   59.268
  382.000    2.898    0.385    0.335  155.912   57.516
  382.250    2.898    0.385    0.337  155.451   56.942
  382.500    2.925    0.368    0.328  155.478   56.958
  382.750    2.952    0.387    0.332  155.014   56.977
  383.000    2.952    0.391    0.343  155.044   55.222
  383.250    2.952    0.392    0.353  155.068   52.877
  383.500    2.952    0.399    0.360  155.099   52.893
  383.750    2.952    0.395    0.360  154.631   53.500
  384.000    2.979    0.387    0.352  154.665   53.219
  384.250    2.979    0.380    0.351  154.689   52.645
  384.500    2.979    0.363    0.359  154.720   53.549
  384.750    3.007    0.364    0.360  154.255   56.515
  385.000    3.034    0.382    0.354  154.282   58.895
  385.250    3.091    0.374    0.353  154.798   59.797
  385.500    3.119    0.371    0.350  154.832   60.701
  385.750    3.206    0.375    0.344  154.860   61.603
  386.000    3.236    0.375    0.338  154.887   63.393
  386.250    3.296    0.368    0.338  154.911   64.290
  386.500    3.326    0.369    0.335  154.938   64.307
  386.750    3.357    0.376    0.331  154.966   63.440
  387.000    3.388    0.385    0.320  154.498   63.456
  387.250    3.357    0.387    0.308  154.532   63.770
  387.500    3.326    0.394    0.308  154.556   63.198
  387.750    3.265    0.380    0.309  155.078   63.212
  388.000    3.236    0.382    0.317  155.102   63.522
  388.250    3.206    0.392    0.317  155.130   61.179
  388.500    3.206    0.406    0.314  155.164   57.946
  388.750    3.206    0.410    0.317  155.188   56.195
  389.000    3.236    0.378    0.315  155.703   56.503
  389.250    3.296    0.360    0.300  156.230   55.045
  389.500    3.357    0.355    0.235  156.749   50.929
  389.750    3.547    0.336    0.179  156.780   48.879
  390.000    3.852    0.317    0.137  156.800   48.598
  390.250    4.222    0.295    0.115  156.342   58.358
  390.500    4.757    0.311    0.150  156.366   65.756
  390.750    5.262    0.362    0.185  155.898   72.559
  391.000    5.509    0.379    0.240  155.929   79.367
  391.250    5.214    0.392    0.261  155.953   70.823
  391.500    4.757    0.380    0.287  155.980   69.661
  391.750    4.107    0.404    0.271  156.014   73.218
  392.000    3.923    0.443    0.249  157.022   80.318
  392.250    3.817    0.464    0.239  160.989   85.648
  392.500    3.817    0.480    0.236  162.492   91.570
  392.750    3.713    0.464    0.292  162.523   78.301
  393.000    3.579    0.447    0.298  161.562   74.779
  393.250    3.679    0.423    0.317  159.127   77.450
  393.500    3.887    0.401    0.304  156.202   81.306
  393.750    4.033    0.413    0.289  155.737   74.827
  394.000    4.300    0.395    0.295  155.276   73.367
  394.250    4.461    0.405    0.290  155.303   73.976
  394.500    4.340    0.403    0.289  154.846   73.107
  394.750    4.261    0.379    0.282  154.876   74.601
  395.000    4.145    0.364    0.271  154.897   76.384
  395.250    4.070    0.367    0.287  154.945   81.124
  395.500    3.996    0.388    0.282  154.951   85.574
  395.750    3.996    0.398    0.275  154.975   82.044
  396.000    4.070    0.377    0.258  155.006   76.157
  396.250    4.107    0.385    0.250  155.030   74.402
  396.500    4.107    0.383    0.237  155.553   76.190
  396.750    4.070    0.374    0.231  155.580   82.700
  397.000    4.070    0.376    0.227  156.103   82.719
  397.250    4.033    0.375    0.226  156.133   76.538
  397.500    4.033    0.369    0.237  156.157   74.779
  397.750    4.033    0.379    0.253  156.181   73.914
