~VERSION INFORMATION
 VERS.                 2.0:   CWLS LOG ASCII STANDARD -VERSION 2.0
 WRAP.                  NO:   ONE LINE PER DEPTH STEP
~WELL INFORMATION BLOCK
#MNEM.UNIT           DATA                    DESCRIPTION OF MNEMONIC
#---------    -------------------            -------------------------------
# Generated from Intellog Unique Number	CW_76_78/WELL/2812
WELL.         PAN AM UNO-TEX A-1 ROCK 10-35  : Well_name    - WELL
LOC .         00/10-35-076-23W4/0            : Location     - LOCATION
UWI .         00/10-35-076-23W4/0            : Uwi          - UNIQUE WELL ID
ENTR.         JJ                             : Entered      - ENTERED BY
SRVC.         SCHLUMBERGER                   : Scn          - SERVICE COMPANY
DATE.         26 JAN 1966                    : Date         - LOG DATE
STRT.M        725.424                        : top_depth    - START DEPTH
STOP.M        853.424                        : bot_depth    - STOP DEPTH
STEP.M        0.25                           : increment    - STEP LENGTH
 NULL. -999.2500:NULL Value
~CURVE INFORMATION BLOCK
#MNEM UNIT       ERCB CURVE CODE    CURVE DESCRIPTION
#-----------   ------------------   ----------------------------------
DEPT.M        00 001 00 00         : DEPTH        - DEPTH
DELT.US/F     00 520 00 00         : DELT         - SONIC TRAVEL TIME
GR  .API      00 310 00 00         : GR           - GAMMA RAY
CALI.MM       00 280 01 00         : CAL          - CALIPER
ILD .OHMM     00 120 00 00         : RESD         - DEEP RESISTIVITY (DIL)
~PARAMETER INFORMATION
#MNEM.UNIT           DATA             DESCRIPTION OF MNEMONIC
#---------         -----------     ------------------------------
GL  .M        901.355              : gl           - GROUND LEVEL ELEVATION
EREF.M        904.646              : kb           - ELEVATION OF DEPTH REFERENCE
DATM.M        904.646              : datum        - DATUM ELEVATION
TDD .M        857.098              : tdd          - TOTAL DEPTH DRILLER
RUN .         TWO                  : Run          - RUN NUMBER
ENG .         BLACKBURN            : Engineer     - RECORDING ENGINEER
WIT .         SANDERSON            : Witness      - WITNESSED BY
BASE.         EDMONTON             : Branch       - HOME BASE OF LOGGING UNIT
MUD .         GEL-CHEM             : Mud_type     - MUD TYPE
MATR.         SANDSTONE            : Logunit      - NEUTRON MATRIX
TMAX.C        27.7778              : BHT          - MAXIMUM RECORDED TEMPERATURE
BHTD.M        856.793              : BHTDEP       - MAXIMUM RECORDED TEMPERATURE
RMT .C        16.6667              : MDTP         - TEMPERATURE OF MUD
MUDD.KG/M     1116                 : MWT          - MUD DENSITY
NEUT.         1                    : NEUTRON      - NEUTRON TYPE
RESI.         0                    : RESIST       - RESISTIVITY TYPE
RM  .OHMM     5                    : RM           - RESISTIVITY OF MUD
RMC .OHMM     2.97                 : RMC          - RESISTIVITY OF MUD CAKE
RMF .OHMM     5.44                 : RMF          - RESISTIVITY OF MUD FILTRATE
SUFT.C        5                    : SUFT         - SURFACE TEMPERATURE
~A  DEPTH     DELT       GR      CAL     RESD
  725.424  384.345   79.095  213.460    4.843
  725.674  383.285   80.283  215.657    4.838
  725.924  381.219   81.423  219.973    4.752
  726.174  382.176   84.661  225.244    4.499
  726.424  387.030   87.200  228.501    4.227
  726.674  392.286   86.391  227.844    4.017
  726.924  394.789   89.630  223.266    4.012
  727.174  398.100   93.868  220.815    4.296
  727.424  385.755   94.257  216.345    4.579
  727.674  373.207   90.897  212.195    4.802
  727.924  370.001   85.986  213.335    5.168
  728.174  371.630   84.326  212.469    5.350
  728.424  371.039   88.715  210.965    5.387
  728.674  367.430   91.105  212.103    5.382
  728.924  360.055   85.044  214.197    5.440
  729.174  365.516   80.384  217.774    5.436
  729.424  373.055   81.120  223.255    5.349
  729.674  378.795   83.311  225.983    5.263
  729.924  378.598   81.651  215.802    5.216
  730.174  377.677   78.641  223.186    5.211
  730.424  379.774   79.028  223.588    5.187
  730.674  379.119   80.719  219.439    5.038
  730.924  375.979   84.057  216.129    4.971
  731.174  373.105   88.897  216.006    4.926
  731.424  372.249   90.436  218.627    4.942
  731.674  377.976   84.726  222.521    5.021
  731.924  383.702   82.114  225.357    5.098
  732.174  384.727   84.305  223.324    5.114
  732.424  382.930   86.643  223.617    5.111
  732.674  380.595   82.381  223.384    5.126
  732.924  380.680   82.872  219.232    5.143
  733.174  377.137   84.311  214.978    5.117
  733.424  372.585   84.750  211.675    5.134
  733.674  366.286   83.740  209.427    5.149
  733.924  363.616   85.329  208.027    5.145
  734.174  367.058   88.169  207.470    5.120
  734.424  367.612   87.008  207.456    5.075
  734.674  368.369   82.798  207.540    5.194
  734.924  366.101   77.037  209.311    5.705
  735.174  352.277   69.477  212.783    6.092
  735.424  321.793   63.266  221.758    6.500
  735.674  297.154   67.355  214.643    6.598
  735.924  320.885   76.194  211.869    6.429
  736.174  357.048   82.133  211.846    6.177
  736.424  360.625   82.923  212.561    5.884
  736.674  363.129   82.711  212.967    5.612
  736.924  365.363   82.351  213.257    5.422
  737.174  365.716   80.391  213.557    5.335
  737.424  365.528   76.430  212.367    5.289
  737.674  364.068   85.718  212.241    5.409
  737.924  363.345   83.057  213.275    5.528
  738.174  364.035   79.148  213.463    5.627
  738.424  366.469   78.386  212.490    5.704
  738.674  366.821   83.526  208.976    5.783
  738.924  365.494   87.565  212.229    5.861
  739.174  367.193   86.953  213.798    5.939
  739.424  369.964   87.894  213.141    5.976
  739.674  369.240   89.081  213.434    6.053
  739.924  368.652   87.272  215.741    6.091
  740.174  368.736   88.711  217.411    6.045
  740.424  369.425   86.150  214.000    5.957
  740.674  371.456   81.790  214.612    5.913
  740.924  371.474   82.529  218.083    5.888
  741.174  370.820   84.868  217.002    5.883
  741.424  370.969   86.458  215.920    5.878
  741.674  369.240   85.295  216.638    5.936
  741.924  366.436   84.287  213.653    6.014
  742.174  363.697   84.374  211.935    6.092
  742.424  360.555   83.364  211.596    6.108
  742.674  358.423   85.154  211.361    6.104
  742.924  359.852   85.394  211.764    6.141
  743.174  359.062   82.882  212.271    6.218
  743.424  357.131   89.472  213.938    6.297
  743.674  357.482   92.861  212.539    6.394
  743.924  358.508   88.349  209.765    6.515
  744.174  353.417   83.438  208.898    6.446
  744.424  349.337   81.429  210.674    6.278
  744.674  349.688   84.367  214.357    5.842
  744.924  357.701   89.157  222.694    5.569
  745.174  368.535   85.897  231.773    5.235
  745.424  375.335   88.885  237.042    5.045
  745.674  382.003   92.324  230.455    4.835
  745.924  376.107   95.711  225.673    4.789
  746.174  368.870   94.353  229.881    4.908
  746.424  360.487   88.193  219.913    5.089
  746.674  351.770   87.683  208.884    5.477
  746.924  344.196   93.070  206.639    6.255
  747.174  348.313   92.560  207.354    6.642
  747.424  347.123   87.100  210.719    6.741
  747.674  344.451   86.187  210.591    6.345
  747.924  343.323   86.828  209.191    5.970
  748.174  348.444   86.817  214.886    5.615
  748.424  360.421   87.705  224.387    5.547
  748.674  352.643   86.546  215.264    5.709
  748.924  327.937   85.034  214.496    6.261
  749.174  321.974   85.075  218.181    7.678
  749.424  326.896   77.714  216.466    9.838
  749.674  307.364   72.005  216.655   11.771
  749.924  258.806   66.393  221.180   13.601
  750.174  221.001   66.832  220.942   16.214
  750.424  213.023   65.772  221.132   19.053
  750.674  234.872   64.112  221.636   17.566
  750.924  263.038   63.950  221.829   16.221
  751.174  281.060   65.941  221.487   14.938
  751.424  261.393   61.930  220.727   13.801
  751.674  225.063   56.569  220.069   12.457
  751.924  270.629   61.208  220.260   11.381
  752.174  292.749   68.846  220.970   12.613
  752.424  308.084   73.535  221.481   11.578
  752.674  273.367   67.426  222.626   10.688
  752.924  221.787   57.766  222.814    9.673
  753.174  262.785   66.354  216.336    8.927
  753.424  297.671   77.194  214.408    8.222
  753.674  329.801   83.431  214.385    6.981
  753.924  348.629   86.770  213.198    6.070
  754.174  351.197   87.111  210.421    6.313
  754.424  343.288   83.997  210.297    6.596
  754.674  333.965   81.488  211.332    6.942
  754.924  324.577   79.928  214.167    7.124
  755.174  328.221   81.517  219.219    7.264
  755.424  337.777   88.057  221.740    7.238
  755.674  335.041   85.144  222.136    7.111
  755.924  335.393   82.034  221.270    7.167
  756.174  337.021   77.923  219.239    7.740
  756.424  334.889   76.064  219.108    8.045
  756.674  313.675   74.154  217.605    7.896
  756.924  305.564   77.042  212.504    7.666
  757.174  329.901   81.080  211.631    7.372
  757.424  353.162   85.620  212.985    7.080
  757.674  350.895   86.010  214.341    6.765
  757.924  338.551   81.999  215.376    6.472
  758.174  339.708   81.237  213.766    6.365
  758.424  352.424   80.928  212.788    6.320
  758.674  352.642   81.416  212.659    6.418
  758.924  346.008   85.007  215.180    6.476
  759.174  346.563   87.146  215.788    6.513
  759.424  356.925   82.985  212.803    6.529
  759.674  354.456   81.023  212.989    6.400
  759.924  351.314   81.463  215.618    6.335
  760.174  350.725   82.803  216.439    6.289
  760.424  350.743   84.590  214.724    6.367
  760.674  350.628   85.730  215.230    6.404
  760.924  349.164   86.469  215.842    6.379
  761.174  349.583   84.010  216.139    6.250
  761.424  350.272   84.000  214.423    6.122
  761.674  353.985   85.889  207.416    6.015
  761.924  355.747   87.627  196.809    5.990
  762.174  357.848   86.617  198.163    5.883
  762.424  357.460   86.505  208.194    5.837
  762.674  359.091   88.394  218.119    5.853
  762.924  359.780   89.434  214.710    5.869
  763.174  358.252   87.874  218.177    6.050
  763.424  352.287   84.713  218.578    6.292
  763.674  349.482   86.253  219.931    6.309
  763.924  349.165   84.792  220.544    6.222
  764.174  350.053   84.680  220.308    6.197
  764.424  354.369   85.421  222.192    6.192
  764.674  356.403   84.760  223.332    6.127
  764.924  359.173   89.249  223.522    6.080
  765.174  356.973   93.337  224.452    6.015
  765.424  354.974   94.227  225.911    6.031
  765.674  358.552   89.367  225.888    6.047
  765.924  363.741   84.707  225.338    6.084
  766.174  364.364   83.245  222.669    6.121
  766.424  359.005   83.633  219.999    6.158
  766.674  352.236   84.823  220.397    6.194
  766.924  344.325   84.263  222.496    6.211
  767.174  355.225   83.403  225.225    6.186
  767.424  362.161   82.641  228.585    6.057
  767.674  359.694   81.381  229.412    5.950
  767.924  354.538   79.371  220.394    5.924
  768.174  352.807   84.510  219.100    5.858
  768.424  357.528   89.247  222.041    5.793
  768.674  364.062   89.038  218.737    5.788
