~VERSION INFORMATION
 VERS.                 2.0:   CWLS LOG ASCII STANDARD -VERSION 2.0
 WRAP.                  NO:   ONE LINE PER DEPTH STEP
~WELL INFORMATION BLOCK
#MNEM.UNIT           DATA                    DESCRIPTION OF MNEMONIC
#---------    -------------------            -------------------------------
# Generated from Intellog Unique Number	CW_76_78/WELL/2817
WELL.         SCURRY ATKINSON MCMULLEN 11-18 : Well_name    - WELL
LOC .         00/11-18-077-01W5/0            : Location     - LOCATION
UWI .         00/11-18-077-01W5/0            : Uwi          - UNIQUE WELL ID
ENTR.         JJ                             : Entered      - ENTERED BY
SRVC.         WESTERN ATLAS                  : Scn          - SERVICE COMPANY
DATE.         9 JAN 74                       : Date         - LOG DATE
STRT.M        493.776                        : top_depth    - START DEPTH
STOP.M        621.776                        : bot_depth    - STOP DEPTH
STEP.M        0.25                           : increment    - STEP LENGTH
 NULL. -999.2500:NULL Value
~CURVE INFORMATION BLOCK
#MNEM UNIT       ERCB CURVE CODE    CURVE DESCRIPTION
#-----------   ------------------   ----------------------------------
DEPT.M        00 001 00 00         : DEPTH        - DEPTH
DELT.US/F     00 520 00 00         : DELT         - SONIC TRAVEL TIME
CALI.MM       00 280 01 00         : CAL          - CALIPER
GR  .API      00 310 00 00         : GR           - GAMMA RAY
ILD .OHMM     00 120 00 00         : RESD         - DEEP RESISTIVITY (DIL)
~PARAMETER INFORMATION
#MNEM.UNIT           DATA             DESCRIPTION OF MNEMONIC
#---------         -----------     ------------------------------
GL  .M        694.944              : gl           - GROUND LEVEL ELEVATION
EREF.M        698.906              : kb           - ELEVATION OF DEPTH REFERENCE
DATM.M        694.944              : datum        - DATUM ELEVATION
TDD .M        621.182              : tdd          - TOTAL DEPTH DRILLER
RUN .         ONE                  : Run          - RUN NUMBER
ENG .         HOPP-GAU             : Engineer     - RECORDING ENGINEER
WIT .         KIRKPATRICK          : Witness      - WITNESSED BY
BASE.         EDMONTON             : Branch       - HOME BASE OF LOGGING UNIT
MUD .         GEL-CHEM             : Mud_type     - MUD TYPE
MATR.         SANDSTONE            : Logunit      - NEUTRON MATRIX
TMAX.C        23.8889              : BHT          - MAXIMUM RECORDED TEMPERATURE
BHTD.M        622.097              : BHTDEP       - MAXIMUM RECORDED TEMPERATURE
RMT .C        12.7778              : MDTP         - TEMPERATURE OF MUD
MUDD.KG/M     1128                 : MWT          - MUD DENSITY
NEUT.         1                    : NEUTRON      - NEUTRON TYPE
RESI.         0                    : RESIST       - RESISTIVITY TYPE
RM  .OHMM     4.5                  : RM           - RESISTIVITY OF MUD
RMC .OHMM     0                    : RMC          - RESISTIVITY OF MUD CAKE
RMF .OHMM     0                    : RMF          - RESISTIVITY OF MUD FILTRATE
SUFT.C        5                    : SUFT         - SURFACE TEMPERATURE
~A  DEPTH     DELT      CAL       GR     RESD
# ...
  580.776  220.436  214.235   62.801   25.964
  581.026  236.093  214.355   63.907   27.982
  581.276  255.273  214.164   67.864   29.134
  581.526  298.016  214.176   71.514   18.551
  581.776  318.241  213.985   75.407   13.159
  582.026  321.037  214.098   81.062   11.360
  582.276  272.396  214.210   85.079   10.294
  582.526  275.647  214.124   86.728    9.493
  582.776  299.072  213.530   86.314    8.826
  583.026  328.433  212.125   85.962    8.226
  583.276  336.257  209.104   87.672    7.514
  583.526  336.963  205.984   93.995    6.958
  583.776  326.246  204.883   97.223    6.756
  584.026  320.555  205.303   99.175    6.644
  584.276  322.046  207.843   99.127    6.553
  584.526  328.630  211.595   98.349    6.529
  584.776  328.553  215.753   98.240    6.506
  585.026  327.759  220.723   98.617    6.548
  585.276  333.297  221.642   99.416    6.591
  585.526  339.812  221.048  100.883    6.611
  585.776  344.568  220.758  104.050    6.632
  586.026  335.679  220.366  104.607    6.542
  586.276  339.127  219.474  104.681    6.496
  586.526  342.836  218.474  105.176    6.383
  586.776  346.351  217.169  107.070    6.337
  587.026  344.445  212.531  110.720    6.313
  587.276  337.450  207.489  114.798    6.422
  587.526  329.086  202.443  115.234    6.598
  587.776  318.891  199.627  112.637    6.840
  588.026  313.332  198.935  108.825    7.083
  588.276  312.929  199.656  104.711    7.702
  588.526  300.647  201.687   98.957    8.277
  588.776  273.088  209.788   92.233    9.296
  589.026  256.303  213.342   86.602   10.558
  589.276  237.884  214.160   80.123   12.221
  589.526  226.190  214.377   76.007   14.881
  589.776  208.881  213.681   73.713   19.382
  590.026  202.341  212.681   77.607   23.285
  590.276  246.914  210.877   84.356   21.597
  590.526  268.313  209.069   89.341   16.760
  590.776  322.154  208.270   94.692   12.299
  591.026  322.140  210.508   98.286   10.345
  591.276  318.607  213.151  100.178    9.035
  591.526  321.338  210.940  102.797    8.102
  591.776  324.328  209.438  103.234    7.678
  592.026  322.423  209.447  102.093    7.765
  592.276  317.323  209.866  102.650    7.874
  592.526  308.305  210.988  103.874    7.940
  592.776  299.482  212.518   98.303    8.160
  593.026  319.509  213.848  101.229    8.380
  593.276  314.863  214.767  104.819    8.467
  593.526  313.741  217.513  105.014    8.443
  593.776  316.147  218.939  103.446    8.308
  594.026  323.382  220.872  107.585    8.151
  594.276  334.272  221.290  111.540    7.706
  594.526  344.117  218.167  117.012    7.371
  594.776  350.568  210.396  119.332    7.037
  595.026  348.599  208.789  118.189    6.680
  595.276  331.354  207.999  112.619    6.612
  595.526  329.581  208.213  105.772    6.655
  595.776  328.462  207.920   95.468    6.875
  596.026  323.816  208.339   96.208    7.162
  596.276  325.698  208.957   96.219    7.448
  596.526  314.917  209.370   90.224    7.468
  596.776  275.478  209.889   85.867    7.400
  597.026  281.212  210.713   86.484    7.222
  597.276  338.383  211.939   90.806    7.043
  597.526  335.497  212.457   96.582    6.686
  597.776  336.207  213.174  102.236    6.352
  598.026  348.859  212.480  105.584    5.684
  598.276  354.526  209.965  101.409    5.128
  598.526  345.182  203.607  102.512    4.927
  598.776  341.971  202.208  104.829    4.525
  599.026  332.757  202.118   97.984    4.347
  599.276  318.842  202.234   86.285    4.234
  599.526  317.590  202.040   70.399    4.165
  599.776  324.566  201.955   53.299    4.075
  600.026  327.749  202.372   45.059    4.074
  600.276  328.656  202.992   40.278    4.050
  600.526  324.924  203.103   38.833    4.070
  600.776  312.379  203.422   39.269    4.068
  601.026  289.328  203.734   38.854    4.089
  601.276  298.389  204.252   36.683    4.131
  601.526  356.343  204.770   36.088    4.130
  601.776  372.977  204.986   37.190    4.084
  602.026  353.710  204.593   39.204    4.060
  602.276  311.596  199.551   39.215    4.036
  602.526  279.925  198.754   38.135    3.990
  602.776  274.498  198.667   36.993    3.877
  603.026  335.520  198.478   37.734    3.831
  603.276  339.293  198.187   39.079    3.807
  603.526  334.450  197.997   39.821    3.806
  603.776  332.940  198.313   39.408    3.693
  604.026  332.081  198.628   38.751    3.625
  604.276  332.788  199.149   38.762    3.578
  604.526  331.014  199.462   39.805    3.533
  604.776  330.873  200.492   41.638    3.464
  605.026  330.927  200.801   42.438    3.485
  605.276  329.219  201.623   42.327    3.528
  605.526  329.208  202.348   42.705    3.570
  605.776  330.373  202.766   43.810    3.591
  606.026  328.729  203.286   44.123    3.522
  606.276  327.281  203.596   44.011    3.521
  606.526  330.075  203.915   41.596    3.519
  606.776  334.048  204.029   41.123    3.518
  607.026  333.711  204.649   44.045    3.582
  607.276  323.973  204.862   46.180    3.736
  607.526  318.610  204.570   45.343    3.823
  607.776  316.118  204.483   45.840    3.932
  608.026  315.847  204.090   47.370    4.019
  608.276  320.469  203.697   48.837    4.062
  608.526  329.791  202.598   49.580    4.105
  608.776  333.896  201.498   50.072    4.170
  609.026  338.128  200.603   48.810    4.168
  609.276  333.677  200.109   47.428    4.166
  609.526  331.315  199.917   48.957    4.231
  609.776  330.522  199.834   50.967    4.252
  610.026  326.269  199.643   55.107    4.272
  610.276  330.631  199.552   58.821    4.381
  610.526  331.793  199.467   58.587    4.491
  610.776  336.418  199.781   53.805    4.556
  611.026  344.893  200.807   52.119    4.620
  611.276  342.011  201.726   56.620    4.507
  611.526  335.211  202.651   60.153    4.461
  611.776  335.918  202.863   60.951    4.349
  612.026  342.369  202.674   61.873    4.303
  612.276  339.158  202.080   63.464    4.346
  612.526  329.684  203.205   65.599    4.410
  612.776  312.114  207.162   69.128    4.498
  613.026  291.085  201.511   73.630    4.740
  613.276  294.074  200.111   73.218    5.337
  613.526  300.331  200.528   73.350    5.890
  613.776  325.125  201.952   75.304    6.288
  614.026  342.020  211.672   78.715    6.264
  614.276  316.290  217.954   80.785    5.974
  614.526  321.632  210.991   84.864    5.795
  614.776  377.758  209.589   89.669    5.571
  615.026  401.834  211.420   95.021    5.259
  615.276  397.515  214.061  102.069    5.013
  615.526  387.711  221.758  114.460    4.590
  615.776  377.714  228.950  120.963    4.233
  616.026  367.520  228.054  126.374    4.254
  616.276  358.565  219.673  125.659    4.363
  616.526  351.310  209.979  121.484    4.450
  616.776  327.995  212.422  119.311    4.603
  617.026  314.016  213.647  117.988    4.802
  617.276  323.274  214.364  115.633    5.110
  617.526  323.263  214.378  116.736    5.463
  617.776  322.141  219.344  119.600    5.817
  618.026  325.526  225.930  122.584    6.126
  618.276  336.612  225.437  120.048    6.413
  618.526  343.780  223.631  117.269    6.455
  618.776  348.729  231.427  114.851    6.121
  619.026  353.744  230.734  115.108    5.742
  619.276  356.345  224.071  117.909    5.607
  619.526  352.937  215.896  114.159    5.494
  619.776  350.513  212.368  114.837    5.493
  620.026  344.758  210.157  117.337    5.647
  620.276  329.278  206.428  119.472    6.088
  620.526  308.118  202.093  119.119    7.107
  620.776  296.945  200.086  116.400    7.616
  621.026  287.142  199.086  115.137    7.547
  621.276  286.412  198.491  117.759    7.413
  621.526  286.272  198.807  120.439    7.278
  621.776  285.673  199.428  122.149    7.121
