~VERSION INFORMATION
 VERS.                 2.0:   CWLS LOG ASCII STANDARD -VERSION 2.0
 WRAP.                  NO:   ONE LINE PER DEPTH STEP
~WELL INFORMATION BLOCK
#MNEM.UNIT           DATA                    DESCRIPTION OF MNEMONIC
#---------    -------------------            -------------------------------
# Generated from Intellog Unique Number	CC_80_83/WELL/2408
NULL.         -999.25                        : NULL_VALUE
WELL.         CHEVRON BP GRAND RAPIDS        : Well_name    - WELL
LOC .         11-25-083-17W4                 : Location     - LOCATION          
UWI .         00/11-25-083-17W400            : Uwi          - UNIQUE WELL ID    
ENTR.         DW                             : Entered      - ENTERED BY        
SRVC.         SCHLUMBERGER                   : Scn          - SERVICE COMPANY   
DATE.         26 JAN 73                      : Date         - LOG DATE
STRT.M        91.44                          : top_depth    - START DEPTH       
STOP.M        280.415                        : bot_depth    - STOP DEPTH        
STEP.M        0.3048                         : increment    - STEP LENGTH       
~CURVE INFORMATION BLOCK
#MNEM UNIT       ERCB CURVE CODE    CURVE DESCRIPTION
#-----------   ------------------   ----------------------------------
DEPT.M        00 001 00 00         : DEPTH        - DEPTH                       
DPHI.V/V      00 890 00 00         : PHID         - DENSITY POROSITY (LIMESTONE)
NPHI.V/V      00 330 00 00         : PHIN         - NEUTRON POROSITY (LIMESTONE)
GR  .API      00 310 00 00         : GR           - GAMMA RAY                   
ILD .OHMM     00 120 00 00         : RESD         - DEEP RESISTIVITY (DIL)      
~PARAMETER INFORMATION       
#MNEM.UNIT           DATA             DESCRIPTION OF MNEMONIC
#---------         -----------     ------------------------------
GL  .M        510.388              : gl           - GROUND LEVEL ELEVATION      
EREF.M        513.588              : kb           - ELEVATION OF DEPTH REFERENCE
DATM.M        513.588              : datum        - DATUM ELEVATION             
TDD .M        321.259              : tdd          - TOTAL DEPTH DRILLER         
RUN .         ONE                  : Run          - RUN NUMBER                  
ENG .         BILL                 : Engineer     - RECORDING ENGINEER          
WIT .         JIM                  : Witness      - WITNESSED BY                
MUD .         GEL                  : Mud_type     - MUD TYPE                    
MATR.         LIMESTONE            : Logunit      - NEUTRON MATRIX              
TMAX.C        26.1111              : BHT          - MAXIMUM RECORDED TEMPERATURE
BHTD.M        321.259              : BHTDEP       - MAXIMUM RECORDED TEMPERATURE
MATR.         1                    : LOGUNIT      - NEUTRON MATRIX              
RMT .C        25                   : MDTP         - TEMPERATURE OF MUD          
NEUT.         1                    : NEUTRON      - NEUTRON TYPE                
RESI.         0                    : RESIST       - RESISTIVITY TYPE            
RMC .OHMM     0.25                 : RMC          - RESISTIVITY OF MUD CAKE     
RMF .OHMM     0.25                 : RMF          - RESISTIVITY OF MUD FILTRATE 
SUFT.C        15                   : SUFT         - SURFACE TEMPERATURE         
~A  DEPTH     PHID     PHIN       GR     RESD
# ...
  144.475    0.239    0.337   42.851   26.043
  144.780    0.119    0.225   36.356   23.342
  145.085    0.140    0.349   45.808   19.449
  145.390    0.297    0.477   49.943   17.117
  145.694    0.351    0.492   48.764   16.505
  145.999    0.316    0.486   46.404   16.209
  146.304    0.323    0.495   46.997   16.814
  146.609    0.310    0.503   44.637   17.764
  146.913    0.339    0.488   44.047   17.446
  147.218    0.336    0.453   46.411   16.821
  147.523    0.365    0.470   56.453   15.639
  147.828    0.385    0.572   58.817   14.539
  148.133    0.305    0.515   49.961   14.279
  148.437    0.313    0.508   47.010   14.544
  148.742    0.323    0.540   48.783   14.814
  149.047    0.342    0.532   47.605   14.549
  149.352    0.330    0.488   49.378   14.286
  149.657    0.347    0.465   55.286   13.526
  149.961    0.296    0.491   54.697   12.575
  150.266    0.287    0.499   51.746   11.479
  150.571    0.308    0.502   51.748    8.729
  150.876    0.321    0.515   55.292    7.012
  151.181    0.231    0.567   70.649    5.430
  151.485    0.209    0.544   81.872    4.867
  151.790    0.222    0.535   90.732    4.609
  152.095    0.198    0.570   88.962    4.609
  152.400    0.229    0.571   84.831    4.610
  152.705    0.211    0.572   81.880    4.611
  153.009    0.260    0.603   81.881    4.697
  153.314    0.254    0.612   86.609    4.697
  153.619    0.204    0.619   87.791    4.698
  153.924    0.191    0.616   88.383    4.698
  154.229    0.214    0.604   93.700    4.699
  154.533    0.175    0.598   94.293    4.615
  154.838    0.171    0.595   88.980    4.532
  155.143    0.174    0.603   88.982    4.451
  155.448    0.169    0.604   93.117    4.292
  155.753    0.157    0.608   96.072    4.215
  156.057    0.196    0.614   96.664    4.215
  156.362    0.229    0.614   95.485    4.216
  156.667    0.221    0.608   92.534    4.217
  156.972    0.196    0.612   83.678    4.217
  157.276    0.216    0.613   80.136    4.218
  157.581    0.259    0.612   80.729    4.296
  157.886    0.302    0.614   80.730    4.623
  158.191    0.336    0.615   77.780    5.065
  158.496    0.352    0.609   70.104    6.663
  158.800    0.348    0.578   63.610    9.091
  159.105    0.198    0.518   60.659   11.743
  159.410    0.283    0.540   58.299   13.105
  159.715    0.299    0.490   59.482   13.108
  160.020    0.284    0.481   63.027   12.872
  160.324    0.274    0.477   64.800   12.640
  160.629    0.291    0.508   64.212   12.188
  160.934    0.314    0.542   63.032   11.127
  161.239    0.309    0.501   60.672   10.926
  161.544    0.310    0.508   58.902    9.975
  161.848    0.285    0.517   60.085    9.618
  162.153    0.261    0.481   66.584    8.779
  162.458    0.231    0.480   70.129    8.014
  162.763    0.219    0.522   71.902    7.871
  163.068    0.260    0.524   71.314    8.017
  163.372    0.246    0.530   67.182    8.166
  163.677    0.250    0.583   69.546    8.318
  163.982    0.228    0.535   73.682    8.472
  164.287    0.214    0.508   77.817    8.320
  164.592    0.234    0.506   79.001    8.171
  164.896    0.235    0.540   76.049    7.737
  165.201    0.236    0.578   72.508    7.460
  165.506    0.222    0.597   74.873    7.326
  165.811    0.202    0.621   73.103    7.327
  166.116    0.236    0.646   64.836    7.463
  166.420    0.262    0.652   59.523    7.603
  166.725    0.367    0.646   56.573    7.604
  167.030    0.450    0.654   58.346    7.467
  167.335    0.477    0.657   63.663    7.333
  167.639    0.420    0.639   68.980    7.201
  167.944    0.389    0.614   72.526    7.072
  168.249    0.339    0.542   72.527    7.072
  168.554    0.204    0.563   71.938    7.472
  168.859    0.217    0.591   67.216    7.611
  169.163    0.223    0.600   66.627    7.475
  169.468    0.198    0.524   63.085    6.823
  169.773    0.194    0.516   59.544    6.115
  170.078    0.224    0.535   58.365    5.482
  170.383    0.321    0.610   69.588    5.383
  170.687    0.491    0.619   66.636    5.483
  170.992    0.565    0.568   60.733    7.481
  171.297    0.433    0.522   58.963    9.841
  171.602    0.328    0.268   51.288   27.882
  171.907    0.056    0.196   45.974   28.401
  172.211    0.000    0.194   44.795   21.994
  172.516    0.049    0.240   52.474   14.718
  172.821    0.157    0.370   62.516   11.608
  173.126    0.210    0.512   66.652    9.850
  173.431    0.266    0.546   64.882    8.358
  173.735    0.282    0.554   64.293    8.208
  174.040    0.284    0.469   65.477    8.209
  174.345    0.283    0.493   66.069    8.673
  174.650    0.293    0.510   67.842    8.834
  174.955    0.267    0.528   66.072    8.835
  175.259    0.264    0.574   70.799    8.520
  175.564    0.237    0.566   69.029    8.367
  175.869    0.208    0.419   70.213    8.068
  176.174    0.157    0.417   73.167    7.501
  176.479    0.252    0.478   74.350    6.973
  176.783    0.252    0.564   73.761    6.026
  177.088    0.254    0.591   75.535    5.705
  177.393    0.235    0.626   75.537    5.603
  177.698    0.230    0.644   73.767    5.604
  178.003    0.283    0.622   72.588    5.813
  178.307    0.247    0.570   72.590    5.921
  178.612    0.249    0.560   73.773    6.032
  178.917    0.284    0.598   74.956    6.032
  179.222    0.277    0.616   70.233    6.033
  179.526    0.282    0.628   69.644    6.374
  179.831    0.352    0.616   74.371    6.612
  180.136    0.292    0.583   75.554    7.245
  180.441    0.280    0.549   76.146    8.387
  180.746    0.246    0.529   74.967   10.070
  181.050    0.229    0.517   72.607   11.445
  181.355    0.270    0.509   66.703   12.773
  181.660    0.286    0.468   60.209   13.494
  181.965    0.278    0.465   57.258   14.520
  182.270    0.296    0.477   56.078   14.789
  182.574    0.303    0.487   60.214   15.064
  182.879    0.318    0.486   56.082   15.066
  183.184    0.308    0.452   53.131   14.265
  183.489    0.313    0.426   50.180   13.506
  183.794    0.297    0.415   49.001   12.329
  184.098    0.289    0.418   51.956   11.256
  184.403    0.298    0.449   54.320   11.257
  184.708    0.311    0.462   53.141   11.678
  185.013    0.291    0.435   53.142   12.796
  185.318    0.272    0.423   54.916   15.646
  185.622    0.277    0.467   50.194   20.581
  185.927    0.250    0.443   51.968   32.499
  186.232    0.187    0.339   49.017   59.396
  186.537    0.088    0.165   48.428   58.330
  186.842    0.014    0.175   53.154   46.006
  187.146    0.017    0.191   54.338   16.847
  187.451    0.069    0.294   60.835   13.288
  187.756    0.211    0.407   69.105   10.291
  188.061    0.377    0.478   75.603    9.224
  188.366    0.402    0.583   76.786    9.058
  188.670    0.310    0.564   75.607    9.226
  188.975    0.313    0.516   70.885    9.572
  189.280    0.267    0.490   69.705    9.929
  189.585    0.255    0.508   67.935    9.930
  189.889    0.261    0.541   66.757    9.932
  190.194    0.215    0.568   66.168    9.577
  190.499    0.286    0.608   68.531    9.068
  190.804    0.351    0.541   71.486    8.586
  191.109    0.336    0.523   72.669    8.432
  191.413    0.223    0.571   68.538    8.588
  191.718    0.214    0.515   67.948    8.589
  192.023    0.237    0.504   73.856    8.749
  192.328    0.247    0.542   76.811    8.750
  192.633    0.241    0.584   74.451    8.594
  192.937    0.233    0.547   70.909    8.595
  193.242    0.222    0.536   69.139    8.441
  193.547    0.247    0.511   69.732    8.597
  193.852    0.235    0.498   71.505    8.757
  194.157    0.233    0.484   73.870    8.920
  194.461    0.224    0.481   76.233    8.760
  194.766    0.231    0.498   75.055    8.602
  195.071    0.225    0.502   73.285    8.448
  195.376    0.225    0.515   72.106    8.296
  195.681    0.218    0.535   72.698    8.000
  195.985    0.215    0.565   72.109    7.856
  196.290    0.237    0.558   71.520    7.715
  196.595    0.229    0.585   70.341    7.716
  196.900    0.209    0.593   68.571    7.718
  197.205    0.243    0.546   75.070    7.442
