~VERSION INFORMATION
 VERS.                 2.0:   CWLS LOG ASCII STANDARD -VERSION 2.0
 WRAP.                  NO:   ONE LINE PER DEPTH STEP
~WELL INFORMATION BLOCK
#MNEM.UNIT           DATA                    DESCRIPTION OF MNEMONIC
#---------    -------------------            -------------------------------
# Generated from Intellog Unique Number	CS_71_72/WELL/872
WELL.         PACIFIC PHILLIPS AEC WIAU      : Well_name    - WELL
LOC .         00/10-29-072-08W4/0            : Location     - LOCATION
UWI .         00/10-29-072-08W4/0            : Uwi          - UNIQUE WELL ID
ENTR.         SP                             : Entered      - ENTERED BY
SRVC.         SCHLUMBERGER                   : Scn          - SERVICE COMPANY
STRT.M        315                            : top_depth    - START DEPTH
STOP.M        540                            : bot_depth    - STOP DEPTH
STEP.M        0.25                           : increment    - STEP LENGTH
 NULL. -999.2500:NULL Value
~CURVE INFORMATION BLOCK
#MNEM UNIT       ERCB CURVE CODE    CURVE DESCRIPTION
#-----------   ------------------   ----------------------------------
DEPT.M        00 001 00 00         : DEPTH        - DEPTH
GR  .API      00 310 00 00         : GR           - GAMMA RAY
NPHI.V/V      00 330 00 00         : PHIN         - NEUTRON POROSITY (LIMESTONE)
DPHI.V/V      00 890 00 00         : PHID         - DENSITY POROSITY (LIMESTONE)
ILD .OHMM     00 120 00 00         : RESD         - DEEP RESISTIVITY (DIL)
~PARAMETER INFORMATION
#MNEM.UNIT           DATA             DESCRIPTION OF MNEMONIC
#---------         -----------     ------------------------------
GL  .M        686.5                : gl           - GROUND LEVEL ELEVATION
EREF.M        689.5                : kb           - ELEVATION OF DEPTH REFERENCE
DATM.M        686.5                : datum        - DATUM ELEVATION
TDD .M        555                  : tdd          - TOTAL DEPTH DRILLER
RUN .         ONE                  : Run          - RUN NUMBER
ENG .         BILL                 : Engineer     - RECORDING ENGINEER
WIT .         JIM                  : Witness      - WITNESSED BY
MUD .         GEL                  : Mud_type     - MUD TYPE
MATR.         LIMESTONE            : Logunit      - NEUTRON MATRIX
TMAX.C        32.2                 : BHT          - MAXIMUM RECORDED TEMPERATURE
BHTD.M        555                  : BHTDEP       - MAXIMUM RECORDED TEMPERATURE
MATR.         1                    : LOGUNIT      - NEUTRON MATRIX
RMT .C        25                   : MDTP         - TEMPERATURE OF MUD
NEUT.         1                    : NEUTRON      - NEUTRON TYPE
RESI.         0                    : RESIST       - RESISTIVITY TYPE
RMC .OHMM     0.25                 : RMC          - RESISTIVITY OF MUD CAKE
RMF .OHMM     0.25                 : RMF          - RESISTIVITY OF MUD FILTRATE
SUFT.C        15                   : SUFT         - SURFACE TEMPERATURE
~A  DEPTH       GR     PHIN     PHID     RESD
  315.000  107.658    0.559    0.271    2.890
  315.250  107.046    0.564    0.274    2.783
  315.500  107.645    0.570    0.277    2.731
  315.750  108.849    0.581    0.275    2.630
  316.000  106.424    0.588    0.276    2.581
  316.250  102.185    0.591    0.279    2.533
  316.500  102.783    0.583    0.286    2.440
  316.750  104.590    0.558    0.288    2.439
  317.000  104.586    0.534    0.284    2.484
  317.250  100.949    0.524    0.281    2.530
  317.500  102.153    0.534    0.285    2.625
  317.750  103.357    0.543    0.275    2.674
  318.000  104.562    0.553    0.264    2.775
  318.250  105.763    0.552    0.266    2.879
  318.500  105.758    0.561    0.259    2.878
  318.750  105.751    0.564    0.251    2.824
  319.000  105.745    0.562    0.243    2.824
  319.250  105.739    0.567    0.253    2.875
  319.500  105.735    0.556    0.268    2.875
  319.750  106.329    0.562    0.259    2.928
  320.000  107.535    0.563    0.263    2.982
  320.250  108.740    0.573    0.248    3.038
  320.500  110.549    0.577    0.241    3.211
  320.750  111.148    0.526    0.239    3.332
  321.000  108.721    0.512    0.230    3.588
  321.250  106.295    0.503    0.211    3.655
  321.500  105.082    0.513    0.196    3.864
  321.750  102.656    0.514    0.173    4.009
  322.000  101.440    0.491    0.149    4.160
  322.250  102.642    0.491    0.180    4.316
  322.500  103.847    0.495    0.221    4.396
  322.750  106.862    0.502    0.233    4.395
  323.000  108.068    0.511    0.230    4.313
  323.250  108.665    0.517    0.241    4.154
  323.500  108.661    0.531    0.241    3.927
  323.750  108.052    0.546    0.239    3.644
  324.000  106.836    0.556    0.243    3.382
  324.250  105.620    0.550    0.252    3.257
  324.500  105.008    0.564    0.237    3.256
  324.750  105.003    0.558    0.232    3.316
  325.000  104.393    0.530    0.225    3.378
  325.250  104.383    0.520    0.217    3.505
  325.500  104.984    0.528    0.209    3.637
  325.750  106.792    0.533    0.228    3.704
  326.000  107.392    0.511    0.228    3.773
  326.250  106.177    0.500    0.230    3.843
  326.500  104.959    0.488    0.224    3.842
  326.750  103.745    0.493    0.212    3.770
  327.000  100.715    0.510    0.176    3.839
  327.250   96.474    0.516    0.137    3.910
  327.500   93.444    0.509    0.105    4.057
  327.750   92.833    0.479    0.151    4.132
  328.000   94.642    0.456    0.200    4.131
  328.250   95.846    0.502    0.220    4.286
  328.500   93.421    0.521    0.209    4.448
  328.750   89.786    0.494    0.198    4.972
  329.000   86.151    0.438    0.200    5.769
  329.250   83.120    0.389    0.237    6.820
  329.500   85.534    0.380    0.263    8.062
  329.750   90.970    0.409    0.248    8.845
  330.000   95.198    0.440    0.240    9.179
  330.250   97.613    0.446    0.226    9.349
  330.500   98.211    0.448    0.239    9.521
  330.750   91.551    0.438    0.262   10.255
  331.000   83.077    0.451    0.282   11.897
  331.250   78.234    0.506    0.335   13.805
  331.500   68.549    0.552    0.452   16.938
  331.750   61.285    0.481    0.486   22.387
  332.000   58.255    0.393    0.384   26.962
  332.250   56.435    0.378    0.383   34.982
  332.500   56.430    0.382    0.387   46.241
  332.750   57.634    0.371    0.372   51.690
  333.000   60.046    0.364    0.359   47.082
  333.250   62.459    0.358    0.358   34.298
  333.500   64.267    0.352    0.357   27.938
  333.750   64.261    0.345    0.342   22.757
  334.000   63.650    0.339    0.335   19.241
  334.250   63.646    0.332    0.323   17.202
  334.500   65.453    0.353    0.305   15.094
  334.750   69.076    0.380    0.289   14.007
  335.000   71.489    0.405    0.296   13.242
  335.250   73.299    0.419    0.288   12.754
  335.500   75.712    0.415    0.269   12.285
  335.750   79.336    0.414    0.252   11.831
  336.000   84.166    0.416    0.245   11.611
  336.250   88.395    0.419    0.238   11.608
  336.500   95.646    0.420    0.238   10.973
  336.750   99.270    0.430    0.243   10.971
  337.000  103.496    0.433    0.246   10.567
  337.250  104.701    0.442    0.231   10.369
  337.500  104.090    0.434    0.219   10.174
  337.750  101.665    0.432    0.234   10.362
  338.000   93.795    0.424    0.255   10.752
  338.250   89.556    0.419    0.266   10.950
  338.500   87.736    0.425    0.273   11.153
  338.750   88.332    0.425    0.260   11.359
  339.000   88.933    0.416    0.241   11.358
  339.250   88.320    0.408    0.229   11.567
  339.500   87.107    0.400    0.244   11.351
  339.750   84.076    0.395    0.255   11.138
  340.000   83.466    0.388    0.251   11.133
  340.250   85.879    0.380    0.269   10.926
  340.500   92.523    0.369    0.260   10.923
  340.750   93.125    0.364    0.228   10.921
  341.000   93.725    0.357    0.207   10.916
  341.250   85.856    0.398    0.182   11.118
  341.500   76.170    0.416    0.209   11.116
  341.750   71.931    0.402    0.236   11.322
  342.000   69.506    0.394    0.260   11.530
  342.250   71.920    0.386    0.239   11.744
  342.500   70.100    0.407    0.252   11.960
  342.750   65.255    0.420    0.269   12.183
  343.000   60.409    0.403    0.281   12.406
  343.250   58.590    0.397    0.288   12.405
  343.500   61.004    0.415    0.273   11.727
  343.750   70.069    0.419    0.264   11.086
  344.000   79.737    0.410    0.251   10.098
  344.250   85.780    0.412    0.242    9.028
  344.500   90.008    0.423    0.225    8.071
  344.750   92.423    0.438    0.214    7.217
  345.000  100.279    0.471    0.183    6.333
  345.250  106.323    0.487    0.163    5.661
  345.500  114.179    0.507    0.167    4.968
  345.750  121.430    0.522    0.177    4.697
  346.000  124.450    0.538    0.196    4.359
  346.250  126.257    0.547    0.202    3.970
  346.500  125.041    0.538    0.212    3.616
  346.750  126.243    0.547    0.213    3.483
  347.000  127.449    0.552    0.194    3.293
  347.250  128.048    0.557    0.202    3.172
  347.500  125.623    0.550    0.216    3.291
  347.750  118.964    0.555    0.235    3.748
  348.000  111.699    0.566    0.248    4.599
  348.250  105.041    0.575    0.247    5.856
  348.500   96.566    0.561    0.254    7.887
  348.750   91.723    0.514    0.266    9.858
  349.000   86.876    0.456    0.269   11.438
  349.250   88.080    0.444    0.247   12.786
  349.500   94.121    0.455    0.256   12.547
  349.750   95.932    0.463    0.259   11.427
  350.000   98.949    0.469    0.235   10.605
  350.250  105.595    0.475    0.217    9.133
  350.500  110.429    0.462    0.206    8.635
  350.750  114.053    0.445    0.193    8.164
  351.000  117.069    0.458    0.168    7.864
  351.250  117.670    0.455    0.173    7.162
  351.500  118.870    0.454    0.192    6.646
  351.750  118.867    0.471    0.199    6.402
  352.000  118.256    0.489    0.174    6.052
  352.250  118.250    0.494    0.169    5.616
  352.500  121.872    0.490    0.189    5.309
  352.750  123.076    0.482    0.192    5.210
  353.000  121.860    0.483    0.203    5.406
  353.250  118.224    0.499    0.213    5.932
  353.500  111.565    0.506    0.213    7.554
  353.750  107.933    0.500    0.230    8.603
  354.000  100.063    0.480    0.249   10.555
  354.250   92.193    0.456    0.265   13.194
  354.500   98.234    0.441    0.304   15.309
  354.750  100.046    0.432    0.328   17.114
  355.000   98.225    0.438    0.323   17.758
  355.250   92.773    0.443    0.328   17.105
  355.500   92.165    0.446    0.317   15.871
  355.750   97.599    0.440    0.295   14.456
  356.000   99.410    0.437    0.281   13.925
  356.250  100.614    0.454    0.258   13.164
  356.500   96.979    0.464    0.264   12.918
  356.750   92.134    0.479    0.281   12.675
  357.000   88.499    0.475    0.270   12.672
  357.250   83.048    0.475    0.284   12.905
  357.500   78.205    0.457    0.263   12.902
  357.750   73.966    0.426    0.238   13.141
  358.000   71.538    0.410    0.238   13.137
  358.250   70.323    0.410    0.241   13.134
