~VERSION INFORMATION
 VERS.                 2.0:   CWLS LOG ASCII STANDARD -VERSION 2.0
 WRAP.                  NO:   ONE LINE PER DEPTH STEP
~WELL INFORMATION BLOCK
#MNEM.UNIT           DATA                    DESCRIPTION OF MNEMONIC
#---------    -------------------            -------------------------------
# Generated from Intellog Unique Number	CC_80_83/WELL/2332
NULL.         -999.25                        : NULL_VALUE
WELL.         PEX HOUSE                      : Well_name    - WELL
LOC .         10-03-081-16W4                 : Location     - LOCATION          
UWI .         00/10-03-081-16W400            : Uwi          - UNIQUE WELL ID    
ENTR.         DW                             : Entered      - ENTERED BY        
SRVC.         SCHLUMBERGER                   : Scn          - SERVICE COMPANY   
DATE.         06 JAN 82                      : Date         - LOG DATE
STRT.M        170                            : top_depth    - START DEPTH       
STOP.M        364.996                        : bot_depth    - STOP DEPTH        
STEP.M        0.3                            : increment    - STEP LENGTH       
~CURVE INFORMATION BLOCK
#MNEM UNIT       ERCB CURVE CODE    CURVE DESCRIPTION
#-----------   ------------------   ----------------------------------
DEPT.M        00 001 00 00         : DEPTH        - DEPTH                       
DPHI.V/V      00 890 00 00         : PHID         - DENSITY POROSITY (LIMESTONE)
NPHI.V/V      00 330 00 00         : PHIN         - NEUTRON POROSITY (LIMESTONE)
GR  .API      00 310 00 00         : GR           - GAMMA RAY                   
ILD .OHMM     00 120 00 00         : RESD         - DEEP RESISTIVITY (DIL)      
~PARAMETER INFORMATION       
#MNEM.UNIT           DATA             DESCRIPTION OF MNEMONIC
#---------         -----------     ------------------------------
GL  .M        563.09               : gl           - GROUND LEVEL ELEVATION      
EREF.M        566.89               : kb           - ELEVATION OF DEPTH REFERENCE
DATM.M        566.89               : datum        - DATUM ELEVATION             
TDD .M        422                  : tdd          - TOTAL DEPTH DRILLER         
RUN .         ONE                  : Run          - RUN NUMBER                  
ENG .         BILL                 : Engineer     - RECORDING ENGINEER          
WIT .         JIM                  : Witness      - WITNESSED BY                
MUD .         GEL                  : Mud_type     - MUD TYPE                    
MATR.         LIMESTONE            : Logunit      - NEUTRON MATRIX              
TMAX.C        15                   : BHT          - MAXIMUM RECORDED TEMPERATURE
BHTD.M        422                  : BHTDEP       - MAXIMUM RECORDED TEMPERATURE
MATR.         1                    : LOGUNIT      - NEUTRON MATRIX              
RMT .C        25                   : MDTP         - TEMPERATURE OF MUD          
NEUT.         1                    : NEUTRON      - NEUTRON TYPE                
RESI.         0                    : RESIST       - RESISTIVITY TYPE            
RMC .OHMM     0.25                 : RMC          - RESISTIVITY OF MUD CAKE     
RMF .OHMM     0.25                 : RMF          - RESISTIVITY OF MUD FILTRATE 
SUFT.C        15                   : SUFT         - SURFACE TEMPERATURE         
~A  DEPTH     PHID     PHIN       GR     RESD
# ...
  326.598    0.196    0.451   87.109    4.206
  326.898    0.187    0.452   93.913    4.127
  327.198    0.201    0.471  102.572    4.128
  327.498    0.203    0.497  102.585    4.207
  327.798    0.194    0.491   99.511    4.455
  328.098    0.183    0.479   95.823    5.287
  328.398    0.140    0.455   93.984    6.518
  328.698    0.135    0.434   80.415    8.671
  328.998    0.142    0.393   65.611   11.318
  329.298    0.215    0.359   58.837   13.433
  329.598    0.233    0.414   55.143   13.692
  329.898    0.240    0.393   52.074   13.694
  330.198    0.235    0.371   51.470   12.452
  330.498    0.236    0.359   53.332   11.989
  330.798    0.245    0.384   53.964   12.220
  331.098    0.250    0.408   52.744   12.221
  331.398    0.233    0.418   50.905   11.544
  331.698    0.223    0.386   50.918    9.365
  331.998    0.224    0.366   56.488    6.909
  332.298    0.219    0.429   75.639    6.909
  332.598    0.198    0.501   71.951    7.178
  332.898    0.173    0.445   68.877    7.600
  333.198    0.164    0.371   70.126    8.683
  333.498    0.141    0.380   76.312   10.111
  333.798    0.196    0.424   81.882   12.231
  334.098    0.235    0.413   81.896   19.680
  334.398    0.250    0.378   77.589   28.251
  334.698    0.251    0.404   75.750   28.797
  334.998    0.250    0.409   75.767   25.693
  335.298    0.216    0.333   79.487   18.953
  335.598    0.155    0.332   81.971   15.671
  335.898    0.161    0.367   84.456   14.524
  336.198    0.164    0.379   85.079   14.252
  336.498    0.165    0.370   85.714   13.985
  336.798    0.175    0.365   83.875   13.986
  337.098    0.177    0.362   82.033   14.256
  337.398    0.177    0.361   79.580   15.680
  337.698    0.165    0.350   80.829   16.921
  337.998    0.160    0.329   78.372   17.916
  338.298    0.187    0.325   71.593   17.581
  338.598    0.211    0.342   71.607   17.251
  338.897    0.192    0.362   75.943   15.988
  339.197    0.174    0.372   78.427   15.103
  339.497    0.140    0.373   80.294   14.819
  339.797    0.089    0.372   80.306   14.542
  340.097    0.152    0.357   79.086   14.000
  340.397    0.193    0.342   77.247   13.225
  340.697    0.194    0.343   79.113   12.257
  340.997    0.180    0.348   82.213   12.258
  341.297    0.160    0.364   90.869   12.028
  341.597    0.161    0.425   80.389   11.803
  341.897    0.171    0.395   66.819   11.582
  342.197    0.183    0.352   74.862   11.150
  342.497    0.191    0.399   74.258   10.334
  342.797    0.189    0.400   77.975    9.762
  343.097    0.183    0.384   83.546    9.047
  343.397    0.186    0.386   86.029    8.385
  343.697    0.172    0.421   85.422    8.228
  343.997    0.164    0.433   72.472    8.074
  344.297    0.171    0.425   66.932    8.075
  344.597    0.175    0.395   72.500    8.075
  344.897    0.147    0.384   81.773    7.924
  345.197    0.168    0.382   90.431    7.485
  345.497    0.201    0.441   87.975    7.345
  345.797    0.189    0.436   82.434    7.345
  346.097    0.174    0.426   79.362    7.346
  346.397    0.175    0.411   79.374    7.072
  346.697    0.159    0.412   88.647    7.073
  346.997    0.155    0.447  100.391    7.210
  347.297    0.159    0.448   98.553    8.395
  347.597    0.154    0.419   94.244    9.234
  347.897    0.152    0.396   86.850    9.777
  348.197    0.158    0.396   82.542   10.157
  348.497    0.191    0.401   75.767   10.353
  348.797    0.174    0.376   80.718   10.962
  349.097    0.173    0.382   89.992   12.288
  349.397    0.191    0.405   89.387   14.310
  349.697    0.179    0.410   78.293   15.739
  349.997    0.165    0.393   76.453   16.043
  350.297    0.166    0.357   75.849   16.352
  350.597    0.227    0.414   78.948   16.046
  350.897    0.238    0.412   84.520   16.047
  351.197    0.234    0.412   90.088   16.357
  351.497    0.229    0.404   91.956   16.992
  351.797    0.219    0.393   78.386   17.653
  352.097    0.198    0.383   74.698   18.339
  352.397    0.200    0.380   75.948   18.693
  352.697    0.223    0.383   77.811   18.695
  352.997    0.219    0.387   78.440   18.344
  353.297    0.194    0.383   75.986   17.328
  353.597    0.187    0.384   71.677   16.683
  353.897    0.237    0.432   68.603   16.062
  354.197    0.246    0.430   67.384   15.464
  354.497    0.235    0.410   69.866   15.762
  354.797    0.227    0.405   80.374   16.066
  355.097    0.218    0.407   72.980   17.671
  355.397    0.236    0.396   77.315   19.436
  355.697    0.238    0.383   85.972   20.579
  355.997    0.247    0.376   69.320   21.379
  356.297    0.254    0.386   73.038   22.210
  356.597    0.255    0.420   78.606   22.639
  356.897    0.240    0.395   78.620   23.076
  357.197    0.255    0.392   73.076   21.798
  357.497    0.249    0.421   68.768   20.590
  357.797    0.244    0.417   70.636   19.450
  358.097    0.234    0.407   68.178   19.085
  358.397    0.218    0.391   67.574   19.828
  358.697    0.204    0.387   69.446   20.993
  358.997    0.221    0.380   70.073   22.229
  359.297    0.248    0.367   68.851   22.658
  359.597    0.215    0.348   67.631   22.659
  359.897    0.238    0.392   66.411   23.097
  360.197    0.243    0.402   65.807   25.892
  360.497    0.206    0.402   66.439   29.025
  360.797    0.216    0.411   66.451   27.944
  361.097    0.259    0.399   65.850   26.396
  361.397    0.205    0.371   65.864   24.003
  361.697    0.175    0.358   65.258   18.047
  361.997    0.216    0.384   65.270   14.094
  362.297    0.212    0.408   65.284   11.434
  362.597    0.159    0.413   65.297    9.821
  362.897    0.122    0.412   65.932    9.637
  363.197    0.123    0.410   65.943    9.823
  363.496    0.148    0.407   65.957   10.012
  363.796    0.170    0.403   65.972   10.206
  364.096    0.122    0.393   65.983   10.206
  364.396    0.126    0.385   65.998   10.403
  364.696    0.155    0.387   66.012   10.404
  364.996    0.157    0.387   66.026   10.405
