~VERSION INFORMATION
 VERS.                 2.0:   CWLS LOG ASCII STANDARD -VERSION 2.0
 WRAP.                  NO:   ONE LINE PER DEPTH STEP
~WELL INFORMATION BLOCK
#MNEM.UNIT           DATA                    DESCRIPTION OF MNEMONIC
#---------    -------------------            -------------------------------
# Generated from Intellog Unique Number	CS_77_79/WELL/1022
WELL.         C.W.W.E. HARDY                 : Well_name    - WELL
LOC .         00/15-07-078-04W4/0            : Location     - LOCATION
UWI .         00/15-07-078-04W4/0            : Uwi          - UNIQUE WELL ID
ENTR.         JHS                            : Entered      - ENTERED BY
SRVC.         SCHLUMBERGER                   : Scn          - SERVICE COMPANY
STRT.M        165                            : top_depth    - START DEPTH
STOP.M        420                            : bot_depth    - STOP DEPTH
STEP.M        0.25                           : increment    - STEP LENGTH
 NULL. -999.2500:NULL Value
~CURVE INFORMATION BLOCK
#MNEM UNIT       ERCB CURVE CODE    CURVE DESCRIPTION
#-----------   ------------------   ----------------------------------
DEPT.M        00 001 00 00         : DEPTH        - DEPTH
DPHI.V/V      00 890 00 00         : PHID         - DENSITY POROSITY (LIMESTONE)
NPHI.V/V      00 330 00 00         : PHIN         - NEUTRON POROSITY (LIMESTONE)
GR  .API      00 310 00 00         : GR           - GAMMA RAY
ILD .OHMM     00 120 00 00         : RESD         - DEEP RESISTIVITY (DIL)
RHOB.KG/M3    00 350 00 00         : DENS         - BULK DENSITY
~PARAMETER INFORMATION
#MNEM.UNIT           DATA             DESCRIPTION OF MNEMONIC
#---------         -----------     ------------------------------
GL  .M        579.2                : gl           - GROUND LEVEL ELEVATION
EREF.M        583.1                : kb           - ELEVATION OF DEPTH REFERENCE
DATM.M        583.1                : datum        - DATUM ELEVATION
TDD .M        425.3                : tdd          - TOTAL DEPTH DRILLER
RUN .         ONE                  : Run          - RUN NUMBER
ENG .         BILL                 : Engineer     - RECORDING ENGINEER
WIT .         JIM                  : Witness      - WITNESSED BY
MUD .         GEL                  : Mud_type     - MUD TYPE
MATR.         LIMESTONE            : Logunit      - NEUTRON MATRIX
TMAX.C        20                   : BHT          - MAXIMUM RECORDED TEMPERATURE
BHTD.M        425.3                : BHTDEP       - MAXIMUM RECORDED TEMPERATURE
MATR.         1                    : LOGUNIT      - NEUTRON MATRIX
RMT .C        25                   : MDTP         - TEMPERATURE OF MUD
NEUT.         1                    : NEUTRON      - NEUTRON TYPE
RESI.         0                    : RESIST       - RESISTIVITY TYPE
RMC .OHMM     0.25                 : RMC          - RESISTIVITY OF MUD CAKE
RMF .OHMM     0.25                 : RMF          - RESISTIVITY OF MUD FILTRATE
SUFT.C        15                   : SUFT         - SURFACE TEMPERATURE
~A  DEPTH     PHID     PHIN       GR     RESD     DENS
# ...
  201.500    0.320    0.374   49.380   32.120    0.000
  201.750    0.324    0.368   49.407   32.151    0.000
  202.000    0.322    0.363   52.498   31.579    0.000
  202.250    0.315    0.367   63.588   30.455    0.000
  202.500    0.309    0.372   69.753   29.355    0.000
  202.750    0.302    0.375   79.614   28.824    0.000
  203.000    0.314    0.395   89.470   27.794    0.000
  203.250    0.365    0.446   74.124   27.294    0.000
  203.500    0.379    0.467   60.010   26.812    0.000
  203.750    0.346    0.436   53.270   26.837    0.000
  204.000    0.328    0.402   52.063   26.865    0.000
  204.250    0.336    0.390   47.783   27.406    0.000
  204.500    0.339    0.395   44.117   27.440    0.000
  204.750    0.338    0.401   40.453   27.458    0.000
  205.000    0.335    0.407   39.861   33.829    0.000
  205.250    0.334    0.410   41.727   34.507    0.000
  205.500    0.335    0.413   44.211   35.217    0.000
  205.750    0.339    0.421   46.073   35.919    0.000
  206.000    0.345    0.419   46.709   35.951    0.000
  206.250    0.350    0.411   46.730   36.675    0.000
  206.500    0.349    0.406   49.833   36.024    0.000
  206.750    0.349    0.412   51.699   36.061    0.000
  207.000    0.350    0.417   52.944   35.418    0.000
  207.250    0.351    0.414   53.583   34.797    0.000
  207.500    0.350    0.413   55.449   33.543    0.000
  207.750    0.344    0.399   60.390   32.947    0.000
  208.000    0.335    0.392   62.876   31.762    0.000
  208.250    0.327    0.391   61.049   30.620    0.000
  208.500    0.326    0.409   59.848   29.512    0.000
  208.750    0.324    0.426   60.479   27.913    0.000
  209.000    0.315    0.415   69.109   26.405    0.000
  209.250    0.303    0.418   75.280   24.972    0.000
  209.500    0.342    0.462   73.461   23.626    0.000
  209.750    0.421    0.492   66.715   23.201    0.000
  210.000    0.495    0.513   53.213   23.233    0.000
  210.250    0.427    0.484   50.778   24.147    0.000
  210.500    0.372    0.437   48.344   25.578    0.000
  210.750    0.333    0.401   45.908   28.135    0.000
  211.000    0.339    0.390   42.857   30.372    0.000
  211.250    0.347    0.391   41.031   32.174    0.000
  211.500    0.348    0.400   45.971   32.830    0.000
  211.750    0.344    0.408   55.215   33.492    0.000
  212.000    0.342    0.412   58.925   33.512    0.000
  212.250    0.343    0.405   56.490   33.547    0.000
  212.500    0.342    0.398   52.826   32.960    0.000
  212.750    0.334    0.397   54.076   32.381    0.000
  213.000    0.328    0.400   58.401   31.813    0.000
  213.250    0.325    0.402   57.811   31.245    0.000
  213.500    0.324    0.398   57.832   30.105    0.000
  213.750    0.314    0.398   63.386   29.037    0.000
  214.000    0.286    0.402   70.784   28.509    0.000
  214.250    0.261    0.394   75.730   28.545    0.000
  214.500    0.253    0.391   78.212   28.578    0.000
  214.750    0.276    0.398   78.230   28.599    0.000
  215.000    0.320    0.397   71.492   28.630    0.000
  215.250    0.324    0.394   62.907   28.130    0.000
  215.500    0.313    0.407   51.861   28.154    0.000
  215.750    0.299    0.403   53.732   27.140    0.000
  216.000    0.288    0.384   66.665   26.654    0.000
  216.250    0.278    0.373   70.995   25.690    0.000
  216.500    0.273    0.377   72.241   24.771    0.000
  216.750    0.276    0.394   75.949   24.323    0.000
  217.000    0.279    0.408   79.661   23.894    0.000
  217.250    0.269    0.412   82.143   23.920    0.000
  217.500    0.270    0.414   83.392   23.947    0.000
  217.750    0.285    0.417   85.874   23.973    0.000
  218.000    0.286    0.430   90.821   24.453    0.000
  218.250    0.281    0.423   94.526   24.942    0.000
  218.500    0.276    0.415   98.236   25.440    0.000
  218.750    0.272    0.410   95.799   25.956    0.000
  219.000    0.280    0.396   85.372   25.978    0.000
  219.250    0.297    0.384   79.250   25.522    0.000
  219.500    0.292    0.385   80.499   25.553    0.000
  219.750    0.292    0.400   70.072   26.064    0.000
  220.000    0.319    0.406   51.038   26.596    0.000
  220.250    0.330    0.401   45.525   26.611    0.000
  220.500    0.307    0.386   60.301   25.648    0.000
  220.750    0.256    0.376   68.931   26.172    0.000
  221.000    0.237    0.370   72.029   27.196    0.000
  221.250    0.240    0.372   65.906   28.269    0.000
  221.500    0.268    0.372   63.466   29.948    0.000
  221.750    0.278    0.370   61.027   29.989    0.000
  222.000    0.297    0.372   56.134   29.451    0.000
  222.250    0.311    0.381   52.467   28.392    0.000
  222.500    0.311    0.392   62.940   26.856    0.000
  222.750    0.294    0.398   72.185   24.924    0.000
  223.000    0.289    0.400   71.594   23.133    0.000
  223.250    0.291    0.393   73.458   20.293    0.000
  223.500    0.285    0.388   83.931   18.835    0.000
  223.750    0.264    0.387   93.178   16.838    0.000
  224.000    0.262    0.401   93.203   16.229    0.000
  224.250    0.260    0.414   94.449   15.065    0.000
  224.500    0.252    0.421   97.549   15.373    0.000
  224.750    0.243    0.416   97.571   15.680    0.000
  225.000    0.240    0.407   95.134   16.295    0.000
  225.250    0.242    0.411   95.156   16.940    0.000
  225.500    0.240    0.407   92.715   17.608    0.000
  225.750    0.246    0.403   89.670   18.654    0.000
  226.000    0.250    0.401   90.303   19.395    0.000
  226.250    0.257    0.392   93.401   19.781    0.000
  226.500    0.268    0.382   95.266   19.433    0.000
  226.750    0.266    0.386   91.603   19.451    0.000
  227.000    0.273    0.397   87.936   19.474    0.000
  227.250    0.292    0.404   84.882   19.495    0.000
  227.500    0.299    0.408   84.296   19.513    0.000
  227.750    0.289    0.402   86.771   19.165    0.000
  228.000    0.261    0.393   94.786   18.471    0.000
  228.250    0.250    0.389  100.346   16.830    0.000
  228.500    0.241    0.396  101.592   15.915    0.000
  228.750    0.226    0.410  112.684   14.497    0.000
  229.000    0.206    0.397  120.694   12.720    0.000
  229.250    0.194    0.388  123.177   12.028    0.000
  229.500    0.202    0.398  120.740   11.380    0.000
  229.750    0.213    0.420  121.377   11.390    0.000
  230.000    0.211    0.437  120.786   11.187    0.000
  230.250    0.213    0.434  117.738   11.201    0.000
  230.500    0.223    0.431  117.141   11.425    0.000
  230.750    0.231    0.437  112.244   12.102    0.000
  231.000    0.234    0.448  109.808   13.572    0.000
  231.250    0.240    0.441  110.446   14.102    0.000
  231.500    0.256    0.433  101.860   15.223    0.000
  231.750    0.275    0.423   88.973   16.752    0.000
  232.000    0.289    0.421   89.613   17.085    0.000
  232.250    0.272    0.427  100.699   17.430    0.000
  232.500    0.261    0.418  100.726   17.443    0.000
  232.750    0.274    0.407   97.670   17.466    0.000
  233.000    0.280    0.396   96.468   17.155    0.000
  233.250    0.269    0.416  103.866   16.849    0.000
  233.500    0.234    0.429  108.804   16.557    0.000
  233.750    0.218    0.430  113.744   16.573    0.000
  234.000    0.203    0.443  115.608   16.275    0.000
  234.250    0.216    0.449  114.401   16.292    0.000
  234.500    0.223    0.438  107.665   16.311    0.000
  234.750    0.235    0.430   97.233   17.276    0.000
  235.000    0.255    0.418   81.272   18.650    0.000
  235.250    0.283    0.394   80.067   19.753    0.000
  235.500    0.278    0.397   89.923   20.931    0.000
  235.750    0.283    0.413   88.719   21.347    0.000
  236.000    0.295    0.419   81.368   19.820    0.000
  236.250    0.313    0.424   76.467   18.054    0.000
  236.500    0.285    0.435   74.645   16.134    0.000
  236.750    0.252    0.446   88.806   13.372    0.000
  237.000    0.216    0.452  107.888   11.085    0.000
  237.250    0.201    0.461  115.903   10.486    0.000
  237.500    0.222    0.466  114.697   10.298    0.000
  237.750    0.247    0.469  107.956   10.705    0.000
