~VERSION INFORMATION
 VERS.                 2.0:   CWLS LOG ASCII STANDARD -VERSION 2.0
 WRAP.                  NO:   ONE LINE PER DEPTH STEP
~WELL INFORMATION BLOCK
#MNEM.UNIT           DATA                    DESCRIPTION OF MNEMONIC
#---------    -------------------            -------------------------------
# Generated from Intellog Unique Number	CS_69_70/WELL/875
WELL.         ALOA MINERAL ENTERPRISE        : Well_name    - WELL
LOC .         00/10-32-069-17W4/0            : Location     - LOCATION
UWI .         00/10-32-069-17W4/0            : Uwi          - UNIQUE WELL ID
ENTR.         SP                             : Entered      - ENTERED BY
SRVC.         SCHLUMBERGER                   : Scn          - SERVICE COMPANY
STRT.M        304.8                          : top_depth    - START DEPTH
STOP.M        472.3                          : bot_depth    - STOP DEPTH
STEP.M        0.25                           : increment    - STEP LENGTH
 NULL. -999.2500:NULL Value
~CURVE INFORMATION BLOCK
#MNEM UNIT       ERCB CURVE CODE    CURVE DESCRIPTION
#-----------   ------------------   ----------------------------------
DEPT.M        00 001 00 00         : DEPTH        - DEPTH
GR  .API      00 310 00 00         : GR           - GAMMA RAY
DPHI.V/V      00 890 00 00         : PHID         - DENSITY POROSITY (SANDSTONE)
NPHI.V/V      00 330 00 00         : PHIN         - NEUTRON POROSITY (SANDSTONE)
ILD .OHMM     00 120 00 00         : RESD         - DEEP RESISTIVITY (DIL)
~PARAMETER INFORMATION
#MNEM.UNIT           DATA             DESCRIPTION OF MNEMONIC
#---------         -----------     ------------------------------
GL  .M        562.051              : gl           - GROUND LEVEL ELEVATION
EREF.M        565.099              : kb           - ELEVATION OF DEPTH REFERENCE
DATM.M        562.051              : datum        - DATUM ELEVATION
TDD .M        512.064              : tdd          - TOTAL DEPTH DRILLER
RUN .         ONE                  : Run          - RUN NUMBER
ENG .         BILL                 : Engineer     - RECORDING ENGINEER
WIT .         JIM                  : Witness      - WITNESSED BY
MUD .         GEL                  : Mud_type     - MUD TYPE
MATR.         SANDSTONE            : Logunit      - NEUTRON MATRIX
TMAX.C        26.6667              : BHT          - MAXIMUM RECORDED TEMPERATURE
BHTD.M        512.064              : BHTDEP       - MAXIMUM RECORDED TEMPERATURE
MATR.         1                    : LOGUNIT      - NEUTRON MATRIX
RMT .C        25                   : MDTP         - TEMPERATURE OF MUD
NEUT.         1                    : NEUTRON      - NEUTRON TYPE
RESI.         0                    : RESIST       - RESISTIVITY TYPE
RMC .OHMM     0.25                 : RMC          - RESISTIVITY OF MUD CAKE
RMF .OHMM     0.25                 : RMF          - RESISTIVITY OF MUD FILTRATE
SUFT.C        15                   : SUFT         - SURFACE TEMPERATURE
~A  DEPTH       GR     PHID     PHIN     RESD
  304.800  112.768    0.173    0.419    3.708
  305.050  115.928    0.171    0.424    3.679
  305.300  115.320    0.170    0.420    3.658
  305.550  112.730    0.168    0.419    3.661
  305.800  112.346    0.166    0.397    3.665
  306.050  111.735    0.163    0.400    3.660
  306.300  114.952    0.161    0.438    3.661
  306.550  114.154    0.161    0.441    3.669
  306.800  112.222    0.164    0.436    3.660
  307.050  108.732    0.171    0.451    3.632
  307.300  105.138    0.272    0.457    3.544
  307.550  100.991    0.404    0.432    3.439
  307.800   98.382    0.387    0.422    3.348
  308.050  101.741    0.372    0.420    3.259
  308.300  104.605    0.367    0.410    3.166
  308.550  107.264    0.405    0.451    3.075
  308.800  107.358    0.377    0.484    3.003
  309.050  104.620    0.358    0.465    2.965
  309.300  102.858    0.337    0.450    2.946
  309.550  104.767    0.315    0.450    2.947
  309.800  107.644    0.316    0.472    2.984
  310.050  108.547    0.299    0.475    3.052
  310.300  105.307    0.281    0.412    3.146
  310.550  102.062    0.265    0.391    3.256
  310.800  100.321    0.269    0.411    3.294
  311.050   98.393    0.251    0.386    3.331
  311.300   94.836    0.236    0.375    3.298
  311.550   92.903    0.228    0.380    3.159
  311.800   95.531    0.224    0.375    3.057
  312.050  100.895    0.220    0.382    2.967
  312.300  104.341    0.217    0.402    2.923
  312.550  107.103    0.217    0.401    2.924
  312.800  108.425    0.217    0.399    2.969
  313.050  112.054    0.208    0.404    3.038
  313.300  113.840    0.198    0.385    3.151
  313.550  109.664    0.190    0.421    3.255
  313.800  107.351    0.192    0.440    3.371
  314.050  106.452    0.197    0.403    3.482
  314.300  105.674    0.206    0.392    3.563
  314.550  104.740    0.214    0.403    3.648
  314.800  104.862    0.211    0.403    3.745
  315.050  106.332    0.163    0.416    3.819
  315.300  104.447    0.113    0.412    3.894
  315.550  109.484    0.129    0.416    3.929
  315.800  112.035    0.116    0.411    3.916
  316.050  112.702    0.111    0.427    3.893
  316.300  113.852    0.143    0.443    3.859
  316.550  115.373    0.163    0.434    3.780
  316.800  117.254    0.161    0.430    3.693
  317.050  119.016    0.152    0.453    3.599
  317.300  120.495    0.156    0.472    3.518
  317.550  118.835    0.155    0.471    3.464
  317.800  120.552    0.150    0.452    3.461
  318.050  122.674    0.144    0.459    3.480
  318.300  122.831    0.144    0.442    3.504
  318.550  118.141    0.178    0.425    3.523
  318.800  106.398    0.194    0.401    3.570
  319.050  102.752    0.205    0.388    3.665
  319.300  104.351    0.211    0.373    3.749
  319.550  112.473    0.204    0.371    3.845
  319.800  115.161    0.197    0.375    4.011
  320.050  117.951    0.195    0.346    4.208
  320.300  119.222    0.193    0.369    4.408
  320.550  116.832    0.193    0.391    4.564
  320.800  114.021    0.192    0.392    4.633
  321.050  118.109    0.188    0.384    4.673
  321.300  120.146    0.182    0.391    4.654
  321.550  116.569    0.176    0.362    4.582
  321.800  115.034    0.173    0.388    4.485
  322.050  114.873    0.178    0.380    4.351
  322.300  115.754    0.183    0.389    4.252
  322.550  117.886    0.188    0.394    4.139
  322.800  120.893    0.190    0.376    4.107
  323.050  124.242    0.183    0.374    4.098
  323.300  128.072    0.178    0.394    4.138
  323.550  131.698    0.174    0.386    4.201
  323.800  134.707    0.175    0.373    4.288
  324.050  132.475    0.182    0.367    4.422
  324.300  118.528    0.194    0.380    4.515
  324.550  118.882    0.176    0.374    4.593
  324.800  119.020    0.143    0.376    4.563
  325.050  118.475    0.097    0.402    4.362
  325.300  121.555    0.143    0.378    4.102
  325.550  124.544    0.177    0.378    3.831
  325.800  126.997    0.206    0.395    3.555
  326.050  128.407    0.250    0.406    3.297
  326.300  128.259    0.216    0.419    3.086
  326.550  122.409    0.266    0.413    2.967
  326.800  120.447    0.276    0.443    2.888
  327.050  118.350    0.208    0.442    2.865
  327.300  116.302    0.226    0.433    2.859
  327.550  108.326    0.255    0.426    2.867
  327.800  101.756    0.282    0.439    2.880
  328.050  102.425    0.245    0.439    2.889
  328.300  106.222    0.216    0.428    2.898
  328.550  105.405    0.228    0.425    2.899
  328.800  100.646    0.240    0.431    2.872
  329.050   98.209    0.246    0.408    2.799
  329.300   95.879    0.250    0.396    2.741
  329.550   95.355    0.251    0.380    2.711
  329.800   98.689    0.248    0.381    2.688
  330.050  100.240    0.244    0.396    2.662
  330.300   94.098    0.242    0.382    2.665
  330.550   90.206    0.244    0.360    2.693
  330.800   88.981    0.243    0.363    2.745
  331.050   86.430    0.237    0.378    2.848
  331.300   87.390    0.231    0.386    2.924
  331.550   90.488    0.234    0.387    3.059
  331.800   93.468    0.217    0.397    3.108
  332.050   95.324    0.188    0.414    3.171
  332.300   94.672    0.118    0.403    3.218
  332.550   89.001    0.159    0.397    3.454
  332.800   86.949    0.196    0.389    3.942
  333.050   87.352    0.221    0.372    4.490
  333.300   87.299    0.195    0.360    5.229
  333.550   86.544    0.137    0.337    6.161
  333.800   83.210    0.123    0.294    6.854
  334.050   76.573    0.142    0.272    7.990
  334.300   79.069    0.119    0.302    9.715
  334.550   79.303    0.089    0.317   12.307
  334.800   77.163    0.064    0.241   14.885
  335.050   76.835    0.042    0.162   17.095
  335.300   77.810    0.012    0.147   14.430
  335.550   79.206    0.008    0.175    9.182
  335.800   79.957    0.043    0.256    6.514
  336.050   81.731    0.096    0.307    4.728
  336.300   82.656    0.133    0.337    3.886
  336.550   84.629    0.176    0.354    3.250
  336.800   87.368    0.253    0.372    2.845
  337.050   90.214    0.252    0.363    2.682
  337.300   93.104    0.249    0.368    2.667
  337.550   96.288    0.246    0.380    2.746
  337.800   97.045    0.254    0.411    2.826
  338.050   89.740    0.271    0.451    2.947
  338.300   92.616    0.289    0.449    3.121
  338.550   93.735    0.295    0.426    3.206
  338.800   89.991    0.280    0.402    3.264
  339.050   86.270    0.268    0.369    3.278
  339.300   86.095    0.258    0.369    3.255
  339.550   88.028    0.244    0.361    3.215
  339.800   90.550    0.185    0.373    3.175
  340.050   92.063    0.190    0.379    3.128
  340.300   92.585    0.235    0.396    2.928
  340.550   96.029    0.232    0.372    2.758
  340.800  102.026    0.229    0.362    2.722
  341.050  103.070    0.222    0.397    2.735
  341.300  101.909    0.216    0.416    2.727
  341.550  102.275    0.210    0.406    2.719
  341.800  102.282    0.210    0.416    2.741
  342.050  100.478    0.220    0.431    2.803
  342.300   94.520    0.248    0.418    2.885
  342.550   90.876    0.252    0.396    2.968
  342.800   92.966    0.239    0.393    3.074
  343.050   97.875    0.223    0.386    3.207
  343.300  103.639    0.213    0.380    3.360
  343.550  107.861    0.204    0.407    3.409
  343.800  111.816    0.191    0.416    3.507
  344.050  114.684    0.184    0.403    3.570
  344.300  115.856    0.177    0.410    3.573
  344.550  113.250    0.183    0.408    3.503
  344.800  114.215    0.195    0.380    3.417
  345.050  118.125    0.208    0.387    3.304
  345.300  121.761    0.234    0.434    3.218
  345.550  124.564    0.255    0.472    3.277
  345.800  125.822    0.235    0.461    3.462
  346.050  121.933    0.207    0.435    3.753
  346.300  120.032    0.185    0.410    4.097
  346.550  121.791    0.176    0.418    4.461
  346.800  121.745    0.171    0.437    4.786
  347.050  117.629    0.166    0.415    5.091
  347.300  115.303    0.162    0.423    5.169
  347.550  114.528    0.160    0.405    5.237
  347.800  105.568    0.159    0.379    5.306
  348.050   98.042    0.185    0.388    5.380
