~VERSION INFORMATION
 VERS.                 2.0:   CWLS LOG ASCII STANDARD -VERSION 2.0
 WRAP.                  NO:   ONE LINE PER DEPTH STEP
~WELL INFORMATION BLOCK
#MNEM.UNIT           DATA                    DESCRIPTION OF MNEMONIC
#---------    -------------------            -------------------------------
# Generated from Intellog Unique Number	CS_71_72/WELL/852
WELL.         BVX ET AL CALLING LAKE         : Well_name    - WELL
LOC .         00/10-09-071-16W4/0            : Location     - LOCATION
UWI .         00/10-09-071-16W4/0            : Uwi          - UNIQUE WELL ID
ENTR.         SP                             : Entered      - ENTERED BY
SRVC.         SCHLUMBERGER                   : Scn          - SERVICE COMPANY
STRT.M        285                            : top_depth    - START DEPTH
STOP.M        477                            : bot_depth    - STOP DEPTH
STEP.M        0.25                           : increment    - STEP LENGTH
 NULL. -999.2500:NULL Value
~CURVE INFORMATION BLOCK
#MNEM UNIT       ERCB CURVE CODE    CURVE DESCRIPTION
#-----------   ------------------   ----------------------------------
DEPT.M        00 001 00 00         : DEPTH        - DEPTH
ILD .OHMM     00 120 00 00         : RESD         - DEEP RESISTIVITY (DIL)
DPHI.V/V      00 890 00 00         : PHID         - DENSITY POROSITY (LIMESTONE)
NPHI.V/V      00 330 00 00         : PHIN         - NEUTRON POROSITY (LIMESTONE)
GR  .API      00 310 00 00         : GR           - GAMMA RAY
~PARAMETER INFORMATION
#MNEM.UNIT           DATA             DESCRIPTION OF MNEMONIC
#---------         -----------     ------------------------------
GL  .M        590.14               : gl           - GROUND LEVEL ELEVATION
EREF.M        593.79               : kb           - ELEVATION OF DEPTH REFERENCE
DATM.M        590.14               : datum        - DATUM ELEVATION
TDD .M        479                  : tdd          - TOTAL DEPTH DRILLER
RUN .         ONE                  : Run          - RUN NUMBER
ENG .         BILL                 : Engineer     - RECORDING ENGINEER
WIT .         JIM                  : Witness      - WITNESSED BY
MUD .         GEL                  : Mud_type     - MUD TYPE
MATR.         LIMESTONE            : Logunit      - NEUTRON MATRIX
TMAX.C        23                   : BHT          - MAXIMUM RECORDED TEMPERATURE
BHTD.M        479                  : BHTDEP       - MAXIMUM RECORDED TEMPERATURE
MATR.         1                    : LOGUNIT      - NEUTRON MATRIX
RMT .C        25                   : MDTP         - TEMPERATURE OF MUD
NEUT.         1                    : NEUTRON      - NEUTRON TYPE
RESI.         0                    : RESIST       - RESISTIVITY TYPE
RMC .OHMM     0.25                 : RMC          - RESISTIVITY OF MUD CAKE
RMF .OHMM     0.25                 : RMF          - RESISTIVITY OF MUD FILTRATE
SUFT.C        15                   : SUFT         - SURFACE TEMPERATURE
~A  DEPTH     RESD     PHID     PHIN       GR
# ...
  415.500    3.806    0.292    0.372   71.641
  415.750    3.804    0.291    0.364   71.923
  416.000    3.838    0.291    0.362   74.718
  416.250    3.880    0.288    0.360   76.228
  416.500    3.966    0.286    0.352   73.934
  416.750    4.078    0.283    0.345   70.597
  417.000    4.201    0.280    0.345   68.058
  417.250    4.295    0.276    0.373   67.849
  417.500    4.424    0.272    0.374   70.031
  417.750    4.506    0.270    0.360   71.657
  418.000    4.624    0.268    0.353   72.673
  418.250    4.727    0.265    0.355   72.717
  418.500    4.797    0.262    0.355   72.692
  418.750    4.858    0.260    0.352   76.403
  419.000    4.883    0.253    0.348   80.054
  419.250    4.862    0.250    0.347   82.362
  419.500    4.742    0.242    0.349   81.911
  419.750    4.538    0.238    0.354   76.732
  420.000    4.409    0.236    0.361   73.645
  420.250    4.292    0.240    0.368   71.105
  420.500    4.107    0.257    0.377   73.532
  420.750    4.014    0.264    0.405   79.698
  421.000    3.944    0.262    0.434   85.806
  421.250    3.831    0.253    0.441   93.258
  421.500    3.808    0.247    0.439   98.447
  421.750    3.763    0.243    0.441  101.980
  422.000    3.754    0.246    0.449  104.402
  422.250    3.745    0.250    0.456  104.259
  422.500    3.716    0.246    0.462  101.841
  422.750    3.589    0.242    0.449   98.446
  423.000    3.520    0.241    0.445  100.318
  423.250    3.453    0.245    0.450  102.559
  423.500    3.393    0.253    0.455  103.458
  423.750    3.372    0.252    0.460  101.287
  424.000    3.332    0.252    0.457   99.543
  424.250    3.312    0.256    0.446  100.374
  424.500    3.285    0.264    0.437  101.515
  424.750    3.271    0.266    0.452  103.446
  425.000    3.270    0.264    0.446  104.656
  425.250    3.274    0.264    0.430  105.856
  425.500    3.316    0.265    0.417  104.974
  425.750    3.416    0.268    0.415  101.578
  426.000    3.565    0.266    0.416   97.748
  426.250    3.813    0.265    0.410   98.583
  426.500    3.862    0.266    0.392  102.114
  426.750    3.971    0.268    0.380  104.848
  427.000    4.145    0.263    0.369   97.280
  427.250    4.417    0.251    0.393   90.696
  427.500    4.916    0.231    0.385   84.786
  427.750    5.279    0.199    0.358   77.884
  428.000    5.615    0.186    0.341   74.987
  428.250    5.816    0.213    0.344   74.961
  428.500    5.912    0.231    0.366   84.561
  428.750    5.966    0.238    0.375   91.342
  429.000    6.008    0.236    0.366   96.592
  429.250    6.039    0.224    0.358  101.840
  429.500    6.221    0.210    0.351   98.811
  429.750    6.505    0.198    0.345   94.366
  430.000    6.751    0.191    0.341   91.154
  430.250    6.813    0.203    0.343   86.831
  430.500    6.885    0.211    0.354   84.911
  430.750    6.882    0.209    0.370   84.154
  431.000    6.826    0.203    0.365   87.686
  431.250    6.798    0.198    0.352   91.338
  431.500    6.668    0.205    0.344   93.091
  431.750    6.442    0.218    0.348   91.043
  432.000    6.200    0.227    0.356   93.528
  432.250    6.058    0.225    0.361   95.468
  432.500    5.919    0.220    0.361   95.564
  432.750    5.883    0.216    0.361   92.476
  433.000    5.935    0.209    0.361   89.999
  433.250    6.034    0.201    0.344   91.994
  433.500    6.122    0.195    0.344   92.888
  433.750    6.178    0.192    0.356   94.828
  434.000    6.303    0.189    0.370   97.072
  434.250    6.369    0.188    0.359   94.651
  434.500    6.331    0.192    0.342   93.650
  434.750    6.317    0.207    0.333   96.382
  435.000    6.160    0.217    0.360  101.872
  435.250    6.008    0.221    0.374  105.406
  435.500    5.904    0.224    0.389  107.527
  435.750    5.824    0.225    0.380  104.802
  436.000    5.745    0.230    0.367  101.653
  436.250    5.688    0.233    0.357   98.806
  436.500    5.621    0.237    0.351   96.638
  436.750    5.545    0.235    0.344   93.177
  437.000    5.469    0.226    0.345   84.813
  437.250    5.466    0.220    0.352   80.252
  437.500    6.413    0.216    0.348   78.939
  437.750    8.570    0.187    0.328   79.282
  438.000    9.611    0.161    0.308   79.196
  438.250    9.807    0.134    0.290   77.023
  438.500    8.590    0.128    0.262   75.097
  438.750    7.056    0.168    0.300   78.076
  439.000    5.741    0.191    0.324   84.001
  439.250    4.627    0.213    0.345   89.985
  439.500    4.429    0.216    0.352   93.943
  439.750    3.828    0.221    0.357   95.943
  440.000    3.260    0.229    0.365   95.550
  440.250    2.807    0.237    0.389   97.241
  440.500    2.487    0.240    0.420  101.137
  440.750    2.274    0.243    0.446  105.037
  441.000    2.570    0.243    0.457  108.079
  441.250    2.871    0.238    0.439  109.526
  441.500    3.729    0.233    0.417  102.751
  441.750    4.221    0.214    0.406   97.766
  442.000    4.907    0.162    0.388   90.567
  442.250    5.867    0.127    0.364   81.958
  442.500    6.742    0.113    0.344   68.995
  442.750    7.184    0.132    0.315   62.718
  443.000    7.020    0.164    0.301   80.780
  443.250    6.396    0.193    0.320   94.733
  443.500    6.133    0.212    0.329  106.113
  443.750    6.774    0.217    0.332  113.875
  444.000    8.009    0.192    0.327  118.141
  444.250    8.998    0.157    0.320  119.278
  444.500    9.883    0.133    0.262  117.233
  444.750   10.374    0.120    0.254   92.252
  445.000   10.526    0.154    0.271   78.985
  445.250   10.481    0.172    0.287   70.683
  445.500    9.533    0.173    0.307   73.782
  445.750    8.193    0.176    0.322   79.461
  446.000    7.271    0.188    0.331   84.831
  446.250    6.539    0.197    0.328   91.611
  446.500    5.993    0.203    0.324   97.840
  446.750    5.617    0.208    0.329  103.027
  447.000    5.356    0.211    0.340  107.232
  447.250    5.078    0.195    0.356  106.406
  447.500    5.241    0.170    0.367  101.847
  447.750    4.949    0.156    0.369   97.102
  448.000    4.763    0.166    0.374   97.015
  448.250    4.672    0.178    0.373   99.256
  448.500    4.565    0.182    0.370  100.705
  448.750    4.478    0.178    0.366  104.175
  449.000    4.425    0.175    0.365  110.587
  449.250    4.390    0.176    0.363  108.539
  449.500    4.329    0.179    0.362  104.832
  449.750    4.311    0.189    0.370  102.479
  450.000    4.285    0.197    0.384  100.617
  450.250    4.274    0.201    0.394  103.043
  450.500    4.288    0.204    0.404  109.027
  450.750    4.302    0.201    0.395  114.582
  451.000    4.324    0.190    0.387  117.133
  451.250    4.346    0.184    0.390  102.758
  451.500    4.377    0.193    0.399  100.834
  451.750    4.585    0.191    0.386  107.615
  452.000    4.601    0.185    0.371  106.487
  452.250    4.633    0.180    0.364   97.326
  452.500    4.631    0.176    0.362   94.725
  452.750    4.627    0.172    0.372   97.950
  453.000    4.643    0.172    0.382  100.071
  453.250    4.624    0.198    0.380   95.629
  453.500    4.621    0.204    0.377   98.976
  453.750    4.779    0.199    0.399  103.857
  454.000    4.812    0.187    0.408  109.405
  454.250    4.613    0.170    0.388  111.594
  454.500    4.399    0.150    0.366  113.409
  454.750    4.179    0.146    0.360  103.390
  455.000    3.815    0.173    0.370   99.195
  455.250    3.425    0.196    0.378  106.832
  455.500    3.156    0.215    0.387  113.370
  455.750    3.148    0.226    0.393  120.634
  456.000    3.757    0.222    0.409  124.785
  456.250    4.735    0.210    0.433  128.989
  456.500    5.535    0.200    0.432  122.406
  456.750    6.532    0.185    0.355  108.215
  457.000    8.079    0.165    0.282   99.977
  457.250   10.107    0.131    0.245   89.160
  457.500   12.478    0.099    0.232   74.053
  457.750   14.125    0.112    0.226   63.726
  458.000   14.799    0.159    0.240   55.057
  458.250   14.082    0.201    0.266   54.233
  458.500   13.708    0.222    0.291   59.237
  458.750   13.624    0.237    0.310   60.927
