~VERSION INFORMATION
 VERS.                 2.0:   CWLS LOG ASCII STANDARD -VERSION 2.0
 WRAP.                  NO:   ONE LINE PER DEPTH STEP
~WELL INFORMATION BLOCK
#MNEM.UNIT           DATA                    DESCRIPTION OF MNEMONIC
#---------    -------------------            -------------------------------
# Generated from Intellog Unique Number	CS_73_76/WELL/851
WELL.         BOW VALLEY INDUSTRIES LTD.     : Well_name    - WELL
LOC .         00/11-30-073-13W4/0            : Location     - LOCATION
UWI .         00/11-30-073-13W4/0            : Uwi          - UNIQUE WELL ID
ENTR.         SP                             : Entered      - ENTERED BY
SRVC.         SCHLUMBERGER                   : Scn          - SERVICE COMPANY
STRT.M        325                            : top_depth    - START DEPTH
STOP.M        557                            : bot_depth    - STOP DEPTH
STEP.M        0.25                           : increment    - STEP LENGTH
 NULL. -999.2500:NULL Value
~CURVE INFORMATION BLOCK
#MNEM UNIT       ERCB CURVE CODE    CURVE DESCRIPTION
#-----------   ------------------   ----------------------------------
DEPT.M        00 001 00 00         : DEPTH        - DEPTH
ILD .OHMM     00 120 00 00         : RESD         - DEEP RESISTIVITY (DIL)
DPHI.V/V      00 890 00 00         : PHID         - DENSITY POROSITY (LIMESTONE)
NPHI.V/V      00 330 00 00         : PHIN         - NEUTRON POROSITY (LIMESTONE)
GR  .API      00 310 00 00         : GR           - GAMMA RAY
~PARAMETER INFORMATION
#MNEM.UNIT           DATA             DESCRIPTION OF MNEMONIC
#---------         -----------     ------------------------------
GL  .M        672.66               : gl           - GROUND LEVEL ELEVATION
EREF.M        676.31               : kb           - ELEVATION OF DEPTH REFERENCE
DATM.M        672.31               : datum        - DATUM ELEVATION
TDD .M        665                  : tdd          - TOTAL DEPTH DRILLER
RUN .         ONE                  : Run          - RUN NUMBER
ENG .         BILL                 : Engineer     - RECORDING ENGINEER
WIT .         JIM                  : Witness      - WITNESSED BY
MUD .         GEL                  : Mud_type     - MUD TYPE
MATR.         LIMESTONE            : Logunit      - NEUTRON MATRIX
TMAX.C        24                   : BHT          - MAXIMUM RECORDED TEMPERATURE
BHTD.M        665                  : BHTDEP       - MAXIMUM RECORDED TEMPERATURE
MATR.         1                    : LOGUNIT      - NEUTRON MATRIX
RMT .C        25                   : MDTP         - TEMPERATURE OF MUD
NEUT.         1                    : NEUTRON      - NEUTRON TYPE
RESI.         0                    : RESIST       - RESISTIVITY TYPE
RMC .OHMM     0.25                 : RMC          - RESISTIVITY OF MUD CAKE
RMF .OHMM     0.25                 : RMF          - RESISTIVITY OF MUD FILTRATE
SUFT.C        15                   : SUFT         - SURFACE TEMPERATURE
~A  DEPTH     RESD     PHID     PHIN       GR
  325.000    2.550    0.225    0.532   98.201
  325.250    2.649    0.229    0.546   97.611
  325.500    2.701    0.218    0.531  101.244
  325.750    2.753    0.219    0.521  103.664
  326.000    2.913    0.221    0.529  106.085
  326.250    2.969    0.219    0.534  104.293
  326.500    3.085    0.214    0.510   99.489
  326.750    3.204    0.209    0.490  100.104
  327.000    3.328    0.202    0.483  104.335
  327.250    3.456    0.198    0.466  102.546
  327.500    3.590    0.204    0.493  100.751
  327.750    3.660    0.221    0.463  100.761
  328.000    3.662    0.231    0.452  101.380
  328.250    3.663    0.236    0.461  102.595
  328.500    3.597    0.230    0.479  104.418
  328.750    3.532    0.222    0.494  102.622
  329.000    3.404    0.215    0.495   99.021
  329.250    3.281    0.215    0.506   97.835
  329.500    3.221    0.209    0.514   97.846
  329.750    3.410    0.215    0.481   98.468
  330.000    3.541    0.217    0.446   97.871
  330.250    3.543    0.215    0.433   96.084
  330.500    3.352    0.206    0.440   96.098
  330.750    3.170    0.197    0.473   96.107
  331.000    2.888    0.200    0.503   90.698
  331.250    3.056    0.356    0.557   76.857
  331.500    3.828    0.462    0.641   67.230
  331.750    5.466    0.446    0.642   59.411
  332.000    6.847    0.401    0.429   54.606
  332.250    7.957    0.344    0.374   50.410
  332.500    8.264    0.324    0.379   49.212
  332.750    7.817    0.317    0.394   48.022
  333.000    7.124    0.324    0.406   51.650
  333.250    6.994    0.324    0.414   53.469
  333.500    7.130    0.319    0.425   58.907
  333.750    7.267    0.308    0.437   63.740
  334.000    7.693    0.300    0.444   66.764
  334.250    7.696    0.292    0.430   66.176
  334.500    7.700    0.290    0.418   72.824
  334.750    7.561    0.284    0.429   74.638
  335.000    7.564    0.286    0.431   76.458
  335.250    7.290    0.297    0.416   77.676
  335.500    6.897    0.278    0.394   84.928
  335.750    6.771    0.251    0.379   88.552
  336.000    6.404    0.231    0.368   97.002
  336.250    6.059    0.222    0.402  100.629
  336.500    5.839    0.214    0.419  100.036
  336.750    5.626    0.211    0.430   95.836
  337.000    5.323    0.210    0.402   92.837
  337.250    5.129    0.210    0.406   95.258
  337.500    4.943    0.209    0.425  105.515
  337.750    5.040    0.221    0.431  110.351
  338.000    5.235    0.220    0.439  107.349
  338.250    5.437    0.225    0.457   95.314
  338.500    5.864    0.260    0.466   84.484
  338.750    6.205    0.283    0.461   78.471
  339.000    6.444    0.297    0.454   74.874
  339.250    6.821    0.298    0.440   74.291
  339.500    6.952    0.295    0.438   74.899
  339.750    7.086    0.284    0.427   82.145
  340.000    7.224    0.269    0.421   89.385
  340.250    7.366    0.250    0.410   97.833
  340.500    7.650    0.241    0.402   87.004
  340.750    7.797    0.230    0.396   71.957
  341.000    8.100    0.253    0.382   60.523
  341.250    7.954    0.266    0.387   55.115
  341.500    7.665    0.277    0.389   53.321
  341.750    7.117    0.264    0.393   59.962
  342.000    6.857    0.223    0.402   66.001
  342.250    6.368    0.225    0.417   69.027
  342.500    6.253    0.246    0.423   70.245
  342.750    6.140    0.268    0.433   70.257
  343.000    6.029    0.277    0.407   77.503
  343.250    5.921    0.210    0.406   81.731
  343.500    5.924    0.199    0.418   83.556
  343.750    5.927    0.209    0.429   76.944
  344.000    6.040    0.228    0.435   72.740
  344.250    6.274    0.244    0.398   76.973
  344.500    6.515    0.254    0.396   77.583
  344.750    6.769    0.246    0.409   77.597
  345.000    6.771    0.247    0.414   76.406
  345.250    6.649    0.249    0.419   71.602
  345.500    6.291    0.236    0.409   70.408
  345.750    6.177    0.224    0.404   76.447
  346.000    6.065    0.214    0.404   79.474
  346.250    5.954    0.219    0.410   77.080
  346.500    5.635    0.228    0.404   76.490
  346.750    5.531    0.223    0.399   79.515
  347.000    5.332    0.223    0.416   83.748
  347.250    5.235    0.218    0.427   88.579
  347.500    5.141    0.212    0.435   92.812
  347.750    5.047    0.209    0.448   87.403
  348.000    5.050    0.207    0.460   83.199
  348.250    5.052    0.219    0.467   78.395
  348.500    5.151    0.240    0.473   72.380
  348.750    5.250    0.257    0.458   63.960
  349.000    5.662    0.273    0.420   55.542
  349.250    6.221    0.273    0.411   50.735
  349.500    6.460    0.270    0.412   47.735
  349.750    6.710    0.282    0.410   50.161
  350.000    7.103    0.289    0.394   53.795
  350.250    7.105    0.286    0.380   54.406
  350.500    7.243    0.276    0.371   54.417
  350.750    7.113    0.270    0.382   55.636
  351.000    7.116    0.266    0.393   52.039
  351.250    7.254    0.278    0.401   49.639
  351.500    7.395    0.275    0.387   51.459
  351.750    7.399    0.244    0.374   59.914
  352.000    7.403    0.239    0.368   61.129
  352.250    7.135    0.239    0.373   63.553
  352.500    7.137    0.251    0.384   61.756
  352.750    7.276    0.260    0.391   59.965
  353.000    7.418    0.267    0.390   60.579
  353.250    7.561    0.267    0.382   51.561
  353.500    7.708    0.277    0.390   47.355
  353.750    7.569    0.292    0.400   42.548
  354.000    7.296    0.309    0.391   40.151
  354.250    7.163    0.295    0.380   47.398
  354.500    7.035    0.287    0.389   54.637
  354.750    6.907    0.272    0.394   62.486
  355.000    6.911    0.263    0.386   64.304
  355.250    7.044    0.256    0.385   64.922
  355.500    7.047    0.251    0.387   64.333
  355.750    7.185    0.255    0.390   61.938
  356.000    7.190    0.265    0.404   58.938
  356.250    7.192    0.271    0.417   54.137
  356.500    7.196    0.279    0.401   52.339
  356.750    7.066    0.290    0.414   49.942
  357.000    7.070    0.294    0.391   47.549
  357.250    6.941    0.285    0.387   47.563
  357.500    6.947    0.289    0.399   50.587
  357.750    6.951    0.294    0.393   51.202
  358.000    6.955    0.297    0.397   47.001
  358.250    6.958    0.295    0.401   44.000
  358.500    6.959    0.291    0.410   45.824
  358.750    6.963    0.289    0.413   45.234
  359.000    6.969    0.295    0.407   43.441
  359.250    6.973    0.298    0.409   42.851
  359.500    6.976    0.288    0.405   45.278
  359.750    6.979    0.285    0.385   49.510
  360.000    7.114    0.276    0.374   52.531
  360.250    7.117    0.274    0.375   55.555
  360.500    6.989    0.277    0.398   58.582
  360.750    6.992    0.262    0.411   54.983
  361.000    6.738    0.241    0.398   62.223
  361.250    6.494    0.223    0.388   73.689
  361.500    6.259    0.218    0.395   77.917
  361.750    6.145    0.224    0.406   77.931
  362.000    5.924    0.220    0.422   76.134
  362.250    5.817    0.218    0.433   81.570
  362.500    5.820    0.220    0.438   82.188
  362.750    5.823    0.222    0.439   76.182
  363.000    5.825    0.226    0.439   73.781
  363.250    5.937    0.238    0.433   70.783
  363.500    6.052    0.254    0.430   68.992
  363.750    6.287    0.258    0.421   70.208
  364.000    6.410    0.260    0.409   69.621
  364.250    6.414    0.259    0.401   66.626
  364.500    6.298    0.243    0.419   66.036
  364.750    6.183    0.228    0.427   73.876
  365.000    6.071    0.228    0.438   82.324
  365.250    5.962    0.247    0.449   76.919
  365.500    6.077    0.255    0.445   73.317
  365.750    6.313    0.251    0.423   70.319
  366.000    6.315    0.255    0.413   77.565
  366.250    6.202    0.234    0.418   82.395
  366.500    5.866    0.192    0.427   88.436
  366.750    5.446    0.187    0.445   95.676
  367.000    5.248    0.209    0.452  102.924
  367.250    5.058    0.232    0.468  105.945
  367.500    4.875    0.229    0.475  109.571
  367.750    4.969    0.235    0.490  109.589
  368.000    5.161    0.238    0.488  107.192
  368.250    5.462    0.219    0.476  105.395
