~VERSION INFORMATION
 VERS.                 2.0:   CWLS LOG ASCII STANDARD -VERSION 2.0
 WRAP.                  NO:   ONE LINE PER DEPTH STEP
~WELL INFORMATION BLOCK
#MNEM.UNIT           DATA                    DESCRIPTION OF MNEMONIC
#---------    -------------------            -------------------------------
# Generated from Intellog Unique Number	CS_67_68/WELL/844
WELL.         DOME PETROLEUM LIMITED         : Well_name    - WELL
LOC .         00/11-29-068-02W4/0            : Location     - LOCATION
UWI .         00/11-29-068-02W4/0            : Uwi          - UNIQUE WELL ID
ENTR.         SP                             : Entered      - ENTERED BY
SRVC.         SCHLUMBERGER                   : Scn          - SERVICE COMPANY
STRT.M        390                            : top_depth    - START DEPTH
STOP.M        630                            : bot_depth    - STOP DEPTH
STEP.M        0.25                           : increment    - STEP LENGTH
 NULL. -999.2500:NULL Value
~CURVE INFORMATION BLOCK
#MNEM UNIT       ERCB CURVE CODE    CURVE DESCRIPTION
#-----------   ------------------   ----------------------------------
DEPT.M        00 001 00 00         : DEPTH        - DEPTH
ILD .OHMM     00 120 00 00         : RESD         - DEEP RESISTIVITY (DIL)
DPHI.V/V      00 890 00 00         : PHID         - DENSITY POROSITY (LIMESTONE)
NPHI.V/V      00 330 00 00         : PHIN         - NEUTRON POROSITY (LIMESTONE)
GR  .API      00 310 00 00         : GR           - GAMMA RAY
~PARAMETER INFORMATION
#MNEM.UNIT           DATA             DESCRIPTION OF MNEMONIC
#---------         -----------     ------------------------------
GL  .M        724.6                : gl           - GROUND LEVEL ELEVATION
EREF.M        729.1                : kb           - ELEVATION OF DEPTH REFERENCE
DATM.M        724.6                : datum        - DATUM ELEVATION
TDD .M        637                  : tdd          - TOTAL DEPTH DRILLER
RUN .         ONE                  : Run          - RUN NUMBER
ENG .         BILL                 : Engineer     - RECORDING ENGINEER
WIT .         JIM                  : Witness      - WITNESSED BY
MUD .         GEL                  : Mud_type     - MUD TYPE
MATR.         LIMESTONE            : Logunit      - NEUTRON MATRIX
TMAX.C        28.3                 : BHT          - MAXIMUM RECORDED TEMPERATURE
BHTD.M        6372                 : BHTDEP       - MAXIMUM RECORDED TEMPERATURE
MATR.         1                    : LOGUNIT      - NEUTRON MATRIX
RMT .C        25                   : MDTP         - TEMPERATURE OF MUD
NEUT.         1                    : NEUTRON      - NEUTRON TYPE
RESI.         0                    : RESIST       - RESISTIVITY TYPE
RMC .OHMM     0.25                 : RMC          - RESISTIVITY OF MUD CAKE
RMF .OHMM     0.25                 : RMF          - RESISTIVITY OF MUD FILTRATE
SUFT.C        15                   : SUFT         - SURFACE TEMPERATURE
~A  DEPTH     RESD     PHID     PHIN       GR
  390.000    2.781    0.210    0.517   88.829
  390.250    2.935    0.198    0.513   87.121
  390.500    3.069    0.203    0.509   90.909
  390.750    3.179    0.212    0.522   89.263
  391.000    3.226    0.107    0.530   80.962
  391.250    3.268    0.106    0.478   82.857
  391.500    3.268    0.192    0.444   95.069
  391.750    3.292    0.213    0.485  100.260
  392.000    3.334    0.222    0.481   95.928
  392.250    3.321    0.223    0.470   91.352
  392.500    3.223    0.182    0.479   89.094
  392.750    3.082    0.161    0.490   87.693
  393.000    2.974    0.150    0.481   88.183
  393.250    2.859    0.178    0.473   90.078
  393.500    2.724    0.205    0.476   93.926
  393.750    2.619    0.217    0.494   96.615
  394.000    2.697    0.226    0.509   98.570
  394.250    2.784    0.231    0.523   99.305
  394.500    2.809    0.230    0.510   97.964
  394.750    2.814    0.231    0.489   96.623
  395.000    2.824    0.227    0.479   96.686
  395.250    2.834    0.228    0.479   97.909
  395.500    2.887    0.230    0.502   95.714
  395.750    2.968    0.227    0.518   92.541
  396.000    3.057    0.229    0.510   91.384
  396.250    3.138    0.225    0.487   91.386
  396.500    3.173    0.213    0.474   95.051
  396.750    3.172    0.231    0.461  102.074
  397.000    3.130    0.247    0.465  113.187
  397.250    3.038    0.255    0.491  100.674
  397.500    2.926    0.235    0.488   94.204
  397.750    2.877    0.227    0.484   89.750
  398.000    2.834    0.224    0.494   90.302
  398.250    2.849    0.233    0.500   89.327
  398.500    2.968    0.241    0.508   87.925
  398.750    3.156    0.247    0.515   86.828
  399.000    3.888    0.264    0.397   85.426
  399.250    5.663    0.288    0.311   74.806
  399.500    8.644    0.314    0.259   64.551
  399.750   11.197    0.338    0.225   47.825
  400.000   13.564    0.359    0.196   51.613
  400.250   13.817    0.278    0.290   58.697
  400.500   12.918    0.237    0.324   66.086
  400.750   12.305    0.229    0.349   69.629
  401.000   11.897    0.241    0.361   55.773
  401.250   11.588    0.269    0.343   50.464
  401.500   11.479    0.258    0.327   56.632
  401.750   11.392    0.239    0.327   56.390
  402.000   11.327    0.256    0.338   47.601
  402.250   11.178    0.275    0.335   45.405
  402.500   11.072    0.293    0.330   51.329
  402.750   11.009    0.300    0.340   56.826
  403.000   11.027    0.288    0.357   62.200
  403.250   11.191    0.265    0.379   61.958
  403.500   11.399    0.251    0.397   50.239
  403.750   11.634    0.263    0.414   44.319
  404.000   11.872    0.285    0.396   40.658
  404.250   12.071    0.297    0.388   42.614
  404.500   12.227    0.280    0.382   41.883
  404.750   12.455    0.281    0.404   38.589
  405.000   12.664    0.305    0.424   33.585
  405.250   12.709    0.313    0.420   29.558
  405.500   12.264    0.322    0.405   31.941
  405.750   11.255    0.327    0.393   35.056
  406.000   10.681    0.310    0.371   39.882
  406.250   10.327    0.291    0.356   50.934
  406.500   10.229    0.275    0.340   54.172
  406.750   10.362    0.268    0.374   56.127
  407.000   10.302    0.268    0.394   50.879
  407.250   10.224    0.279    0.404   42.517
  407.500   10.090    0.255    0.364   51.189
  407.750   10.088    0.238    0.349   62.730
  408.000   10.086    0.221    0.346   66.334
  408.250   10.104    0.259    0.416   59.559
  408.500   10.158    0.259    0.386   55.349
  408.750   10.138    0.241    0.375   58.037
  409.000   10.042    0.239    0.389   62.313
  409.250    9.854    0.237    0.394   64.940
  409.500    9.927    0.236    0.382   65.003
  409.750   10.206    0.257    0.381   54.627
  410.000   10.652    0.283    0.394   46.998
  410.250   11.199    0.294    0.400   41.749
  410.500   11.797    0.310    0.421   38.272
  410.750   12.311    0.320    0.405   34.733
  411.000   12.286    0.323    0.381   31.378
  411.250   11.681    0.316    0.386   31.318
  411.500   10.800    0.311    0.373   40.600
  411.750   10.135    0.289    0.356   49.760
  412.000    9.636    0.283    0.358   55.440
  412.250    8.976    0.276    0.374   61.974
  412.500    8.424    0.256    0.378   70.524
  412.750    7.920    0.234    0.390   78.462
  413.000    7.405    0.206    0.408   85.547
  413.250    7.159    0.231    0.430   81.092
  413.500    7.078    0.223    0.422   83.048
  413.750    7.064    0.212    0.413   85.065
  414.000    7.063    0.203    0.413   86.288
  414.250    7.114    0.191    0.413   87.755
  414.500    7.193    0.184    0.409   87.879
  414.750    7.179    0.194    0.401   82.326
  415.000    6.838    0.169    0.400   81.900
  415.250    6.685    0.164    0.408   85.688
  415.500    6.696    0.176    0.412   90.879
  415.750    6.746    0.180    0.408   86.913
  416.000    6.846    0.180    0.415   81.787
  416.250    6.845    0.182    0.430   78.920
  416.500    6.767    0.162    0.418   79.105
  416.750    6.641    0.175    0.415   84.602
  417.000    6.505    0.190    0.433   88.267
  417.250    6.456    0.199    0.428   91.322
  417.500    6.419    0.187    0.415   92.545
  417.750    6.429    0.200    0.425   93.402
  418.000    6.501    0.206    0.441   92.000
  418.250    6.634    0.194    0.452   87.972
  418.500    6.670    0.196    0.444   84.373
  418.750    6.202    0.230    0.443   82.482
  419.000    5.504    0.252    0.461   84.377
  419.250    4.812    0.125    0.480   92.926
  419.500    4.532    0.108    0.468   99.888
  419.750    4.198    0.172    0.452  104.896
  420.000    3.940    0.201    0.470  108.684
  420.250    3.838    0.218    0.492  110.334
  420.500    4.267    0.228    0.505  108.810
  420.750    5.121    0.227    0.520  100.815
  421.000    6.192    0.229    0.537   85.676
  421.250    7.200    0.262    0.469   73.835
  421.500    8.418    0.291    0.458   63.641
  421.750    9.589    0.318    0.457   62.483
  422.000   10.642    0.338    0.450   56.930
  422.250   10.983    0.353    0.436   53.635
  422.500   10.442    0.359    0.423   59.438
  422.750   10.002    0.338    0.410   64.141
  423.000    9.743    0.327    0.395   70.370
  423.250    9.723    0.313    0.418   75.256
  423.500    9.997    0.300    0.440   76.357
  423.750   10.649    0.290    0.447   77.031
  424.000   11.259    0.282    0.448   76.605
  424.250   11.257    0.272    0.451   71.540
  424.500   11.130    0.261    0.456   69.833
  424.750   10.882    0.260    0.463   75.208
  425.000   10.620    0.273    0.463   78.568
  425.250   10.267    0.261    0.455   79.852
  425.500   10.095    0.261    0.448   78.572
  425.750    9.925    0.269    0.452   73.812
  426.000    9.741    0.265    0.463   73.143
  426.250    9.542    0.245    0.455   77.724
  426.500    9.381    0.222    0.451   79.802
  426.750    9.276    0.229    0.449   82.246
  427.000    9.257    0.256    0.457   84.018
  427.250    9.429    0.266    0.447   83.776
  427.500    9.641    0.265    0.441   81.275
  427.750    9.949    0.269    0.452   73.829
  428.000   10.363    0.281    0.459   64.124
  428.250   10.775    0.297    0.432   53.931
  428.500   11.351    0.312    0.406   51.980
  428.750   11.889    0.325    0.385   53.752
  429.000   12.089    0.310    0.385   54.670
  429.250   12.223    0.298    0.383   49.605
  429.500   12.129    0.311    0.373   46.066
  429.750   12.060    0.324    0.363   49.121
  430.000   11.880    0.332    0.366   51.321
  430.250   11.680    0.333    0.388   51.568
  430.500   11.505    0.331    0.400   50.104
  430.750   11.312    0.330    0.398   51.755
  431.000   10.856    0.327    0.403   58.289
  431.250   10.535    0.322    0.398   62.870
  431.500   10.435    0.312    0.385   65.559
  431.750   10.395    0.305    0.384   66.415
  432.000   10.315    0.304    0.392   67.028
  432.250   10.199    0.307    0.395   68.740
  432.500   10.084    0.296    0.394   68.925
  432.750    9.915    0.294    0.394   68.561
  433.000    9.766    0.300    0.397   68.380
  433.250    9.656    0.300    0.407   68.809
