~VERSION INFORMATION
 VERS.                 2.0:   CWLS LOG ASCII STANDARD -VERSION 2.0
 WRAP.                  NO:   ONE LINE PER DEPTH STEP
~WELL INFORMATION BLOCK
#MNEM.UNIT           DATA                    DESCRIPTION OF MNEMONIC
#---------    -------------------            -------------------------------
# Generated from Intellog Unique Number	CX_WELLS/WELL/2955
WELL.         ATCOR HANGINGSTONE             : Well_name    - WELL
LOC .         00/12-07-082-10W4/0            : Location     - LOCATION
UWI .         00/12-07-082-10W400            : Uwi          - UNIQUE WELL ID
ENTR.         T                              : Entered      - ENTERED BY
SRVC.         SCHLUMBERGER                   : Scn          - SERVICE COMPANY
STRT.M        260                            : top_depth    - START DEPTH
STOP.M        480                            : bot_depth    - STOP DEPTH
STEP.M        0.25                           : increment    - STEP LENGTH
 NULL. -999.2500:NULL Value
~CURVE INFORMATION BLOCK
#MNEM UNIT       ERCB CURVE CODE    CURVE DESCRIPTION
#-----------   ------------------   ----------------------------------
DEPT.M        00 001 00 00         : DEPTH        - DEPTH
GR  .API      00 310 00 00         : GR           - GAMMA RAY
NPHI.V/V      00 330 00 00         : PHIN         - NEUTRON POROSITY (SANDSTONE)
DPHI.V/V      00 890 00 00         : PHID         - DENSITY POROSITY (SANDSTONE)
ILD .OHMM     00 120 00 00         : RESD         - DEEP RESISTIVITY (OTHER)
~PARAMETER INFORMATION
#MNEM.UNIT           DATA             DESCRIPTION OF MNEMONIC
#---------         -----------     ------------------------------
GL  .M        702                  : gl           - GROUND LEVEL ELEVATION
EREF.M        706                  : kb           - ELEVATION OF DEPTH REFERENCE
DATM.M        706                  : datum        - DATUM ELEVATION
TDD .M        490                  : tdd          - TOTAL DEPTH DRILLER
RUN .         ONE                  : Run          - RUN NUMBER
ENG .         BILL                 : Engineer     - RECORDING ENGINEER
WIT .         JIM                  : Witness      - WITNESSED BY
MUD .         GEL                  : Mud_type     - MUD TYPE
MATR.         SANDSTONE            : Logunit      - NEUTRON MATRIX
TMAX.C        24                   : BHT          - MAXIMUM RECORDED TEMPERATURE
BHTD.M        490                  : BHTDEP       - MAXIMUM RECORDED TEMPERATURE
MATR.         1                    : LOGUNIT      - NEUTRON MATRIX
RMT .C        24                   : MDTP         - TEMPERATURE OF MUD
NEUT.         1                    : NEUTRON      - NEUTRON TYPE
RESI.         7                    : RESIST       - RESISTIVITY TYPE
RMC .OHMM     8.6                  : RMC          - RESISTIVITY OF MUD CAKE
RMF .OHMM     8.6                  : RMF          - RESISTIVITY OF MUD FILTRATE
SUFT.C        4                    : SUFT         - SURFACE TEMPERATURE
~A  DEPTH       GR     PHIN     PHID     RESD
  260.000   86.330    0.468    0.233    5.502
  260.250   89.834    0.483    0.229    6.369
  260.500   86.988    0.488    0.218    7.377
  260.750   82.427    0.457    0.207    6.746
  261.000   61.757    0.407    0.203    7.394
  261.250   58.346    0.389    0.314    9.203
  261.500   58.398    0.380    0.345   12.094
  261.750   60.166    0.382    0.354   15.063
  262.000   63.084    0.388    0.353   14.027
  262.250   65.992    0.382    0.346   13.545
  262.500   68.334    0.379    0.324   13.314
  262.750   70.688    0.382    0.322   12.402
  263.000   71.880    0.385    0.317   11.976
  263.250   72.497    0.388    0.308   12.210
  263.500   72.538    0.390    0.308   13.146
  263.750   69.703    0.393    0.312   12.697
  264.000   66.303    0.395    0.321   12.477
  264.250   68.646    0.395    0.319   12.048
  264.500   71.553    0.398    0.307   11.847
  264.750   72.181    0.427    0.292   11.866
  265.000   72.222    0.451    0.280   12.770
  265.250   71.103    0.483    0.393   14.265
  265.500   67.117    0.494    0.418   15.639
  265.750   66.594    0.430    0.386   16.837
  266.000   70.087    0.412    0.350   17.475
  266.250   75.317    0.413    0.329   17.503
  266.500   78.800    0.420    0.331   17.525
  266.750   82.869    0.429    0.333   16.320
  267.000   88.663    0.436    0.335   13.382
  267.250   96.195    0.442    0.311   10.395
  267.500  101.414    0.435    0.304    9.005
  267.750   87.637    0.412    0.288    9.698
  268.000   72.156    0.391    0.254   10.063
  268.250   67.009    0.386    0.279   11.237
  268.500   61.297    0.372    0.310   11.877
  268.750   59.612    0.365    0.312   13.024
  269.000   59.089    0.364    0.313   14.283
  269.250   59.131    0.369    0.319   14.563
  269.500   59.758    0.379    0.334   14.844
  269.750   59.779    0.395    0.341   15.134
  270.000   59.820    0.401    0.343   15.431
  270.250   59.872    0.389    0.340   15.455
  270.500   61.054    0.382    0.336   15.197
  270.750   65.719    0.390    0.316   14.152
  271.000   65.760    0.398    0.311   13.174
  271.250   63.500    0.377    0.282   13.195
  271.500   61.240    0.364    0.251   13.695
  271.750   60.707    0.372    0.282   14.754
  272.000   61.909    0.380    0.320   14.246
  272.250   62.505    0.374    0.320   13.752
  272.500   63.708    0.357    0.314   12.354
  272.750   66.616    0.360    0.311   12.144
  273.000   67.233    0.372    0.312   13.074
  273.250   67.849    0.381    0.312   13.334
  273.500   71.939    0.384    0.306   13.111
  273.750   74.271    0.382    0.297   12.433
  274.000   78.926    0.380    0.290   12.002
  274.250   79.543    0.387    0.279   11.592
  274.500   79.009    0.397    0.278   11.607
  274.750   77.900    0.410    0.275   11.838
  275.000   76.215    0.401    0.275   11.850
  275.250   77.407    0.396    0.274   11.865
  275.500   78.589    0.395    0.274   11.884
  275.750   80.377    0.397    0.276   12.342
  276.000   81.570    0.403    0.284   13.044
  276.250   79.310    0.409    0.298   13.791
  276.500   77.050    0.408    0.308   14.576
  276.750   74.790    0.404    0.321   15.703
  277.000   72.520    0.401    0.331   16.298
  277.250   69.685    0.393    0.339   17.552
  277.500   67.425    0.395    0.344   17.890
  277.750   67.467    0.401    0.345   18.580
  278.000   73.837    0.409    0.345   18.950
  278.250   78.502    0.402    0.346   19.315
  278.500   75.646    0.386    0.345   19.694
  278.750   71.085    0.383    0.343   19.719
  279.000   71.136    0.383    0.337   19.395
  279.250   74.055    0.388    0.327   19.059
  279.500   76.973    0.393    0.320   18.404
  279.750   79.891    0.389    0.310   17.143
  280.000   82.234    0.384    0.303   16.548
  280.250   86.313    0.387    0.297   15.143
  280.500   89.221    0.396    0.286   14.617
  280.750   95.026    0.407    0.276   13.857
  281.000   96.228    0.410    0.273   12.680
  281.250   92.818    0.406    0.276   12.016
  281.500   89.972    0.398    0.279   10.795
  281.750   85.411    0.387    0.285    9.694
  282.000   82.566    0.383    0.280    9.190
  282.250   87.220    0.375    0.243    8.714
  282.500   91.289    0.380    0.225    8.415
  282.750   91.331    0.392    0.209    7.979
  283.000   90.232    0.404    0.196    7.566
  283.250   93.150    0.416    0.191    7.048
  283.500   97.219    0.423    0.198    6.565
  283.750   98.976    0.428    0.219    6.224
  284.000   99.613    0.441    0.214    5.900
  284.250   98.504    0.452    0.198    5.494
  284.500   99.111    0.464    0.186    5.024
  284.750  104.906    0.472    0.173    4.434
  285.000  108.409    0.477    0.170    4.203
  285.250  109.602    0.481    0.197    3.776
  285.500  111.944    0.490    0.205    3.580
  285.750  113.712    0.497    0.199    3.394
  286.000  113.753    0.502    0.199    3.218
  286.250  113.230    0.510    0.206    3.109
  286.500  112.696    0.527    0.217    3.115
  286.750  111.577    0.538    0.227    3.116
  287.000  109.902    0.482    0.238    3.121
  287.250  106.492    0.422    0.251    3.298
  287.500  103.647    0.398    0.266    5.794
  287.750   96.198    0.397    0.274    8.492
  288.000   92.213    0.394    0.288   11.573
  288.250   88.227    0.395    0.300   12.691
  288.500   85.967    0.396    0.307   13.181
  288.750   85.433    0.398    0.305   13.435
  289.000   87.222    0.402    0.301   13.456
  289.250   84.962    0.405    0.294   13.478
  289.500   83.842    0.399    0.293   13.733
  289.750   81.582    0.389    0.300   14.258
  290.000   80.473    0.379    0.311   15.075
  290.250   83.977    0.379    0.321   13.790
  290.500   87.460    0.385    0.323   12.158
  290.750   93.830    0.408    0.273    9.108
  291.000  101.937    0.426    0.254    7.204
  291.250  105.441    0.419    0.227    8.042
  291.500  106.633    0.404    0.221    8.658
  291.750  106.099    0.386    0.250    9.666
  292.000   99.226    0.376    0.256   10.991
  292.250   87.761    0.381    0.268   12.727
  292.500   82.625    0.388    0.276   14.208
  292.750   82.677    0.392    0.279   15.022
  293.000   80.992    0.383    0.287   15.316
  293.250   78.722    0.383    0.297   15.331
  293.500   76.462    0.388    0.319   15.355
  293.750   78.240    0.388    0.329   15.656
  294.000   80.018    0.388    0.324   15.117
  294.250   81.189    0.389    0.319   14.593
  294.500   82.382    0.391    0.312   13.589
  294.750   84.170    0.395    0.295   13.122
  295.000   85.352    0.385    0.283   13.143
  295.250   86.534    0.377    0.276   13.400
  295.500   85.435    0.386    0.272   13.422
  295.750   84.315    0.400    0.269   13.439
  296.000   80.915    0.408    0.277   13.460
  296.250   79.220    0.408    0.298   13.473
  296.500   75.235    0.394    0.298   13.243
  296.750   71.824    0.383    0.294   13.022
  297.000   75.328    0.381    0.286   12.348
  297.250   78.246    0.381    0.278   11.292
  297.500   82.315    0.386    0.270   10.330
  297.750   86.384    0.400    0.261    9.619
  298.000   89.888    0.412    0.251    8.800
  298.250   90.504    0.411    0.246    8.339
  298.500   88.820    0.421    0.235    7.766
  298.750   86.550    0.433    0.235    8.360
  299.000   79.687    0.442    0.258    9.858
  299.250   71.099    0.444    0.267   12.049
  299.500   66.538    0.439    0.294   16.421
  299.750   68.305    0.437    0.308   17.678
  300.000   71.820    0.435    0.326   17.701
  300.250   73.566    0.441    0.334   16.790
  300.500   76.495    0.435    0.333   16.208
  300.750   79.999    0.429    0.328   15.093
  301.000   82.331    0.424    0.321   14.312
  301.250   86.410    0.418    0.310   12.853
  301.500   91.054    0.419    0.296   11.335
  301.750   94.537    0.422    0.278    9.997
  302.000   94.600    0.429    0.265    9.309
  302.250   91.179    0.448    0.252    9.153
  302.500   87.758    0.448    0.259    9.168
  302.750   80.896    0.451    0.258    9.696
  303.000   75.184    0.459    0.254   10.248
  303.250   74.650    0.460    0.255   11.235
