~VERSION INFORMATION
 VERS.                 2.0:   CWLS LOG ASCII STANDARD -VERSION 2.0
 WRAP.                  NO:   ONE LINE PER DEPTH STEP
~WELL INFORMATION BLOCK
#MNEM.UNIT           DATA                    DESCRIPTION OF MNEMONIC
#---------    -------------------            -------------------------------
# Generated from Intellog Unique Number	CW_73_75/WELL/928
WELL.         GULF POC DROWNED 10-22         : Well_name    - WELL
LOC .         00/10-22-075-21W4/0            : Location     - LOCATION
UWI .         00/10-22-075-21W4/0            : Uwi          - UNIQUE WELL ID
ENTR.         JAYE                           : Entered      - ENTERED BY
SRVC.         SCHLUMBERGER                   : Scn          - SERVICE COMPANY
DATE.         19 FEB 77                      : Date         - LOG DATE
STRT.M        368.808                        : top_depth    - START DEPTH
STOP.M        562.058                        : bot_depth    - STOP DEPTH
STEP.M        0.25                           : increment    - STEP LENGTH
 NULL. -999.2500:NULL Value
~CURVE INFORMATION BLOCK
#MNEM UNIT       ERCB CURVE CODE    CURVE DESCRIPTION
#-----------   ------------------   ----------------------------------
DEPT.M        00 001 00 00         : DEPTH        - DEPTH
ILD .OHMM     00 120 00 00         : RESD         - DEEP RESISTIVITY (DIL)
NPHI.V/V      00 330 00 00         : PHIN         - NEUTRON POROSITY (SANDSTONE)
DPHI.V/V      00 890 00 00         : PHID         - DENSITY POROSITY (SANDSTONE)
GR  .API      00 310 00 00         : GR           - GAMMA RAY
CALI.MM       00 280 01 00         : CAL          - CALIPER
~PARAMETER INFORMATION
#MNEM.UNIT           DATA             DESCRIPTION OF MNEMONIC
#---------         -----------     ------------------------------
GL  .M        677.875              : gl           - GROUND LEVEL ELEVATION
EREF.M        681.228              : kb           - ELEVATION OF DEPTH REFERENCE
DATM.M        677.875              : datum        - DATUM ELEVATION
TDD .M        571.5                : tdd          - TOTAL DEPTH DRILLER
RUN .         ONE                  : Run          - RUN NUMBER
ENG .         CROCKFORD            : Engineer     - RECORDING ENGINEER
WIT .         FULTON               : Witness      - WITNESSED BY
BASE.         EDM                  : Branch       - HOME BASE OF LOGGING UNIT
MUD .         GEL BENDEX           : Mud_type     - MUD TYPE
MATR.         SANDSTONE            : Logunit      - NEUTRON MATRIX
TMAX.C        15.5556              : BHT          - MAXIMUM RECORDED TEMPERATURE
BHTD.M        570.586              : BHTDEP       - MAXIMUM RECORDED TEMPERATURE
RMT .C        13.3333              : MDTP         - TEMPERATURE OF MUD
MUDD.KG/M     1140                 : MWT          - MUD DENSITY
NEUT.         1                    : NEUTRON      - NEUTRON TYPE
RESI.         0                    : RESIST       - RESISTIVITY TYPE
RM  .OHMM     2.88                 : RM           - RESISTIVITY OF MUD
RMC .OHMM     0                    : RMC          - RESISTIVITY OF MUD CAKE
RMF .OHMM     2.84                 : RMF          - RESISTIVITY OF MUD FILTRATE
SUFT.C        -17.7778             : SUFT         - SURFACE TEMPERATURE
~A  DEPTH     RESD     PHIN     PHID       GR      CAL
# ...
  405.308    5.473    0.457    0.312   81.261  161.569
  405.558    5.394    0.449    0.304   85.672  161.601
  405.808    5.324    0.445    0.288   92.744  161.858
  406.058    5.296    0.447    0.273  100.365  162.107
  406.308    5.307    0.451    0.265  113.982  162.567
  406.558    5.348    0.447    0.236  121.421  162.716
  406.808    5.409    0.427    0.209  122.499  162.863
  407.058    5.440    0.434    0.225  120.544  163.004
  407.308    5.451    0.483    0.262  110.068  163.474
  407.558    5.473    0.470    0.288   78.521  163.611
  407.808    5.484    0.435    0.319   69.280  163.872
  408.058    5.485    0.420    0.294   67.451  164.120
  408.308    5.486    0.414    0.293   67.908  164.268
  408.558    5.498    0.440    0.305   71.518  164.101
  408.808    5.499    0.458    0.311   73.584  163.827
  409.058    5.531    0.465    0.311   74.721  163.763
  409.308    5.615    0.476    0.321   75.732  163.910
  409.558    5.711    0.475    0.314   75.882  164.064
  409.808    5.831    0.461    0.299   75.165  164.202
  410.058    5.919    0.459    0.284   74.511  164.462
  410.308    5.998    0.453    0.279   74.967  164.707
  410.558    6.113    0.446    0.278   77.097  165.176
  410.808    5.990    0.451    0.257   81.197  165.633
  411.058    5.612    0.414    0.228   91.846  165.891
  411.308    5.220    0.402    0.245  102.189  166.656
  411.558    4.937    0.426    0.214  107.774  169.105
  411.808    4.956    0.463    0.273   97.731  173.542
  412.058    5.301    0.484    0.296   93.060  173.900
  412.308    5.681    0.462    0.245   98.338  172.159
  412.558    5.942    0.423    0.221   98.607  168.227
  412.808    6.146    0.387    0.181   91.097  166.491
  413.058    6.310    0.430    0.238   87.846  164.754
  413.308    6.454    0.472    0.272   86.079  163.961
  413.558    6.516    0.452    0.295   82.647  163.585
  413.808    6.566    0.440    0.296   80.693  163.313
  414.058    6.604    0.415    0.305   79.482  163.357
  414.308    6.544    0.416    0.304   77.654  163.402
  414.558    6.353    0.438    0.275   81.695  162.813
  414.808    5.975    0.467    0.278   82.835  162.024
  415.058    5.526    0.485    0.287   82.982  161.747
  415.308    5.246    0.480    0.292   79.856  161.487
  415.558    5.131    0.464    0.311   74.877  161.628
  415.808    5.103    0.479    0.295   71.873  161.258
  416.058    5.076    0.482    0.304   71.529  161.198
  416.308    5.067    0.469    0.320   73.162  161.240
  416.558    5.050    0.461    0.315   75.534  161.069
  416.808    5.098    0.452    0.294   80.687  161.001
  417.058    5.156    0.465    0.265   85.347  161.041
  417.308    5.215    0.453    0.275   88.460  161.085
  417.558    5.216    0.446    0.281   91.819  161.336
  417.808    5.217    0.456    0.272   90.052  161.796
  418.058    5.209    0.458    0.254   85.506  161.839
  418.308    5.161    0.465    0.276   82.384  161.987
  418.558    5.143    0.465    0.288   82.036  162.349
  418.808    5.115    0.450    0.269   92.439  163.123
  419.058    5.117    0.448    0.269   99.261  164.316
  419.308    5.117    0.465    0.250  104.351  165.402
  419.558    5.118    0.486    0.210  108.021  166.592
  419.808    5.091    0.496    0.245  107.617  168.729
  420.058    5.054    0.479    0.239  107.330  169.921
  420.308    5.055    0.493    0.245  105.379  168.815
  420.558    5.000    0.479    0.251   98.545  165.715
  420.808    5.029    0.463    0.254  101.477  161.363
  421.058    5.125    0.475    0.273  102.983  160.367
  421.308    5.241    0.493    0.290  101.586  159.988
  421.558    5.361    0.501    0.228  106.310  160.655
  421.808    5.392    0.464    0.184  112.942  162.895
  422.058    5.373    0.459    0.191  114.761  166.703
  422.308    5.305    0.473    0.194  114.723  169.786
  422.558    5.237    0.478    0.202  113.760  172.133
  422.808    5.180    0.467    0.196  115.329  173.317
  423.058    5.161    0.470    0.188  118.074  174.196
  423.308    5.124    0.488    0.200  120.693  174.349
  423.558    5.202    0.507    0.211  121.707  173.656
  423.808    5.381    0.533    0.225  119.074  173.071
  424.058    5.524    0.518    0.207  112.862  173.739
  424.308    5.671    0.471    0.191  117.889  175.245
  424.558    5.599    0.453    0.170  120.138  176.441
  424.808    5.256    0.444    0.141  121.030  176.169
  425.058    4.745    0.446    0.158  121.918  173.806
  425.308    4.471    0.461    0.189  125.279  172.800
  425.558    4.058    0.475    0.194  125.799  174.415
  425.808    3.582    0.494    0.223  121.316  176.758
  426.058    3.222    0.499    0.273  118.313  180.149
  426.308    3.002    0.511    0.253  114.259  175.271
  426.558    2.887    0.558    0.252  107.797  171.759
  426.808    2.947    0.559    0.256  101.953  173.474
  427.058    3.194    0.537    0.257  101.053  179.583
  427.308    3.758    0.518    0.272  101.820  180.044
  427.558    4.412    0.530    0.289  103.449  176.846
  427.808    5.028    0.539    0.280  106.316  167.575
  428.058    5.993    0.525    0.273  107.391  161.445
  428.308    6.998    0.516    0.264  102.970  160.240
  428.558    8.278    0.501    0.251   94.715  159.964
  428.808    9.488    0.503    0.296   75.958  160.022
  429.058   11.099    0.495    0.340   66.531  160.154
  429.308   12.863    0.479    0.350   65.939  160.307
  429.558   13.231    0.465    0.357   69.361  160.341
  429.808   13.160    0.449    0.337   69.201  160.490
  430.058   13.113    0.457    0.339   66.882  160.746
  430.308   13.067    0.471    0.331   65.545  160.790
  430.558   12.852    0.491    0.332   63.843  160.623
  430.808   12.431    0.486    0.324   62.505  160.768
  431.058   12.022    0.474    0.324   60.989  161.022
  431.308   11.392    0.474    0.318   59.837  161.058
  431.558   10.774    0.476    0.335   60.233  161.320
  431.808   10.095    0.468    0.333   62.116  161.365
  432.058    9.267    0.469    0.344   62.940  161.295
  432.308    8.459    0.480    0.355   64.385  161.444
  432.558    7.679    0.494    0.332   66.823  161.596
  432.808    6.919    0.486    0.307   68.824  161.643
  433.058    6.269    0.482    0.313   68.479  161.578
  433.308    5.712    0.479    0.315   67.146  161.625
  433.558    5.118    0.466    0.322   66.058  161.873
  433.808    4.689    0.466    0.311   64.541  161.903
  434.058    4.443    0.460    0.336   63.701  162.051
  434.308    4.305    0.459    0.320   63.474  162.302
  434.558    4.322    0.465    0.322   64.119  162.347
  434.808    4.413    0.471    0.317   65.939  162.598
  435.058    4.488    0.478    0.299   67.631  163.058
  435.308    4.540    0.506    0.307   69.139  163.519
  435.558    4.592    0.507    0.307   69.780  163.351
  435.808    4.627    0.494    0.318   69.929  162.875
  436.058    4.637    0.499    0.326   69.953  162.912
  436.308    4.646    0.501    0.324   69.174  163.482
  436.558    4.665    0.475    0.300   68.153  164.045
  436.808    4.665    0.475    0.307   67.804  164.711
  437.058    4.640    0.476    0.318   67.952  165.077
  437.308    4.641    0.472    0.326   69.526  165.861
  437.558    4.633    0.478    0.315   71.154  166.526
  437.808    4.669    0.493    0.312   73.529  166.776
  438.058    4.957    0.471    0.299   75.095  166.817
  438.308    5.185    0.463    0.304   78.210  166.446
  438.558    5.196    0.483    0.310   74.158  166.162
  438.808    4.997    0.502    0.310   73.318  166.203
  439.058    4.833    0.495    0.309   75.136  166.243
  439.308    4.816    0.489    0.290   77.263  165.885
  439.558    4.954    0.498    0.300   77.718  166.027
  439.808    5.201    0.496    0.299   77.558  166.387
  440.058    5.594    0.508    0.279   75.667  166.431
  440.308    6.293    0.489    0.221   72.233  166.771
  440.558    7.253    0.413    0.156   69.664  166.919
  440.808    9.349    0.269    0.098   67.959  166.864
  441.058   11.696    0.246    0.082   66.811  167.107
  441.308   14.044    0.235    0.077   66.833  168.829
  441.558   15.739    0.227    0.082   68.836  168.346
