~VERSION INFORMATION
 VERS.                 2.0:   CWLS LOG ASCII STANDARD -VERSION 2.0
 WRAP.                  NO:   ONE LINE PER DEPTH STEP
~WELL INFORMATION BLOCK
#MNEM.UNIT           DATA                    DESCRIPTION OF MNEMONIC
#---------    -------------------            -------------------------------
# Generated from Intellog Unique Number	CW_70_72/WELL/1055
NULL.         -999.25                        : NULL_VALUE
WELL.         NORCEN VICTOR 11-08            : Well_name    - WELL              
LOC .         11-08-072-01W5                 : Location     - LOCATION          
UWI .         00/11-08-072-01W5/0            : Uwi          - UNIQUE WELL ID    
ENTR.         JAYE                           : Entered      - ENTERED BY        
SRVC.         WESTERN ATLAS                  : Scn          - SERVICE COMPANY   
DATE.         11 MAR 81                      : Date         - LOG DATE          
STRT.M        424                            : top_depth    - START DEPTH       
STOP.M        673                            : bot_depth    - STOP DEPTH        
STEP.M        0.25                           : increment    - STEP LENGTH       
~CURVE INFORMATION BLOCK
#MNEM UNIT       ERCB CURVE CODE    CURVE DESCRIPTION
#-----------   ------------------   ----------------------------------
DEPT.M        00 001 00 00         : DEPTH        - DEPTH                       
DPHI.V/V      00 890 00 00         : PHID         - DENSITY POROSITY (SANDSTONE)
NPHI.V/V      00 330 00 00         : PHIN         - NEUTRON POROSITY (SANDSTONE)
GR  .API      00 310 00 00         : GR           - GAMMA RAY                   
CALI.MM       00 280 01 00         : CAL          - CALIPER                     
ILD .OHMM     00 120 00 00         : RESD         - DEEP RESISTIVITY (DIL)      
~PARAMETER INFORMATION       
#MNEM.UNIT           DATA             DESCRIPTION OF MNEMONIC
#---------         -----------     ------------------------------
GL  .M        610.84               : gl           - GROUND LEVEL ELEVATION      
EREF.M        615.4                : kb           - ELEVATION OF DEPTH REFERENCE
DATM.M        610.84               : datum        - DATUM ELEVATION             
TDD .M        685                  : tdd          - TOTAL DEPTH DRILLER         
RUN .         ONE                  : Run          - RUN NUMBER                  
BASE.         R.D.                 : Branch       - HOME BASE OF LOGGING UNIT   
MUD .         GEL CHEM             : Mud_type     - MUD TYPE                    
MATR.         SANDSTONE            : Logunit      - NEUTRON MATRIX              
TMAX.C        30                   : BHT          - MAXIMUM RECORDED TEMPERATURE
BHTD.M        685.4                : BHTDEP       - MAXIMUM RECORDED TEMPERATURE
RMT .C        5                    : MDTP         - TEMPERATURE OF MUD          
MUDD.KG/M     1110                 : MWT          - MUD DENSITY                 
NEUT.         1                    : NEUTRON      - NEUTRON TYPE                
RESI.         0                    : RESIST       - RESISTIVITY TYPE            
RM  .OHMM     7                    : RM           - RESISTIVITY OF MUD          
RMC .OHMM     3.5                  : RMC          - RESISTIVITY OF MUD CAKE     
RMF .OHMM     4.5                  : RMF          - RESISTIVITY OF MUD FILTRATE 
SUFT.C        0                    : SUFT         - SURFACE TEMPERATURE         
~A  DEPTH     PHID     PHIN       GR      CAL     RESD
  424.000    0.190    0.355   81.199  218.937    2.008
  424.250    0.198    0.368   87.730  219.696    1.817
  424.500    0.208    0.383   91.982  220.464    1.700
  424.750    0.230    0.395   94.529  221.014    1.624
  425.000    0.268    0.411   94.164  221.674    1.658
  425.250    0.297    0.412   90.956  221.697    1.764
  425.500    0.314    0.401   87.871  217.086    1.866
  425.750    0.299    0.383   83.713  211.948    1.982
  426.000    0.344    0.383   78.670  213.136    2.102
  426.250    0.283    0.385   74.894  218.639    2.241
  426.500    0.236    0.365   74.400  216.877    2.370
  426.750    0.241    0.352   75.112  212.474    2.581
  427.000    0.244    0.342   76.014  205.651    2.751
  427.250    0.239    0.333   76.092  201.355    2.966
  427.500    0.228    0.325   74.526  198.750    3.334
  427.750    0.202    0.316   68.408  198.245    3.726
  428.000    0.120    0.302   58.495  198.060    3.468
  428.250   -0.006    0.299   59.208  198.297    3.089
  428.500    0.025    0.319   65.040  198.749    2.753
  428.750    0.078    0.329   62.843  199.087    2.509
  429.000    0.252    0.321   61.658  199.433    2.334
  429.250    0.282    0.315   68.059  199.878    2.201
  429.500    0.219    0.324   59.856  200.113    2.209
  429.750    0.183    0.332   61.324  200.678    2.233
  430.000    0.218    0.337   67.285  201.223    2.328
  430.250    0.281    0.348   72.169  201.773    2.458
  430.500    0.232    0.357   74.905  201.800    2.412
  430.750    0.201    0.346   78.274  202.039    2.296
  431.000    0.152    0.358   82.462  202.486    2.194
  431.250    0.190    0.378   87.600  203.355    2.172
  431.500    0.208    0.395   92.864  204.647    2.213
  431.750    0.215    0.408   97.306  206.151    2.320
  432.000    0.226    0.423  100.358  207.015    2.441
  432.250    0.229    0.367  100.313  207.359    2.563
  432.500    0.216    0.362  100.073  207.495    2.732
  432.750    0.184    0.351  101.293  207.519    2.924
  433.000    0.198    0.355  102.384  208.604    2.885
  433.250    0.182    0.372  102.776  209.997    2.719
  433.500    0.204    0.388   94.761  211.284    2.497
  433.750    0.257    0.406   90.603  213.107    2.238
  434.000    0.304    0.417   90.556  214.291    2.079
  434.250    0.297    0.432   90.634  215.054    1.938
  434.500    0.327    0.441   91.219  215.500    1.880
  434.750    0.354    0.448   94.651  215.744    1.844
  435.000    0.367    0.454   99.661  215.556    1.816
  435.250    0.293    0.452  104.419  215.158    1.812
  435.500    0.308    0.433   93.241  214.549    1.854
  435.750    0.326    0.417   89.529  213.839    1.899
  436.000    0.312    0.387   93.401  213.971    1.979
  436.250    0.333    0.411   99.487  214.732    2.079
  436.500    0.344    0.418   99.060  214.235    2.126
  436.750    0.335    0.409   92.056  213.312    2.142
  437.000    0.292    0.401   93.845  211.968    2.140
  437.250    0.333    0.398   99.107  210.516    2.148
  437.500    0.361    0.377   92.546  209.385    2.172
  437.750    0.330    0.374   87.692  208.780    2.193
  438.000    0.247    0.358   81.763  209.332    2.192
  438.250    0.229    0.350   80.767  209.467    2.183
  438.500    0.214    0.363   84.829  208.545    2.170
  438.750    0.259    0.375   82.442  207.092    2.170
  439.000    0.261    0.369   81.700  205.325    2.185
  439.250    0.233    0.353   84.940  203.769    2.265
  439.500    0.217    0.334   90.078  202.956    2.355
  439.750    0.191    0.328   93.952  203.929    2.613
  440.000    0.176    0.330   97.634  206.062    2.786
  440.250    0.192    0.343  100.118  208.618    2.817
  440.500    0.193    0.351   95.519  210.330    2.491
  440.750    0.163    0.350   94.710  210.358    2.207
  441.000    0.146    0.367  100.228  208.700    1.922
  441.250    0.164    0.386  108.402  207.041    1.633
  441.500    0.174    0.413  118.789  206.010    1.453
  441.750    0.173    0.412  112.480  204.770    1.433
  442.000    0.154    0.396  111.421  204.586    1.520
  442.250    0.184    0.368  109.224  205.031    1.626
  442.500    0.208    0.382  102.535  205.486    1.733
  442.750    0.212    0.383   94.835  205.929    1.769
  443.000    0.226    0.362   81.002  205.849    1.792
  443.250    0.245    0.382   67.043  204.716    1.806
  443.500    0.264    0.385   64.022  203.167    1.830
  443.750    0.279    0.358   68.277  201.718    1.846
  444.000    0.293    0.346   71.579  200.686    1.860
  444.250    0.282    0.342   66.978  199.977    1.874
  444.500    0.236    0.349   69.144  199.896    1.873
  444.750    0.215    0.370   77.444  199.711    1.877
  445.000    0.200    0.396   87.641  199.530    1.897
  445.250    0.181    0.391   99.546  199.554    1.922
  445.500    0.220    0.391  100.322  199.577    1.988
  445.750    0.226    0.388   93.950  199.707    2.041
  446.000    0.241    0.379   86.502  199.840    2.103
  446.250    0.270    0.371   81.838  199.870    2.187
  446.500    0.276    0.356   82.613  199.790    2.255
  446.750    0.268    0.341   86.233  199.390    2.241
  447.000    0.221    0.331   89.284  199.105    2.186
  447.250    0.187    0.352   82.913  199.029    2.101
  447.500    0.226    0.360   80.588  199.059    2.022
  447.750    0.231    0.360   78.518  199.181    1.932
  448.000    0.230    0.353   74.740  199.418    1.877
  448.250    0.254    0.343   73.552  199.442    1.791
  448.500    0.277    0.340   71.735  199.362    1.734
  448.750    0.294    0.347   70.486  199.283    1.700
  449.000    0.283    0.369   68.542  199.313    1.625
  449.250    0.261    0.390   64.763  199.336    1.567
  449.500    0.268    0.367   60.352  199.362    1.543
  449.750    0.294    0.353   58.785  199.709    1.535
  450.000    0.275    0.350   58.550  199.730    1.566
  450.250    0.278    0.343   61.790  199.757    1.635
  450.500    0.283    0.335   67.055  199.683    1.717
  450.750    0.280    0.332   70.739  199.916    1.894
  451.000    0.259    0.330   73.727  200.681    2.244
  451.250    0.225    0.325   78.864  202.396    2.625
  451.500    0.150    0.313   80.966  203.364    2.862
  451.750    0.112    0.299   75.924  204.553    2.889
  452.000    0.072    0.310   77.331  203.419    2.735
  452.250    0.116    0.334   83.481  201.760    2.530
  452.500    0.249    0.362   99.052  200.835    2.246
  452.750    0.268    0.373  100.460  200.864    2.047
  453.000    0.254    0.345   91.749  201.209    1.845
  453.250    0.249    0.345   85.630  201.655    1.755
  453.500    0.260    0.354   80.143  201.785    1.681
  453.750    0.272    0.355   74.151  202.020    1.674
  454.000    0.277    0.337   72.334  202.159    1.735
  454.250    0.260    0.335   75.005  202.392    1.835
  454.500    0.249    0.345   82.547  202.629    1.935
  454.750    0.234    0.356   91.162  202.972    1.978
  455.000    0.220    0.369   85.299  203.101    2.001
  455.250    0.233    0.362   83.165  203.232    2.004
  455.500    0.252    0.351   82.420  203.368    1.992
  455.750    0.264    0.360   80.792  203.706    1.977
  456.000    0.257    0.368   77.960  203.841    1.947
  456.250    0.233    0.377   76.016  203.865    1.913
  456.500    0.198    0.371   85.391  204.102    1.877
  456.750    0.201    0.363   78.830  204.236    1.824
  457.000    0.222    0.349   68.474  204.365    1.777
  457.250    0.250    0.337   64.189  204.289    1.749
  457.500    0.253    0.323   63.574  204.310    1.709
  457.750    0.259    0.333   64.539  204.233    1.677
  458.000    0.277    0.342   63.858  204.048    1.661
  458.250    0.283    0.352   62.228  203.655    1.642
  458.500    0.256    0.341   59.525  203.570    1.617
  458.750    0.269    0.343   58.595  203.281    1.601
  459.000    0.284    0.355   59.116  202.995    1.619
  459.250    0.297    0.369   62.168  202.810    1.659
  459.500    0.294    0.384   64.205  202.734    1.722
  459.750    0.287    0.375   67.383  202.757    1.837
  460.000    0.271    0.360   72.710  202.887    1.914
  460.250    0.259    0.345   75.698  203.021    1.987
