~VERSION INFORMATION
 VERS.                 2.0:   CWLS LOG ASCII STANDARD -VERSION 2.0
 WRAP.                  NO:   ONE LINE PER DEPTH STEP
~WELL INFORMATION BLOCK
#MNEM.UNIT           DATA                    DESCRIPTION OF MNEMONIC
#---------    -------------------            -------------------------------
# Generated from Intellog Unique Number	CW_79_81/WELL/901
WELL.         PARAMOUNT ET AL HORIZON        : Well_name    - WELL
LOC .         00/11-11-080-19W4/0            : Location     - LOCATION
UWI .         00/11-11-080-19W4/0            : Uwi          - UNIQUE WELL ID
ENTR.         MAX                            : Entered      - ENTERED BY
SRVC.         COMPUTALOG                     : Scn          - SERVICE COMPANY
STRT.M        185.928                        : top_depth    - START DEPTH
STOP.M        365.678                        : bot_depth    - STOP DEPTH
STEP.M        0.25                           : increment    - STEP LENGTH
 NULL. -999.2500:NULL Value
~CURVE INFORMATION BLOCK
#MNEM UNIT       ERCB CURVE CODE    CURVE DESCRIPTION
#-----------   ------------------   ----------------------------------
DEPT.M        00 001 00 00         : DEPTH        - DEPTH
ILD .OHMM     00 120 00 00         : RESD         - DEEP RESISTIVITY (DIL)
NPHI.V/V      00 330 00 00         : PHIN         - NEUTRON POROSITY (SANDSTONE)
DPHI.V/V      00 890 00 00         : PHID         - DENSITY POROSITY (SANDSTONE)
CALI.MM       00 280 01 00         : CAL          - CALIPER
GR  .API      00 310 00 00         : GR           - GAMMA RAY
~PARAMETER INFORMATION
#MNEM.UNIT           DATA             DESCRIPTION OF MNEMONIC
#---------         -----------     ------------------------------
GL  .M        563.88               : gl           - GROUND LEVEL ELEVATION
EREF.M        566.928              : kb           - ELEVATION OF DEPTH REFERENCE
DATM.M        563.88               : datum        - DATUM ELEVATION
TDD .M        366.674              : tdd          - TOTAL DEPTH DRILLER
RUN .         ONE                  : Run          - RUN NUMBER
ENG .         BILL                 : Engineer     - RECORDING ENGINEER
WIT .         JIM                  : Witness      - WITNESSED BY
MUD .         GEL                  : Mud_type     - MUD TYPE
MATR.         SANDSTONE            : Logunit      - NEUTRON MATRIX
TMAX.C        16.1111              : BHT          - MAXIMUM RECORDED TEMPERATURE
BHTD.M        366.674              : BHTDEP       - MAXIMUM RECORDED TEMPERATURE
RMT .C        20                   : MDTP         - TEMPERATURE OF MUD
MUDD.KG/M     9600                 : MWT          - MUD DENSITY
NEUT.         1                    : NEUTRON      - NEUTRON TYPE
RESI.         0                    : RESIST       - RESISTIVITY TYPE
RM  .OHMM     4.6                  : RM           - RESISTIVITY OF MUD
RMC .OHMM     0                    : RMC          - RESISTIVITY OF MUD CAKE
RMF .OHMM     3.9                  : RMF          - RESISTIVITY OF MUD FILTRATE
SUFT.C        -3.88889             : SUFT         - SURFACE TEMPERATURE
~A  DEPTH     RESD     PHIN     PHID      CAL       GR
# ...
  222.428   15.061    0.440    0.330  156.598   48.739
  222.678   16.732    0.449    0.338  157.637   42.440
  222.928   17.808    0.468    0.347  156.134   42.151
  223.178   17.692    0.495    0.347  154.119   44.869
  223.428   17.139    0.479    0.343  152.105   49.390
  223.678   16.904    0.507    0.334  152.126   57.818
  223.928   17.026    0.525    0.330  153.674   55.728
  224.178   17.308    0.519    0.324  155.731   54.541
  224.428   17.708    0.498    0.317  156.261   55.152
  224.678   18.147    0.490    0.315  156.285   54.865
  224.928   18.071    0.467    0.325  155.794   50.669
  225.178   17.716    0.439    0.324  154.800   41.364
  225.428   17.005    0.434    0.283  154.318   37.472
  225.678   16.810    0.429    0.289  154.336   40.187
  225.928   16.495    0.427    0.331  154.357   51.320
  226.178   15.822    0.470    0.346  154.887   56.744
  226.428   14.395    0.485    0.331  155.929   56.759
  226.678   13.883    0.480    0.314  156.459   56.167
  226.928   13.171    0.467    0.302  157.496   56.481
  227.178   12.419    0.462    0.281  156.499   60.400
  227.428   12.184    0.457    0.294  155.505   66.125
  227.678   12.227    0.446    0.311  155.017   64.333
  227.928   12.508    0.446    0.346  153.509   59.838
  228.178   12.748    0.463    0.364  152.006   55.341
  228.428   12.911    0.471    0.367  151.009   51.747
  228.678   12.516    0.483    0.337  153.577   55.669
  228.928   11.407    0.502    0.308  154.105   59.588
  229.178    9.504    0.531    0.278  149.543   63.808
  229.428    6.727    0.523    0.253  149.058   68.329
  229.678    6.055    0.519    0.254  151.112   77.959
  229.928    4.985    0.517    0.254  154.192   86.990
  230.178    4.274    0.519    0.247  157.264   84.900
  230.428    4.118    0.527    0.251  158.815   79.200
  230.678    4.280    0.532    0.260  158.325   78.912
  230.928    4.640    0.542    0.269  155.295   84.335
  231.178    5.477    0.558    0.283  151.751   82.546
  231.428    7.189    0.543    0.295  148.209   75.043
  231.678    8.383    0.517    0.313  146.706   67.842
  231.928    9.339    0.491    0.320  147.745   55.231
  232.178   10.534    0.475    0.325  148.275   51.337
  232.428   11.847    0.471    0.328  152.879   49.846
  232.678   12.684    0.450    0.319  154.425   45.652
  232.928   12.767    0.436    0.319  154.446   41.156
  233.178   12.612    0.438    0.320  154.470   39.966
  233.428   12.535    0.448    0.314  154.997   41.782
  233.678   12.419    0.470    0.313  155.018   45.702
  233.928   12.144    0.479    0.318  155.042   51.725
  234.178   11.750    0.480    0.324  155.063   55.044
  234.428   11.395    0.474    0.322  155.087   49.947
  234.678   11.398    0.462    0.316  154.088   49.960
  234.928   11.838    0.462    0.303  151.564   54.480
  235.178   11.920    0.474    0.299  151.588   49.383
  235.428   11.526    0.458    0.281  152.630   48.498
  235.678   10.377    0.442    0.253  154.175   56.623
  235.928    9.467    0.452    0.240  156.232   65.953
  236.178    8.874    0.450    0.248  157.777   75.884
  236.428    8.401    0.448    0.286  158.310   76.200
  236.678    8.127    0.450    0.328  160.367   69.298
  236.928    8.208    0.460    0.365  161.409   65.704
  237.178    8.490    0.477    0.389  162.445   58.503
  237.428    8.930    0.602    0.454  162.466   54.912
  237.678    9.369    0.616    0.495  162.996   53.420
  237.928   10.008    0.590    0.457  161.496   48.021
  238.178   10.647    0.532    0.359  158.458   43.228
  238.428   11.801    0.480    0.296  154.408   43.842
  238.678   12.638    0.458    0.311  152.396   47.459
  238.928   13.396    0.454    0.325  152.417   49.576
  239.178   14.154    0.472    0.332  152.441   50.490
  239.428   14.673    0.500    0.331  151.444   50.502
  239.678   14.954    0.505    0.333  149.938   48.710
  239.928   15.196    0.488    0.333  148.939   46.319
  240.178   15.398    0.469    0.332  148.960   43.927
  240.428   15.639    0.458    0.332  150.002   41.836
  240.678   15.841    0.469    0.337  152.061   42.752
  240.928   16.002    0.474    0.345  154.118   44.266
  241.178   16.164    0.480    0.346  155.155   44.580
  241.428   16.406    0.489    0.346  153.143   42.188
  241.678   16.528    0.487    0.345  151.125   39.795
  241.928   16.571    0.486    0.345  150.640   41.313
  242.178   16.613    0.493    0.343  151.170   45.533
  242.428   16.736    0.481    0.343  151.700   46.147
  242.678   16.898    0.463    0.343  152.228   42.551
  242.928   17.020    0.471    0.344  152.252   38.660
  243.178   17.142    0.465    0.344  152.275   41.374
  243.428   17.344    0.462    0.347  152.296   48.600
  243.678   17.585    0.481    0.351  152.318   54.022
  243.928   17.945    0.493    0.353  152.845   52.533
  244.178   18.782    0.478    0.350  153.378   50.442
  244.428   19.659    0.432    0.346  154.420   48.050
  244.678   19.980    0.347    0.302  154.944   42.653
  244.928   19.984    0.244    0.267  154.968   40.563
  245.178   19.946    0.287    0.231  154.483   39.373
  245.428   19.711    0.360    0.256  153.990   36.980
  245.678   19.237    0.481    0.285  151.469   38.196
  245.928   17.771    0.519    0.329  147.421   42.114
  246.178   16.622    0.550    0.350  143.371   45.733
  246.428   16.466    0.558    0.349  142.371   44.844
  246.678   16.549    0.542    0.350  140.871   41.552
  246.928   16.711    0.534    0.355  140.887   38.562
  247.178   16.793    0.521    0.360  140.908   38.574
  247.428   16.399    0.513    0.360  142.456   40.691
  247.678   15.966    0.508    0.358  145.022   41.902
  247.928   15.810    0.526    0.354  147.087   43.117
  248.178   15.694    0.542    0.348  147.103   44.933
  248.428   15.380    0.538    0.351  146.617   48.554
  248.678   15.223    0.513    0.350  146.639   48.568
  248.928   15.027    0.488    0.349  149.713   49.181
  249.178   14.872    0.474    0.348  152.282   46.788
  249.428   14.874    0.473    0.344  152.807   43.795
  249.678   14.838    0.469    0.337  152.831   44.410
  249.928   14.802    0.478    0.335  152.852   46.525
  250.178   14.804    0.488    0.335  153.893   50.446
  250.428   14.807    0.482    0.330  152.899   48.353
  250.678   14.771    0.484    0.343  151.897   45.062
  250.928   14.735    0.499    0.343  149.885   44.771
  251.178   14.658    0.506    0.335  149.400   41.783
  251.428   14.581    0.505    0.338  149.421   42.995
  251.678   14.544    0.500    0.345  149.437   49.319
  251.928   14.469    0.489    0.344  151.499   51.736
  252.178   14.471    0.484    0.342  152.533   51.147
  252.428   14.514    0.505    0.344  152.557   50.258
  252.678   14.517    0.512    0.345  152.069   47.570
  252.928   14.481    0.498    0.346  151.072   46.376
  253.178   14.444    0.486    0.349  150.587   46.989
  253.428   14.288    0.479    0.348  151.120   49.708
  253.678   13.974    0.465    0.343  151.136   49.123
  253.928   13.619    0.468    0.326  154.213   49.433
  254.178   13.582    0.492    0.327  155.764   51.551
  254.428   13.705    0.476    0.346  154.770   54.267
  254.678   13.668    0.470    0.356  151.223   51.875
  254.928   13.433    0.450    0.340  148.702   52.188
  255.178   12.960    0.435    0.321  148.723   58.213
  255.428   12.565    0.437    0.269  150.780   62.734
  255.678   12.409    0.457    0.282  152.328   65.151
  255.928   12.372    0.457    0.302  152.858   63.961
  256.178   12.534    0.460    0.326  153.895   55.860
  256.428   12.855    0.481    0.323  153.919   56.472
  256.678   13.454    0.493    0.322  153.433   55.883
  256.928   13.854    0.500    0.314  152.946   54.094
  257.178   13.897    0.493    0.298  152.967   55.010
  257.428   13.782    0.465    0.298  153.497   60.130
  257.678   13.863    0.447    0.309  153.521   62.547
  257.928   14.303    0.472    0.310  153.539   59.554
  258.178   14.823    0.476    0.305  153.558   60.471
  258.428   15.303    0.449    0.303  153.070   58.978
  258.678   15.623    0.439    0.302  152.076   54.485
