~VERSION INFORMATION
 VERS.                 2.0:   CWLS LOG ASCII STANDARD -VERSION 2.0
 WRAP.                  NO:   ONE LINE PER DEPTH STEP
~WELL INFORMATION BLOCK
#MNEM.UNIT           DATA                    DESCRIPTION OF MNEMONIC
#---------    -------------------            -------------------------------
# Generated from Intellog Unique Number	CW_70_72/WELL/2906
NULL.         -999.25                        : NULL_VALUE
WELL.         MIKAS CALLING LAKE             : Well_name    - WELL              
LOC .         10-36-070-20W4                 : Location     - LOCATION          
UWI .         00/10-36-070-20W4/0            : Uwi          - UNIQUE WELL ID    
ENTR.         MAX                            : Entered      - ENTERED BY        
SRVC.         SCHLUMBERGER                   : Scn          - SERVICE COMPANY   
STRT.M        316.992                        : top_depth    - START DEPTH       
STOP.M        484.742                        : bot_depth    - STOP DEPTH        
STEP.M        0.25                           : increment    - STEP LENGTH       
~CURVE INFORMATION BLOCK
#MNEM UNIT       ERCB CURVE CODE    CURVE DESCRIPTION
#-----------   ------------------   ----------------------------------
DEPT.M        00 001 00 00         : DEPTH        - DEPTH                       
ILD .OHMM     00 120 00 00         : RESD         - DEEP RESISTIVITY (DIL)      
NPHI.V/V      00 330 00 00         : PHIN         - NEUTRON POROSITY (SANDSTONE)
DPHI.V/V      00 890 00 00         : PHID         - DENSITY POROSITY (SANDSTONE)
CALI.MM       00 280 01 00         : CAL          - CALIPER                     
GR  .API      00 310 00 00         : GR           - GAMMA RAY                   
~PARAMETER INFORMATION       
#MNEM.UNIT           DATA             DESCRIPTION OF MNEMONIC
#---------         -----------     ------------------------------
GL  .M        583.265              : gl           - GROUND LEVEL ELEVATION      
EREF.M        586.435              : kb           - ELEVATION OF DEPTH REFERENCE
DATM.M        583.265              : datum        - DATUM ELEVATION             
TDD .M        490.423              : tdd          - TOTAL DEPTH DRILLER         
RUN .         ONE                  : Run          - RUN NUMBER                  
ENG .         BILL                 : Engineer     - RECORDING ENGINEER          
WIT .         JIM                  : Witness      - WITNESSED BY                
MUD .         GEL                  : Mud_type     - MUD TYPE                    
MATR.         SANDSTONE            : Logunit      - NEUTRON MATRIX              
TMAX.C        26.6667              : BHT          - MAXIMUM RECORDED TEMPERATURE
BHTD.M        490.423              : BHTDEP       - MAXIMUM RECORDED TEMPERATURE
RMT .C        4.44444              : MDTP         - TEMPERATURE OF MUD          
MUDD.KG/M     9000                 : MWT          - MUD DENSITY                 
NEUT.         1                    : NEUTRON      - NEUTRON TYPE                
RESI.         0                    : RESIST       - RESISTIVITY TYPE            
RM  .OHMM     4.66                 : RM           - RESISTIVITY OF MUD          
RMC .OHMM     2.9                  : RMC          - RESISTIVITY OF MUD CAKE     
RMF .OHMM     0.25                 : RMF          - RESISTIVITY OF MUD FILTRATE 
SUFT.C        -20.5556             : SUFT         - SURFACE TEMPERATURE         
~A  DEPTH     RESD     PHIN     PHID      CAL       GR
# ...
  353.492    7.163    0.479    0.302  156.677   61.226
  353.742    7.164    0.480    0.302  156.666   60.625
  353.992    7.360    0.466    0.301  155.649   60.620
  354.242    7.629    0.452    0.256  153.122   59.125
  354.492    7.908    0.410    0.178  151.599   57.040
  354.742    8.572    0.283    0.125  157.128   52.277
  354.992   10.436    0.191    0.018  159.130   46.622
  355.242   13.894    0.159   -0.006  159.120   40.968
  355.492   21.152    0.139   -0.005  159.612   39.772
  355.742   33.076    0.139    0.001  160.105   41.252
  355.992   40.633    0.144    0.011  160.092   43.029
  356.242   39.917    0.151    0.027  160.085   45.105
  356.492   36.509    0.164    0.038  159.570   50.152
  356.742   28.429    0.218    0.061  158.552   52.226
  356.992   17.863    0.281    0.145  158.041   53.410
  357.242   13.301    0.335    0.213  157.524   56.080
  357.492   10.734    0.372    0.240  157.516   59.045
  357.742    8.434    0.428    0.268  157.506   62.013
  357.992    6.626    0.455    0.257  157.493   67.358
  358.242    5.023    0.476    0.250  157.484   69.432
  358.492    4.847    0.488    0.242  157.474   71.210
  358.742    4.678    0.491    0.289  157.474   72.689
  358.992    4.678    0.501    0.303  157.449   72.980
  359.242    4.555    0.503    0.316  157.946   72.082
  359.492    4.357    0.472    0.311  159.446   70.590
  359.742    4.280    0.457    0.281  160.944   70.286
  359.992    4.243    0.483    0.289  160.935   70.874
  360.242    4.320    0.484    0.293  160.925   71.166
  360.492    4.359    0.458    0.279  159.403   71.754
  360.742    4.360    0.455    0.261  158.386   72.937
  360.992    4.360    0.460    0.253  157.873   75.310
  361.242    4.400    0.459    0.255  158.363   77.682
  361.492    4.401    0.454    0.250  159.360   81.243
  361.742    4.323    0.442    0.235  160.859   84.803
  361.992    4.210    0.455    0.233  161.858   87.473
  362.242    4.099    0.470    0.249  162.349   87.467
  362.492    3.991    0.517    0.259  161.837   84.489
  362.742    3.956    0.533    0.242  160.817   79.725
  362.992    3.956    0.506    0.245  160.304   78.233
  363.242    4.138    0.513    0.254  159.791   76.741
  363.492    4.406    0.484    0.277  159.278   72.274
  363.742    4.776    0.463    0.282  158.257   68.404
  363.992    4.862    0.482    0.301  155.731   63.344
  364.242    4.692    0.495    0.320  154.716   57.095
  364.492    4.488    0.468    0.344  154.202   54.116
  364.742    4.331    0.480    0.349  154.694   52.327
  364.992    4.179    0.480    0.349  156.193   51.724
  365.242    4.106    0.466    0.345  158.196   51.125
  365.492    4.070    0.445    0.334  158.688   50.821
  365.742    4.034    0.443    0.330  158.680   51.409
  365.992    4.034    0.458    0.320  157.661   54.077
  366.242    4.071    0.463    0.308  157.148   56.153
  366.492    4.220    0.484    0.300  157.138   58.228
  366.742    4.374    0.538    0.327  157.128   54.357
  366.992    4.414    0.500    0.338  157.118   49.595
  367.242    4.147    0.454    0.348  157.106   43.642
  367.492    3.966    0.440    0.346  156.593   43.637
  367.742    3.693    0.426    0.347  156.583   45.117
  367.992    3.470    0.423    0.349  157.073   46.002
  368.242    3.289    0.429    0.347  157.063   46.292
  368.492    3.202    0.436    0.348  157.053   45.989
  368.742    3.203    0.440    0.346  156.538   45.983
  368.992    3.203    0.433    0.346  156.528   45.976
  369.242    3.204    0.444    0.352  157.020   46.269
  369.492    3.233    0.447    0.356  157.010   46.263
  369.742    3.292    0.465    0.355  157.502   45.959
  369.992    3.322    0.453    0.353  157.495   46.249
  370.242    3.322    0.428    0.348  157.483   46.242
  370.492    3.323    0.422    0.340  157.470   45.941
  370.742    3.264    0.418    0.341  157.462   45.340
  370.992    3.264    0.417    0.349  157.450   45.333
  371.242    3.236    0.410    0.349  157.945   46.219
  371.492    3.236    0.417    0.355  157.933   47.996
  371.742    3.237    0.423    0.362  157.923   47.693
  371.992    3.266    0.410    0.365  157.411   46.200
  372.242    3.296    0.413    0.361  156.895   45.301
  372.492    3.356    0.429    0.354  156.886   44.998
  372.742    3.387    0.420    0.349  157.379   45.885
  372.992    3.387    0.421    0.331  157.870   47.959
  373.242    3.388    0.425    0.338  157.861   50.033
  373.492    3.388    0.466    0.343  157.850   50.027
  373.742    3.389    0.443    0.338  157.839   50.022
  373.992    3.419    0.430    0.335  158.332   48.826
  374.242    3.451    0.426    0.326  158.826   48.522
  374.492    3.451    0.424    0.331  159.317   48.516
  374.742    3.452    0.420    0.341  159.306   49.401
  374.992    3.452    0.413    0.348  159.298   51.476
  375.242    3.453    0.430    0.348  159.288   53.849
  375.492    3.484    0.426    0.331  158.773   55.033
  375.742    3.516    0.419    0.337  158.762   55.026
  375.992    3.548    0.428    0.341  158.753   55.020
  376.242    3.580    0.432    0.331  158.740   54.121
  376.492    3.613    0.421    0.322  158.226   53.224
  376.742    3.646    0.419    0.325  158.217   52.919
  376.992    3.646    0.416    0.337  158.208   55.292
  377.242    3.647    0.414    0.341  157.691   56.476
  377.492    3.647    0.424    0.342  157.682   54.386
  377.742    3.681    0.464    0.331  158.175   53.193
  377.992    3.681    0.466    0.334  158.165   52.592
  378.242    3.682    0.450    0.323  158.155   53.180
  378.492    3.682    0.435    0.330  157.641   53.471
  378.742    3.683    0.442    0.325  157.123   52.276
  378.992    3.650    0.436    0.332  157.115   51.675
  379.242    3.651    0.434    0.337  157.106   52.263
  379.492    3.619    0.453    0.339  157.095   51.960
  379.742    3.619    0.448    0.332  157.083   52.252
  379.992    3.652    0.432    0.330  157.073   52.245
  380.242    3.653    0.422    0.335  157.063   51.050
  380.492    3.653    0.412    0.335  157.052   49.855
  380.742    3.654    0.411    0.326  157.043   50.145
  380.992    3.654    0.446    0.330  157.536   50.733
  381.242    3.655    0.461    0.333  157.021   50.728
  381.492    3.623    0.474    0.332  157.515   51.018
  381.742    3.623    0.467    0.322  158.008   50.715
  381.992    3.624    0.468    0.324  156.990   50.709
  382.242    3.624    0.452    0.333  156.980   51.000
  382.492    3.593    0.449    0.324  156.466   51.587
  382.742    3.593    0.457    0.320  156.957   52.771
  382.992    3.594    0.449    0.318  157.452   54.252
  383.242    3.626    0.449    0.313  157.441   55.136
  383.492    3.627    0.441    0.310  157.430   54.239
  383.742    3.660    0.428    0.300  156.915   52.746
  383.992    3.727    0.437    0.306  156.402   50.956
  384.242    3.761    0.444    0.303  156.393   50.950
  384.492    3.761    0.451    0.300  156.381   52.134
  384.742    3.795    0.452    0.293  156.369   53.613
  384.992    3.864    0.436    0.300  156.360   55.984
  385.242    3.900    0.444    0.302  156.853   59.547
  385.492    3.971    0.458    0.305  156.843   62.514
  385.742    4.007    0.444    0.292  156.830   66.371
  385.992    4.043    0.431    0.281  156.822   67.258
  386.242    4.044    0.418    0.264  157.817   71.116
  386.492    4.008    0.453    0.255  159.318   73.190
  386.742    3.938    0.553    0.256  161.823   75.562
  386.992    3.834    0.574    0.285  162.316   77.340
  387.242    3.667    0.547    0.292  161.802   78.821
  387.492    3.415    0.554    0.284  159.275   80.003
  387.742    3.179    0.562    0.292  157.250   77.619
  387.992    3.151    0.526    0.303  159.255   71.668
  388.242    3.296    0.485    0.340  159.244   59.472
  388.492    3.509    0.473    0.355  157.725   49.359
  388.742    3.510    0.464    0.352  156.203   48.460
  388.992    3.357    0.447    0.357  155.690   49.345
  389.242    3.182    0.444    0.352  155.680   49.933
  389.492    3.182    0.451    0.351  156.169   49.632
  389.742    3.127    0.458    0.349  156.161   49.922
