~VERSION INFORMATION
 VERS.                 2.0:   CWLS LOG ASCII STANDARD -VERSION 2.0
 WRAP.                  NO:   ONE LINE PER DEPTH STEP
~WELL INFORMATION BLOCK
#MNEM.UNIT           DATA                    DESCRIPTION OF MNEMONIC
#---------    -------------------            -------------------------------
# Generated from Intellog Unique Number	CC_80_83/WELL/2414
NULL.         -999.25                        : NULL_VALUE
WELL.         PEX HOUSE                      : Well_name    - WELL
LOC .         11-29-080-16W4                 : Location     - LOCATION          
UWI .         00/11-29-080-16W4/0            : Uwi          - UNIQUE WELL ID    
ENTR.         DW                             : Entered      - ENTERED BY        
SRVC.         SCHLUMBERGER                   : Scn          - SERVICE COMPANY   
DATE.         06 FEB 82                      : Date         - LOG DATE
STRT.M        155                            : top_depth    - START DEPTH       
STOP.M        340.098                        : bot_depth    - STOP DEPTH        
STEP.M        0.3                            : increment    - STEP LENGTH       
~CURVE INFORMATION BLOCK
#MNEM UNIT       ERCB CURVE CODE    CURVE DESCRIPTION
#-----------   ------------------   ----------------------------------
DEPT.M        00 001 00 00         : DEPTH        - DEPTH                       
DPHI.V/V      00 890 00 00         : PHID         - DENSITY POROSITY (LIMESTONE)
NPHI.V/V      00 330 00 00         : PHIN         - NEUTRON POROSITY (LIMESTONE)
GR  .API      00 310 00 00         : GR           - GAMMA RAY                   
ILD .OHMM     00 120 00 00         : RESD         - DEEP RESISTIVITY (DIL)      
~PARAMETER INFORMATION       
#MNEM.UNIT           DATA             DESCRIPTION OF MNEMONIC
#---------         -----------     ------------------------------
GL  .M        549.5                : gl           - GROUND LEVEL ELEVATION      
EREF.M        553.1                : kb           - ELEVATION OF DEPTH REFERENCE
DATM.M        553.1                : datum        - DATUM ELEVATION             
TDD .M        344                  : tdd          - TOTAL DEPTH DRILLER         
RUN .         ONE                  : Run          - RUN NUMBER                  
ENG .         BILL                 : Engineer     - RECORDING ENGINEER          
WIT .         JIM                  : Witness      - WITNESSED BY                
MUD .         GEL                  : Mud_type     - MUD TYPE                    
MATR.         LIMESTONE            : Logunit      - NEUTRON MATRIX              
TMAX.C        24.4                 : BHT          - MAXIMUM RECORDED TEMPERATURE
BHTD.M        344                  : BHTDEP       - MAXIMUM RECORDED TEMPERATURE
MATR.         1                    : LOGUNIT      - NEUTRON MATRIX              
RMT .C        25                   : MDTP         - TEMPERATURE OF MUD          
NEUT.         1                    : NEUTRON      - NEUTRON TYPE                
RESI.         0                    : RESIST       - RESISTIVITY TYPE            
RMC .OHMM     0.25                 : RMC          - RESISTIVITY OF MUD CAKE     
RMF .OHMM     0.25                 : RMF          - RESISTIVITY OF MUD FILTRATE 
SUFT.C        15                   : SUFT         - SURFACE TEMPERATURE         
~A  DEPTH     PHID     PHIN       GR     RESD
# ...
  311.599    0.224    0.381   73.898    8.953
  311.899    0.221    0.395   72.041    9.648
  312.199    0.222    0.423   59.209   10.205
  312.499    0.209    0.419   67.721    9.833
  312.799    0.202    0.413   75.620    5.840
  313.099    0.206    0.412   78.643    4.940
  313.399    0.204    0.415   91.420    3.951
  313.699    0.204    0.516   90.781    3.737
  313.999    0.200    0.516   87.095    3.953
  314.299    0.172    0.515   84.019    4.421
  314.599    0.180    0.488   83.998    4.764
  314.899    0.185    0.402   94.338    4.855
  315.199    0.179    0.428   94.920    4.593
  315.499    0.160    0.456   88.795    4.509
  315.799    0.113    0.470   85.108    4.595
  316.099    0.133    0.483   89.350    4.770
  316.399    0.176    0.456  102.128    4.772
  316.699    0.196    0.428  111.250    4.430
  316.999    0.206    0.433  119.754    4.191
  317.299    0.221    0.459  117.902    4.192
  317.599    0.197    0.487  105.068    4.192
  317.898    0.180    0.471  100.774    4.603
  318.198    0.123    0.437   98.919    5.245
  318.498    0.119    0.426   85.480    6.203
  318.798    0.147    0.413   72.037    9.346
  319.098    0.207    0.352   62.867   14.616
  319.398    0.227    0.340   59.787   16.656
  319.698    0.236    0.372   59.139   16.973
  319.998    0.227    0.380   58.516   16.355
  320.298    0.233    0.378   58.487   14.096
  320.598    0.246    0.377   59.683   11.067
  320.898    0.242    0.380   63.317    5.877
  321.198    0.232    0.386   74.875    4.790
  321.498    0.232    0.396   88.257    3.556
  321.798    0.228    0.467   90.061    4.366
  322.098    0.183    0.524   85.769    5.883
  322.398    0.122    0.469   74.156    8.700
  322.698    0.143    0.375   71.693   12.867
  322.998    0.191    0.378   79.593   15.796
  323.298    0.211    0.401   83.831   17.341
  323.598    0.244    0.405   83.194   18.342
  323.898    0.261    0.393   86.218   18.346
  324.198    0.222    0.386   88.628   18.013
  324.498    0.135    0.342   81.900   17.038
  324.798    0.170    0.330   72.114   15.819
  325.098    0.186    0.322   78.794   14.416
  325.398    0.172    0.328   94.011   13.637
  325.698    0.165    0.377   93.986   13.639
  325.998    0.157    0.384   89.688   12.901
  326.298    0.148    0.363   93.316   11.978
  326.598    0.154    0.338   95.118   11.981
  326.898    0.145    0.330   94.486   12.673
  327.198    0.129    0.336   85.317   13.156
  327.498    0.140    0.350   82.853   12.916
  327.798    0.148    0.350   91.363   13.163
  328.098    0.146    0.330  101.091   13.165
  328.398    0.147    0.332   93.134   13.169
  328.698    0.155    0.343   88.228   13.172
  328.998    0.160    0.344   91.255   13.422
  329.298    0.171    0.344   94.275   14.197
  329.598    0.180    0.361   88.154   14.467
  329.898    0.191    0.416   62.517   15.302
  330.198    0.180    0.425   63.706   17.115
  330.498    0.185    0.392   68.560   21.011
  330.798    0.218    0.401   75.239   24.850
  331.098    0.207    0.389   73.992   26.285
  331.398    0.213    0.389   58.725   26.291
  331.698    0.227    0.394   48.942   29.959
  331.998    0.235    0.310   47.692   36.101
  332.298    0.246    0.363   42.182   41.135
  332.598    0.262    0.397   42.761   44.328
  332.898    0.256    0.393   54.324   41.155
  333.198    0.244    0.354   86.003   28.365
  333.498    0.169    0.328   84.149   23.993
  333.798    0.242    0.333   56.073   24.000
  334.098    0.271    0.375   55.434   25.385
  334.398    0.267    0.399   62.117   25.391
  334.698    0.249    0.398   68.793   24.018
  334.998    0.215    0.398   73.647   22.298
  335.298    0.165    0.392   80.938   20.321
  335.598    0.162    0.378   88.838   18.518
  335.898    0.172    0.378   96.739   15.665
  336.198    0.168    0.356  103.420   14.817
  336.498    0.162    0.338  105.834   16.267
  336.798    0.152    0.379   96.661   20.727
  337.098    0.248    0.405   80.171   24.515
  337.398    0.273    0.425   75.262   31.825
  337.698    0.281    0.428   73.409   38.349
  337.998    0.235    0.399   67.891   41.324
  338.298    0.165    0.424   68.477   42.110
  338.598    0.238    0.427   69.061   42.121
  338.898    0.268    0.399   69.645   37.676
  339.198    0.241    0.369   79.985   20.767
  339.498    0.196    0.347  148.852   17.244
  339.798    0.166    0.369  149.443   16.009
  340.098    0.155    0.364  150.025   15.142
