~VERSION INFORMATION
 VERS.                 2.0:   CWLS LOG ASCII STANDARD -VERSION 2.0
 WRAP.                  NO:   ONE LINE PER DEPTH STEP
~WELL INFORMATION BLOCK
#MNEM.UNIT           DATA                    DESCRIPTION OF MNEMONIC
#---------    -------------------            -------------------------------
# Generated from Intellog Unique Number	CW_70_72/WELL/1058
NULL.         -999.25                        : NULL_VALUE
WELL.         WINCAN ET AL SMITH 11-16       : Well_name    - WELL              
LOC .         11-16-071-26W4                 : Location     - LOCATION          
UWI .         00/11-16-071-26W4/0            : Uwi          - UNIQUE WELL ID    
ENTR.         JAYE                           : Entered      - ENTERED BY        
SRVC.         COMPUTALOG                     : Scn          - SERVICE COMPANY   
DATE.         13 AUG 83                      : Date         - LOG DATE          
STRT.M        400                            : top_depth    - START DEPTH       
STOP.M        668.5                          : bot_depth    - STOP DEPTH        
STEP.M        0.25                           : increment    - STEP LENGTH       
~CURVE INFORMATION BLOCK
#MNEM UNIT       ERCB CURVE CODE    CURVE DESCRIPTION
#-----------   ------------------   ----------------------------------
DEPT.M        00 001 00 00         : DEPTH        - DEPTH                       
DPHI.V/V      00 890 00 00         : PHID         - DENSITY POROSITY (SANDSTONE)
NPHI.V/V      00 330 00 00         : PHIN         - NEUTRON POROSITY (SANDSTONE)
GR  .API      00 310 00 00         : GR           - GAMMA RAY                   
CALI.MM       00 280 01 00         : CAL          - CALIPER                     
ILD .OHMM     00 120 00 00         : RESD         - DEEP RESISTIVITY (DIL)      
~PARAMETER INFORMATION       
#MNEM.UNIT           DATA             DESCRIPTION OF MNEMONIC
#---------         -----------     ------------------------------
GL  .M        593.18               : gl           - GROUND LEVEL ELEVATION      
EREF.M        596.48               : kb           - ELEVATION OF DEPTH REFERENCE
DATM.M        593.18               : datum        - DATUM ELEVATION             
TDD .M        668                  : tdd          - TOTAL DEPTH DRILLER         
RUN .         ONE                  : Run          - RUN NUMBER                  
ENG .         WOOD                 : Engineer     - RECORDING ENGINEER          
WIT .         VAN FRAASEN          : Witness      - WITNESSED BY                
BASE.         LLOYD                : Branch       - HOME BASE OF LOGGING UNIT   
MUD .         GEL CHEM             : Mud_type     - MUD TYPE                    
MATR.         SANDSTONE            : Logunit      - NEUTRON MATRIX              
TMAX.C        31                   : BHT          - MAXIMUM RECORDED TEMPERATURE
BHTD.M        668.3                : BHTDEP       - MAXIMUM RECORDED TEMPERATURE
RMT .C        22                   : MDTP         - TEMPERATURE OF MUD          
MUDD.KG/M     1120                 : MWT          - MUD DENSITY                 
NEUT.         1                    : NEUTRON      - NEUTRON TYPE                
RESI.         0                    : RESIST       - RESISTIVITY TYPE            
RM  .OHMM     2.6                  : RM           - RESISTIVITY OF MUD          
RMC .OHMM     0                    : RMC          - RESISTIVITY OF MUD CAKE     
RMF .OHMM     3.2                  : RMF          - RESISTIVITY OF MUD FILTRATE 
SUFT.C        0                    : SUFT         - SURFACE TEMPERATURE         
~A  DEPTH     PHID     PHIN       GR      CAL     RESD
# ...
  473.000    0.255    0.376   75.911  161.594    3.380
  473.250    0.261    0.383   76.018  160.423    3.455
  473.500    0.254    0.388   76.307  157.699    3.493
  473.750    0.234    0.379   78.280  156.835    3.510
  474.000    0.228    0.355   78.323  158.978    3.476
  474.250    0.240    0.346   73.577  162.990    3.421
  474.500    0.254    0.367   71.198  163.785    3.349
  474.750    0.273    0.371   68.753  163.028    3.297
  475.000    0.283    0.368   66.126  161.538    3.228
  475.250    0.293    0.375   61.506  160.783    3.177
  475.500    0.297    0.395   59.559  160.440    3.116
  475.750    0.302    0.418   58.794  160.304    3.061
  476.000    0.308    0.407   60.330  159.750    2.981
  476.250    0.310    0.387   62.050  159.725    2.945
  476.500    0.311    0.377   60.354  159.595    2.904
  476.750    0.311    0.375   61.578  159.559    2.854
  477.000    0.311    0.381   64.542  159.627    2.799
  477.250    0.312    0.389   65.580  159.913    2.709
  477.500    0.312    0.393   61.644  159.879    2.593
  477.750    0.313    0.399   60.632  160.052    2.509
  478.000    0.313    0.406   60.736  160.121    2.388
  478.250    0.311    0.409   60.903  160.408    2.311
  478.500    0.306    0.402   61.506  160.580    2.258
  478.750    0.299    0.389   62.604  160.861    2.219
  479.000    0.298    0.377   63.395  161.445    2.213
  479.250    0.295    0.382   64.060  161.832    2.262
  479.500    0.286    0.379   65.409  162.523    2.348
  479.750    0.273    0.362   66.198  163.630    2.432
  480.000    0.263    0.353   67.606  165.051    2.636
  480.250    0.263    0.365   70.760  166.367    2.809
  480.500    0.253    0.362   68.128  167.581    2.987
  480.750    0.224    0.348   65.810  168.581    3.274
  481.000    0.210    0.351   64.609  168.963    3.643
  481.250    0.226    0.359   67.139  169.346    3.773
  481.500    0.242    0.374   73.957  169.318    3.693
  481.750    0.258    0.395   74.684  169.590    3.456
  482.000    0.272    0.411   72.055  169.668    3.209
  482.250    0.268    0.405   73.403  169.740    2.935
  482.500    0.252    0.395   75.312  169.502    2.741
  482.750    0.213    0.392   78.898  169.051    2.608
  483.000    0.227    0.405   84.100  168.401    2.543
  483.250    0.250    0.412   84.017  167.022    2.630
  483.500    0.267    0.412   81.700  165.538    2.802
  483.750    0.269    0.408   80.748  163.640    2.892
  484.000    0.268    0.401   79.423  162.988    2.868
  484.250    0.281    0.405   77.663  162.228    2.813
  484.500    0.297    0.403   74.412  162.303    2.712
  484.750    0.295    0.391   71.098  162.683    2.721
  485.000    0.270    0.378   71.016  163.379    2.735
  485.250    0.274    0.405   75.163  163.868    2.749
  485.500    0.296    0.421   79.247  164.350    2.736
  485.750    0.313    0.404   76.431  164.528    2.614
  486.000    0.308    0.368   68.018  164.911    2.544
  486.250    0.313    0.353   58.428  165.397    2.486
  486.500    0.327    0.363   61.017  165.575    2.429
  486.750    0.335    0.379   60.441  166.781    2.436
  487.000    0.341    0.392   57.810  167.578    2.486
  487.250    0.336    0.401   57.106  165.893    2.571
  487.500    0.323    0.399   58.332  160.059    2.708
  487.750    0.310    0.366   60.239  158.266    2.896
  488.000    0.297    0.349   59.163  162.376    3.145
  488.250    0.281    0.336   56.471  165.869    3.395
  488.500    0.274    0.336   56.949  164.695    3.617
  488.750    0.284    0.350   58.048  160.826    3.832
  489.000    0.291    0.356   60.765  159.454    3.882
  489.250    0.297    0.364   63.295  159.941    3.617
  489.500    0.298    0.373   63.524  161.658    3.384
  489.750    0.300    0.375   61.702  162.154    3.131
  490.000    0.302    0.363   60.315  162.631    2.929
  490.250    0.304    0.359   59.490  162.714    2.715
  490.500    0.301    0.373   59.407  162.777    2.608
  490.750    0.294    0.379   59.762  162.650    2.558
  491.000    0.301    0.370   62.105  162.715    2.581
  491.250    0.299    0.360   65.442  163.208    2.658
  491.500    0.288    0.350   66.108  163.280    2.727
  491.750    0.277    0.339   62.669  162.623    2.793
  492.000    0.279    0.347   59.913  162.490    2.813
  492.250    0.286    0.360   59.334  164.013    2.832
  492.500    0.285    0.362   59.504  165.016    2.836
  492.750    0.281    0.375   60.478  165.708    2.839
  493.000    0.285    0.385   60.957  165.574    2.844
  493.250    0.293    0.394   59.322  165.232    2.830
  493.500    0.297    0.403   59.861  164.781    2.792
  493.750    0.298    0.396   61.147  164.444    2.774
  494.000    0.299    0.389   63.615  163.893    2.757
  494.250    0.299    0.396   63.722  163.649    2.746
  494.500    0.298    0.385   61.153  163.511    2.713
  494.750    0.295    0.372   57.840  163.277    2.716
  495.000    0.289    0.366   58.939  163.660    2.735
  495.250    0.289    0.364   62.091  163.830    2.748
  495.500    0.287    0.357   65.429  164.013    2.778
  495.750    0.279    0.359   61.679  163.877    2.824
  496.000    0.263    0.370   60.603  163.428    2.959
  496.250    0.224    0.344   64.003  163.088    3.076
  496.500    0.198    0.288   63.920  163.054    3.080
  496.750    0.243    0.296   62.784  163.541    2.892
  497.000    0.294    0.334   65.313  163.512    2.701
  497.250    0.296    0.369   72.257  159.232    2.503
  497.500    0.284    0.392   77.893  156.189    2.360
  497.750    0.298    0.402   83.719  154.606    2.212
  498.000    0.303    0.384   79.411  154.993    2.162
  498.250    0.255    0.366   73.734  155.271    2.218
  498.500    0.219    0.357   79.621  156.688    2.440
  498.750    0.196    0.381   85.382  158.416    2.654
  499.000    0.196    0.384   88.222  160.148    2.904
  499.250    0.204    0.394   88.949  161.774    3.195
  499.500    0.214    0.405   89.177  162.982    3.463
  499.750    0.224    0.411   89.471  163.880    3.717
  500.000    0.240    0.404   86.593  164.373    3.864
  500.250    0.249    0.407   82.222  163.926    3.623
  500.500    0.256    0.410   83.694  163.478    3.377
  500.750    0.275    0.403   81.127  162.825    3.195
  501.000    0.334    0.450   75.759  162.374    3.217
  501.250    0.431    0.518   67.165  162.554    3.234
  501.500    0.504    0.422   60.556  163.661    3.049
  501.750    0.385    0.369   58.051  164.461    2.885
  502.000    0.348    0.358   63.254  164.214    2.679
  502.250    0.313    0.371   67.213  163.565    2.418
  502.500    0.302    0.391   68.996  162.598    2.241
  502.750    0.299    0.394   68.977  162.260    2.133
  503.000    0.301    0.382   67.342  162.021    2.080
  503.250    0.305    0.372   68.067  161.781    2.082
  503.500    0.300    0.379   70.288  161.016    2.097
  503.750    0.296    0.382   71.636  160.887    2.144
  504.000    0.304    0.374   71.740  160.652    2.195
  504.250    0.309    0.376   72.218  160.101    2.261
  504.500    0.300    0.385   72.635  159.756    2.307
  504.750    0.290    0.388   71.247  159.828    2.363
  505.000    0.289    0.378   71.664  160.418    2.448
  505.250    0.287    0.362   72.330  163.912    2.569
  505.500    0.283    0.367   69.822  168.022    2.656
  505.750    0.282    0.366   66.013  169.852    2.761
  506.000    0.284    0.363   65.433  170.030    2.882
  506.250    0.290    0.364   66.099  170.103    2.985
  506.500    0.294    0.359   68.069  169.760    3.063
  506.750    0.293    0.349   69.167  168.899    3.131
  507.000    0.291    0.332   68.838  167.517    3.207
  507.250    0.285    0.357   68.820  165.622    3.279
  507.500    0.276    0.372   69.359  164.142    3.382
  507.750    0.268    0.364   70.086  162.867    3.511
  508.000    0.261    0.359   71.187  161.691    3.582
  508.250    0.258    0.386   74.152  161.250    3.593
  508.500    0.260    0.404   80.224  160.389    3.564
  508.750    0.266    0.405   82.940  157.247    3.522
  509.000    0.263    0.381   77.699  154.005    3.507
  509.250    0.256    0.371   72.644  152.830    3.518
