~VERSION INFORMATION
 VERS.                 2.0:   CWLS LOG ASCII STANDARD -VERSION 2.0
 WRAP.                  NO:   ONE LINE PER DEPTH STEP
~WELL INFORMATION BLOCK
#MNEM.UNIT           DATA                    DESCRIPTION OF MNEMONIC
#---------    -------------------            -------------------------------
# Generated from Intellog Unique Number	CC_80_83/WELL/2353
NULL.         -999.25                        : NULL_VALUE
WELL.         CHEVRON ALGAR                  : Well_name    - WELL
LOC .         10-14-081-17W4                 : Location     - LOCATION          
UWI .         00/10-14-081-17W400            : Uwi          - UNIQUE WELL ID    
ENTR.         DW                             : Entered      - ENTERED BY        
SRVC.         SCHLUMBERGER                   : Scn          - SERVICE COMPANY   
DATE.         04 FEB 75                      : Date         - LOG DATE
STRT.M        118.872                        : top_depth    - START DEPTH       
STOP.M        307.847                        : bot_depth    - STOP DEPTH        
STEP.M        0.305                          : increment    - STEP LENGTH       
~CURVE INFORMATION BLOCK
#MNEM UNIT       ERCB CURVE CODE    CURVE DESCRIPTION
#-----------   ------------------   ----------------------------------
DEPT.M        00 001 00 00         : DEPTH        - DEPTH                       
DPHI.V/V      00 890 00 00         : PHID         - DENSITY POROSITY (LIMESTONE)
NPHI.V/V      00 330 00 00         : PHIN         - NEUTRON POROSITY (LIMESTONE)
GR  .API      00 310 00 00         : GR           - GAMMA RAY                   
ILD .OHMM     00 120 00 00         : RESD         - DEEP RESISTIVITY (DIL)      
~PARAMETER INFORMATION       
#MNEM.UNIT           DATA             DESCRIPTION OF MNEMONIC
#---------         -----------     ------------------------------
GL  .M        540.106              : gl           - GROUND LEVEL ELEVATION      
EREF.M        543.763              : kb           - ELEVATION OF DEPTH REFERENCE
DATM.M        543.763              : datum        - DATUM ELEVATION             
TDD .M        310.896              : tdd          - TOTAL DEPTH DRILLER         
RUN .         ONE                  : Run          - RUN NUMBER                  
ENG .         BILL                 : Engineer     - RECORDING ENGINEER          
WIT .         JIM                  : Witness      - WITNESSED BY                
MUD .         GEL                  : Mud_type     - MUD TYPE                    
MATR.         LIMESTONE            : Logunit      - NEUTRON MATRIX              
TMAX.C        21.1111              : BHT          - MAXIMUM RECORDED TEMPERATURE
BHTD.M        310.896              : BHTDEP       - MAXIMUM RECORDED TEMPERATURE
MATR.         1                    : LOGUNIT      - NEUTRON MATRIX              
RMT .C        25                   : MDTP         - TEMPERATURE OF MUD          
NEUT.         1                    : NEUTRON      - NEUTRON TYPE                
RESI.         0                    : RESIST       - RESISTIVITY TYPE            
RMC .OHMM     0.25                 : RMC          - RESISTIVITY OF MUD CAKE     
RMF .OHMM     0.25                 : RMF          - RESISTIVITY OF MUD FILTRATE 
SUFT.C        15                   : SUFT         - SURFACE TEMPERATURE         
~A  DEPTH     PHID     PHIN       GR     RESD
# ...
  171.906    0.312    0.432   56.855   13.506
  172.211    0.305    0.451   62.298   12.312
  172.516    0.290    0.471   73.790   11.224
  172.821    0.263    0.481   78.024   10.232
  173.126    0.266    0.474   73.790    9.502
  173.430    0.277    0.443   69.556    9.328
  173.735    0.258    0.461   70.161    9.158
  174.040    0.261    0.473   65.927    8.990
  174.345    0.264    0.456   66.532    8.349
  174.650    0.263    0.468   67.137    8.046
  174.954    0.269    0.474   61.694    7.898
  175.259    0.273    0.468   61.089    8.197
  175.564    0.269    0.467   64.113    8.828
  175.869    0.283    0.477   65.323    9.333
  176.174    0.285    0.525   65.323    9.508
  176.478    0.299    0.529   62.903    9.686
  176.783    0.310    0.501   64.113    9.687
  177.088    0.302    0.490   64.113    9.868
  177.393    0.300    0.478   62.298   10.053
  177.698    0.294    0.478   60.484   10.628
  178.002    0.283    0.481   62.903   10.629
  178.307    0.273    0.487   65.927   10.629
  178.612    0.259    0.491   67.742   10.244
  178.917    0.242    0.495   68.952    9.513
  179.221    0.223    0.480   68.347    8.513
  179.526    0.186    0.411   55.645    8.357
  179.831    0.146    0.307   53.831    9.340
  180.136    0.415    0.376   61.089   12.331
  180.441    0.325    0.571   79.839   15.982
  180.745    0.265    0.521   95.564   19.961
  181.050    0.198    0.477  113.710   22.725
  181.355    0.093    0.398  123.387   26.355
  181.660    0.064    0.404  116.734   28.383
  181.965    0.158    0.408   97.379   29.456
  182.269    0.231    0.427   76.210   28.918
  182.574    0.277    0.446   58.065   25.878
  182.879    0.279    0.435   47.177   23.158
  183.184    0.293    0.426   44.153   20.724
  183.489    0.307    0.417   44.758   19.245
  183.793    0.315    0.423   45.968   19.246
  184.098    0.317    0.456   50.202   18.207
  184.403    0.302    0.484   52.621   15.701
  184.708    0.295    0.501   52.621   15.131
  185.013    0.289    0.471   47.782   14.051
  185.317    0.290    0.446   48.387   14.052
  185.622    0.324    0.452   51.411   14.856
  185.927    0.324    0.455   53.226   15.706
  186.232    0.322    0.449   54.435   16.299
  186.537    0.325    0.444   52.016   16.915
  186.841    0.307    0.456   49.597   17.232
  187.146    0.327    0.471   50.202   17.233
  187.451    0.334    0.477   51.411   16.918
  187.756    0.322    0.491   49.597   16.609
  188.061    0.323    0.513   54.435   16.305
  188.365    0.317    0.518   55.040   16.007
  188.670    0.287    0.438   47.177   16.307
  188.975    0.278    0.431   42.339   16.924
  189.280    0.347    0.490   47.177   17.241
  189.585    0.344    0.509   48.992   17.564
  189.889    0.302    0.481   47.177   17.893
  190.194    0.259    0.462   48.992   17.894
  190.499    0.267    0.490   61.089   16.618
  190.804    0.302    0.504   63.508   16.014
  191.108    0.299    0.512   58.065   13.308
  191.413    0.308    0.515   48.992   12.589
  191.718    0.321    0.473   52.621   12.359
  192.023    0.339    0.480   55.040   12.591
  192.328    0.340    0.497   53.831   13.560
  192.632    0.325    0.515   50.806   14.073
  192.937    0.322    0.543   49.597   14.336
  193.242    0.325    0.529   49.597   14.337
  193.547    0.340    0.513   50.806   14.075
  193.852    0.350    0.517   50.202   13.817
  194.156    0.353    0.535   48.992   13.072
  194.461    0.336    0.519   48.387   12.597
  194.766    0.324    0.495   48.992   12.140
  195.071    0.323    0.494   53.831   12.140
  195.376    0.324    0.503   56.250   12.599
  195.680    0.334    0.477   55.040   13.320
  195.985    0.338    0.474   52.621   14.082
  196.290    0.328    0.498   51.411   14.346
  196.595    0.328    0.514   50.202   14.347
  196.900    0.335    0.494   48.992   14.347
  197.204    0.316    0.416   46.573   14.349
  197.509    0.188    0.250   42.339   14.890
  197.814    0.096    0.145   38.105   15.453
  198.119    0.016    0.163   33.871   17.270
  198.424    0.037    0.204   35.685   20.404
  198.728    0.103    0.232   38.710   36.908
  199.033    0.156    0.258   40.524   48.730
  199.338    0.229    0.310   41.734   51.516
  199.643    0.300    0.469   44.758   47.841
  199.948    0.330    0.512   47.177   33.034
  200.252    0.333    0.503   50.202   24.113
  200.557    0.329    0.487   50.202   18.266
  200.862    0.325    0.494   49.597   16.346
  201.167    0.319    0.500   50.806   15.463
  201.471    0.312    0.501   53.226   14.361
  201.776    0.312    0.503   54.435   14.361
  202.081    0.322    0.487   55.040   14.630
  202.386    0.329    0.485   55.040   14.631
  202.691    0.329    0.508   55.645   14.905
  202.995    0.321    0.490   55.645   15.185
  203.300    0.318    0.475   56.250   15.186
  203.605    0.319    0.484   55.645   15.187
  203.910    0.316    0.504   55.040   15.472
  204.215    0.305    0.481   57.460   16.056
  204.519    0.302    0.473   58.065   15.763
  204.824    0.322    0.496   56.855   15.475
  205.129    0.328    0.512   55.645   15.475
  205.434    0.315    0.496   54.435   15.193
  205.739    0.322    0.506   54.435   15.193
  206.043    0.325    0.494   55.040   15.194
  206.348    0.328    0.473   57.460   15.195
  206.653    0.324    0.489   57.460   15.196
  206.958    0.327    0.492   57.460   15.197
  207.263    0.328    0.473   58.669   15.198
  207.567    0.327    0.480   60.484   14.920
  207.872    0.316    0.503   61.694   14.921
  208.177    0.311    0.490   63.508   14.921
  208.482    0.322    0.489   65.927   14.649
  208.787    0.328    0.506   67.137   14.381
  209.091    0.318    0.529   67.742   14.382
  209.396    0.317    0.510   64.718   14.382
  209.701    0.318    0.501   63.508   14.383
  210.006    0.321    0.480   66.532   14.653
  210.311    0.328    0.503   67.742   14.654
  210.615    0.334    0.487   65.323   14.929
  210.920    0.334    0.481   62.903   14.930
  211.225    0.331    0.479   62.903   14.931
  211.530    0.333    0.481   66.532   14.931
  211.834    0.323    0.489   67.742   14.658
  212.139    0.317    0.495   68.952   14.659
  212.444    0.305    0.492   70.766   14.660
  212.749    0.299    0.489   70.161   14.392
  213.054    0.285    0.489   67.137   14.392
  213.358    0.283    0.513   65.323   14.393
  213.663    0.294    0.492   67.137   14.130
  213.968    0.312    0.521   73.186   13.872
  214.273    0.316    0.504   73.790   13.123
  214.578    0.311    0.491   73.790   12.883
  214.882    0.299    0.489   76.210   12.884
  215.187    0.279    0.480   84.073   12.884
  215.492    0.263    0.474   90.121   12.416
  215.797    0.249    0.478   90.726   11.530
  216.102    0.240    0.487   90.121    9.943
  216.406    0.233    0.481   90.726    8.417
  216.711    0.231    0.483   92.540    8.263
  217.016    0.248    0.502   91.331    8.264
  217.321    0.254    0.501   79.839    8.264
  217.626    0.256    0.485   78.629    8.577
  217.930    0.249    0.483   82.258    8.901
  218.235    0.231    0.490   82.258    9.068
  218.540    0.269    0.478   80.444    9.068
  218.845    0.264    0.491   78.024    9.069
  219.150    0.238    0.495   77.419    8.579
  219.454    0.258    0.477   77.419    8.422
  219.759    0.237    0.466   78.629    7.968
  220.064    0.246    0.481   82.258    7.968
  220.369    0.261    0.489   82.258    7.969
  220.674    0.267    0.502   81.653    8.424
  220.978    0.266    0.490   80.444    8.582
  221.283    0.267    0.509   79.839    8.425
  221.588    0.276    0.520   79.234    8.271
  221.893    0.288    0.525   79.839    7.825
  222.197    0.281    0.524   76.814    7.682
  222.502    0.266    0.513   70.766    7.267
  222.807    0.225    0.479   61.694    7.542
  223.112    0.102    0.334   59.274    8.122
  223.417    0.230    0.399   69.556   10.144
  223.721    0.296    0.496   77.419   11.764
  224.026    0.311    0.519   71.371   11.765
  224.331    0.311    0.514   68.952   11.338
  224.636    0.310    0.497   67.137   11.131
