~VERSION INFORMATION
 VERS.                 2.0:   CWLS LOG ASCII STANDARD -VERSION 2.0
 WRAP.                  NO:   ONE LINE PER DEPTH STEP
~WELL INFORMATION BLOCK
#MNEM.UNIT           DATA                    DESCRIPTION OF MNEMONIC
#---------    -------------------            -------------------------------
# Generated from Intellog Unique Number	CS_77_79/WELL/948
LOC .         00/10-11-079-07W4/0            : Location     - LOCATION
UWI .         00/10-11-079-07W4/0            : Uwi          - UNIQUE WELL ID
ENTR.         JHS                            : Entered      - ENTERED BY
SRVC.         SCHLUMBERGER                   : Scn          - SERVICE COMPANY
STRT.M        110                            : top_depth    - START DEPTH
STOP.M        345                            : bot_depth    - STOP DEPTH
STEP.M        0.25                           : increment    - STEP LENGTH
 NULL. -999.2500:NULL Value
~CURVE INFORMATION BLOCK
#MNEM UNIT       ERCB CURVE CODE    CURVE DESCRIPTION
#-----------   ------------------   ----------------------------------
DEPT.M        00 001 00 00         : DEPTH        - DEPTH
DPHI.V/V      00 890 00 00         : PHID         - DENSITY POROSITY (LIMESTONE)
NPHI.V/V      00 330 00 00         : PHIN         - NEUTRON POROSITY (LIMESTONE)
GR  .API      00 310 00 00         : GR           - GAMMA RAY
ILD .OHMM     00 120 00 00         : RESD         - DEEP RESISTIVITY (DIL)
RHOB.KG/M3    00 350 00 00         : DENS         - BULK DENSITY
~PARAMETER INFORMATION
#MNEM.UNIT           DATA             DESCRIPTION OF MNEMONIC
#---------         -----------     ------------------------------
GL  .M        550.24               : gl           - GROUND LEVEL ELEVATION
EREF.M        553.62               : kb           - ELEVATION OF DEPTH REFERENCE
DATM.M        553.62               : datum        - DATUM ELEVATION
TDD .M        349                  : tdd          - TOTAL DEPTH DRILLER
RUN .         ONE                  : Run          - RUN NUMBER
ENG .         BILL                 : Engineer     - RECORDING ENGINEER
WIT .         JIM                  : Witness      - WITNESSED BY
MUD .         GEL                  : Mud_type     - MUD TYPE
MATR.         LIMESTONE            : Logunit      - NEUTRON MATRIX
TMAX.C        15                   : BHT          - MAXIMUM RECORDED TEMPERATURE
BHTD.M        349                  : BHTDEP       - MAXIMUM RECORDED TEMPERATURE
MATR.         1                    : LOGUNIT      - NEUTRON MATRIX
RMT .C        25                   : MDTP         - TEMPERATURE OF MUD
NEUT.         1                    : NEUTRON      - NEUTRON TYPE
RESI.         0                    : RESIST       - RESISTIVITY TYPE
RMC .OHMM     0.25                 : RMC          - RESISTIVITY OF MUD CAKE
RMF .OHMM     0.25                 : RMF          - RESISTIVITY OF MUD FILTRATE
SUFT.C        15                   : SUFT         - SURFACE TEMPERATURE
~A  DEPTH     PHID     PHIN       GR     RESD     DENS
  110.000    0.275    0.620  122.609    3.399    0.000
  110.250    0.281    0.620  128.856    3.402    0.000
  110.500    0.282    0.621  124.524    3.403    0.000
  110.750    0.281    0.621  120.811    3.342    0.000
  111.000    0.281    0.621  119.589    3.282    0.000
  111.250    0.282    0.621  122.725    3.284    0.000
  111.500    0.284    0.620  126.486    3.286    0.000
  111.750    0.288    0.617  130.864    3.227    0.000
  112.000    0.290    0.616  131.508    3.229    0.000
  112.250    0.290    0.614  124.686    3.171    0.000
  112.500    0.288    0.608  122.844    3.173    0.000
  112.750    0.291    0.583  116.640    3.175    0.000
  113.000    0.296    0.575  125.381    3.177    0.000
  113.250    0.300    0.593  119.800    3.120    0.000
  113.500    0.300    0.608  114.844    3.063    0.000
  113.750    0.297    0.614  119.848    3.008    0.000
  114.000    0.297    0.615  125.470    2.954    0.000
  114.250    0.295    0.610  126.119    2.901    0.000
  114.500    0.295    0.595  121.160    2.849    0.000
  114.750    0.297    0.587  109.361    2.850    0.000
  115.000    0.298    0.598  112.494    2.799    0.000
  115.250    0.300    0.609  115.630    2.801    0.000
  115.500    0.301    0.615  118.766    2.802    0.000
  115.750    0.302    0.616  124.389    2.752    0.000
  116.000    0.303    0.614  120.055    2.754    0.000
  116.250    0.303    0.612  120.082    2.755    0.000
  116.500    0.302    0.612  119.481    2.810    0.000
  116.750    0.299    0.615  119.505    2.865    0.000
  117.000    0.283    0.618  121.395    2.921    0.000
  117.250    0.278    0.620  125.153    2.978    0.000
  117.500    0.274    0.620  119.578    2.980    0.000
  117.750    0.258    0.616  112.131    3.039    0.000
  118.000    0.245    0.597  117.752    2.984    0.000
  118.250    0.250    0.582  119.024    2.987    0.000
  118.500    0.279    0.577  120.911    2.989    0.000
  118.750    0.278    0.596  124.671    3.047    0.000
  119.000    0.277    0.598  117.224    3.049    0.000
  119.250    0.277    0.569  114.757    3.168    0.000
  119.500    0.275    0.566  117.892    3.291    0.000
  119.750    0.269    0.552  116.049    3.485    0.000
  120.000    0.263    0.583  116.695    3.760    0.000
  120.250    0.259    0.560  113.607    3.834    0.000
  120.500    0.259    0.558  123.587    3.764    0.000
  120.750    0.265    0.553  124.856    3.560    0.000
  121.000    0.264    0.546  128.613    3.496    0.000
  121.250    0.259    0.543  138.594    3.433    0.000
  121.500    0.259    0.508  141.730    3.501    0.000
  121.750    0.250    0.508  125.572    3.569    0.000
  122.000    0.249    0.490  120.617    3.779    0.000
  122.250    0.246    0.462  115.038    3.927    0.000
  122.500    0.241    0.454  117.556    4.157    0.000
  122.750    0.233    0.419  115.087    4.657    0.000
  123.000    0.210    0.381  107.018    5.626    0.000
  123.250    0.178    0.340   69.076    6.302    0.000
  123.500    0.174    0.339   55.408    7.059    0.000
  123.750    0.244    0.423   67.259    8.059    0.000
  124.000    0.252    0.443   90.309    8.373    0.000
  124.250    0.256    0.453   76.017    7.771    0.000
  124.500    0.246    0.471   95.954    6.688    0.000
  124.750    0.242    0.472  104.694    5.544    0.000
  125.000    0.242    0.448  102.846    4.773    0.000
  125.250    0.240    0.439  107.231    4.600    0.000
  125.500    0.240    0.439  110.983    5.152    0.000
  125.750    0.238    0.413   94.829    6.107    0.000
  126.000    0.235    0.393   80.534    7.660    0.000
  126.250    0.230    0.430   98.607    9.080    0.000
  126.500    0.236    0.442  107.345   10.561    0.000
  126.750    0.241    0.425  106.746   11.833    0.000
  127.000    0.246    0.424  104.278   12.765    0.000
  127.250    0.250    0.429   94.343   14.035    0.000
  127.500    0.248    0.442   84.410   14.310    0.000
  127.750    0.247    0.456   86.303   14.592    0.000
  128.000    0.248    0.445   90.060   14.600    0.000
  128.250    0.250    0.451   95.682   14.609    0.000
  128.500    0.259    0.422   92.593   13.816    0.000
  128.750    0.265    0.420   98.218   13.068    0.000
  129.000    0.270    0.457  104.464   12.592    0.000
  129.250    0.288    0.481  112.579   11.908    0.000
  129.500    0.304    0.466  105.756   10.643    0.000
  129.750    0.281    0.468  112.004    9.694    0.000
  130.000    0.247    0.460  117.627    9.343    0.000
  130.250    0.236    0.475  123.878    9.707    0.000
  130.500    0.237    0.472  128.876   10.276    0.000
  130.750    0.251    0.464  133.881   11.512    0.000
  131.000    0.262    0.450  132.040   12.896    0.000
  131.250    0.269    0.451  128.323   14.447    0.000
  131.500    0.281    0.460  127.102   15.298    0.000
  131.750    0.276    0.449  124.637   15.305    0.000
  132.000    0.268    0.439  129.638   14.478    0.000
  132.250    0.251    0.462  138.378   13.691    0.000
  132.500    0.241    0.452  137.777   12.946    0.000
  132.750    0.240    0.442  144.654   12.477    0.000
  133.000    0.239    0.420  146.536   12.487    0.000
  133.250    0.257    0.403  138.468   12.730    0.000
  133.500    0.275    0.399  124.181   14.261    0.000
  133.750    0.286    0.385  109.886   15.974    0.000
  134.000    0.296    0.380   94.354   18.235    0.000
  134.250    0.301    0.377   78.193   20.817    0.000
  134.500    0.301    0.386   85.061   23.320    0.000
  134.750    0.297    0.383   86.330   26.125    0.000
  135.000    0.289    0.368   80.752   26.639    0.000
  135.250    0.272    0.369   85.757   26.158    0.000
  135.500    0.269    0.385   92.003   24.280    0.000
  135.750    0.262    0.376   98.869   22.960    0.000
  136.000    0.249    0.381   99.516   22.124    0.000
  136.250    0.198    0.366   88.959   20.534    0.000
  136.500    0.191    0.358   93.961   19.418    0.000
  136.750    0.267    0.411  103.943   17.689    0.000
  137.000    0.263    0.424  110.190   17.702    0.000
  137.250    0.270    0.439  112.080   18.044    0.000
  137.500    0.288    0.428   90.322   19.471    0.000
  137.750    0.300    0.443   72.295   20.612    0.000
  138.000    0.305    0.418   75.430   23.093    0.000
  138.250    0.304    0.413   83.543   23.997    0.000
  138.500    0.294    0.402   94.772   23.564    0.000
  138.750    0.264    0.408  104.128   21.865    0.000
  139.000    0.262    0.415  106.020   18.471    0.000
  139.250    0.257    0.442  102.933   17.468    0.000
  139.500    0.273    0.434  102.332   17.811    0.000
  139.750    0.296    0.431   79.329   19.579    0.000
  140.000    0.319    0.448   71.263   23.213    0.000
  140.250    0.330    0.434   61.949   25.520    0.000
  140.500    0.337    0.447   65.084   27.534    0.000
  140.750    0.351    0.473   77.559   28.070    0.000
  141.000    0.347    0.466   83.802   28.088    0.000
  141.250    0.329    0.448   88.185   27.068    0.000
  141.500    0.322    0.443   88.831   25.599    0.000
  141.750    0.324    0.437   91.346   24.669    0.000
  142.000    0.326    0.432   93.230   23.778    0.000
  142.250    0.324    0.452   97.610   23.343    0.000
  142.500    0.316    0.450  104.479   23.805    0.000
  142.750    0.307    0.426   97.035   23.379    0.000
  143.000    0.309    0.423   96.436   23.393    0.000
  143.250    0.313    0.437  102.059   23.405    0.000
  143.500    0.308    0.428  100.215   22.988    0.000
  143.750    0.297    0.429  100.239   23.434    0.000
  144.000    0.286    0.414  104.000   23.015    0.000
  144.250    0.278    0.397  100.912   23.027    0.000
  144.500    0.284    0.401   96.575   23.042    0.000
  144.750    0.284    0.445   99.711   23.057    0.000
  145.000    0.283    0.436   97.867   23.507    0.000
  145.250    0.285    0.419  103.493   23.526    0.000
  145.500    0.290    0.430  101.024   23.991    0.000
  145.750    0.290    0.418   92.957   24.454    0.000
  146.000    0.291    0.419   98.580   24.937    0.000
  146.250    0.299    0.418   95.496   25.910    0.000
