~VERSION INFORMATION
 VERS.                 2.0:   CWLS LOG ASCII STANDARD -VERSION 2.0
 WRAP.                  NO:   ONE LINE PER DEPTH STEP
~WELL INFORMATION BLOCK
#MNEM.UNIT           DATA                    DESCRIPTION OF MNEMONIC
#---------    -------------------            -------------------------------
# Generated from Intellog Unique Number	CS_77_79/WELL/931
WELL.         ASHLAND OIL CANADA LIMITED     : Well_name    - WELL
LOC .         00/10-05-077-18W4/0            : Location     - LOCATION
UWI .         00/10-05-077-18W4/0            : Uwi          - UNIQUE WELL ID
ENTR.         SP                             : Entered      - ENTERED BY
SRVC.         SCHLUMBERGER                   : Scn          - SERVICE COMPANY
STRT.M        207.264                        : top_depth    - START DEPTH
STOP.M        399.014                        : bot_depth    - STOP DEPTH
STEP.M        0.25                           : increment    - STEP LENGTH
 NULL. -999.2500:NULL Value
~CURVE INFORMATION BLOCK
#MNEM UNIT       ERCB CURVE CODE    CURVE DESCRIPTION
#-----------   ------------------   ----------------------------------
DEPT.M        00 001 00 00         : DEPTH        - DEPTH
GR  .API      00 310 00 00         : GR           - GAMMA RAY
DPHI.V/V      00 890 00 00         : PHID         - DENSITY POROSITY (SANDSTONE)
NPHI.V/V      00 330 00 00         : PHIN         - NEUTRON POROSITY (SANDSTONE)
ILD .OHMM     00 120 00 00         : RESD         - DEEP RESISTIVITY (DIL)
~PARAMETER INFORMATION
#MNEM.UNIT           DATA             DESCRIPTION OF MNEMONIC
#---------         -----------     ------------------------------
GL  .M        567.842              : gl           - GROUND LEVEL ELEVATION
EREF.M        572.11               : kb           - ELEVATION OF DEPTH REFERENCE
DATM.M        567.842              : datum        - DATUM ELEVATION
TDD .M        416.662              : tdd          - TOTAL DEPTH DRILLER
RUN .         ONE                  : Run          - RUN NUMBER
ENG .         BILL                 : Engineer     - RECORDING ENGINEER
WIT .         JIM                  : Witness      - WITNESSED BY
MUD .         GEL                  : Mud_type     - MUD TYPE
MATR.         SANDSTONE            : Logunit      - NEUTRON MATRIX
TMAX.C        22.2222              : BHT          - MAXIMUM RECORDED TEMPERATURE
BHTD.M        416.662              : BHTDEP       - MAXIMUM RECORDED TEMPERATURE
MATR.         1                    : LOGUNIT      - NEUTRON MATRIX
RMT .C        25                   : MDTP         - TEMPERATURE OF MUD
NEUT.         1                    : NEUTRON      - NEUTRON TYPE
RESI.         0                    : RESIST       - RESISTIVITY TYPE
RMC .OHMM     0.25                 : RMC          - RESISTIVITY OF MUD CAKE
RMF .OHMM     0.25                 : RMF          - RESISTIVITY OF MUD FILTRATE
SUFT.C        15                   : SUFT         - SURFACE TEMPERATURE
~A  DEPTH       GR     PHID     PHIN     RESD
# ...
  250.764   64.035    0.319    0.471   13.778
  251.014   65.380    0.300    0.454   13.589
  251.264   67.213    0.309    0.444   13.295
  251.514   68.512    0.317    0.442   12.745
  251.764   68.911    0.289    0.444   12.240
  252.014   69.714    0.243    0.470   11.707
  252.264   70.326    0.214    0.486   11.390
  252.514   68.537    0.240    0.497   11.262
  252.764   65.227    0.256    0.495   11.265
  253.014   61.999    0.240    0.477   11.248
  253.264   62.027    0.228    0.451   11.092
  253.514   63.490    0.196    0.443   10.720
  253.764   65.627    0.180    0.465   10.062
  254.014   72.395    0.201    0.473    9.561
  254.264   82.621    0.211    0.474    9.242
  254.514   89.224    0.235    0.473    9.143
  254.764   88.149    0.248    0.456    9.506
  255.014   84.469    0.271    0.444    9.616
  255.264   81.415    0.275    0.428    9.572
  255.514   84.752    0.264    0.415    9.125
  255.764   84.808    0.248    0.419    8.669
  256.014   83.151    0.235    0.446    7.845
  256.264   86.061    0.203    0.468    7.304
  256.514   87.461    0.222    0.480    6.765
  256.764   88.487    0.222    0.496    6.624
  257.014   88.319    0.244    0.505    6.685
  257.264   87.996    0.254    0.515    7.264
  257.514   84.467    0.241    0.508    8.218
  257.764   69.850    0.271    0.489    9.368
  258.014   57.519    0.284    0.470   10.844
  258.264   54.299    0.282    0.468   12.118
  258.514   52.299    0.293    0.455   14.937
  258.764   51.554    0.301    0.445   17.144
  259.014   50.276    0.290    0.441   19.578
  259.264   49.751    0.285    0.446   21.442
  259.514   50.688    0.286    0.448   22.898
  259.764   53.939    0.279    0.447   24.237
  260.014   56.440    0.289    0.439   25.537
  260.264   56.765    0.292    0.431   26.288
  260.514   58.148    0.297    0.422   27.683
  260.764   58.680    0.300    0.433   28.897
  261.014   58.609    0.290    0.445   30.290
  261.264   59.578    0.300    0.460   31.561
  261.514   61.628    0.306    0.468   32.457
  261.764   60.315    0.316    0.475   33.424
  262.014   59.341    0.321    0.477   34.655
  262.264   59.858    0.290    0.480   35.592
  262.514   59.684    0.308    0.481   37.061
  262.764   57.162    0.298    0.468   38.087
  263.014   56.606    0.303    0.457   37.209
  263.264   57.887    0.311    0.446   33.616
  263.514   57.449    0.318    0.451   29.818
  263.764   57.769    0.326    0.458   27.338
  264.014   59.373    0.318    0.457   25.015
  264.264   62.230    0.308    0.471   22.401
  264.514   64.538    0.312    0.481   20.799
  264.764   66.585    0.311    0.482   18.665
  265.014   68.039    0.310    0.479   16.940
  265.264   72.985    0.295    0.486   15.744
  265.514   76.242    0.287    0.492   14.376
  265.764   77.615    0.277    0.493   13.008
  266.014   79.097    0.285    0.496   12.456
  266.264   78.278    0.282    0.513   11.972
  266.514   73.924    0.281    0.512   12.652
  266.764   67.049    0.291    0.518   13.801
  267.014   59.041    0.291    0.525   14.753
  267.264   55.631    0.296    0.523   15.571
  267.514   55.611    0.310    0.495   15.993
  267.764   55.611    0.321    0.484   16.351
  268.014   55.718    0.304    0.480   16.052
  268.264   54.165    0.307    0.484   15.513
  268.514   53.811    0.303    0.482   15.023
  268.764   54.073    0.312    0.486   14.689
  269.014   55.087    0.306    0.488   14.363
  269.264   56.525    0.310    0.490   14.185
  269.514   58.078    0.312    0.486   14.423
  269.764   57.979    0.298    0.474   14.645
  270.014   58.099    0.317    0.475   14.992
  270.264   56.650    0.323    0.473   15.027
  270.514   56.778    0.323    0.478   15.045
  270.764   57.130    0.329    0.474   14.547
  271.014   58.091    0.325    0.471   13.726
  271.264   56.833    0.330    0.473   13.106
  271.514   57.153    0.314    0.481   12.440
  271.764   57.364    0.323    0.490   12.025
  272.014   56.932    0.323    0.481   11.535
  272.264   54.016    0.318    0.482   11.200
  272.514   51.844    0.301    0.486   11.113
  272.764   51.845    0.295    0.470   10.926
  273.014   51.910    0.291    0.466   10.867
  273.264   52.605    0.309    0.473   10.760
  273.514   53.951    0.300    0.475   10.621
  273.764   55.750    0.299    0.471   10.576
  274.014   54.366    0.303    0.457   10.585
  274.264   55.347    0.305    0.448   10.378
  274.514   56.230    0.292    0.461   10.400
  274.764   55.586    0.306    0.470   10.406
  275.014   55.545    0.318    0.464   10.307
  275.264   55.479    0.309    0.457   10.232
  275.514   54.392    0.306    0.468   10.235
  275.764   54.062    0.304    0.477   10.242
  276.014   53.692    0.323    0.484   10.254
  276.264   53.631    0.338    0.488   10.240
  276.514   53.089    0.345    0.485   10.492
  276.764   52.523    0.355    0.492   10.476
  277.014   51.617    0.313    0.487   10.936
  277.264   49.999    0.283    0.478   11.579
  277.514   50.709    0.274    0.469   12.655
  277.764   50.103    0.280    0.437   13.484
  278.014   48.060    0.240    0.387   15.306
  278.264   46.614    0.118    0.257   16.732
  278.514   45.596    0.095    0.268   18.982
  278.764   45.364    0.133    0.377   20.200
  279.014   45.261    0.196    0.376   21.412
  279.264   47.106    0.223    0.339   20.670
  279.514   49.062    0.166    0.363   17.635
  279.764   52.233    0.172    0.409   15.485
  280.014   54.107    0.255    0.486   13.833
  280.264   56.086    0.307    0.489   12.193
  280.514   54.385    0.304    0.483   11.422
  280.764   52.394    0.229    0.467   11.082
  281.014   53.045    0.183    0.378   11.609
  281.264   54.345    0.162    0.395   11.725
  281.514   56.544    0.247    0.446   11.799
  281.764   58.079    0.280    0.453   11.473
  282.014   55.598    0.301    0.446   11.152
  282.264   53.091    0.296    0.457   10.832
  282.514   54.087    0.288    0.464   10.663
  282.764   55.798    0.296    0.480   10.747
  283.014   56.709    0.301    0.486   10.880
  283.264   56.928    0.301    0.476   10.880
  283.514   58.937    0.283    0.474   10.787
  283.764   60.813    0.273    0.468   10.503
  284.014   61.433    0.274    0.471   10.389
  284.264   63.457    0.274    0.468   10.299
  284.514   66.459    0.266    0.478    9.958
  284.764   71.340    0.258    0.483    9.628
  285.014   76.272    0.249    0.481    9.559
  285.264   77.316    0.261    0.500    9.549
  285.514   71.993    0.258    0.487    9.858
  285.764   65.263    0.285    0.460   10.187
  286.014   56.167    0.297    0.442   10.698
  286.264   54.300    0.293    0.446   10.833
  286.514   52.447    0.294    0.455   11.197
  286.764   50.873    0.305    0.452   11.618
  287.014   47.467    0.309    0.445   10.961
  287.264   47.665    0.298    0.449   10.840
  287.514   47.599    0.303    0.451   10.841
  287.764   48.308    0.308    0.450   10.843
  288.014   48.218    0.295    0.438   10.848
  288.264   49.303    0.303    0.435   10.860
  288.514   48.989    0.300    0.448   10.867
  288.764   52.278    0.286    0.457   10.873
  289.014   51.856    0.286    0.460   10.882
  289.264   48.784    0.283    0.466   10.890
  289.514   48.909    0.287    0.473   10.898
  289.764   50.403    0.300    0.474   10.906
  290.014   48.838    0.280    0.467   10.915
  290.264   49.163    0.281    0.478   11.048
  290.514   50.256    0.289    0.482   11.125
  290.764   52.300    0.280    0.475   11.142
  291.014   53.341    0.289    0.464   11.149
  291.264   53.531    0.280    0.456   11.155
  291.514   52.473    0.276    0.447   11.164
  291.764   52.408    0.289    0.442   11.175
  292.014   52.389    0.292    0.449   11.182
  292.264   52.791    0.283    0.446   11.202
  292.514   53.688    0.283    0.438   11.332
  292.764   52.986    0.282    0.441   11.604
  293.014   54.447    0.277    0.458   11.399
  293.264   54.785    0.274    0.466   11.422
  293.514   54.207    0.284    0.450   11.426
  293.764   54.190    0.285    0.443   11.322
  294.014   54.186    0.288    0.443   11.252
