~VERSION INFORMATION
 VERS.                 2.0:   CWLS LOG ASCII STANDARD -VERSION 2.0
 WRAP.                  NO:   ONE LINE PER DEPTH STEP
~WELL INFORMATION BLOCK
#MNEM.UNIT           DATA                    DESCRIPTION OF MNEMONIC
#---------    -------------------            -------------------------------
# Generated from Intellog Unique Number	CN_91_93/WELL/3062
WELL.         10-14-092-21W4                 : Well_name    - WELL
LOC .         00/10-14-092-21W4/0            : Location     - LOCATION
UWI .         00/10-14-092-21W4/0            : Uwi          - UNIQUE WELL ID
ENTR.         JOETTE                         : Entered      - ENTERED BY
SRVC.         SCHLUMBERGER                   : Scn          - SERVICE COMPANY
DATE.         04/09/92                       : Date         - LOG DATE
STRT.M        225                            : top_depth    - START DEPTH
STOP.M        367                            : bot_depth    - STOP DEPTH
STEP.M        0.25                           : increment    - STEP LENGTH
 NULL. -999.2500:NULL Value
~CURVE INFORMATION BLOCK
#MNEM UNIT       ERCB CURVE CODE    CURVE DESCRIPTION
#-----------   ------------------   ----------------------------------
DEPT.M        00 001 00 00         : DEPTH        - DEPTH
GR  .API      00 310 00 00         : GR           - GAMMA RAY
NPHI.V/V      00 330 00 00         : PHIN         - NEUTRON POROSITY (SANDSTONE)
DPHI.V/V      00 890 00 00         : PHID         - DENSITY POROSITY (SANDSTONE)
ILD .OHMM     00 120 00 00         : RESD         - DEEP RESISTIVITY (DIL)
~PARAMETER INFORMATION
#MNEM.UNIT           DATA             DESCRIPTION OF MNEMONIC
#---------         -----------     ------------------------------
GL  .M        540.3                : gl           - GROUND LEVEL ELEVATION
EREF.M        544                  : kb           - ELEVATION OF DEPTH REFERENCE
DATM.M        544                  : datum        - DATUM ELEVATION
TDD .M        379.69               : tdd          - TOTAL DEPTH DRILLER
RUN .         ONE                  : Run          - RUN NUMBER
ENG .         BILL                 : Engineer     - RECORDING ENGINEER
WIT .         JIM                  : Witness      - WITNESSED BY
MUD .         GEL                  : Mud_type     - MUD TYPE
MATR.         SANDSTONE            : Logunit      - NEUTRON MATRIX
TMAX.C        14                   : BHT          - MAXIMUM RECORDED TEMPERATURE
BHTD.M        379.69               : BHTDEP       - MAXIMUM RECORDED TEMPERATURE
RMT .C        14                   : MDTP         - TEMPERATURE OF MUD
MUDD.KG/M     9666.66              : MWT          - MUD DENSITY
NEUT.         1                    : NEUTRON      - NEUTRON TYPE
RESI.         0                    : RESIST       - RESISTIVITY TYPE
RM  .OHMM     8.5                  : RM           - RESISTIVITY OF MUD
RMC .OHMM     8.5                  : RMC          - RESISTIVITY OF MUD CAKE
RMF .OHMM     8.5                  : RMF          - RESISTIVITY OF MUD FILTRATE
SUFT.C        4                    : SUFT         - SURFACE TEMPERATURE
~A  DEPTH       GR     PHIN     PHID     RESD
# ...
  268.500   12.204    0.157    0.047   94.506
  268.750   12.843    0.165    0.051   94.517
  269.000   15.348    0.165    0.038   91.320
  269.250   19.102    0.163    0.033   76.850
  269.500   23.474    0.163    0.029   61.409
  269.750   25.353    0.168    0.040   51.679
  270.000   29.733    0.175    0.049   45.018
  270.250   30.376    0.179    0.057   40.593
  270.500   30.388    0.182    0.055   39.223
  270.750   29.778    0.183    0.048   42.763
  271.000   28.550    0.183    0.055   46.622
  271.250   26.700    0.183    0.060   52.618
  271.500   24.239    0.180    0.032   54.472
  271.750   23.629    0.167    0.017   51.729
  272.000   24.260    0.150    0.007   48.283
  272.250   26.769    0.144    0.010   43.536
  272.500   28.648    0.142    0.008   39.941
  272.750   34.887    0.132    0.019   35.400
  273.000   40.504    0.128    0.003   32.475
  273.250   47.365    0.136    0.014   29.284
  273.500   52.359    0.145    0.012   27.334
  273.750   51.753    0.159    0.001   28.297
  274.000   48.658    0.158   -0.015   30.853
  274.250   47.430    0.139   -0.009   31.940
  274.500   49.321    0.135   -0.005   32.498
  274.750   51.827    0.145    0.011   32.504
  275.000   51.217    0.140    0.011   32.507
  275.250   47.499    0.145    0.012   32.510
  275.500   44.404    0.141    0.006   33.081
  275.750   43.180    0.129   -0.001   33.083
  276.000   45.681    0.135    0.008   34.250
  276.250   51.298    0.150    0.020   33.668
  276.500   57.537    0.166    0.035   27.372
  276.750   62.535    0.178    0.035   23.436
  277.000   63.796    0.183    0.037   20.066
  277.250   63.812    0.188    0.045   19.388
  277.500   64.451    0.193    0.047   19.389
  277.750   65.086    0.199    0.050   21.140
  278.000   61.368    0.204    0.045   22.654
  278.250   57.029    0.200    0.034   25.128
  278.500   48.334    0.191   -0.012   30.387
  278.750   28.438    0.182   -0.044   37.386
  279.000   20.987    0.171   -0.141   53.729
  279.250   16.647    0.172   -0.135   55.619
  279.500   12.938    0.177   -0.097   69.622
  279.750   12.332    0.177    0.060   82.750
  280.000   12.340    0.178    0.102   85.666
  280.250   12.361    0.182    0.148   87.170
  280.500   11.751    0.179    0.275   95.037
  280.750   10.527    0.172    0.239  109.126
  281.000    9.294    0.173    0.197  111.039
  281.250    8.074    0.183    0.238  103.642
  281.500    7.464    0.201    0.355  101.880
  281.750    7.489    0.222    0.381  119.014
  282.000    8.115    0.240   -0.140  123.209
  282.250    8.131    0.225   -0.149   98.457
  282.500    8.148    0.198    0.004   84.299
  282.750    7.550    0.174    0.088   96.794
  283.000    7.562    0.170    0.074  123.272
  283.250    6.964    0.171    0.053  123.287
  283.500    6.977    0.175   -0.106  115.074
  283.750    6.993    0.179   -0.015  117.091
  284.000    6.387    0.187    0.053  121.218
  284.250    6.403    0.182    0.028  121.232
  284.500    5.797    0.162    0.016  115.130
  284.750    5.814    0.157    0.006  113.166
  285.000    5.830    0.157    0.038  109.341
  285.250    5.842    0.168    0.054  115.169
  285.500    5.867    0.168    0.060  123.413
  285.750    5.879    0.155    0.055  136.901
  286.000    6.513    0.152    0.053  141.726
  286.250    6.534    0.170    0.064  144.206
  286.500    6.554    0.183    0.089  141.758
  286.750    6.562    0.194    0.100  132.316
  287.000    6.583    0.187    0.093  125.649
  287.250    6.595    0.174    0.068  115.272
  287.500    6.001    0.160    0.049  102.169
  287.750    6.005    0.145    0.038   97.021
  288.000    6.022    0.138    0.043   89.010
  288.250    6.042    0.136    0.040   87.492
  288.500    6.058    0.134    0.012   84.535
  288.750    6.079    0.140    0.006   78.909
  289.000    6.091    0.148    0.006   76.237
  289.250    6.107    0.145    0.016   72.400
  289.500    6.750    0.143    0.025   71.167
  289.750    6.766    0.139    0.036   71.173
  290.000    7.405    0.139    0.042   71.181
  290.250    8.043    0.137    0.046   71.189
  290.500    8.686    0.134    0.050   69.981
  290.750    9.939    0.132    0.046   65.321
  291.000   13.066    0.129    0.018   58.899
  291.250   17.438    0.126    0.049   51.306
  291.500   25.544    0.132    0.061   42.438
  291.750   40.495    0.128    0.056   35.715
  292.000   61.049    0.124    0.048   31.111
  292.250   72.266    0.132    0.062   25.734
  292.500   96.551    0.166    0.102   20.921
  292.750  106.523    0.204    0.265   16.151
  293.000  108.406    0.207    0.331    9.297
  293.250  117.134    0.212    0.392    7.690
  293.500  120.266    0.217    0.424    7.303
  293.750  112.193    0.217    0.363    7.431
  294.000  112.835    0.205    0.352    7.179
  294.250  114.714    0.194    0.404    6.818
  294.500  106.641    0.205    0.373    6.702
  294.750   88.608    0.224    0.282    7.829
  295.000   67.468    0.218    0.012   12.265
  295.250   61.266    0.195   -0.030   14.832
  295.500   61.282    0.177    0.002   18.248
  295.750   58.187    0.174    0.015   22.067
  296.000   55.714    0.174    0.016   23.242
  296.250   54.490    0.174    0.014   22.848
  296.500   55.120    0.172    0.030   21.697
  296.750   57.630    0.172    0.033   19.229
  297.000   62.624    0.173    0.008   16.464
  297.250   69.485    0.181    0.003   13.618
  297.500   78.835    0.195    0.048   11.660
  297.750   81.967    0.210    0.076   10.883
  298.000   83.224    0.223    0.076   11.074
  298.250   78.266    0.234    0.085   11.867
  298.500   72.678    0.244    0.058   13.393
  298.750   41.581    0.233    0.048   15.646
  299.000   34.131    0.202    0.056   23.275
  299.250   22.324    0.167    0.069   29.641
  299.500   14.247    0.140    0.063   37.102
  299.750    9.289    0.141    0.038   55.193
  300.000    8.679    0.134    0.007   60.175
  300.250    9.330    0.129   -0.004   67.912
  300.500    9.342    0.133   -0.017   72.775
  300.750   10.607    0.140    0.069   70.316
  301.000   10.615    0.146    0.092   74.064
  301.250   10.632    0.157    0.111   76.672
  301.500   11.270    0.171    0.060   80.756
  301.750   11.291    0.182    0.092   83.605
  302.000   10.681    0.186    0.105   83.615
  302.250   10.697    0.191    0.116   83.624
  302.500   10.091    0.192    0.121   85.088
  302.750    9.489    0.193    0.114   85.100
  303.000    8.887    0.188    0.098   82.219
  303.250    8.895    0.183    0.097   76.742
  303.500    8.294    0.181    0.100   74.148
  303.750    8.310    0.182    0.101   76.764
  304.000    8.330    0.182    0.092   78.109
  304.250    8.961    0.182    0.092   78.116
  304.500    8.981    0.180    0.126   76.792
  304.750    9.620    0.178    0.115   71.677
  305.000    9.632    0.182    0.116   68.063
  305.250    9.648    0.186    0.174   63.529
  305.500    9.669    0.204    0.143   60.330
  305.750    9.681    0.203    0.143   61.388
  306.000   10.323    0.199    0.233   61.395
  306.250   11.588    0.203    0.302   55.360
  306.500   12.845    0.202    0.271   35.960
  306.750   15.977    0.186    0.214   26.818
  307.000   20.345    0.192    0.011   21.430
  307.250   30.939    0.200   -0.020   16.544
  307.500   44.645    0.211   -0.008   15.441
  307.750   50.262    0.220    0.007   13.221
  308.000   53.390    0.226    0.022   11.320
  308.250   54.651    0.225    0.045    9.692
  308.500   57.778    0.226    0.048    8.892
  308.750   64.025    0.228    0.047    8.741
  309.000   67.149    0.231    0.041    8.742
  309.250   69.032    0.218    0.034    8.895
  309.500   64.074    0.201    0.024    9.051
  309.750   61.597    0.188    0.030    9.210
  310.000   60.991    0.193    0.057    9.210
  310.250   62.256    0.198    0.063    9.054
  310.500   63.521    0.195    0.063    8.748
  310.750   64.152    0.195    0.054    8.749
  311.000   62.923    0.193    0.030    9.874
  311.250   57.339    0.183    0.008   11.143
  311.500   42.422    0.151   -0.007   13.244
  311.750   31.863    0.117   -0.014   13.711
