~VERSION INFORMATION
 VERS.                 2.0:   CWLS LOG ASCII STANDARD -VERSION 2.0
 WRAP.                  NO:   ONE LINE PER DEPTH STEP
~WELL INFORMATION BLOCK
#MNEM.UNIT           DATA                    DESCRIPTION OF MNEMONIC
#---------    -------------------            -------------------------------
# Generated from Intellog Unique Number	CS_73_76/WELL/829
WELL.         BRASCAN RESOURCES LIMITED      : Well_name    - WELL
LOC .         00/10-22-073-18W4/0            : Location     - LOCATION
UWI .         00/10-22-073-18W4/0            : Uwi          - UNIQUE WELL ID
ENTR.         SP                             : Entered      - ENTERED BY
SRVC.         SCHLUMBERGER                   : Scn          - SERVICE COMPANY
STRT.M        243.84                         : top_depth    - START DEPTH
STOP.M        438.09                         : bot_depth    - STOP DEPTH
STEP.M        0.25                           : increment    - STEP LENGTH
 NULL. -999.2500:NULL Value
~CURVE INFORMATION BLOCK
#MNEM UNIT       ERCB CURVE CODE    CURVE DESCRIPTION
#-----------   ------------------   ----------------------------------
DEPT.M        00 001 00 00         : DEPTH        - DEPTH
GR  .API      00 310 00 00         : GR           - GAMMA RAY
DPHI.V/V      00 890 00 00         : PHID         - DENSITY POROSITY (SANDSTONE)
NPHI.V/V      00 330 00 00         : PHIN         - NEUTRON POROSITY (SANDSTONE)
ILD .OHMM     00 120 00 00         : RESD         - DEEP RESISTIVITY (DIL)
~PARAMETER INFORMATION
#MNEM.UNIT           DATA             DESCRIPTION OF MNEMONIC
#---------         -----------     ------------------------------
GL  .M        574.243              : gl           - GROUND LEVEL ELEVATION
EREF.M        577.596              : kb           - ELEVATION OF DEPTH REFERENCE
DATM.M        574.243              : datum        - DATUM ELEVATION
TDD .M        439.826              : tdd          - TOTAL DEPTH DRILLER
RUN .         ONE                  : Run          - RUN NUMBER
ENG .         BILL                 : Engineer     - RECORDING ENGINEER
WIT .         JIM                  : Witness      - WITNESSED BY
MUD .         GEL                  : Mud_type     - MUD TYPE
MATR.         SANDSTONE            : Logunit      - NEUTRON MATRIX
TMAX.C        15.5556              : BHT          - MAXIMUM RECORDED TEMPERATURE
BHTD.M        439.826              : BHTDEP       - MAXIMUM RECORDED TEMPERATURE
MATR.         1                    : LOGUNIT      - NEUTRON MATRIX
RMT .C        25                   : MDTP         - TEMPERATURE OF MUD
NEUT.         1                    : NEUTRON      - NEUTRON TYPE
RESI.         0                    : RESIST       - RESISTIVITY TYPE
RMC .OHMM     0.25                 : RMC          - RESISTIVITY OF MUD CAKE
RMF .OHMM     0.25                 : RMF          - RESISTIVITY OF MUD FILTRATE
SUFT.C        15                   : SUFT         - SURFACE TEMPERATURE
~A  DEPTH       GR     PHID     PHIN     RESD
# ...
  330.840   88.805    0.205    0.509    5.988
  331.090   88.026    0.216    0.486    5.950
  331.340   87.170    0.224    0.469    5.903
  331.590   86.678    0.232    0.502    5.734
  331.840   86.889    0.227    0.519    5.552
  332.090   90.307    0.235    0.528    5.276
  332.340   95.846    0.226    0.535    4.971
  332.590   98.522    0.206    0.540    4.685
  332.840   99.819    0.195    0.535    4.409
  333.090   93.503    0.222    0.533    4.230
  333.340   87.152    0.239    0.544    4.208
  333.590   81.270    0.271    0.521    4.397
  333.840   70.396    0.293    0.494    4.655
  334.090   63.549    0.308    0.484    5.049
  334.340   60.725    0.323    0.488    5.275
  334.590   58.747    0.324    0.468    5.443
  334.840   60.739    0.326    0.455    5.493
  335.090   63.899    0.329    0.466    5.594
  335.340   67.022    0.330    0.485    5.590
  335.590   70.137    0.327    0.477    5.589
  335.840   71.764    0.319    0.469    5.590
  336.090   71.799    0.313    0.473    5.590
  336.340   70.798    0.308    0.477    5.590
  336.590   69.721    0.304    0.477    5.591
  336.840   70.241    0.303    0.485    5.591
  337.090   70.769    0.304    0.492    5.592
  337.340   71.432    0.315    0.472    5.595
  337.590   72.102    0.327    0.489    5.603
  337.840   72.269    0.333    0.485    5.700
  338.090   71.476    0.322    0.467    5.697
  338.340   71.556    0.311    0.462    5.696
  338.590   72.771    0.303    0.480    5.697
  338.840   73.717    0.303    0.486    5.697
  339.090   72.199    0.310    0.483    5.697
  339.340   70.126    0.316    0.489    5.698
  339.590   70.742    0.317    0.513    5.698
  339.840   72.148    0.319    0.530    5.699
  340.090   72.335    0.313    0.545    5.699
  340.340   71.292    0.305    0.551    5.699
  340.590   73.368    0.300    0.487    5.700
  340.840   75.085    0.298    0.467    5.700
  341.090   75.311    0.296    0.462    5.701
  341.340   74.522    0.300    0.467    5.701
  341.590   71.600    0.306    0.478    5.699
  341.840   69.338    0.310    0.490    5.700
  342.090   68.893    0.309    0.500    5.591
  342.340   70.006    0.306    0.503    5.592
  342.590   70.580    0.304    0.498    5.700
  342.840   68.930    0.298    0.507    5.752
  343.090   66.214    0.295    0.517    5.919
  343.340   65.297    0.293    0.510    6.008
  343.590   65.923    0.295    0.517    6.192
  343.840   66.527    0.297    0.492    6.380
  344.090   66.118    0.298    0.479    6.584
  344.340   66.894    0.292    0.488    6.600
  344.590   69.637    0.286    0.496    6.603
  344.840   69.844    0.284    0.483    6.523
  345.090   69.030    0.292    0.487    6.326
  345.340   68.445    0.293    0.514    6.141
  345.590   69.493    0.293    0.529    6.034
  345.840   69.549    0.294    0.534    5.913
  346.090   68.548    0.297    0.538    5.827
  346.340   67.531    0.301    0.525    5.713
  346.590   67.326    0.306    0.526    5.596
  346.840   67.874    0.315    0.518    5.616
  347.090   68.007    0.324    0.534    5.496
  347.340   67.344    0.325    0.533    5.505
  347.590   67.894    0.325    0.507    5.516
  347.840   68.083    0.317    0.522    5.397
  348.090   67.451    0.302    0.540    5.408
  348.340   69.863    0.287    0.500    5.418
  348.590   72.838    0.267    0.475    5.295
  348.840   74.216    0.247    0.469    5.405
  349.090   66.944    0.225    0.464    5.635
  349.340   64.058    0.199    0.384    6.794
  349.590   59.513    0.157    0.183    7.581
  349.840   56.261    0.066    0.145    9.114
  350.090   52.296    0.024    0.136   11.247
  350.340   50.862    0.026    0.137   15.717
  350.590   51.570    0.046    0.144   20.362
  350.840   53.992    0.075    0.160   23.728
  351.090   58.024    0.132    0.195   21.753
  351.340   59.635    0.180    0.278   18.419
  351.590   61.731    0.205    0.353   15.299
  351.840   62.000    0.220    0.386   13.224
  352.090   61.967    0.210    0.394   11.195
  352.340   61.846    0.219    0.400   10.305
  352.590   61.002    0.238    0.421    9.410
  352.840   63.313    0.256    0.452    8.986
  353.090   65.725    0.284    0.468    8.347
  353.340   67.088    0.298    0.479    7.441
  353.590   66.038    0.313    0.492    6.960
  353.840   66.058    0.319    0.483    6.558
  354.090   67.184    0.325    0.473    6.215
  354.340   68.545    0.327    0.475    6.042
  354.590   68.715    0.315    0.475    5.965
  354.840   68.384    0.306    0.466    5.907
  355.090   67.964    0.311    0.462    5.828
  355.340   68.643    0.312    0.472    5.828
  355.590   70.807    0.319    0.455    5.829
  355.840   73.236    0.316    0.452    5.830
  356.090   75.957    0.314    0.473    5.841
  356.340   77.145    0.312    0.496    5.716
  356.590   79.768    0.313    0.514    5.736
  356.840   81.230    0.321    0.533    5.609
  357.090   76.681    0.324    0.546    5.616
  357.340   72.075    0.320    0.553    5.517
  357.590   71.263    0.322    0.541    5.529
  357.840   72.351    0.313    0.515    5.422
  358.090   72.374    0.309    0.501    5.426
  358.340   72.528    0.310    0.497    5.430
  358.590   73.522    0.309    0.491    5.331
  358.840   76.566    0.311    0.504    5.329
  359.090   77.970    0.311    0.512    5.327
  359.340   77.564    0.313    0.510    5.327
  359.590   74.449    0.310    0.499    5.328
  359.840   73.701    0.305    0.535    5.330
  360.090   74.769    0.303    0.519    5.251
  360.340   75.556    0.305    0.504    5.236
  360.590   75.514    0.308    0.494    5.234
  360.840   75.333    0.306    0.506    5.163
  361.090   76.696    0.298    0.509    5.119
  361.340   78.599    0.294    0.515    4.957
  361.590   75.359    0.290    0.525    4.722
  361.840   73.847    0.286    0.521    4.342
  362.090   79.076    0.271    0.522    4.012
  362.340   82.977    0.255    0.529    3.780
  362.590   91.505    0.230    0.535    3.488
  362.840   99.106    0.216    0.541    3.344
  363.090   99.278    0.209    0.549    3.284
  363.340   99.069    0.212    0.557    3.321
  363.590   95.899    0.211    0.554    3.520
  363.840   90.780    0.223    0.565    3.739
  364.090   87.137    0.234    0.539    4.136
  364.340   87.190    0.257    0.508    4.358
  364.590   87.152    0.260    0.492    4.656
  364.840   87.786    0.248    0.505    4.953
  365.090   89.910    0.239    0.510    5.170
  365.340   92.029    0.227    0.507    5.248
  365.590   96.161    0.218    0.536    5.433
  365.840   98.715    0.211    0.553    5.291
  366.090  100.555    0.207    0.564    5.023
  366.340  102.244    0.206    0.578    4.452
  366.590  101.392    0.208    0.571    4.071
  366.840  100.445    0.212    0.578    3.836
  367.090   98.930    0.215    0.523    3.660
  367.340   97.287    0.218    0.505    3.587
  367.590   96.384    0.219    0.495    3.707
  367.840   96.417    0.219    0.505    3.957
  368.090   96.531    0.216    0.523    4.505
  368.340   97.529    0.212    0.545    4.933
  368.590   98.879    0.216    0.558    5.204
  368.840   99.526    0.222    0.557    5.363
  369.090   99.015    0.228    0.535    5.441
  369.340   96.878    0.227    0.511    5.397
  369.590   94.676    0.220    0.496    5.346
  369.840   95.192    0.222    0.489    5.267
  370.090   96.404    0.220    0.504    5.247
  370.340   97.778    0.213    0.515    5.246
  370.590   99.257    0.207    0.520    5.146
  370.840   99.607    0.208    0.513    5.151
  371.090   99.048    0.219    0.508    5.156
  371.340   97.358    0.227    0.508    5.053
  371.590   95.848    0.224    0.516    5.065
  371.840   94.348    0.224    0.527    4.980
  372.090   93.094    0.236    0.521    4.983
  372.340   91.819    0.241    0.531    4.877
  372.590   89.701    0.245    0.528    4.808
  372.840   90.671    0.248    0.523    4.760
  373.090   92.640    0.250    0.508    4.708
  373.340   89.830    0.253    0.500    4.705
  373.590   87.307    0.257    0.505    4.680
  373.840   84.890    0.262    0.500    4.623
  374.090   84.861    0.259    0.506    4.621
