~VERSION INFORMATION
 VERS.                 2.0:   CWLS LOG ASCII STANDARD -VERSION 2.0
 WRAP.                  NO:   ONE LINE PER DEPTH STEP
~WELL INFORMATION BLOCK
#MNEM.UNIT           DATA                    DESCRIPTION OF MNEMONIC
#---------    -------------------            -------------------------------
# Generated from Intellog Unique Number	CW_70_72/WELL/1048
NULL.         -999.25                        : NULL_VALUE
WELL.         SUNDANCE ET AL SMITH 10-33     : Well_name    - WELL              
LOC .         10-33-072-25W4                 : Location     - LOCATION          
UWI .         00/10-33-072-25W4/0            : Uwi          - UNIQUE WELL ID    
ENTR.         JAYE                           : Entered      - ENTERED BY        
SRVC.         SCHLUMBERGER                   : Scn          - SERVICE COMPANY   
DATE.         14 JAN 77                      : Date         - LOG DATE          
STRT.M        441.96                         : top_depth    - START DEPTH       
STOP.M        656.71                         : bot_depth    - STOP DEPTH        
STEP.M        0.25                           : increment    - STEP LENGTH       
~CURVE INFORMATION BLOCK
#MNEM UNIT       ERCB CURVE CODE    CURVE DESCRIPTION
#-----------   ------------------   ----------------------------------
DEPT.M        00 001 00 00         : DEPTH        - DEPTH                       
DPHI.V/V      00 890 00 00         : PHID         - DENSITY POROSITY (SANDSTONE)
NPHI.V/V      00 330 00 00         : PHIN         - NEUTRON POROSITY (SANDSTONE)
GR  .API      00 310 00 00         : GR           - GAMMA RAY                   
CALI.MM       00 280 01 00         : CAL          - CALIPER                     
ILD .OHMM     00 120 00 00         : RESD         - DEEP RESISTIVITY (DIL)      
~PARAMETER INFORMATION       
#MNEM.UNIT           DATA             DESCRIPTION OF MNEMONIC
#---------         -----------     ------------------------------
GL  .M        664.159              : gl           - GROUND LEVEL ELEVATION      
EREF.M        667.817              : kb           - ELEVATION OF DEPTH REFERENCE
DATM.M        664.159              : datum        - DATUM ELEVATION             
TDD .M        670.56               : tdd          - TOTAL DEPTH DRILLER         
RUN .         ONE                  : Run          - RUN NUMBER                  
MATR.         SANDSTONE            : Logunit      - NEUTRON MATRIX              
TMAX.C        -17.7778             : BHT          - MAXIMUM RECORDED TEMPERATURE
BHTD.M        671.17               : BHTDEP       - MAXIMUM RECORDED TEMPERATURE
RMT .C        17.7778              : MDTP         - TEMPERATURE OF MUD          
MUDD.KG/M     0                    : MWT          - MUD DENSITY                 
NEUT.         1                    : NEUTRON      - NEUTRON TYPE                
RESI.         0                    : RESIST       - RESISTIVITY TYPE            
RM  .OHMM     4.02                 : RM           - RESISTIVITY OF MUD          
RMC .OHMM     0                    : RMC          - RESISTIVITY OF MUD CAKE     
RMF .OHMM     3.71                 : RMF          - RESISTIVITY OF MUD FILTRATE 
SUFT.C        -17.7778             : SUFT         - SURFACE TEMPERATURE         
~A  DEPTH     PHID     PHIN       GR      CAL     RESD
# ...
  478.460    0.305    0.453   74.318  155.691    3.739
  478.710    0.317    0.436   80.710  157.356    3.663
  478.960    0.286    0.456   85.642  157.478    3.602
  479.210    0.274    0.470   92.155  157.286    3.523
  479.460    0.250    0.483   96.663  157.509    3.414
  479.710    0.222    0.498   98.558  158.553    3.320
  479.960    0.252    0.508  100.390  162.175    3.205
  480.210    0.239    0.516  104.958  165.482    3.066
  480.460    0.258    0.503  104.604  170.440    2.837
  480.710    0.240    0.502   99.326  181.159    2.611
  480.960    0.247    0.515   95.082  176.030    2.544
  481.210    0.256    0.523   92.599  177.591    2.600
  481.460    0.271    0.535   84.343  171.741    2.758
  481.710    0.306    0.534   78.397  158.893    2.926
  481.960    0.305    0.475   80.291  153.149    3.080
  482.210    0.289    0.470   84.069  152.135    3.190
  482.460    0.290    0.488   79.520  155.959    3.334
  482.710    0.274    0.487   76.249  158.035    3.434
  482.960    0.251    0.500   72.429  155.067    3.576
  483.210    0.275    0.519   60.041  150.967    3.710
  483.460    0.324    0.437   52.575  149.442    3.863
  483.710    0.340    0.436   54.043  149.972    4.008
  483.960    0.339    0.435   58.978  151.122    4.181
  484.210    0.315    0.419   62.876  152.683    4.370
  484.460    0.302    0.412   68.781  154.140    4.635
  484.710    0.278    0.421   78.333  155.081    5.323
  484.960    0.242    0.411   75.608  155.612    6.753
  485.210    0.176    0.353   69.783  156.352    8.257
  485.460    0.126    0.217   69.793  156.984    9.326
  485.710    0.046    0.225   79.528  155.871    8.440
  485.960    0.093    0.272   87.986  153.210    7.653
  486.210    0.148    0.379   95.775  151.065    6.589
  486.460    0.221    0.463  102.896  154.067    5.508
  486.710    0.214    0.451  100.110  159.024    4.751
  486.960    0.206    0.442   98.357  162.333    4.260
  487.210    0.205    0.491   99.097  162.763    3.928
  487.460    0.223    0.477   98.317  162.059    3.661
  487.710    0.242    0.463   97.840  161.971    3.451
  487.960    0.248    0.466   96.878  162.606    3.469
  488.210    0.260    0.472   96.037  162.622    3.673
  488.460    0.261    0.470   94.102  160.788    3.861
  488.710    0.308    0.458   92.167  155.556    4.118
  488.960    0.301    0.457   89.320  151.558    4.288
  489.210    0.300    0.470   85.380  151.988    4.457
  489.460    0.291    0.475   80.041  152.830    4.650
  489.710    0.284    0.488   75.918  153.358    4.842
  489.960    0.305    0.474   73.133  153.789    5.042
  490.210    0.303    0.443   76.181  154.111    5.211
  490.460    0.306    0.459   80.871  154.542    5.318
  490.710    0.298    0.463   84.588  154.660    5.396
  490.960    0.280    0.448   89.278  155.603    5.435
  491.210    0.264    0.437   93.178  156.033    5.445
  491.460    0.233    0.441   95.315  156.563    5.454
  491.710    0.184    0.456   97.087  157.714    5.464
  491.960    0.162    0.462   96.854  159.169    5.453
  492.210    0.147    0.451   97.168  160.833    5.412
  492.460    0.147    0.444   99.063  161.572    5.372
  492.710    0.176    0.463   99.679  162.103    5.341
  492.960    0.227    0.508  100.175  162.634    5.351
  493.210    0.271    0.561   97.632  162.855    5.390
  493.460    0.345    0.602   91.808  162.154    5.520
  493.710    0.371    0.511   92.304  160.933    5.664
  493.960    0.290    0.471   90.126  159.510    5.876
  494.210    0.284    0.525   87.036  160.143    6.210
  494.460    0.305    0.537   88.139  164.792    6.431
  494.710    0.290    0.488   90.520  163.058    6.538
  494.960    0.240    0.421   91.624  155.667    6.358
  495.210    0.246    0.424   92.364  153.214    6.048
  495.460    0.273    0.429   89.820  151.891    5.818
  495.710    0.286    0.433   82.841  150.672    5.627
  495.960    0.268    0.440   81.817  149.865    5.513
  496.210    0.281    0.449   82.982  149.786    5.412
  496.460    0.282    0.443   82.202  150.008    5.361
  496.710    0.271    0.426   81.969  150.332    5.410
  496.960    0.287    0.424   83.620  150.653    5.490
  497.210    0.288    0.421   85.819  151.190    5.685
  497.460    0.292    0.419   84.855  151.102    5.953
  497.710    0.278    0.435   77.451  150.911    6.211
  497.960    0.261    0.451   72.476  150.619    6.515
  498.210    0.283    0.425   75.586  150.223    6.624
  498.460    0.266    0.435   77.419  150.037    6.623
  498.710    0.259    0.436   78.706  149.954    6.525
  498.960    0.237    0.440   79.202  149.965    6.323
  499.210    0.255    0.458   80.245  150.084    6.115
  499.460    0.247    0.469   86.089  150.309    5.926
  499.710    0.221    0.470   86.707  150.636    5.721
  499.960    0.207    0.462   83.496  150.756    5.605
  500.210    0.225    0.457   83.992  150.773    5.481
  500.460    0.240    0.472   86.067  150.379    5.411
  500.710    0.257    0.468   84.499  150.288    5.370
  500.960    0.245    0.461   82.016  150.410    5.340
  501.210    0.243    0.468   73.759  150.836    5.290
  501.460    0.282    0.467   72.373  151.264    5.260
  501.710    0.295    0.458   71.530  151.590    5.202
  501.960    0.314    0.448   70.204  151.716    5.144
  502.210    0.312    0.443   67.784  151.626    5.143
  502.460    0.296    0.440   65.665  151.744    5.190
  502.710    0.306    0.434   60.508  151.862    5.355
  502.960    0.312    0.420   54.684  151.784    5.545
  503.210    0.302    0.394   49.649  151.797    5.785
  503.460    0.300    0.378   50.631  152.222    5.881
  503.710    0.308    0.407   54.836  152.856    5.668
  503.960    0.320    0.427   57.094  153.078    5.381
  504.210    0.335    0.455   55.766  153.101    5.035
  504.460    0.364    0.475   51.522  152.912    4.754
  504.710    0.344    0.469   47.704  152.716    4.489
  504.960    0.327    0.458   45.464  152.017    4.358
  505.210    0.333    0.442   43.712  151.722    4.239
  505.460    0.329    0.437   41.047  151.531    4.184
  505.710    0.320    0.433   40.753  151.548    4.168
  505.960    0.334    0.428   43.619  151.566    4.159
  506.210    0.328    0.439   45.514  151.890    4.221
  506.460    0.326    0.431   47.712  151.909    4.244
  506.710    0.334    0.424   47.783  152.032    4.275
  506.960    0.333    0.433   45.118  152.149    4.266
  507.210    0.338    0.445   44.824  151.959    4.203
  507.460    0.337    0.450   47.569  152.080    4.180
  507.710    0.335    0.443   47.579  151.995    4.141
  507.960    0.330    0.432   45.827  151.908    4.087
  508.210    0.323    0.429   45.290  152.026    4.049
  508.460    0.328    0.441   44.570  151.939    4.011
  508.710    0.334    0.440   43.668  151.648    3.974
  508.960    0.344    0.437   45.015  150.635    3.973
  509.210    0.344    0.444   45.451  150.446    3.988
  509.460    0.316    0.440   44.792  150.771    4.009
  509.710    0.344    0.432   43.465  151.614    4.016
  509.960    0.332    0.436   42.624  152.143    4.023
  510.210    0.300    0.440   43.242  152.673    4.030
  510.460    0.301    0.443   45.560  153.206    4.022
  510.710    0.329    0.446   46.240  153.224    3.985
  510.960    0.325    0.459   46.492  153.240    3.970
  511.210    0.328    0.486   46.745  153.363    3.962
  511.460    0.321    0.474   46.816  153.273    3.969
  511.710    0.319    0.459   45.428  153.187    4.005
  511.960    0.323    0.449   45.803  152.899    4.049
  512.210    0.336    0.441   46.663  152.707    4.071
  512.460    0.330    0.426   46.795  152.721    4.116
  512.710    0.327    0.431   46.014  152.843    4.115
  512.960    0.321    0.446   44.018  152.961    4.145
  513.210    0.308    0.458   44.759  152.879    4.152
  513.460    0.308    0.456   46.713  152.893    4.167
  513.710    0.315    0.441   46.723  152.909    4.213
  513.960    0.322    0.433   45.944  152.822    4.244
  514.210    0.336    0.454   45.771  152.840    4.267
  514.460    0.337    0.469   45.902  152.652    4.251
  514.710    0.321    0.466   46.093  152.563    4.235
