~VERSION INFORMATION
 VERS.                 2.0:   CWLS LOG ASCII STANDARD -VERSION 2.0
 WRAP.                  NO:   ONE LINE PER DEPTH STEP
~WELL INFORMATION BLOCK
#MNEM.UNIT           DATA                    DESCRIPTION OF MNEMONIC
#---------    -------------------            -------------------------------
# Generated from Intellog Unique Number	CW_76_78/WELL/1034
WELL.         OAKPETROREP ET AL MARTEN 16-12 : Well_name    - WELL
LOC .         00/16-12-076-03W5/0            : Location     - LOCATION
UWI .         00/16-12-076-03W5/0            : Uwi          - UNIQUE WELL ID
ENTR.         JAYE                           : Entered      - ENTERED BY
SRVC.         SCHLUMBERGER                   : Scn          - SERVICE COMPANY
DATE.         16 FEB 79                      : Date         - LOG DATE
STRT.M        550                            : top_depth    - START DEPTH
STOP.M        760                            : bot_depth    - STOP DEPTH
STEP.M        0.25                           : increment    - STEP LENGTH
 NULL. -999.2500:NULL Value
~CURVE INFORMATION BLOCK
#MNEM UNIT       ERCB CURVE CODE    CURVE DESCRIPTION
#-----------   ------------------   ----------------------------------
DEPT.M        00 001 00 00         : DEPTH        - DEPTH
ILD .OHMM     00 120 00 00         : RESD         - DEEP RESISTIVITY (DIL)
NPHI.V/V      00 330 00 00         : PHIN         - NEUTRON POROSITY (SANDSTONE)
DPHI.V/V      00 890 00 00         : PHID         - DENSITY POROSITY (SANDSTONE)
GR  .API      00 310 00 00         : GR           - GAMMA RAY
CALI.MM       00 280 01 00         : CAL          - CALIPER
~PARAMETER INFORMATION
#MNEM.UNIT           DATA             DESCRIPTION OF MNEMONIC
#---------         -----------     ------------------------------
GL  .M        834.8                : gl           - GROUND LEVEL ELEVATION
EREF.M        838.8                : kb           - ELEVATION OF DEPTH REFERENCE
DATM.M        834.8                : datum        - DATUM ELEVATION
TDD .M        809                  : tdd          - TOTAL DEPTH DRILLER
RUN .         ONE                  : Run          - RUN NUMBER
ENG .         GILLUS               : Engineer     - RECORDING ENGINEER
WIT .         LILLICO              : Witness      - WITNESSED BY
BASE.         EDM                  : Branch       - HOME BASE OF LOGGING UNIT
MUD .         GEL MUD              : Mud_type     - MUD TYPE
MATR.         SANDSTONE            : Logunit      - NEUTRON MATRIX
TMAX.C        28                   : BHT          - MAXIMUM RECORDED TEMPERATURE
BHTD.M        809.3                : BHTDEP       - MAXIMUM RECORDED TEMPERATURE
RMT .C        20                   : MDTP         - TEMPERATURE OF MUD
MUDD.KG/M     1080                 : MWT          - MUD DENSITY
NEUT.         1                    : NEUTRON      - NEUTRON TYPE
RESI.         0                    : RESIST       - RESISTIVITY TYPE
RM  .OHMM     3.53                 : RM           - RESISTIVITY OF MUD
RMC .OHMM     0                    : RMC          - RESISTIVITY OF MUD CAKE
RMF .OHMM     3.35                 : RMF          - RESISTIVITY OF MUD FILTRATE
SUFT.C        0                    : SUFT         - SURFACE TEMPERATURE
~A  DEPTH     RESD     PHIN     PHID       GR      CAL
# ...
  732.500    7.743    0.376    0.145  120.965  210.341
  732.750    6.711    0.395    0.148  124.636  210.715
  733.000    6.221    0.420    0.144  121.853  210.243
  733.250    6.076    0.438    0.126  112.182  208.744
  733.500    6.183    0.439    0.110  105.767  205.982
  733.750    6.471    0.388    0.075   99.664  204.165
  734.000    6.938    0.357    0.128  100.826  202.749
  734.250    7.607    0.372    0.155  101.422  202.278
  734.500    7.873    0.384    0.165  104.466  201.928
  734.750    7.951    0.391    0.166  108.321  201.791
  735.000    8.033    0.403    0.147  105.915  201.720
  735.250    8.052    0.400    0.143   95.241  201.671
  735.500    8.088    0.393    0.153   96.153  201.653
  735.750    8.093    0.394    0.159  100.696  201.601
  736.000    7.904    0.405    0.154  103.107  201.554
  736.250    7.634    0.409    0.144  103.083  201.300
  736.500    7.346    0.407    0.152  101.176  201.465
  736.750    7.121    0.420    0.144   99.334  201.727
  737.000    6.877    0.424    0.116   98.366  201.371
  737.250    6.705    0.417    0.112   99.028  201.318
  737.500    6.622    0.411    0.122  102.382  201.272
  737.750    6.492    0.418    0.140  108.241  201.130
  738.000    6.411    0.422    0.151  110.530  201.179
  738.250    6.393    0.433    0.163  105.744  201.541
  738.500    6.385    0.436    0.157  104.463  201.728
  738.750    6.365    0.427    0.143  111.136  202.503
  739.000    6.286    0.433    0.135  106.600  202.993
  739.250    6.174    0.428    0.123  108.014  203.260
  739.500    5.930    0.416    0.121  111.553  203.736
  739.750    5.716    0.416    0.144   99.315  207.239
  740.000    5.710    0.434    0.172   84.886  212.307
  740.250    5.832    0.442    0.220   66.007  209.861
  740.500    6.058    0.417    0.269   51.953  201.151
  740.750    6.934    0.402    0.282   41.404  199.748
  741.000    9.353    0.379    0.273   39.559  198.548
  741.250   13.269    0.359    0.253   39.908  197.772
  741.500   29.082    0.346    0.251   40.383  197.201
  741.750   32.609    0.361    0.261   38.851  196.955
  742.000   32.028    0.360    0.285   35.444  196.276
  742.250   30.247    0.362    0.256   32.910  195.185
  742.500   28.836    0.370    0.276   32.067  194.208
  742.750   28.164    0.376    0.263   32.541  192.905
  743.000   27.456    0.378    0.249   33.765  192.127
  743.250   26.715    0.362    0.263   35.239  191.456
  743.500   25.705    0.363    0.263   36.402  190.886
  743.750   24.549    0.380    0.261   37.630  190.736
  744.000   22.926    0.385    0.255   38.976  190.683
  744.250   20.898    0.381    0.248   39.889  190.752
  744.500   19.228    0.387    0.273   40.741  191.023
  744.750   17.493    0.387    0.295   41.964  191.496
  745.000   15.739    0.369    0.286   44.193  192.080
  745.250   14.725    0.353    0.263   46.608  192.346
  745.500   13.549    0.362    0.245   49.143  192.402
  745.750   12.558    0.368    0.257   52.251  191.941
  746.000   11.491    0.370    0.231   55.667  191.372
  746.250   10.630    0.376    0.213   58.081  191.216
  746.500    9.690    0.377    0.209   62.938  191.489
  746.750    8.982    0.373    0.231   66.482  192.906
  747.000    8.233    0.378    0.245   64.637  194.525
  747.250    7.575    0.393    0.236   60.664  195.840
  747.500    6.866    0.383    0.239   61.073  197.151
  747.750    6.270    0.373    0.250   62.548  197.941
  748.000    5.801    0.367    0.242   61.898  198.310
  748.250    5.469    0.380    0.236   60.679  198.786
  748.500    5.203    0.381    0.235   61.591  199.050
  748.750    5.016    0.371    0.238   64.442  199.518
  749.000    4.927    0.376    0.242   65.169  199.685
  749.250    4.912    0.372    0.248   65.138  199.958
  749.500    4.897    0.389    0.256   66.179  200.124
  749.750    4.900    0.404    0.249   69.657  200.176
  750.000    4.958    0.400    0.243   70.943  200.443
  750.250    5.093    0.381    0.239   70.729  200.604
  750.500    5.280    0.380    0.224   71.203  200.249
  750.750    5.526    0.377    0.217   72.928  200.310
  751.000    5.815    0.360    0.194   78.537  200.678
  751.250    6.007    0.342    0.162   84.585  201.158
  751.500    5.802    0.358    0.144   92.823  201.218
  751.750    4.790    0.397    0.164  100.999  219.957
  752.000    4.175    0.470    0.209  107.359  232.124
  752.250    3.466    0.492    0.259  114.971  241.885
  752.500    3.189    0.472    0.278  114.567  243.514
  752.750    3.197    0.469    0.241  112.098  243.989
  753.000    3.303    0.470    0.214  108.874  244.777
  753.250    3.430    0.465    0.218  107.093  244.208
  753.500    3.699    0.469    0.201  107.316  241.450
  753.750    4.086    0.483    0.196  107.918  218.860
  754.000    4.565    0.479    0.147  104.320  204.721
  754.250    4.931    0.413    0.053  104.856  225.344
  754.500    5.510    0.410    0.044  109.651  227.489
  754.750    5.701    0.435    0.126  105.177  218.259
  755.000    5.120    0.448    0.133   90.558  206.523
  755.250    5.763    0.377    0.102   74.499  200.320
  755.500    8.009    0.230    0.026   55.873  198.916
  755.750   11.533    0.147   -0.001   32.173  198.664
  756.000   20.431    0.098   -0.009   27.758  199.131
  756.250   28.343    0.096    0.002   29.173  199.819
  756.500   31.195    0.099    0.002   31.212  200.404
  756.750   34.656    0.103    0.007   31.623  201.085
  757.000   39.449    0.109    0.007   26.838  201.760
  757.250   45.320    0.113    0.008   22.989  201.933
  757.500   51.206    0.123    0.012   21.210  202.407
  757.750   52.694    0.147    0.068   24.938  202.782
  758.000   53.321    0.165    0.092   28.482  203.154
  758.250   54.663    0.205    0.136   32.775  203.208
  758.500   56.996    0.241    0.173   37.506  203.258
  758.750   59.982    0.276    0.215   30.027  203.219
  759.000   63.956    0.249    0.167   23.734  202.957
  759.250   68.187    0.196    0.076   20.952  203.025
  759.500   76.749    0.200    0.083   19.110  202.979
  759.750   88.505    0.200    0.091   17.956  203.038
  760.000  106.342    0.190    0.087   14.854  203.099
