~VERSION INFORMATION
VERS.                2.00:   CWLS LOG ASCII STANDARD -VERSION 2.0
WRAP.                  NO:
~WELL INFORMATION BLOCK
#MNEM.UNIT           DATA                    DESCRIPTION OF MNEMONIC
#---------    -------------------            -------------------------------
# Generated from Intellog Unique Number	CC_80_83/WELL/2471
LOC .         00/10-22-083-08W4/0            : Location     - LOCATION
UWI .         00/10-22-083-08W4/0            : Uwi          - UNIQUE WELL ID
ENTR.         DW                             : Entered      - ENTERED BY
STRT.M             259.08:
STOP.M             511.83:
STEP.M               0.25:
NULL.             -999.25:
COMP.  :COMPANY
WELL.  ARC0 ET AL SURMONT:WELL
FLD.   :FIELD
LOC.   :LOCATION
CTRY.  :COUNTRY
PROV.  :PROVINCE
SRVC.  SCHLUMBERGER:SERVICE COMPANY
DATE.  :LOG DATE
UWI.   :UNIQUE WELL ID
~PARAMETER INFORMATION
#MNEM.UNIT           DATA             DESCRIPTION OF MNEMONIC
#---------         -----------     ------------------------------
GL  .M        732.13               : gl           - GROUND LEVEL ELEVATION
EREF.M        735.178              : kb           - ELEVATION OF DEPTH REFERENCE
DATM.M        735.178              : datum        - DATUM ELEVATION
TDD .M        515.722              : tdd          - TOTAL DEPTH DRILLER
RUN .         ONE                  : Run          - RUN NUMBER
ENG .         BILL                 : Engineer     - RECORDING ENGINEER
WIT .         JIM                  : Witness      - WITNESSED BY
MUD .         GEL                  : Mud_type     - MUD TYPE
MATR.         SANDSTONE            : Logunit      - NEUTRON MATRIX
TMAX.C        20                   : BHT          - MAXIMUM RECORDED TEMPERATURE
BHTD.M        515.722              : BHTDEP       - MAXIMUM RECORDED TEMPERATURE
MATR.         1                    : LOGUNIT      - NEUTRON MATRIX
RMT .C        25                   : MDTP         - TEMPERATURE OF MUD
NEUT.         1                    : NEUTRON      - NEUTRON TYPE
RESI.         0                    : RESIST       - RESISTIVITY TYPE
RMC .OHMM     0.25                 : RMC          - RESISTIVITY OF MUD CAKE
RMF .OHMM     0.25                 : RMF          - RESISTIVITY OF MUD FILTRATE
SUFT.C        15                   : SUFT         - SURFACE TEMPERATURE
~Curve Information Block
#MNEM UNIT       ERCB CURVE CODE    CURVE DESCRIPTION
#MNEM.UNIT         API CODE    Curve Description
#----------    ------------    --------------------
DEPT.M                     :   DEPTH
DPHI.V/V                   :   DPHI
DT  .us/m                  :   DT
GR  .API       00 310 00 00:   GR
ILD .Ohmm      00 120 00 00:   ILD
NPHI.V/V       00 330 00 00:   NPHI
RHOB.gm/c3                 :   RHOB
~A  Depth           DPHI          DT          GR         ILD        NPHI        RHOB
# ...
354.08           -999.25     -999.25       77.22        5.83        0.36     -999.25
354.33           -999.25     -999.25       73.00        6.05        0.34     -999.25
354.58           -999.25     -999.25       70.29        6.14        0.36     -999.25
354.83           -999.25     -999.25       69.15        6.00        0.37     -999.25
355.08           -999.25     -999.25       65.95        5.81        0.37     -999.25
355.33           -999.25     -999.25       66.95        5.65        0.37     -999.25
355.58           -999.25     -999.25       69.70        5.40        0.38     -999.25
355.83           -999.25     -999.25       73.63        5.21        0.38     -999.25
356.08           -999.25     -999.25       76.88        5.17        0.37     -999.25
356.33           -999.25     -999.25       76.24        5.18        0.36     -999.25
356.58           -999.25     -999.25       74.51        5.33        0.36     -999.25
356.83           -999.25     -999.25       76.01        5.81        0.35     -999.25
357.08           -999.25     -999.25       75.24        7.02        0.35     -999.25
357.33           -999.25     -999.25       72.11        9.55        0.35     -999.25
357.58           -999.25     -999.25       66.85       13.50        0.34     -999.25
357.83           -999.25     -999.25       57.49       17.43        0.33     -999.25
358.08           -999.25     -999.25       53.03       18.82        0.34     -999.25
358.33           -999.25     -999.25       49.90       18.96        0.36     -999.25
358.58           -999.25     -999.25       47.91       18.70        0.38     -999.25
358.83           -999.25     -999.25       48.33       17.13        0.36     -999.25
359.08           -999.25     -999.25       50.02       13.58        0.34     -999.25
359.33           -999.25     -999.25       51.60        9.34        0.34     -999.25
359.58           -999.25     -999.25       52.30        5.97        0.36     -999.25
359.83           -999.25     -999.25       55.76        4.27        0.36     -999.25
360.08           -999.25     -999.25       65.25        3.73        0.35     -999.25
360.33           -999.25     -999.25       76.54        3.72        0.34     -999.25
360.58           -999.25     -999.25       81.94        4.12        0.33     -999.25
360.83           -999.25     -999.25       82.29        4.51        0.34     -999.25
361.08           -999.25     -999.25       80.71        5.04        0.35     -999.25
361.33           -999.25     -999.25       81.95        5.14        0.35     -999.25
361.58           -999.25     -999.25       81.54        4.74        0.36     -999.25
361.83           -999.25     -999.25       78.25        4.33        0.37     -999.25
362.08           -999.25     -999.25       81.61        4.07        0.36     -999.25
362.33           -999.25     -999.25       83.17        3.90        0.36     -999.25
362.58           -999.25     -999.25       83.14        3.99        0.36     -999.25
362.83           -999.25     -999.25       79.67        4.21        0.38     -999.25
363.08           -999.25     -999.25       75.29        4.00        0.41     -999.25
363.33           -999.25     -999.25       78.43        3.54        0.39     -999.25
363.58           -999.25     -999.25       87.78        4.33        0.36     -999.25
363.83           -999.25     -999.25       92.01        5.98        0.37     -999.25
364.08           -999.25     -999.25       85.62        7.34        0.37     -999.25
364.33           -999.25     -999.25       75.75        8.11        0.36     -999.25
364.58           -999.25     -999.25       68.60        7.66        0.35     -999.25
364.83           -999.25     -999.25       62.97        5.35        0.35     -999.25
365.08           -999.25     -999.25       65.68        3.83        0.35     -999.25
365.33           -999.25     -999.25       70.10        3.35        0.36     -999.25
365.58           -999.25     -999.25       74.48        3.04        0.36     -999.25
365.83           -999.25     -999.25       81.93        2.71        0.37     -999.25
366.08           -999.25     -999.25       88.91        2.72        0.38     -999.25
366.33           -999.25     -999.25       88.10        2.80        0.39     -999.25
366.58           -999.25     -999.25       91.45        2.88        0.40     -999.25
366.83           -999.25     -999.25       91.09        2.79        0.40     -999.25
367.08           -999.25     -999.25       86.96        2.57        0.39     -999.25
367.33           -999.25     -999.25       87.40        2.34        0.40     -999.25
367.58           -999.25     -999.25       91.13        2.20        0.39     -999.25
367.83           -999.25     -999.25       92.30        2.16        0.38     -999.25
368.08           -999.25     -999.25       89.24        2.17        0.39     -999.25
368.33           -999.25     -999.25       82.79        2.25        0.42     -999.25
368.58           -999.25     -999.25       80.82        2.35        0.42     -999.25
368.83           -999.25     -999.25       86.02        2.43        0.41     -999.25
369.08           -999.25     -999.25       87.38        2.63        0.43     -999.25
369.33           -999.25     -999.25       89.54        2.94        0.45     -999.25
369.58           -999.25     -999.25       86.30        4.07        0.45     -999.25
369.83           -999.25     -999.25       77.75        5.84        0.44     -999.25
370.08           -999.25     -999.25       70.38        7.44        0.41     -999.25
370.33           -999.25     -999.25       65.49        8.80        0.36     -999.25
370.58           -999.25     -999.25       60.55       10.59        0.35     -999.25
370.83           -999.25     -999.25       59.71       11.32        0.34     -999.25
371.08           -999.25     -999.25       61.29       12.07        0.32     -999.25
371.33           -999.25     -999.25       61.47       12.74        0.32     -999.25
371.58           -999.25     -999.25       58.04       12.42        0.33     -999.25
371.83           -999.25     -999.25       51.27       12.26        0.32     -999.25
372.08           -999.25     -999.25       47.85       11.57        0.33     -999.25
372.33           -999.25     -999.25       47.44       10.99        0.35     -999.25
372.58           -999.25     -999.25       49.25       10.33        0.36     -999.25
372.83           -999.25     -999.25       52.57        9.63        0.35     -999.25
373.08           -999.25     -999.25       54.30        9.54        0.37     -999.25
373.33           -999.25     -999.25       53.00        9.50        0.38     -999.25
373.58           -999.25     -999.25       55.46        9.88        0.37     -999.25
373.83           -999.25     -999.25       56.97       10.30        0.37     -999.25
374.08           -999.25     -999.25       54.44       10.61        0.38     -999.25
374.33           -999.25     -999.25       51.59       10.93        0.39     -999.25
374.58           -999.25     -999.25       51.14       10.92        0.40     -999.25
374.83           -999.25     -999.25       52.47       10.59        0.41     -999.25
375.08           -999.25     -999.25       50.98       10.40        0.39     -999.25
375.33           -999.25     -999.25       48.43       10.71        0.37     -999.25
375.58           -999.25     -999.25       48.41       11.21        0.36     -999.25
375.83           -999.25     -999.25       49.39       11.55        0.36     -999.25
376.08           -999.25     -999.25       47.88       11.95        0.36     -999.25
376.33           -999.25     -999.25       46.84       11.89        0.34     -999.25
376.58           -999.25     -999.25       47.55       11.57        0.33     -999.25
376.83           -999.25     -999.25       49.77       11.13        0.34     -999.25
377.08           -999.25     -999.25       52.15       10.64        0.35     -999.25
377.33           -999.25     -999.25       52.03       10.49        0.37     -999.25
377.58           -999.25     -999.25       48.74       10.65        0.38     -999.25
