~VERSION INFORMATION
 VERS.                 2.0:   CWLS LOG ASCII STANDARD -VERSION 2.0
 WRAP.                  NO:   ONE LINE PER DEPTH STEP
~WELL INFORMATION BLOCK
#MNEM.UNIT           DATA                    DESCRIPTION OF MNEMONIC
#---------    -------------------            -------------------------------
# Generated from Intellog Unique Number	CS_73_76/WELL/849
WELL.         PEX KIRBY                      : Well_name    - WELL
LOC .         00/11-21-073-07W4/0            : Location     - LOCATION
UWI .         00/11-21-073-07W4/0            : Uwi          - UNIQUE WELL ID
ENTR.         SP                             : Entered      - ENTERED BY
SRVC.         SCHLUMBERGER                   : Scn          - SERVICE COMPANY
STRT.M        345                            : top_depth    - START DEPTH
STOP.M        570                            : bot_depth    - STOP DEPTH
STEP.M        0.25                           : increment    - STEP LENGTH
 NULL. -999.2500:NULL Value
~CURVE INFORMATION BLOCK
#MNEM UNIT       ERCB CURVE CODE    CURVE DESCRIPTION
#-----------   ------------------   ----------------------------------
DEPT.M        00 001 00 00         : DEPTH        - DEPTH
ILD .OHMM     00 120 00 00         : RESD         - DEEP RESISTIVITY (DIL)
DPHI.V/V      00 890 00 00         : PHID         - DENSITY POROSITY (LIMESTONE)
NPHI.V/V      00 330 00 00         : PHIN         - NEUTRON POROSITY (LIMESTONE)
GR  .API      00 310 00 00         : GR           - GAMMA RAY
~PARAMETER INFORMATION
#MNEM.UNIT           DATA             DESCRIPTION OF MNEMONIC
#---------         -----------     ------------------------------
GL  .M        731                  : gl           - GROUND LEVEL ELEVATION
EREF.M        734.2                : kb           - ELEVATION OF DEPTH REFERENCE
DATM.M        731                  : datum        - DATUM ELEVATION
TDD .M        582                  : tdd          - TOTAL DEPTH DRILLER
RUN .         ONE                  : Run          - RUN NUMBER
ENG .         BILL                 : Engineer     - RECORDING ENGINEER
WIT .         JIM                  : Witness      - WITNESSED BY
MUD .         GEL                  : Mud_type     - MUD TYPE
MATR.         LIMESTONE            : Logunit      - NEUTRON MATRIX
TMAX.C        29                   : BHT          - MAXIMUM RECORDED TEMPERATURE
BHTD.M        582                  : BHTDEP       - MAXIMUM RECORDED TEMPERATURE
MATR.         1                    : LOGUNIT      - NEUTRON MATRIX
RMT .C        25                   : MDTP         - TEMPERATURE OF MUD
NEUT.         1                    : NEUTRON      - NEUTRON TYPE
RESI.         0                    : RESIST       - RESISTIVITY TYPE
RMC .OHMM     0.25                 : RMC          - RESISTIVITY OF MUD CAKE
RMF .OHMM     0.25                 : RMF          - RESISTIVITY OF MUD FILTRATE
SUFT.C        15                   : SUFT         - SURFACE TEMPERATURE
~A  DEPTH     RESD     PHID     PHIN       GR
# ...
  432.000    7.357    0.328    0.453   72.548
  432.250    7.089    0.332    0.438   70.097
  432.500    6.830    0.337    0.443   68.872
  432.750    6.581    0.330    0.445   68.254
  433.000    6.342    0.322    0.438   71.902
  433.250    6.344    0.334    0.436   78.600
  433.500    6.227    0.331    0.430   83.470
  433.750    6.229    0.327    0.420   84.681
  434.000    6.231    0.315    0.412   81.622
  434.250    6.235    0.298    0.428   78.567
  434.500    6.120    0.304    0.421   76.727
  434.750    5.897    0.316    0.419   79.153
  435.000    5.682    0.326    0.432   80.974
  435.250    5.373    0.320    0.442   82.188
  435.500    5.080    0.321    0.435   82.180
  435.750    4.715    0.316    0.452   80.952
  436.000    4.629    0.304    0.460   83.992
  436.250    4.460    0.284    0.441   84.591
  436.500    4.379    0.289    0.432   83.971
  436.750    4.299    0.320    0.419   85.186
  437.000    4.382    0.337    0.425   87.616
  437.250    4.383    0.322    0.413   91.264
  437.500    4.303    0.314    0.431   92.476
  437.750    4.146    0.325    0.453   96.125
  438.000    3.995    0.338    0.469   92.457
  438.250    3.778    0.316    0.452   80.865
  438.500    3.506    0.259    0.473   75.977
  438.750    3.641    0.256    0.489   91.821
  439.000    3.854    0.258    0.471   97.301
  439.250    4.155    0.249    0.446   97.292
  439.500    4.481    0.248    0.439   94.844
  439.750    4.654    0.249    0.429   91.785
  440.000    4.656    0.252    0.421   88.728
  440.250    4.571    0.214    0.406   86.891
  440.500    4.487    0.231    0.431   86.883
  440.750    4.323    0.233    0.424   89.311
  441.000    4.088    0.231    0.428   91.133
  441.250    3.866    0.231    0.464   92.344
  441.500    3.656    0.249    0.457   89.895
  441.750    3.589    0.264    0.451   89.886
  442.000    3.590    0.266    0.458   95.366
  442.250    3.944    0.273    0.444  100.844
  442.500    4.672    0.276    0.449  100.835
  442.750    5.430    0.279    0.451   94.731
  443.000    6.677    0.267    0.468   95.328
  443.250    8.210    0.260    0.461   96.543
  443.500    9.192    0.252    0.444   87.386
  443.750    9.370    0.254    0.427   83.110
  444.000    9.549    0.258    0.423   80.050
  444.250    9.376    0.246    0.421   80.042
  444.500    9.205    0.234    0.406   81.251
  444.750    9.037    0.245    0.394   80.634
  445.000    8.872    0.240    0.407   80.016
  445.250    8.710    0.234    0.417   83.666
  445.500    8.551    0.232    0.386   85.487
  445.750    8.395    0.237    0.382   84.258
  446.000    8.242    0.247    0.400   81.202
  446.250    8.092    0.220    0.411   84.240
  446.500    8.094    0.200    0.404   86.062
  446.750    8.099    0.196    0.401   85.443
  447.000    7.951    0.201    0.411   85.434
  447.250    7.953    0.227    0.420   86.645
  447.500    7.956    0.224    0.413   83.587
  447.750    7.810    0.216    0.439   82.360
  448.000    7.813    0.229    0.443   83.568
  448.250    7.816    0.218    0.420   86.610
  448.500    7.674    0.211    0.400   88.430
  448.750    7.676    0.202    0.401   86.592
  449.000    7.536    0.197    0.417   85.363
  449.250    7.261    0.192    0.409   85.356
  449.500    6.491    0.192    0.406   88.396
  449.750    5.588    0.210    0.420   92.043
  450.000    4.902    0.221    0.431   88.374
  450.250    4.142    0.215    0.431   88.368
  450.500    3.703    0.221    0.431   90.799
  450.750    3.372    0.232    0.461   92.010
  451.000    3.374    0.239    0.485   91.391
  451.250    3.374    0.246    0.443   95.650
  451.500    3.571    0.259    0.426   95.033
  451.750    3.924    0.250    0.421   92.585
  452.000    4.231    0.227    0.424   93.186
  452.250    4.649    0.213    0.410   96.226
  452.500    5.013    0.211    0.413   93.776
  452.750    5.305    0.229    0.422   91.936
  453.000    5.720    0.253    0.415   92.540
  453.250    6.404    0.247    0.420   93.142
  453.500    6.777    0.237    0.386   92.522
  453.750    7.172    0.240    0.401   88.854
  454.000    7.450    0.271    0.403   90.065
  454.250    7.593    0.299    0.396   91.277
  454.500    7.886    0.327    0.377   88.829
  454.750    8.038    0.305    0.372   85.161
  455.000    8.193    0.305    0.375   85.153
  455.250    8.196    0.305    0.364   81.484
  455.500    8.046    0.288    0.355   78.428
  455.750    8.049    0.260    0.375   79.638
  456.000    8.844    0.241    0.392   75.971
  456.250    9.900    0.238    0.401   79.009
  456.500   11.725    0.239    0.356   80.220
  456.750   13.628    0.271    0.325   79.602
  457.000   14.696    0.307    0.316   77.764
  457.250   14.700    0.326    0.329   74.707
  457.500   12.421    0.282    0.281   71.039
  457.750   10.496    0.176    0.241   66.152
  458.000    9.559    0.000    0.285   61.267
  458.250    9.039    0.061    0.323   54.551
  458.500    9.044    0.183    0.354   69.176
  458.750    9.047    0.188    0.353   80.752
  459.000    9.221    0.207    0.358   84.403
  459.250    9.577    0.242    0.372   78.292
  459.500    9.761    0.275    0.384   75.847
  459.750    9.585    0.287    0.391   72.180
  460.000    9.409    0.291    0.407   69.733
  460.250    9.412    0.301    0.405   71.550
  460.500    9.069    0.306    0.397   72.763
  460.750    8.903    0.298    0.386   73.972
  461.000    8.579    0.306    0.379   73.966
  461.250    8.266    0.307    0.375   71.518
  461.500    8.268    0.291    0.379   73.338
  461.750    8.118    0.239    0.404   79.426
  462.000    8.120    0.226    0.405   83.075
  462.250    8.123    0.224    0.384   85.506
  462.500    8.599    0.220    0.377   85.499
  462.750    8.764    0.214    0.383   84.881
  463.000    8.932    0.215    0.395   84.870
  463.250    9.104    0.219    0.378   87.910
  463.500    9.107    0.241    0.367   87.290
  463.750    8.941    0.255    0.377   83.014
  464.000    8.455    0.238    0.387   81.788
  464.250    7.995    0.234    0.381   85.436
  464.500    7.560    0.228    0.382   84.208
  464.750    7.016    0.238    0.385   83.591
  465.000    6.512    0.246    0.404   87.240
  465.250    6.274    0.247    0.403   82.959
  465.500    6.045    0.230    0.405   80.515
  465.750    5.824    0.219    0.408   83.555
  466.000    5.826    0.196    0.404   90.251
  466.250    6.166    0.185    0.394   92.074
  466.500    6.903    0.235    0.406   89.017
  466.750    7.874    0.270    0.405   90.225
  467.000    9.152    0.284    0.392   88.998
  467.250    9.869    0.295    0.382   85.942
  467.500   10.249    0.288    0.395   78.614
  467.750   10.646    0.292    0.389   76.777
  468.000   10.851    0.283    0.380   77.377
  468.250   10.856    0.272    0.370   75.540
  468.500   10.656    0.267    0.382   80.406
  468.750   10.077    0.283    0.391   80.401
  469.000    8.515    0.290    0.383   78.562
  469.250    6.930    0.282    0.386   79.163
  469.500    5.855    0.269    0.396   77.934
  469.750    4.765    0.259    0.397   75.486
  470.000    3.465    0.237    0.416   74.869
  470.250    2.768    0.218    0.438   80.346
  470.500    2.985    0.255    0.457   85.825
  470.750    3.535    0.271    0.470   91.914
  471.000    4.513    0.286    0.454   98.613
  471.250    5.147    0.281    0.431   94.336
  471.500    6.571    0.280    0.406   90.060
  471.750    7.930    0.269    0.387   88.830
  472.000    8.877    0.252    0.376   90.042
  472.250   10.713    0.253    0.363   88.203
  472.500   12.928    0.272    0.346   85.756
  472.750   19.540    0.288    0.304   82.699
  473.000   36.300    0.292    0.277   78.420
  473.250   37.702    0.162    0.242   74.143
  473.500   29.556    0.000    0.220   66.209
  473.750   21.491    0.000    0.194   49.736
  474.000   13.965    0.000    0.235   43.630
  474.250   10.545    0.000    0.280   50.327
  474.500    9.250    0.117    0.325   59.465
  474.750    8.425    0.189    0.389   70.433
  475.000    7.673    0.244    0.409   77.742
  475.250    7.256    0.264    0.413   80.171
