~VERSION INFORMATION
 VERS.                 2.0:   CWLS LOG ASCII STANDARD -VERSION 2.0
 WRAP.                  NO:   ONE LINE PER DEPTH STEP
~WELL INFORMATION BLOCK
#MNEM.UNIT           DATA                    DESCRIPTION OF MNEMONIC
#---------    -------------------            -------------------------------
# Generated from Intellog Unique Number	CS_67_68/WELL/850
LOC .         00/11-32-068-16W4/0            : Location     - LOCATION
UWI .         00/11-32-068-16W4/0            : Uwi          - UNIQUE WELL ID
ENTR.         SP                             : Entered      - ENTERED BY
SRVC.         SCHLUMBERGER                   : Scn          - SERVICE COMPANY
STRT.M        243.84                         : top_depth    - START DEPTH
STOP.M        487.34                         : bot_depth    - STOP DEPTH
STEP.M        0.25                           : increment    - STEP LENGTH
 NULL. -999.2500:NULL Value
~CURVE INFORMATION BLOCK
#MNEM UNIT       ERCB CURVE CODE    CURVE DESCRIPTION
#-----------   ------------------   ----------------------------------
DEPT.M        00 001 00 00         : DEPTH        - DEPTH
GR  .API      00 310 00 00         : GR           - GAMMA RAY
DPHI.V/V      00 890 00 00         : PHID         - DENSITY POROSITY (SANDSTONE)
NPHI.V/V      00 330 00 00         : PHIN         - NEUTRON POROSITY (SANDSTONE)
ILD .OHMM     00 120 00 00         : RESD         - DEEP RESISTIVITY (DIL)
~PARAMETER INFORMATION
#MNEM.UNIT           DATA             DESCRIPTION OF MNEMONIC
#---------         -----------     ------------------------------
GL  .M        558.576              : gl           - GROUND LEVEL ELEVATION
EREF.M        562.234              : kb           - ELEVATION OF DEPTH REFERENCE
DATM.M        558.576              : datum        - DATUM ELEVATION
TDD .M        494.995              : tdd          - TOTAL DEPTH DRILLER
RUN .         ONE                  : Run          - RUN NUMBER
ENG .         BILL                 : Engineer     - RECORDING ENGINEER
WIT .         JIM                  : Witness      - WITNESSED BY
MUD .         GEL                  : Mud_type     - MUD TYPE
MATR.         SANDSTONE            : Logunit      - NEUTRON MATRIX
TMAX.C        23.8889              : BHT          - MAXIMUM RECORDED TEMPERATURE
BHTD.M        494.995              : BHTDEP       - MAXIMUM RECORDED TEMPERATURE
MATR.         1                    : LOGUNIT      - NEUTRON MATRIX
RMT .C        25                   : MDTP         - TEMPERATURE OF MUD
NEUT.         1                    : NEUTRON      - NEUTRON TYPE
RESI.         0                    : RESIST       - RESISTIVITY TYPE
RMC .OHMM     0.25                 : RMC          - RESISTIVITY OF MUD CAKE
RMF .OHMM     0.25                 : RMF          - RESISTIVITY OF MUD FILTRATE
SUFT.C        15                   : SUFT         - SURFACE TEMPERATURE
~A  DEPTH       GR     PHID     PHIN     RESD
# ...
  461.340   81.607    0.067    0.320   11.315
  461.590   84.854    0.081    0.334   10.750
  461.840   88.585    0.107    0.369   10.123
  462.090   92.225    0.098    0.389    9.928
  462.340   92.112    0.062    0.405    9.924
  462.590   86.803    0.041    0.412   10.114
  462.840   83.165    0.026    0.421   10.393
  463.090   84.386    0.028    0.411   10.717
  463.340   89.858    0.068    0.393   11.196
  463.590   95.616    0.127    0.386   11.704
  463.840  100.427    0.169    0.386   12.117
  464.090  104.269    0.191    0.406   12.357
  464.340  107.707    0.206    0.422   12.464
  464.590  109.217    0.217    0.440   12.259
  464.840  106.158    0.146    0.431   11.288
  465.090  106.842    0.139    0.426   10.570
  465.340  110.329    0.160    0.441   10.142
  465.590  114.331    0.187    0.453    9.912
  465.840  117.526    0.205    0.458    9.999
  466.090  102.358    0.200    0.457   10.094
  466.340   91.155    0.125    0.438    9.793
  466.590   74.748    0.010    0.367    9.693
  466.840   65.153   -0.011    0.300   10.082
  467.090   57.634   -0.002    0.282   10.278
  467.340   58.471   -0.008    0.291   10.211
  467.590   63.710    0.003    0.285    9.845
  467.840   68.946    0.013    0.275    9.257
  468.090   74.132    0.022    0.299    9.111
  468.340   77.820    0.055    0.347    9.529
  468.590   69.449    0.070    0.345    9.823
  468.840   61.200    0.055    0.298   10.149
  469.090   60.403    0.035    0.281   10.297
  469.340   63.033    0.016    0.279   10.332
  469.590   64.933    0.043    0.298   10.208
  469.840   66.341    0.038    0.315   10.071
  470.090   67.365    0.034    0.307    9.825
  470.340   67.495    0.037    0.310    9.417
  470.590   68.637    0.042    0.323    8.555
  470.840   70.474    0.082    0.327    7.771
  471.090   73.377    0.097    0.342    7.211
  471.340   76.905    0.118    0.353    6.791
  471.590   79.659    0.131    0.360    6.780
  471.840   81.732    0.151    0.368    6.934
  472.090   83.263    0.174    0.378    6.959
  472.340   84.789    0.146    0.373    7.110
  472.590   90.048    0.132    0.366    7.090
  472.840   94.164    0.122    0.371    6.916
  473.090   97.103    0.137    0.390    6.617
  473.340   96.857    0.150    0.402    6.593
  473.590   85.619    0.163    0.409    6.899
  473.840   71.501    0.181    0.393    7.170
  474.090   62.107    0.168    0.382    7.503
  474.340   54.669    0.146    0.374    8.222
  474.590   46.840    0.141    0.373    9.447
  474.840   39.947    0.155    0.381   10.369
  475.090   32.699    0.165    0.404   10.936
  475.340   28.233    0.176    0.409   11.237
  475.590   29.400    0.191    0.380   11.155
  475.840   38.939    0.160    0.358   10.241
  476.090   45.230    0.134    0.342    8.720
  476.340   51.616    0.121    0.343    7.294
  476.590   54.493    0.132    0.350    6.439
  476.840   50.821    0.155    0.358    5.926
  477.090   50.290    0.144    0.359    5.649
  477.340   53.226    0.131    0.363    5.517
  477.590   55.229    0.150    0.338    5.673
  477.840   55.617    0.140    0.310    6.201
  478.090   51.727    0.121    0.281    7.088
  478.340   43.930    0.107    0.259    8.348
  478.590   37.645    0.092    0.173   10.055
  478.840   30.958    0.073    0.138   13.327
  479.090   26.977    0.051    0.112   16.349
  479.340   25.240    0.039    0.104   19.421
  479.590   30.487    0.043    0.130   20.535
  479.840   35.510    0.055    0.166   16.018
  480.090   40.242    0.092    0.202   12.908
  480.340   44.436    0.118    0.253   10.255
  480.590   47.395    0.131    0.295    8.512
  480.840   49.324    0.150    0.314    7.571
  481.090   47.497    0.169    0.321    7.119
  481.340   42.391    0.151    0.312    7.322
  481.590   41.230    0.140    0.317    7.729
  481.840   43.111    0.136    0.327    8.028
  482.090   43.482    0.151    0.338    8.161
  482.340   44.656    0.153    0.349    7.243
  482.590   51.212    0.142    0.356    6.407
  482.840   54.844    0.154    0.357    5.774
  483.090   57.406    0.162    0.358    5.225
  483.340   56.563    0.178    0.359    4.895
  483.590   55.236    0.185    0.362    4.704
  483.840   54.823    0.185    0.370    4.801
  484.090   54.730    0.191    0.355    5.102
  484.340   56.767    0.179    0.339    5.413
  484.590   64.475    0.172    0.327    5.893
  484.840   72.211    0.169    0.307    6.620
  485.090   77.701    0.159    0.268    7.178
  485.340   76.430    0.130    0.241    7.818
  485.590   69.782    0.109    0.224    8.183
  485.840   64.407    0.085    0.216    8.284
  486.090   62.999    0.064    0.214    8.120
  486.340   65.003    0.090    0.212    8.180
  486.590   58.354    0.098    0.208    8.598
  486.840   50.650    0.083    0.210    9.416
  487.090   35.794    0.072    0.225   10.019
  487.340   54.466    0.078    0.220   10.413
