~VERSION INFORMATION
 VERS.                 2.0:   CWLS LOG ASCII STANDARD -VERSION 2.0
 WRAP.                  NO:   ONE LINE PER DEPTH STEP
~WELL INFORMATION BLOCK
#MNEM.UNIT           DATA                    DESCRIPTION OF MNEMONIC
#---------    -------------------            -------------------------------
# Generated from Intellog Unique Number	CC_80_83/WELL/2439
NULL.         -999.25                        : NULL_VALUE
WELL.         CWWE CORNER                    : Well_name    - WELL
LOC .         15-10-080-10W4                 : Location     - LOCATION          
UWI .         00/15-10-080-10W400            : Uwi          - UNIQUE WELL ID    
ENTR.         DW                             : Entered      - ENTERED BY        
SRVC.         SCHLUMBERGER                   : Scn          - SERVICE COMPANY   
DATE.         15 JAN 85                      : Date         - LOG DATE
STRT.M        260                            : top_depth    - START DEPTH       
STOP.M        494.89                         : bot_depth    - STOP DEPTH        
STEP.M        0.3                            : increment    - STEP LENGTH       
~CURVE INFORMATION BLOCK
#MNEM UNIT       ERCB CURVE CODE    CURVE DESCRIPTION
#-----------   ------------------   ----------------------------------
DEPT.M        00 001 00 00         : DEPTH        - DEPTH                       
DPHI.V/V      00 890 00 00         : PHID         - DENSITY POROSITY (LIMESTONE)
NPHI.V/V      00 330 00 00         : PHIN         - NEUTRON POROSITY (LIMESTONE)
GR  .API      00 310 00 00         : GR           - GAMMA RAY                   
ILD .OHMM     00 120 00 00         : RESD         - DEEP RESISTIVITY (DIL)      
~PARAMETER INFORMATION       
#MNEM.UNIT           DATA             DESCRIPTION OF MNEMONIC
#---------         -----------     ------------------------------
GL  .M        696                  : gl           - GROUND LEVEL ELEVATION      
EREF.M        699.2                : kb           - ELEVATION OF DEPTH REFERENCE
DATM.M        699.2                : datum        - DATUM ELEVATION             
TDD .M        504                  : tdd          - TOTAL DEPTH DRILLER         
RUN .         ONE                  : Run          - RUN NUMBER                  
ENG .         BILL                 : Engineer     - RECORDING ENGINEER          
WIT .         JIM                  : Witness      - WITNESSED BY                
MUD .         GEL                  : Mud_type     - MUD TYPE                    
MATR.         LIMESTONE            : Logunit      - NEUTRON MATRIX              
TMAX.C        22                   : BHT          - MAXIMUM RECORDED TEMPERATURE
BHTD.M        502                  : BHTDEP       - MAXIMUM RECORDED TEMPERATURE
MATR.         1                    : LOGUNIT      - NEUTRON MATRIX              
RMT .C        25                   : MDTP         - TEMPERATURE OF MUD          
NEUT.         1                    : NEUTRON      - NEUTRON TYPE                
RESI.         0                    : RESIST       - RESISTIVITY TYPE            
RMC .OHMM     0.25                 : RMC          - RESISTIVITY OF MUD CAKE     
RMF .OHMM     0.25                 : RMF          - RESISTIVITY OF MUD FILTRATE 
SUFT.C        15                   : SUFT         - SURFACE TEMPERATURE         
~A  DEPTH     PHID     PHIN       GR     RESD
# ...
  468.792    0.360    0.390   46.170  461.313
  469.091    0.346    0.391   52.383  479.382
  469.391    0.339    0.388   40.556  528.125
  469.691    0.334    0.388   38.061  593.142
  469.991    0.332    0.395   50.494  616.345
  470.291    0.331    0.411   61.682  592.340
  470.591    0.335    0.391   57.943  506.404
  470.891    0.350    0.388   43.628  356.258
  471.191    0.370    0.413   38.022  210.278
  471.491    0.383    0.421   41.747  169.560
  471.791    0.393    0.458   42.983  162.956
  472.091    0.376    0.504   41.732  197.881
  472.391    0.346    0.423   39.858  369.050
  472.691    0.346    0.393   37.984  661.875
  472.991    0.355    0.402   36.110  701.276
  473.291    0.357    0.405   34.234  611.207
  473.591    0.356    0.407   32.358  532.880
  473.891    0.356    0.411   31.109  492.615
  474.191    0.359    0.401   30.480  501.955
  474.491    0.365    0.382   36.694  501.510
  474.791    0.366    0.393   35.440  428.732
  475.091    0.362    0.390   35.432  396.318
  475.391    0.356    0.376   38.537  436.534
  475.691    0.344    0.402   50.970  500.084
  475.991    0.337    0.381   47.852  709.740
  476.291    0.336    0.386   35.404  797.128
  476.591    0.355    0.392   28.551  781.189
  476.891    0.357    0.378   26.680  708.207
  477.191    0.347    0.367   30.401  582.341
  477.491    0.345    0.372   33.507  469.548
  477.791    0.346    0.383   31.633  409.266
  478.091    0.347    0.382   28.514  417.123
  478.391    0.349    0.370   29.129  526.722
  478.691    0.347    0.376   30.987  678.181
  478.991    0.352    0.386   32.223  747.046
  479.291    0.362    0.391   34.082  602.407
  479.591    0.355    0.400   35.942  292.591
  479.891    0.351    0.408   41.529  214.005
  480.191    0.366    0.407   42.767  175.960
  480.491    0.382    0.420   38.407  162.634
  480.791    0.357    0.434   31.554  179.165
  481.091    0.362    0.398   29.682  285.868
  481.391    0.361    0.406   29.049  302.814
  481.691    0.317    0.402   29.044  285.428
  481.991    0.290    0.368   32.148  239.321
  482.291    0.246    0.298   42.093  125.672
  482.591    0.259    0.274   56.392   55.369
  482.891    0.273    0.302   60.117   52.181
  483.191    0.314    0.406   65.708   57.483
  483.491    0.320    0.396   70.054   68.464
  483.791    0.320    0.396   61.338   91.652
  484.091    0.330    0.418   60.707  115.723
  484.391    0.339    0.401   65.676  132.558
  484.691    0.347    0.366   70.643  137.730
  484.991    0.341    0.412   71.882  122.423
  485.291    0.331    0.422   66.897   94.949
  485.591    0.321    0.386   62.535   76.548
  485.891    0.315    0.356   65.638   76.492
  486.191    0.316    0.360   69.363   81.049
  486.491    0.321    0.383   72.465   89.268
  486.791    0.324    0.397   74.323   94.573
  487.091    0.327    0.400   74.316   96.389
  487.391    0.332    0.392   66.844   94.438
  487.691    0.327    0.390   54.396   90.769
  487.991    0.329    0.402   54.387   79.136
  488.291    0.331    0.406   59.979   60.187
  488.591    0.317    0.396   66.814   47.596
  488.891    0.301    0.377   71.781   39.906
  489.191    0.271    0.362   70.530   35.475
  489.491    0.281    0.351   71.145   29.740
  489.791    0.275    0.357   78.599   26.441
  490.091    0.255    0.359   80.459   24.435
  490.391    0.251    0.360   79.831   26.401
  490.691    0.275    0.366   75.469   33.332
  490.991    0.299    0.392   59.288   42.092
  491.291    0.334    0.396   46.216   54.195
  491.591    0.344    0.391   41.233   65.812
  491.891    0.351    0.402   40.604   68.382
  492.191    0.347    0.416   50.549   56.229
  492.491    0.268    0.408   66.092   25.757
  492.791    0.097    0.381   75.413   16.761
  493.091    0.044    0.324   78.518   12.748
  493.391    0.063    0.337   78.510   12.011
  493.690    0.051    0.327   76.013   12.242
  493.990    0.035    0.310   73.519   12.716
  494.290    0.062    0.301   70.400   13.216
  494.590    0.055    0.294   69.149   14.000
  494.890    0.046    0.279   67.273   13.720
