~VERSION INFORMATION
 VERS.                 2.0:   CWLS LOG ASCII STANDARD -VERSION 2.0
 WRAP.                  NO:   ONE LINE PER DEPTH STEP
~WELL INFORMATION BLOCK
#MNEM.UNIT           DATA                    DESCRIPTION OF MNEMONIC
#---------    -------------------            -------------------------------
# Generated from Intellog Unique Number	CS_77_79/WELL/993
WELL.         BVX ET AL PORTAGE              : Well_name    - WELL
LOC .         00/11-09-079-15W4/0            : Location     - LOCATION
UWI .         00/11-09-079-15W4/0            : Uwi          - UNIQUE WELL ID
ENTR.         JHS                            : Entered      - ENTERED BY
SRVC.         SCHLUMBERGER                   : Scn          - SERVICE COMPANY
STRT.M        220                            : top_depth    - START DEPTH
STOP.M        453                            : bot_depth    - STOP DEPTH
STEP.M        0.25                           : increment    - STEP LENGTH
 NULL. -999.2500:NULL Value
~CURVE INFORMATION BLOCK
#MNEM UNIT       ERCB CURVE CODE    CURVE DESCRIPTION
#-----------   ------------------   ----------------------------------
DEPT.M        00 001 00 00         : DEPTH        - DEPTH
DPHI.V/V      00 890 00 00         : PHID         - DENSITY POROSITY (LIMESTONE)
NPHI.V/V      00 330 00 00         : PHIN         - NEUTRON POROSITY (LIMESTONE)
GR  .API      00 310 00 00         : GR           - GAMMA RAY
ILD .OHMM     00 120 00 00         : RESD         - DEEP RESISTIVITY (DIL)
RHOB.KG/M3    00 350 00 00         : DENS         - BULK DENSITY
~PARAMETER INFORMATION
#MNEM.UNIT           DATA             DESCRIPTION OF MNEMONIC
#---------         -----------     ------------------------------
GL  .M        627.7                : gl           - GROUND LEVEL ELEVATION
EREF.M        630.7                : kb           - ELEVATION OF DEPTH REFERENCE
DATM.M        630.7                : datum        - DATUM ELEVATION
TDD .M        460                  : tdd          - TOTAL DEPTH DRILLER
RUN .         ONE                  : Run          - RUN NUMBER
ENG .         BILL                 : Engineer     - RECORDING ENGINEER
WIT .         JIM                  : Witness      - WITNESSED BY
MUD .         GEL                  : Mud_type     - MUD TYPE
MATR.         LIMESTONE            : Logunit      - NEUTRON MATRIX
TMAX.C        22                   : BHT          - MAXIMUM RECORDED TEMPERATURE
BHTD.M        460                  : BHTDEP       - MAXIMUM RECORDED TEMPERATURE
MATR.         1                    : LOGUNIT      - NEUTRON MATRIX
RMT .C        25                   : MDTP         - TEMPERATURE OF MUD
NEUT.         1                    : NEUTRON      - NEUTRON TYPE
RESI.         0                    : RESIST       - RESISTIVITY TYPE
RMC .OHMM     0.25                 : RMC          - RESISTIVITY OF MUD CAKE
RMF .OHMM     0.25                 : RMF          - RESISTIVITY OF MUD FILTRATE
SUFT.C        15                   : SUFT         - SURFACE TEMPERATURE
~A  DEPTH     PHID     PHIN       GR     RESD     DENS
# ...
  293.000    0.304    0.440   59.709   16.652    0.000
  293.250    0.284    0.434   59.769   16.656    0.000
  293.500    0.290    0.429   62.257   16.348    0.000
  293.750    0.285    0.434   64.145   16.048    0.000
  294.000    0.283    0.450   64.220   16.051    0.000
  294.250    0.282    0.447   63.646   16.053    0.000
  294.500    0.287    0.445   63.087   16.055    0.000
  294.750    0.279    0.449   65.003   16.057    0.000
  295.000    0.270    0.435   64.422   16.672    0.000
  295.250    0.266    0.409   62.054   17.970    0.000
  295.500    0.254    0.398   59.064   20.878    0.000
  295.750    0.231    0.355   56.671   23.805    0.000
  296.000    0.170    0.252   51.843   25.658    0.000
  296.250    0.133    0.180   43.365   29.255    0.000
  296.500    0.001    0.145   41.605   33.355    0.000
  296.750    0.000    0.142   42.876   34.634    0.000
  297.000    0.000    0.169   47.211   30.958    0.000
  297.250    0.024    0.197   50.915   25.676    0.000
  297.500    0.152    0.276   55.837   21.698    0.000
  297.750    0.203    0.413   61.388   18.683    0.000
  298.000    0.261    0.439   62.657   15.789    0.000
  298.250    0.275    0.432   63.957   15.210    0.000
  298.500    0.278    0.387   64.611   14.654    0.000
  298.750    0.276    0.394   64.680   14.384    0.000
  299.000    0.264    0.429   65.341   14.386    0.000
  299.250    0.273    0.437   66.003   14.388    0.000
  299.500    0.291    0.442   66.047   14.663    0.000
  299.750    0.285    0.426   66.722   14.665    0.000
  300.000    0.269    0.427   69.832   14.127    0.000
  300.250    0.255    0.443   71.705   13.610    0.000
  300.500    0.272    0.458   72.362   13.359    0.000
  300.750    0.278    0.445   70.599   13.114    0.000
  301.000    0.276    0.429   70.669   12.872    0.000
  301.250    0.281    0.421   71.317   12.636    0.000
  301.500    0.271    0.417   72.604   12.403    0.000
  301.750    0.261    0.433   75.087   11.948    0.000
  302.000    0.264    0.442   78.805   11.088    0.000
  302.250    0.290    0.445   80.681   10.682    0.000
  302.500    0.303    0.456   79.543   10.291    0.000
  302.750    0.286    0.464   78.968   10.101    0.000
  303.000    0.271    0.455   79.656    9.916    0.000
  303.250    0.264    0.437   79.090    9.733    0.000
  303.500    0.256    0.432   77.320    9.919    0.000
  303.750    0.248    0.435   73.110   10.108    0.000
  304.000    0.245    0.449   69.492   10.495    0.000
  304.250    0.247    0.443   60.417   11.103    0.000
  304.500    0.279    0.431   56.193   11.746    0.000
  304.750    0.314    0.425   50.763   12.195    0.000
  305.000    0.304    0.419   49.603   12.902    0.000
  305.250    0.297    0.419   52.107   13.908    0.000
  305.500    0.296    0.421   52.767   14.172    0.000
  305.750    0.296    0.430   54.042   14.174    0.000
  306.000    0.283    0.436   57.145   14.444    0.000
  306.250    0.281    0.420   56.594   14.446    0.000
  306.500    0.295    0.411   53.000   14.447    0.000
  306.750    0.296    0.410   53.681   13.919    0.000
  307.000    0.299    0.414   53.716   13.662    0.000
  307.250    0.303    0.422   50.121   13.412    0.000
  307.500    0.291    0.439   50.181   13.164    0.000
  307.750    0.282    0.426   52.057   13.167    0.000
  308.000    0.290    0.419   53.946   13.418    0.000
  308.250    0.279    0.421   55.222   13.672    0.000
  308.500    0.286    0.427   54.656   13.933    0.000
  308.750    0.298    0.432   53.503   13.935    0.000
  309.000    0.295    0.442   54.778   13.937    0.000
  309.250    0.300    0.424   56.084   13.681    0.000
  309.500    0.306    0.424   56.119   13.682    0.000
  309.750    0.296    0.435   56.784   13.684    0.000
  310.000    0.291    0.430   59.284   13.433    0.000
  310.250    0.290    0.422   59.923   12.941    0.000
  310.500    0.296    0.430   59.983   12.703    0.000
  310.750    0.299    0.460   58.820   12.468    0.000
  311.000    0.291    0.475   57.056   11.570    0.000
  311.250    0.283    0.460   55.291   12.014    0.000
  311.500    0.275    0.437   54.733   12.243    0.000
  311.750    0.290    0.423   58.443   11.794    0.000
  312.000    0.277    0.415   64.586   10.155    0.000
  312.250    0.268    0.412   73.796    8.423    0.000
  312.500    0.256    0.422   78.733    7.389    0.000
  312.750    0.239    0.429   81.830    6.987    0.000
  313.000    0.231    0.441   83.102    7.120    0.000
  313.250    0.220    0.480   89.252    7.121    0.000
  313.500    0.214    0.505   97.855    6.990    0.000
  313.750    0.285    0.509   97.292    6.487    0.000
  314.000    0.266    0.528   92.482    6.133    0.000
  314.250    0.264    0.512   89.478    5.281    0.000
  314.500    0.277    0.498   91.977    4.900    0.000
  314.750    0.283    0.570   97.513    4.064    0.000
  315.000    0.280    0.583   96.971    3.371    0.000
  315.250    0.273    0.569   91.546    3.702    0.000
  315.500    0.266    0.552   90.988    4.221    0.000
  315.750    0.258    0.528   89.825    5.285    0.000
  316.000    0.256    0.493   88.049    6.140    0.000
  316.250    0.242    0.466   84.460    7.133    0.000
  316.500    0.227    0.442   85.722    7.689    0.000
  316.750    0.236    0.443   88.831    7.836    0.000
  317.000    0.228    0.438   90.120    7.549    0.000
  317.250    0.237    0.427   89.549    7.272    0.000
  317.500    0.226    0.440   87.775    6.749    0.000
  317.750    0.221    0.461   87.848    6.624    0.000
  318.000    0.221    0.481   89.117    6.878    0.000
  318.250    0.216    0.467   89.769    7.009    0.000
  318.500    0.237    0.451   89.830    6.753    0.000
  318.750    0.241    0.447   89.895    6.628    0.000
  319.000    0.240    0.468   89.368    6.267    0.000
  319.250    0.242    0.496   89.406    5.816    0.000
  319.500    0.259    0.513   90.048    5.603    0.000
  319.750    0.242    0.499   91.323    5.710    0.000
  320.000    0.248    0.488   95.664    6.040    0.000
  320.250    0.246    0.487   96.312    6.390    0.000
  320.500    0.237    0.493   93.339    6.391    0.000
  320.750    0.258    0.484   89.732    6.157    0.000
  321.000    0.266    0.479   85.516    5.932    0.000
  321.250    0.258    0.506   82.521    5.932    0.000
  321.500    0.248    0.501   85.034    6.276    0.000
  321.750    0.257    0.480   83.878    6.765    0.000
  322.000    0.252    0.476   83.904    7.430    0.000
  322.250    0.241    0.464   82.744    7.860    0.000
  322.500    0.232    0.451   81.591    7.715    0.000
  322.750    0.242    0.462   78.600    7.295    0.000
  323.000    0.255    0.483   76.817    7.161    0.000
  323.250    0.260    0.482   78.721    7.719    0.000
  323.500    0.264    0.463   78.148    8.320    0.000
  323.750    0.268    0.461   74.561    8.639    0.000
  324.000    0.282    0.478   74.014    8.803    0.000
  324.250    0.295    0.501   77.114    8.169    0.000
  324.500    0.312    0.482   80.809    6.775    0.000
  324.750    0.293    0.470   88.805    3.937    0.000
  325.000    0.283    0.539   94.343    2.204    0.000
  325.250    0.273    0.583   98.673    1.696    0.000
  325.500    0.290    0.621   99.970    1.574    0.000
  325.750    0.285    0.608   98.785    1.634    0.000
  326.000    0.271    0.608   97.017    1.899    0.000
  326.250    0.262    0.614   97.669    2.125    0.000
  326.500    0.287    0.597   97.116    2.248    0.000
  326.750    0.271    0.579   99.614    2.469    0.000
  327.000    0.259    0.560   98.452    2.612    0.000
  327.250    0.248    0.548   99.721    2.662    0.000
  327.500    0.241    0.530   99.166    2.763    0.000
  327.750    0.261    0.539   94.967    3.035    0.000
  328.000    0.259    0.528   93.183    3.526    0.000
  328.250    0.243    0.507   93.863    3.945    0.000
  328.500    0.224    0.490   93.924    4.333    0.000
  328.750    0.223    0.516   95.798    4.759    0.000
  329.000    0.251    0.513   94.624    4.942    0.000
  329.250    0.235    0.517   92.852    4.851    0.000
