~VERSION INFORMATION
 VERS.                 2.0:   CWLS LOG ASCII STANDARD -VERSION 2.0
 WRAP.                  NO:   ONE LINE PER DEPTH STEP
~WELL INFORMATION BLOCK
#MNEM.UNIT           DATA                    DESCRIPTION OF MNEMONIC
#---------    -------------------            -------------------------------
# Generated from Intellog Unique Number	CW_73_75/WELL/1046
WELL.         AMOCO 57 MARTEN HILLS 11-32    : Well_name    - WELL
LOC .         00/11-32-075-25W4/0            : Location     - LOCATION
UWI .         00/11-32-075-25W4/0            : Uwi          - UNIQUE WELL ID
ENTR.         JAYE                           : Entered      - ENTERED BY
SRVC.         SCHLUMBERGER                   : Scn          - SERVICE COMPANY
STRT.M        463.296                        : top_depth    - START DEPTH
STOP.M        649.296                        : bot_depth    - STOP DEPTH
STEP.M        0.25                           : increment    - STEP LENGTH
 NULL. -999.2500:NULL Value
~CURVE INFORMATION BLOCK
#MNEM UNIT       ERCB CURVE CODE    CURVE DESCRIPTION
#-----------   ------------------   ----------------------------------
DEPT.M        00 001 00 00         : DEPTH        - DEPTH
ILD .OHMM     00 120 00 00         : RESD         - DEEP RESISTIVITY (DIL)
NPHI.V/V      00 330 00 00         : PHIN         - NEUTRON POROSITY (SANDSTONE)
DPHI.V/V      00 890 00 00         : PHID         - DENSITY POROSITY (SANDSTONE)
GR  .API      00 310 00 00         : GR           - GAMMA RAY
CALI.MM       00 280 01 00         : CAL          - CALIPER
~PARAMETER INFORMATION
#MNEM.UNIT           DATA             DESCRIPTION OF MNEMONIC
#---------         -----------     ------------------------------
GL  .M        752.246              : gl           - GROUND LEVEL ELEVATION
EREF.M        756.209              : kb           - ELEVATION OF DEPTH REFERENCE
DATM.M        752.246              : datum        - DATUM ELEVATION
TDD .M        649.529              : tdd          - TOTAL DEPTH DRILLER
RUN .         ONE                  : Run          - RUN NUMBER
MATR.         SANDSTONE            : Logunit      - NEUTRON MATRIX
TMAX.C        31.1111              : BHT          - MAXIMUM RECORDED TEMPERATURE
BHTD.M        649.224              : BHTDEP       - MAXIMUM RECORDED TEMPERATURE
RMT .C        25                   : MDTP         - TEMPERATURE OF MUD
MUDD.KG/M     0                    : MWT          - MUD DENSITY
NEUT.         1                    : NEUTRON      - NEUTRON TYPE
RESI.         0                    : RESIST       - RESISTIVITY TYPE
RM  .OHMM     5.57                 : RM           - RESISTIVITY OF MUD
RMC .OHMM     0                    : RMC          - RESISTIVITY OF MUD CAKE
RMF .OHMM     0                    : RMF          - RESISTIVITY OF MUD FILTRATE
SUFT.C        -17.7778             : SUFT         - SURFACE TEMPERATURE
~A  DEPTH     RESD     PHIN     PHID       GR      CAL
# ...
  572.796   17.637    0.359    0.303   57.480  220.110
  573.046   16.952    0.368    0.287   56.224  221.071
  573.296   16.777    0.387    0.260   53.928  222.651
  573.546   17.197    0.370    0.233   51.209  224.126
  573.796   18.732    0.310    0.190   48.980  225.710
  574.046   20.441    0.272    0.131   47.598  226.669
  574.296   22.303    0.236    0.081   46.646  227.322
  574.546   24.469    0.221    0.070   47.091  227.569
  574.796   26.603    0.224    0.065   49.060  227.701
  575.046   27.876    0.252    0.059   51.088  227.324
  575.296   27.848    0.288    0.067   54.153  226.227
  575.546   27.464    0.328    0.085   57.825  225.330
  575.796   26.490    0.402    0.129   60.342  222.065
  576.046   25.411    0.438    0.176   60.972  216.225
  576.296   23.239    0.444    0.218   59.957  214.096
  576.546   19.170    0.429    0.249   59.672  213.615
  576.796   16.467    0.425    0.235   59.513  214.164
  577.046   14.382    0.426    0.221   60.263  215.131
  577.296   13.746    0.412    0.218   60.527  215.779
  577.546   13.656    0.389    0.227   59.148  216.434
  577.796   13.417    0.374    0.202   58.254  217.396
  578.046   12.991    0.408    0.180   57.908  218.360
  578.296   12.531    0.440    0.213   57.868  219.220
  578.546   11.932    0.463    0.241   58.436  220.386
  578.796   11.074    0.481    0.258   61.197  221.559
  579.046   10.221    0.493    0.268   64.444  221.588
  579.296    9.555    0.498    0.279   66.047  221.416
  579.546    8.642    0.469    0.295   63.814  221.145
  579.796    7.917    0.461    0.302   62.799  221.182
  580.046    7.321    0.464    0.303   62.882  221.524
  580.296    6.997    0.468    0.299   63.633  221.562
  580.546    6.824    0.457    0.284   64.810  221.697
  580.796    6.742    0.445    0.265   66.351  221.529
  581.046    6.748    0.435    0.235   68.504  221.254
  581.296    6.994    0.465    0.217   68.950  220.868
  581.546    7.247    0.427    0.196   69.397  220.390
  581.796    7.552    0.422    0.165   71.608  219.706
  582.046    7.929    0.469    0.177   75.585  220.051
  582.296    8.248    0.412    0.216   78.650  220.395
  582.546    8.485    0.366    0.170   75.749  220.836
  582.796    8.875    0.341    0.142   71.996  220.975
  583.046    9.231    0.336    0.099   71.651  221.216
  583.296    9.727    0.435    0.125   74.166  221.663
  583.546   10.194    0.393    0.164   75.041  222.319
  583.796   10.563    0.349    0.152   74.635  223.382
  584.046   10.990    0.375    0.099   74.227  224.656
  584.296   11.139    0.414    0.150   73.579  225.721
  584.546   11.587    0.397    0.175   71.468  226.580
  584.796   12.902    0.302    0.142   63.879  227.029
  585.046   15.636    0.285    0.078   57.569  226.862
  585.296   18.264    0.272    0.006   59.172  226.682
  585.546   20.112    0.274    0.014   64.366  226.519
  585.796   20.276    0.336    0.068   73.276  226.131
  586.046   16.976    0.407    0.173   79.687  224.417
  586.296   13.350    0.425    0.195   82.144  222.596
  586.546   11.322    0.421    0.177   83.017  221.189
  586.796    9.671    0.418    0.156   83.954  221.013
  587.046    8.540    0.421    0.149   84.460  221.047
  587.296    8.238    0.442    0.187   84.966  221.296
  587.546    8.229    0.439    0.182   85.838  221.427
  587.796    8.343    0.435    0.172   87.501  221.876
  588.046    8.489    0.440    0.170   90.687  222.736
  588.296    8.621    0.447    0.163   92.107  223.179
  588.546    9.002    0.445    0.166   89.452  224.253
  588.796    9.244    0.442    0.165   88.010  224.590
  589.046    9.369    0.437    0.158   87.420  225.551
  589.296    9.308    0.425    0.156   88.110  226.720
  589.546    9.146    0.409    0.164   89.289  227.994
  589.796    9.003    0.423    0.170   88.762  228.749
  590.046    8.910    0.441    0.168   86.834  228.476
  590.296    8.900    0.463    0.168   84.541  227.786
  590.546    8.891    0.483    0.164   84.135  227.098
  590.796    8.866    0.483    0.158   85.372  226.312
  591.046    8.872    0.453    0.169   87.282  225.316
  591.296    8.830    0.431    0.161   88.518  224.214
  591.546    8.854    0.448    0.169   89.877  223.217
  591.796    8.844    0.452    0.171   92.029  221.916
  592.046    8.850    0.445    0.164   92.601  221.126
  592.296    8.858    0.436    0.169   91.706  222.190
  592.546    8.832    0.429    0.148   90.999  223.561
  592.796    8.871    0.442    0.124   90.287  224.423
  593.046    8.894    0.440    0.161   88.965  225.801
  593.296    8.919    0.433    0.179   86.551  226.968
  593.546    8.940    0.447    0.179   84.137  226.174
  593.796    9.097    0.451    0.196   82.270  212.292
  594.046    9.782    0.422    0.187   81.863  215.218
  594.296   10.344    0.399    0.166   83.711  215.765
  594.546   11.331    0.369    0.136   86.044  212.605
  594.796   11.655    0.398    0.111   91.180  213.981
  595.046   10.816    0.422    0.146   97.105  216.699
  595.296    9.947    0.443    0.172  100.414  220.030
  595.546    9.231    0.456    0.171  102.076  224.185
  595.796    8.695    0.452    0.167  102.706  227.109
  596.046    8.309    0.445    0.156  101.812  228.381
  596.296    7.812    0.447    0.149   97.084  228.722
  596.546    7.563    0.467    0.172   93.879  226.693
  596.796    7.568    0.466    0.184   90.246  223.945
  597.046    8.198    0.437    0.188   84.604  221.411
  597.296    9.079    0.405    0.178   79.024  219.376
  597.546    9.851    0.389    0.140   76.002  216.626
  597.796   11.256    0.395    0.142   78.397  214.810
  598.046   13.441    0.423    0.178   78.418  216.696
  598.296   14.856    0.436    0.185   77.037  221.370
  598.546   15.741    0.405    0.153   75.657  220.372
  598.796   15.899    0.380    0.147   77.140  214.741
  599.046   15.365    0.375    0.133   77.220  214.156
  599.296   14.155    0.399    0.124   77.241  215.328
  599.546   12.896    0.416    0.122   79.757  217.213
  599.796   11.326    0.451    0.135   81.482  220.244
  600.046   10.056    0.444    0.152   82.355  222.334
  600.296    9.316    0.432    0.151   83.838  224.429
  600.546    9.053    0.431    0.156   84.160  226.015
  600.796    9.193    0.443    0.163   85.584  227.288
  601.046    9.389    0.427    0.149   85.846  227.740
  601.296    9.536    0.420    0.130   85.869  227.766
  601.546    9.491    0.421    0.132   85.886  227.182
  601.796    9.376    0.422    0.144   86.517  226.803
  602.046    9.178    0.425    0.160   88.241  227.252
  602.296    8.838    0.469    0.149   88.323  228.210
  602.546    8.635    0.457    0.143   88.342  228.765
  602.796    8.641    0.441    0.148   85.806  228.083
  603.046    9.072    0.446    0.159   86.192  227.391
  603.296    9.720    0.433    0.169   83.961  226.185
  603.546   10.111    0.406    0.156   78.075  222.817
  603.796   10.306    0.374    0.119   74.869  220.795
  604.046   10.409    0.397    0.102   77.752  219.591
  604.296   10.513    0.423    0.125   80.451  218.282
  604.546   10.957    0.447    0.145   83.334  217.189
  604.796   11.889    0.467    0.152   83.656  216.705
  605.046   13.312    0.479    0.173   73.693  216.739
  605.296   15.293    0.446    0.195   66.651  217.909
  605.546   17.765    0.391    0.201   61.559  219.489
  605.796   20.334    0.372    0.158   60.361  215.710
  606.046   24.733    0.378    0.108   62.150  218.629
  606.296   26.643    0.401    0.123   63.446  220.624
  606.546   27.511    0.405    0.162   62.553  222.514
  606.796   28.829    0.384    0.174   58.738  223.166
  607.046   31.398    0.350    0.129   56.690  223.304
  607.296   35.876    0.341    0.098   57.440  221.895
  607.546   39.874    0.350    0.065   59.105  220.695
  607.796   39.541    0.372    0.090   60.891  220.215
  608.046   38.353    0.401    0.114   59.754  220.465
  608.296   36.726    0.393    0.149   60.325  220.905
  608.546   35.424    0.407    0.111   61.561  221.760
  608.796   34.108    0.437    0.151   61.885  222.617
  609.046   33.207    0.457    0.185   63.064  222.863
