~VERSION INFORMATION
 VERS.                 2.0:   CWLS LOG ASCII STANDARD -VERSION 2.0
 WRAP.                  NO:   ONE LINE PER DEPTH STEP
~WELL INFORMATION BLOCK
#MNEM.UNIT           DATA                    DESCRIPTION OF MNEMONIC
#---------    -------------------            -------------------------------
# Generated from Intellog Unique Number	CW_76_78/WELL/2808
WELL.         PAN AM S-1 MARTEN HILLS 10-22  : Well_name    - WELL
LOC .         00/10-22-076-24W4/0            : Location     - LOCATION
UWI .         00/10-22-076-24W4/0            : Uwi          - UNIQUE WELL ID
ENTR.         JJ                             : Entered      - ENTERED BY
SRVC.         SCHLUMBERGER                   : Scn          - SERVICE COMPANY
DATE.         18 JAN 66                      : Date         - LOG DATE
STRT.M        701.04                         : top_depth    - START DEPTH
STOP.M        862.54                         : bot_depth    - STOP DEPTH
STEP.M        0.25                           : increment    - STEP LENGTH
 NULL. -999.2500:NULL Value
~CURVE INFORMATION BLOCK
#MNEM UNIT       ERCB CURVE CODE    CURVE DESCRIPTION
#-----------   ------------------   ----------------------------------
DEPT.M        00 001 00 00         : DEPTH        - DEPTH
DELT.US/F     00 520 00 00         : DELT         - SONIC TRAVEL TIME
CALI.MM       00 280 01 00         : CAL          - CALIPER
GR  .API      00 310 00 00         : GR           - GAMMA RAY
ILD .OHMM     00 120 00 00         : RESD         - DEEP RESISTIVITY (DIL)
~PARAMETER INFORMATION
#MNEM.UNIT           DATA             DESCRIPTION OF MNEMONIC
#---------         -----------     ------------------------------
GL  .M        921.38               : gl           - GROUND LEVEL ELEVATION
EREF.M        924.885              : kb           - ELEVATION OF DEPTH REFERENCE
DATM.M        924.885              : datum        - DATUM ELEVATION
TDD .M        865.937              : tdd          - TOTAL DEPTH DRILLER
RUN .         ONE & TWO            : Run          - RUN NUMBER
ENG .         BERRY                : Engineer     - RECORDING ENGINEER
WIT .         SANDERSON            : Witness      - WITNESSED BY
BASE.         EDMONTON             : Branch       - HOME BASE OF LOGGING UNIT
MUD .         GEL CHEM             : Mud_type     - MUD TYPE
MATR.         SANDSTONE            : Logunit      - NEUTRON MATRIX
TMAX.C        25                   : BHT          - MAXIMUM RECORDED TEMPERATURE
BHTD.M        864.108              : BHTDEP       - MAXIMUM RECORDED TEMPERATURE
RMT .C        6.11111              : MDTP         - TEMPERATURE OF MUD
MUDD.KG/M     1056                 : MWT          - MUD DENSITY
NEUT.         1                    : NEUTRON      - NEUTRON TYPE
RESI.         0                    : RESIST       - RESISTIVITY TYPE
RM  .OHMM     5.05                 : RM           - RESISTIVITY OF MUD
RMC .OHMM     0                    : RMC          - RESISTIVITY OF MUD CAKE
RMF .OHMM     0                    : RMF          - RESISTIVITY OF MUD FILTRATE
SUFT.C        5                    : SUFT         - SURFACE TEMPERATURE
~A  DEPTH     DELT      CAL       GR     RESD
# ...
  744.540  268.202  242.278   64.028    6.680
  744.790  324.882  240.469   59.867    6.265
  745.040  348.082  237.704   66.124    5.868
  745.290  355.888  236.210   72.279    5.612
  745.540  358.448  234.717   76.482    5.300
  745.790  360.674  232.693   73.823    5.150
  746.040  356.244  231.731   72.967    4.957
  746.290  345.291  231.510   73.915    4.784
  746.540  360.559  233.198   74.912    4.655
  746.790  366.684  239.548   78.915    4.505
  747.040  369.782  240.812   79.512    4.459
  747.290  375.033  240.910   78.256    4.596
  747.540  366.300  240.264   79.303    4.856
  747.790  351.046  239.408   76.344    5.201
  748.040  339.758  237.491   73.986    5.626
  748.290  344.404  236.846   75.283    6.179
  748.540  342.460  237.897   76.282    6.377
  748.790  331.778  239.584   74.425    6.349
  749.040  341.533  245.088   74.019    6.261
  749.290  337.573  246.987   75.468    6.133
  749.540  336.236  246.767   75.464    6.022
  749.790  338.796  246.545   73.755    5.812
  750.040  347.342  247.490   72.400    5.660
  750.290  350.171  248.860   72.295    5.529
  750.540  348.767  250.864   73.193    5.402
  750.790  350.856  251.703   74.341    5.294
  751.040  363.368  252.120   76.640    5.285
  751.290  344.819  251.581   80.242    5.279
  751.540  365.061  243.834   82.792    5.313
  751.790  357.607  237.252   79.132    5.331
  752.040  355.059  237.242   76.023    5.280
  752.290  353.451  237.870   74.416    5.276
  752.540  352.718  235.318   73.911    5.310
  752.790  354.271  231.492   72.704    5.509
  753.040  356.832  232.120   71.349    5.854
  753.290  328.536  234.018   68.439    6.114
  753.540  301.786  235.281   65.481    6.439
  753.790  308.516  232.729   66.127    6.760
  754.040  323.850  229.222   65.171    7.413
  754.290  333.470  229.743   65.869    8.168
  754.540  312.368  232.489   66.716    8.717
  754.790  291.466  235.554   64.308    9.599
  755.040  260.817  237.454   59.295   10.207
  755.290  245.025  237.339   56.386   10.737
  755.540  257.872  236.271   59.286   10.091
  755.790  278.047  234.778   61.486    9.283
  756.040  366.660  233.816   63.435    8.311
  756.290  339.305  233.806   67.037    7.358
  756.540  361.699  234.326   68.635    6.754
  756.790  362.445  234.424   68.181    6.215
  757.040  356.535  235.262   71.782    5.900
  757.290  316.743  236.103   78.038    5.707
  757.540  311.708  236.412   73.778    5.496
  757.790  342.370  235.980   71.368    5.447
  758.040  349.772  235.441   72.367    5.546
  758.290  342.720  234.054   72.212    5.620
  758.540  340.306  231.713   71.106    5.654
  758.790  327.338  229.052   72.204    5.793
  759.040  327.882  229.468   76.006    5.891
  759.290  342.679  232.214   74.299    5.905
  759.540  352.232  233.586   76.248    5.651
  759.790  349.550  235.060   78.096    5.481
  760.040  351.909  233.250   79.094    5.515
  760.290  355.412  231.227   79.891    5.591
  760.540  345.065  231.535   80.388    5.749
  760.790  335.392  232.693   79.332    5.825
  761.040  333.448  234.487   76.624    5.799
  761.290  342.396  236.704   76.619    5.710
  761.540  350.269  235.317   78.769    5.620
  761.790  352.763  239.442   78.413    5.535
  762.040  354.652  241.130   78.710    5.528
  762.290  354.860  239.319   79.056    5.501
  762.540  352.179  238.246   79.102    5.577
  762.790  349.496  238.240   78.747    5.591
  763.040  347.619  238.125   78.242    5.542
  763.290  349.441  238.117   77.838    5.602
  763.540  349.111  239.061   76.881    5.613
  763.790  342.597  239.901   74.925    5.627
  764.040  350.873  239.362   71.365    5.662
  764.290  346.577  237.445   72.212    5.738
  764.540  344.364  239.449   74.211    5.837
  764.790  345.649  239.865   72.955    5.913
  765.040  352.042  239.964   75.204    5.927
  765.290  348.486  232.535   76.452    6.026
  765.540  340.963  207.614   75.447    6.101
  765.790  339.826  209.405   75.442    6.132
  766.040  332.370  213.637   79.745    6.148
  766.290  325.386  217.339   82.295    6.182
  766.540  336.082  221.147   79.336    6.196
  766.790  336.155  220.289   75.825    6.067
  767.040  334.818  222.400   74.470    5.979
  767.290  335.766  226.420   73.864    5.829
  767.540  337.722  231.393   74.161    5.576
  767.790  345.460  241.456   76.110    5.344
  768.040  354.743  241.977   79.862    5.295
  768.290  359.523  242.286   81.109    5.271
  768.540  341.109  244.822   81.506    5.201
  768.790  335.066  245.025   83.355    5.214
  769.040  349.056  248.303   84.953    5.520
  769.290  337.768  243.735   79.691    6.027
  769.540  306.716  237.684   74.829    6.597
  769.790  318.756  235.767   73.222    7.043
  770.040  321.385  237.878   73.568    7.263
  770.290  326.232  243.912   77.521    7.195
  770.540  335.381  247.719   76.415    6.964
  770.790  344.732  239.230   78.112    7.017
  771.040  313.074  221.942   75.154    7.196
  771.290  327.939  222.038   71.243    7.623
  771.540  328.685  229.238   67.132    8.008
  771.790  333.935  233.258   69.132    8.207
  772.040  343.824  234.627   74.486    8.118
  772.290  347.394  220.096   76.335    7.766
  772.540  342.090  237.154   76.581    7.550
  772.790  343.376  235.767   74.023    7.279
  773.040  346.407  216.359   71.615    7.068
  773.290  346.748  230.448   72.662    6.956
  773.540  327.326  241.783   75.263    6.908
  773.790  344.476  239.548   78.013    6.963
  774.040  326.331  244.097   78.509    7.204
  774.290  297.564  244.724   72.145    7.836
  774.540  259.385  245.244   62.224    8.509
  774.790  198.416  246.084   52.654    9.059
  775.040  224.507  246.818   43.085    9.361
  775.290  254.565  247.021   52.596    9.313
  775.540  276.824  247.860   60.705    8.649
  775.790  302.848  246.366   69.215    8.066
  776.040  299.292  245.722   70.362    7.977
  776.290  285.852  244.866   73.563    8.569
  776.540  281.019  245.067   71.456    8.912
  776.790  285.866  245.907   66.594    8.455
  777.040  299.588  246.958   69.545    7.995
  777.290  308.602  247.584   72.895    7.474
  777.540  319.970  248.213   74.794    7.077
  777.790  327.641  245.979   76.693    6.826
  778.040  330.203  242.152   77.641    6.632
  778.290  331.284  245.536   77.186    6.442
  778.540  321.274  248.495   78.635    6.458
  778.790  319.264  250.499   80.934    6.531
  779.040  325.455  251.657   79.177    6.712
  779.290  324.656  251.968   77.369    6.848
  779.540  322.780  252.913   76.815    6.925
  779.790  322.183  253.540   76.510    6.960
  780.040  326.087  250.670   76.255    6.994
  780.290  329.724  250.448   76.652    6.969
  780.540  330.203  251.709   77.199    6.899
  780.790  325.973  251.914   77.996    6.771
  781.040  325.778  251.587   80.546    6.642
  781.290  321.750  251.367   84.298    6.509
  781.540  333.522  251.358   83.793    6.445
  781.790  332.251  251.561   79.432    6.395
  782.040  334.880  252.400   78.074    6.247
  782.290  332.130  252.498   78.571    6.178
  782.540  330.053  250.156   79.469    6.133
  782.790  328.379  242.302   83.171    6.104
  783.040  326.435  242.506   84.068    6.157
  783.290  323.686  247.478   80.157    6.175
  783.540  322.012  246.729   75.696    6.270
  783.790  308.573  243.540   72.487    6.307
  784.040  322.496  224.450   69.778    6.320
  784.290  328.083  222.108   72.128    6.291
  784.540  332.459  234.927   76.281    6.265
  784.790  333.340  222.939   77.528    6.258
  785.040  331.733  221.658   77.574    6.213
  785.290  329.521  223.664   77.419    6.226
  785.540  326.435  191.217   79.218    6.304
  785.790  321.332  177.320   82.720    6.255
  786.040  319.860  190.775   80.161    6.228
  786.290  314.421  226.172   76.802    6.221
  786.540  316.579  237.930   72.139    6.154
  786.790  320.014  245.024   68.730    6.169
  787.040  329.097  248.832   72.933    6.246
  787.290  333.944  243.522   75.283    6.323
  787.540  335.362  242.135   72.774    6.375
  787.790  338.059  242.339   75.024    6.393
