~VERSION INFORMATION
 VERS.                 2.0:   CWLS LOG ASCII STANDARD -VERSION 2.0
 WRAP.                  NO:   ONE LINE PER DEPTH STEP
~WELL INFORMATION BLOCK
#MNEM.UNIT           DATA                    DESCRIPTION OF MNEMONIC
#---------    -------------------            -------------------------------
# Generated from Intellog Unique Number	CW_70_72/WELL/1071
NULL.         -999.25                        : NULL_VALUE
WELL.         SCEPTER ET AL FRANCIS 15-20    : Well_name    - WELL              
LOC .         15-20-072-21W4                 : Location     - LOCATION          
UWI .         00/15-20-072-21W4/0            : Uwi          - UNIQUE WELL ID    
ENTR.         JAYE                           : Entered      - ENTERED BY        
SRVC.         WESTERN ATLAS                  : Scn          - SERVICE COMPANY   
DATE.         20 FEB 88                      : Date         - LOG DATE          
STRT.M        345                            : top_depth    - START DEPTH       
STOP.M        544                            : bot_depth    - STOP DEPTH        
STEP.M        0.25                           : increment    - STEP LENGTH       
~CURVE INFORMATION BLOCK
#MNEM UNIT       ERCB CURVE CODE    CURVE DESCRIPTION
#-----------   ------------------   ----------------------------------
DEPT.M        00 001 00 00         : DEPTH        - DEPTH                       
DPHI.V/V      00 890 00 00         : PHID         - DENSITY POROSITY (SANDSTONE)
NPHI.V/V      00 330 00 00         : PHIN         - NEUTRON POROSITY (SANDSTONE)
GR  .API      00 310 00 00         : GR           - GAMMA RAY                   
CALI.MM       00 280 01 00         : CAL          - CALIPER                     
ILD .OHMM     00 120 00 00         : RESD         - DEEP RESISTIVITY (DIL)      
~PARAMETER INFORMATION       
#MNEM.UNIT           DATA             DESCRIPTION OF MNEMONIC
#---------         -----------     ------------------------------
GL  .M        620.4                : gl           - GROUND LEVEL ELEVATION      
EREF.M        624                  : kb           - ELEVATION OF DEPTH REFERENCE
DATM.M        620.4                : datum        - DATUM ELEVATION             
TDD .M        547                  : tdd          - TOTAL DEPTH DRILLER         
RUN .         ONE                  : Run          - RUN NUMBER                  
ENG .         HUTCHEON             : Engineer     - RECORDING ENGINEER          
WIT .         TALLMAN              : Witness      - WITNESSED BY                
BASE.         SLAVE LAKE           : Branch       - HOME BASE OF LOGGING UNIT   
MUD .         GEL CHEM             : Mud_type     - MUD TYPE                    
MATR.         SANDSTONE            : Logunit      - NEUTRON MATRIX              
TMAX.C        24                   : BHT          - MAXIMUM RECORDED TEMPERATURE
BHTD.M        548.6                : BHTDEP       - MAXIMUM RECORDED TEMPERATURE
RMT .C        15                   : MDTP         - TEMPERATURE OF MUD          
MUDD.KG/M     1030                 : MWT          - MUD DENSITY                 
NEUT.         1                    : NEUTRON      - NEUTRON TYPE                
RESI.         0                    : RESIST       - RESISTIVITY TYPE            
RM  .OHMM     3.6                  : RM           - RESISTIVITY OF MUD          
RMC .OHMM     4                    : RMC          - RESISTIVITY OF MUD CAKE     
RMF .OHMM     3.5                  : RMF          - RESISTIVITY OF MUD FILTRATE 
SUFT.C        0                    : SUFT         - SURFACE TEMPERATURE         
~A  DEPTH     PHID     PHIN       GR      CAL     RESD
# ...
  454.500    0.252    0.368   56.615  208.658    6.105
  454.750    0.237    0.386   60.259  209.033    5.002
  455.000    0.304    0.396   64.879  209.305    4.314
  455.250    0.309    0.386   66.388  209.176    3.847
  455.500    0.303    0.375   65.090  209.252    3.593
  455.750    0.304    0.379   65.986  209.322    3.519
  456.000    0.306    0.394   63.406  209.503    3.551
  456.250    0.294    0.414   64.306  209.474    3.595
  456.500    0.283    0.421   66.486  209.236    3.668
  456.750    0.276    0.419   65.430  209.008    3.749
  457.000    0.270    0.427   60.593  209.183    3.830
  457.250    0.263    0.434   60.088  208.951    3.912
  457.500    0.272    0.433   63.915  208.820    3.998
  457.750    0.280    0.422   67.682  208.590    4.094
  458.000    0.277    0.412   70.715  208.558    4.249
  458.250    0.283    0.402   68.805  208.635    4.346
  458.500    0.278    0.407   66.530  208.196    4.467
  458.750    0.264    0.416   67.369  207.865    4.513
  459.000    0.256    0.424   70.342  207.835    4.580
  459.250    0.309    0.402   72.398  208.114    4.610
  459.500    0.295    0.383   73.967  213.982    4.600
  459.750    0.272    0.398   73.646  225.346    4.433
  460.000    0.261    0.419   75.216  225.421    4.125
  460.250    0.223    0.447   77.150  214.814    3.787
  460.500    0.601    0.464   78.416  228.921    3.225
  460.750    0.565    0.500   75.226  247.508    2.652
  461.000    0.504    0.468   71.974  261.410    2.382
  461.250    0.476    0.450   70.919  278.980    2.390
  461.500    0.438    0.466   74.869  264.916    2.520
  461.750    0.324    0.538   81.809  230.713    2.756
  462.000    0.251    0.545   85.087  214.207    3.054
  462.250    0.191    0.466   85.925  210.309    3.448
  462.500    0.176    0.430   87.433  209.570    3.765
  462.750    0.186    0.440   90.710  209.539    3.961
  463.000    0.191    0.406   88.619  209.514    3.981
  463.250    0.195    0.373   85.855  209.984    3.824
  463.500    0.189    0.376   84.191  210.157    3.820
  463.750    0.187    0.397   86.246  210.029    3.984
  464.000    0.186    0.411   83.788  210.104    4.177
  464.250    0.183    0.405   87.068  210.281    4.454
  464.500    0.177    0.388   92.054  210.155    4.748
  464.750    0.171    0.401   92.465  210.023    4.961
  465.000    0.201    0.411   92.326  208.673    5.127
  465.250    0.203    0.377   89.380  207.016    5.285
  465.500    0.136    0.345   80.026  206.683    5.452
  465.750    0.097    0.347   67.742  207.266    5.591
  466.000    0.095    0.367   71.142  208.560    5.684
  466.250    0.218    0.383   81.134  209.953    5.754
  466.500    0.203    0.391   89.111  210.940    5.635
  466.750    0.205    0.374   87.993  211.323    5.452
  467.000    0.207    0.350   81.020  211.596    5.348
  467.250    0.206    0.333   81.979  211.571    5.229
  467.500    0.206    0.350   86.540  211.438    5.235
  467.750    0.200    0.386   88.598  211.305    5.312
  468.000    0.191    0.361   83.760  210.772    5.368
  468.250    0.196    0.353   78.189  210.943    5.415
  468.500    0.207    0.369   82.442  211.121    5.454
  468.750    0.199    0.368   85.843  211.196    5.492
  469.000    0.195    0.360   88.999  211.880    5.500
  469.250    0.207    0.371   91.606  213.272    5.526
  469.500    0.218    0.365   91.101  220.468    5.595
  469.750    0.211    0.352   77.964  216.472    5.556
  470.000    0.204    0.358   72.147  213.493    5.472
  470.250    0.199    0.371   76.952  213.058    5.447
  470.500    0.206    0.379   82.978  213.941    5.210
  470.750    0.212    0.367   86.438  214.120    4.929
  471.000    0.215    0.370   87.276  214.295    4.595
  471.250    0.207    0.366   87.075  214.060    4.440
  471.500    0.193    0.355   87.668  213.933    4.357
  471.750    0.203    0.362   87.589  214.921    4.429
  472.000    0.216    0.386   85.682  225.063    4.491
  472.250    0.213    0.400   82.247  213.235    4.567
  472.500    0.188    0.398   83.694  211.374    4.751
  472.750    0.188    0.386   83.860  210.634    4.918
  473.000    0.183    0.387   79.082  209.893    4.791
  473.250    0.159    0.385   71.925  209.153    4.557
  473.500    0.147    0.378   69.650  208.711    4.366
  473.750    0.208    0.378   70.183  208.786    4.318
  474.000    0.214    0.388   70.714  209.366    4.394
  474.250    0.213    0.400   75.640  209.547    4.719
  474.500    0.210    0.379   79.834  209.719    5.297
  474.750    0.195    0.314   70.907  209.587    6.484
  475.000    0.166    0.263   60.455  209.256    7.494
  475.250    0.086    0.222   46.401  208.615    8.777
  475.500    0.075    0.203   47.725  207.877   10.241
  475.750    0.128    0.228   49.662  207.546   11.602
  476.000    0.180    0.259   49.033  207.413   12.761
  476.250    0.165    0.274   48.102  207.490   14.458
  476.500    0.125    0.252   46.803  207.452   16.168
  476.750    0.089    0.203   44.590  207.426   17.916
  477.000    0.041    0.161   41.399  207.604   20.370
  477.250    0.015    0.125   40.648  207.679   22.445
  477.500    0.005    0.113   43.438  208.257   19.655
  477.750    0.018    0.114   43.848  208.538   14.417
  478.000    0.050    0.145   43.650  209.221    9.810
  478.250    0.102    0.239   42.534  209.592    6.408
  478.500    0.146    0.270   45.139  209.362    4.950
  478.750    0.275    0.316   49.395  209.130    4.004
  479.000    0.307    0.376   54.565  209.000    3.591
  479.250    0.303    0.392   53.999  209.180    3.485
  479.500    0.287    0.395   51.784  209.557    3.498
  479.750    0.291    0.389   50.242  209.529    3.626
  480.000    0.293    0.381   49.736  209.398    3.823
  480.250    0.271    0.367   49.593  209.367    4.001
  480.500    0.267    0.367   49.885  209.029    4.065
  480.750    0.276    0.376   50.416  209.003    4.080
  481.000    0.280    0.377   51.071  209.383    4.094
  481.250    0.269    0.370   52.151  209.558    4.062
  481.500    0.261    0.377   55.797  209.731    4.031
  481.750    0.262    0.390   58.343  209.907    3.999
  482.000    0.261    0.400   56.067  209.571    3.975
  482.250    0.256    0.403   53.121  209.141    3.979
  482.500    0.260    0.406   52.677  208.808    4.014
  482.750    0.271    0.388   54.734  208.771    4.050
  483.000    0.266    0.364   58.013  208.747    4.147
  483.250    0.256    0.345   55.615  209.323    4.278
  483.500    0.249    0.329   51.632  209.708    4.385
  483.750    0.243    0.336   54.056  210.288    4.408
  484.000    0.236    0.345   58.615  210.255    4.233
  484.250    0.242    0.361   56.707  210.223    4.091
  484.500    0.258    0.393   57.726  210.306    3.841
  484.750    0.286    0.398   57.405  210.169    3.654
  485.000    0.298    0.392   56.228  210.245    3.587
  485.250    0.306    0.385   55.049  210.418    3.644
  485.500    0.335    0.381   54.179  210.598    3.828
  485.750    0.352    0.378   53.552  210.367    4.059
  486.000    0.325    0.364   53.779  208.507    4.304
  486.250    0.275    0.347   56.141  206.852    4.506
  486.500    0.243    0.350   58.993  210.483    4.551
  486.750    0.245    0.357   56.718  212.287    4.353
  487.000    0.243    0.367   65.489  212.970    4.109
  487.250    0.223    0.386   73.892  213.449    3.887
  487.500    0.226    0.411   80.649  214.947    3.630
  487.750    0.213    0.425   82.768  219.394    3.403
  488.000    0.215    0.435   83.421  223.637    3.326
  488.250    0.221    0.447   86.944  225.235    3.463
  488.500    0.244    0.443   91.074  222.256    3.670
  488.750    0.197    0.413   89.779  217.143    4.097
  489.000    0.177    0.391   83.781  212.433    4.548
  489.250    0.164    0.378   76.013  210.577    5.059
  489.500    0.156    0.367   72.030  208.308    5.483
  489.750    0.170    0.384   78.604  208.280    5.655
  490.000    0.192    0.380   84.810  209.266    5.603
  490.250    0.204    0.376   84.916  210.051    5.486
  490.500    0.189    0.373   84.834  210.638    5.268
  490.750    0.185    0.373   84.942  211.725    5.177
