~VERSION INFORMATION
 VERS.                 2.0:   CWLS LOG ASCII STANDARD -VERSION 2.0
 WRAP.                  NO:   ONE LINE PER DEPTH STEP
~WELL INFORMATION BLOCK
#MNEM.UNIT           DATA                    DESCRIPTION OF MNEMONIC
#---------    -------------------            -------------------------------
# Generated from Intellog Unique Number	CC_80_83/WELL/2379
NULL.         -999.25                        : NULL_VALUE
WELL.         GULF BOHN                      : Well_name    - WELL              
LOC .         10-27-081-07W4                 : Location     - LOCATION          
UWI .         00/10-27-081-07W4/0            : Uwi          - UNIQUE WELL ID    
ENTR.         DW                             : Entered      - ENTERED BY        
SRVC.         SCHLUMBERGER                   : Scn          - SERVICE COMPANY   
DATE.         19 FEB 79                      : Date         - LOG DATE
STRT.M        205                            : top_depth    - START DEPTH       
STOP.M        459.992                        : bot_depth    - STOP DEPTH        
STEP.M        0.3                            : increment    - STEP LENGTH       
~CURVE INFORMATION BLOCK
#MNEM UNIT       ERCB CURVE CODE    CURVE DESCRIPTION
#-----------   ------------------   ----------------------------------
DEPT.M        00 001 00 00         : DEPTH        - DEPTH                       
DPHI.V/V      00 890 00 00         : PHID         - DENSITY POROSITY (LIMESTONE)
NPHI.V/V      00 330 00 00         : PHIN         - NEUTRON POROSITY (LIMESTONE)
GR  .API      00 310 00 00         : GR           - GAMMA RAY                   
ILD .OHMM     00 120 00 00         : RESD         - DEEP RESISTIVITY (DIL)      
~PARAMETER INFORMATION       
#MNEM.UNIT           DATA             DESCRIPTION OF MNEMONIC
#---------         -----------     ------------------------------
GL  .M        656.2                : gl           - GROUND LEVEL ELEVATION      
EREF.M        659.9                : kb           - ELEVATION OF DEPTH REFERENCE
DATM.M        659.9                : datum        - DATUM ELEVATION             
TDD .M        510                  : tdd          - TOTAL DEPTH DRILLER         
RUN .         ONE                  : Run          - RUN NUMBER                  
ENG .         BILL                 : Engineer     - RECORDING ENGINEER          
WIT .         JIM                  : Witness      - WITNESSED BY                
MUD .         GEL                  : Mud_type     - MUD TYPE                    
MATR.         LIMESTONE            : Logunit      - NEUTRON MATRIX              
TMAX.C        20                   : BHT          - MAXIMUM RECORDED TEMPERATURE
BHTD.M        510                  : BHTDEP       - MAXIMUM RECORDED TEMPERATURE
MATR.         1                    : LOGUNIT      - NEUTRON MATRIX              
RMT .C        25                   : MDTP         - TEMPERATURE OF MUD          
NEUT.         1                    : NEUTRON      - NEUTRON TYPE                
RESI.         0                    : RESIST       - RESISTIVITY TYPE            
RMC .OHMM     0.25                 : RMC          - RESISTIVITY OF MUD CAKE     
RMF .OHMM     0.25                 : RMF          - RESISTIVITY OF MUD FILTRATE 
SUFT.C        4                    : SUFT         - SURFACE TEMPERATURE         
~A  DEPTH     PHID     PHIN       GR     RESD
# ...
  361.596    0.275    0.534   85.317    3.036
  361.896    0.320    0.516   82.231    3.095
  362.196    0.306    0.494   83.463    3.811
  362.496    0.323    0.505   81.610    5.061
  362.796    0.299    0.499   77.290    6.115
  363.096    0.213    0.479   74.203    7.251
  363.396    0.191    0.448   74.201    7.677
  363.696    0.276    0.444   76.050    8.128
  363.996    0.297    0.474   74.814    7.980
  364.296    0.301    0.474   74.812    7.834
  364.596    0.305    0.474   75.427    7.690
  364.896    0.323    0.473   71.724    7.549
  365.196    0.321    0.494   71.722    7.412
  365.496    0.321    0.487   72.336    7.415
  365.796    0.307    0.491   72.335    7.418
  366.096    0.269    0.496   72.332    7.422
  366.396    0.276    0.491   74.798    7.566
  366.696    0.294    0.483   78.497    7.714
  366.996    0.279    0.471   79.729    7.717
  367.296    0.184    0.458   83.429    7.575
  367.596    0.180    0.453   87.745    6.895
  367.896    0.238    0.462   93.295    6.160
  368.196    0.247    0.512   96.378    5.715
  368.496    0.253    0.505   95.141    5.505
  368.796    0.260    0.509   95.139    5.107
  369.096    0.273    0.496   96.371    4.920
  369.396    0.265    0.491   97.603    4.922
  369.696    0.264    0.490   98.218    5.017
  369.996    0.279    0.501   96.982    5.116
  370.296    0.299    0.509   96.363    5.416
  370.596    0.228    0.483   98.212    5.954
  370.896    0.232    0.448   98.827    6.546
  371.196    0.269    0.452   98.208    6.674
  371.496    0.289    0.457   94.505    6.677
  371.796    0.274    0.464   90.802    6.078
  372.096    0.270    0.479   87.098    5.328
  372.396    0.284    0.511   84.628    3.654
  372.696    0.316    0.538   84.010    2.702
  372.996    0.347    0.573   83.390    2.281
  373.296    0.343    0.595   84.622    1.925
  373.596    0.330    0.595   85.854    1.820
  373.896    0.322    0.604   88.320    1.856
  374.196    0.315    0.576   90.785    2.040
  374.496    0.295    0.557   92.017    2.286
  374.796    0.270    0.527   87.697    2.762
  375.096    0.250    0.435   86.502    3.401
  375.396    0.229    0.435   84.011    5.806
  375.696    0.216    0.439   84.631    5.916
  375.996    0.215    0.450   88.363    4.988
  376.296    0.240    0.476   93.961    4.368
  376.596    0.246    0.504   97.693    3.826
  376.896    0.267    0.516   97.691    3.414
  377.196    0.267    0.522   96.445    3.165
  377.496    0.256    0.524   97.687    2.989
  377.796    0.268    0.529   99.552    2.878
  378.096    0.269    0.527  100.172    2.877
  378.396    0.262    0.527   97.680    2.931
  378.696    0.279    0.534   96.433    2.930
  378.996    0.262    0.540   95.809    2.875
  379.296    0.283    0.531   97.052    2.874
  379.595    0.274    0.521   97.672    2.873
  379.895    0.291    0.538   97.670    2.928
  380.195    0.273    0.537   97.045    3.039
  380.495    0.270    0.524   94.554    3.156
  380.795    0.254    0.511   91.441    3.468
  381.095    0.231    0.498   88.327    4.189
  381.395    0.231    0.479   86.458    4.965
  381.695    0.225    0.452   88.322    5.156
  381.995    0.235    0.450   87.698    5.154
  382.295    0.238    0.479   83.340    5.153
  382.595    0.268    0.462   72.758    5.350
  382.895    0.288    0.420   67.155    5.770
  383.195    0.302    0.419   69.020    6.221
  383.495    0.297    0.424   70.263    6.220
  383.795    0.288    0.438   70.883    6.218
  384.095    0.278    0.456   73.370    5.986
  384.395    0.253    0.472   75.235    5.762
  384.695    0.231    0.452   75.233    6.097
  384.995    0.232    0.440   68.385    6.574
  385.295    0.319    0.474   65.894    6.698
  385.595    0.308    0.497   68.381    4.948
  385.895    0.299    0.504   66.512    3.586
  386.195    0.299    0.466   62.153    3.324
  386.495    0.319    0.456   57.795    3.387
  386.795    0.351    0.420   49.081    4.014
  387.095    0.328    0.418   55.301    4.849
  387.395    0.324    0.423   60.278    5.640
  387.695    0.313    0.425   64.632    6.685
  387.995    0.315    0.424   68.986    6.435
  388.295    0.299    0.437   77.697    5.743
  388.595    0.279    0.463   92.630    5.125
  388.895    0.249    0.482  102.585    4.841
  389.195    0.219    0.500  111.295    4.573
  389.495    0.209    0.497  112.538    4.402
  389.795    0.199    0.499  114.403    4.571
  390.095    0.184    0.506  115.023    4.484
  390.395    0.195    0.517  115.020    4.483
  390.695    0.232    0.525  115.019    4.234
  390.995    0.247    0.527  114.394    4.154
  391.295    0.259    0.526  113.770    3.998
  391.595    0.264    0.503  113.768    3.998
  391.895    0.255    0.509  113.143    3.922
  392.195    0.227    0.505  111.896    3.920
  392.495    0.215    0.494  110.650    3.995
  392.795    0.205    0.495  109.403    3.994
  393.095    0.217    0.511  109.401    3.993
  393.395    0.232    0.516  110.644    3.771
  393.695    0.247    0.519  114.375    3.562
  393.995    0.255    0.542  114.995    3.429
  394.295    0.257    0.558  114.371    3.364
  394.595    0.258    0.563  112.502    3.300
  394.895    0.249    0.557  112.500    3.237
  395.195    0.234    0.532  111.876    3.237
  395.495    0.241    0.541  110.629    3.298
  395.795    0.252    0.571  108.137    3.360
  396.095    0.249    0.580  104.401    3.489
  396.395    0.250    0.581  109.378    3.691
  396.695    0.241    0.542  103.775    3.761
  396.995    0.244    0.536  103.773    3.832
  397.295    0.232    0.532  109.994    3.904
  397.595    0.249    0.533  113.103    4.053
  397.895    0.247    0.532  110.611    4.130
  398.195    0.241    0.525  108.743    4.369
  398.495    0.225    0.511  106.251    4.452
  398.795    0.242    0.496  103.760    4.986
  399.095    0.238    0.466   98.157    5.377
  399.395    0.218    0.442   97.532    5.583
  399.695    0.210    0.458   96.908    5.796
  399.995    0.221    0.469  100.017    5.686
  400.295    0.212    0.468  104.994    5.473
  400.595    0.225    0.459  105.613    5.369
  400.895    0.225    0.477  104.989    5.368
  401.195    0.214    0.499  100.631    5.366
  401.495    0.207    0.489  100.629    5.365
  401.795    0.178    0.483  100.005    5.466
  402.095    0.228    0.463   97.513    5.569
  402.395    0.225    0.448   95.022    5.568
  402.695    0.229    0.440   94.398    5.781
  402.995    0.217    0.441   97.507    6.003
  403.295    0.233    0.469   96.260    6.351
  403.595    0.233    0.450   89.413    6.595
  403.895    0.243    0.418   86.921    7.112
  404.194    0.266    0.408   79.451    8.271
  404.494    0.293    0.387   68.870    9.991
  404.794    0.318    0.357   58.911   13.778
  405.094    0.349    0.265   56.419   22.103
  405.394    0.370    0.266   53.306   41.252
  405.694    0.368    0.276   42.724   61.356
  405.994    0.375    0.272   37.121   61.334
  406.294    0.382    0.252   30.273   60.173
  406.594    0.387    0.248   27.782   59.034
  406.894    0.383    0.269   26.535   59.019
  407.194    0.379    0.274   27.155   64.853
  407.494    0.389    0.265   27.153   71.272
  407.794    0.388    0.252   27.151   81.343
  408.094    0.381    0.248   27.149   94.609
  408.394    0.378    0.259   27.769  103.968
  408.694    0.375    0.293   28.389  107.945
  408.994    0.379    0.360   29.009  105.894
  409.294    0.372    0.426   29.008  107.892
  409.594    0.365    0.430   28.383  120.830
  409.894    0.355    0.421   26.514  137.904
  410.194    0.351    0.421   25.267  143.180
  410.494    0.356    0.418   25.265  132.711
  410.794    0.366    0.420   27.130  116.224
  411.094    0.368    0.435   29.617  103.728
  411.394    0.354    0.426   29.615   97.980
  411.694    0.346    0.419   30.858   89.116
  411.994    0.356    0.426   32.100   72.356
  412.294    0.354    0.430   33.342   39.488
  412.594    0.335    0.437   38.941   36.600
  412.894    0.312    0.468   38.939   40.990
  413.194    0.331    0.478   35.203   50.457
  413.494    0.346    0.454   30.845   65.742
