~VERSION INFORMATION
 VERS.                 2.0:   CWLS LOG ASCII STANDARD -VERSION 2.0
 WRAP.                  NO:   ONE LINE PER DEPTH STEP
~WELL INFORMATION BLOCK
#MNEM.UNIT           DATA                    DESCRIPTION OF MNEMONIC
#---------    -------------------            -------------------------------
# Generated from Intellog Unique Number	CS_71_72/WELL/849
WELL.         PEX PHILLIPS AEC WIAU          : Well_name    - WELL
LOC .         00/10-01-072-07W4/0            : Location     - LOCATION
UWI .         00/10-01-072-07W4/0            : Uwi          - UNIQUE WELL ID
ENTR.         SP                             : Entered      - ENTERED BY
SRVC.         SCHLUMBERGER                   : Scn          - SERVICE COMPANY
STRT.M        300                            : top_depth    - START DEPTH
STOP.M        525                            : bot_depth    - STOP DEPTH
STEP.M        0.25                           : increment    - STEP LENGTH
 NULL. -999.2500:NULL Value
~CURVE INFORMATION BLOCK
#MNEM UNIT       ERCB CURVE CODE    CURVE DESCRIPTION
#-----------   ------------------   ----------------------------------
DEPT.M        00 001 00 00         : DEPTH        - DEPTH
ILD .OHMM     00 120 00 00         : RESD         - DEEP RESISTIVITY (DIL)
DPHI.V/V      00 890 00 00         : PHID         - DENSITY POROSITY (LIMESTONE)
NPHI.V/V      00 330 00 00         : PHIN         - NEUTRON POROSITY (LIMESTONE)
GR  .API      00 310 00 00         : GR           - GAMMA RAY
~PARAMETER INFORMATION
#MNEM.UNIT           DATA             DESCRIPTION OF MNEMONIC
#---------         -----------     ------------------------------
GL  .M        664.2                : gl           - GROUND LEVEL ELEVATION
EREF.M        667.1                : kb           - ELEVATION OF DEPTH REFERENCE
DATM.M        664.2                : datum        - DATUM ELEVATION
TDD .M        536                  : tdd          - TOTAL DEPTH DRILLER
RUN .         ONE                  : Run          - RUN NUMBER
ENG .         BILL                 : Engineer     - RECORDING ENGINEER
WIT .         JIM                  : Witness      - WITNESSED BY
MUD .         GEL                  : Mud_type     - MUD TYPE
MATR.         LIMESTONE            : Logunit      - NEUTRON MATRIX
TMAX.C        19                   : BHT          - MAXIMUM RECORDED TEMPERATURE
BHTD.M        536                  : BHTDEP       - MAXIMUM RECORDED TEMPERATURE
MATR.         1                    : LOGUNIT      - NEUTRON MATRIX
RMT .C        25                   : MDTP         - TEMPERATURE OF MUD
NEUT.         1                    : NEUTRON      - NEUTRON TYPE
RESI.         0                    : RESIST       - RESISTIVITY TYPE
RMC .OHMM     0.25                 : RMC          - RESISTIVITY OF MUD CAKE
RMF .OHMM     0.25                 : RMF          - RESISTIVITY OF MUD FILTRATE
SUFT.C        15                   : SUFT         - SURFACE TEMPERATURE
~A  DEPTH     RESD     PHID     PHIN       GR
# ...
  387.000    6.563    0.292    0.496   73.485
  387.250    6.689    0.313    0.497   70.430
  387.500    6.948    0.319    0.486   68.596
  387.750    7.081    0.316    0.471   66.763
  388.000    7.218    0.311    0.462   64.317
  388.250    6.958    0.306    0.460   63.702
  388.500    6.462    0.301    0.480   66.136
  388.750    6.001    0.306    0.486   71.004
  389.000    5.471    0.306    0.478   72.828
  389.250    4.987    0.291    0.459   75.871
  389.500    4.547    0.282    0.448   78.305
  389.750    4.146    0.265    0.460   81.348
  390.000    3.995    0.254    0.488   85.610
  390.250    3.851    0.260    0.499   88.654
  390.500    3.645    0.269    0.510   94.133
  390.750    3.579    0.274    0.518   95.958
  391.000    3.514    0.279    0.530   97.781
  391.250    3.388    0.279    0.539   97.163
  391.500    3.327    0.256    0.545   96.549
  391.750    3.267    0.258    0.545   95.934
  392.000    3.209    0.265    0.547   95.317
  392.250    3.210    0.259    0.552   94.702
  392.500    3.212    0.250    0.541   94.696
  392.750    3.214    0.247    0.525   95.300
  393.000    3.276    0.245    0.514   98.341
  393.250    3.279    0.247    0.528   98.945
  393.500    3.219    0.256    0.558  100.155
  393.750    3.221    0.268    0.575  100.761
  394.000    3.163    0.271    0.586  100.754
  394.250    3.164    0.273    0.590  100.750
  394.500    3.166    0.274    0.587   98.915
  394.750    3.168    0.285    0.585   94.641
  395.000    3.290    0.274    0.553   89.147
  395.250    3.613    0.263    0.522   86.093
  395.500    4.274    0.269    0.504   82.427
  395.750    5.152    0.280    0.481   81.202
  396.000    6.095    0.271    0.459   81.195
  396.250    6.948    0.264    0.455   82.405
  396.500    7.083    0.255    0.455   83.010
  396.750    7.086    0.247    0.455   83.007
  397.000    6.959    0.241    0.467   83.002
  397.250    6.834    0.235    0.471   84.213
  397.500    6.838    0.250    0.464   84.208
  397.750    6.716    0.281    0.475   84.203
  398.000    6.720    0.270    0.478   86.025
  398.250    6.722    0.274    0.459   81.751
  398.500    6.602    0.305    0.436   80.525
  398.750    6.730    0.299    0.426   82.346
  399.000    6.609    0.218    0.440   82.953
  399.250    6.254    0.143    0.454   82.946
  399.500    5.807    0.070    0.474   79.281
  399.750    5.295    0.053    0.424   75.618
  400.000    5.297    0.113    0.303   70.124
  400.250    5.928    0.188    0.365   75.604
  400.500    6.155    0.216    0.413   85.962
  400.750    6.392    0.224    0.447   88.397
  401.000    6.638    0.231    0.463   88.999
  401.250    6.641    0.241    0.468   87.163
  401.500    6.522    0.240    0.470   85.938
  401.750    6.405    0.244    0.473   85.933
  402.000    6.062    0.256    0.475   85.319
  402.250    5.842    0.233    0.474   85.921
  402.500    5.427    0.237    0.479   87.135
  402.750    5.134    0.245    0.487   88.957
  403.000    4.680    0.251    0.493   91.999
  403.250    4.511    0.252    0.485   92.606
  403.500    4.189    0.255    0.487   89.548
  403.750    3.891    0.256    0.508   88.932
  404.000    3.822    0.277    0.527   88.318
  404.250    3.823    0.266    0.544   88.308
  404.500    3.898    0.249    0.548   88.913
  404.750    3.900    0.262    0.537   89.518
  405.000    3.901    0.285    0.562   89.513
  405.250    3.831    0.312    0.582   90.725
  405.500    3.763    0.342    0.566   91.331
  405.750    3.765    0.306    0.548   91.934
  406.000    3.984    0.283    0.538   90.706
  406.250    4.137    0.295    0.514   90.092
  406.500    4.629    0.299    0.486   87.035
  406.750    4.898    0.292    0.470   84.593
  407.000    5.085    0.285    0.475   80.317
  407.250    5.282    0.271    0.486   78.483
  407.500    5.383    0.288    0.505   77.866
  407.750    5.592    0.288    0.492   77.861
  408.000    5.699    0.279    0.478   77.856
  408.250    5.597    0.274    0.479   78.459
  408.500    5.599    0.273    0.487   79.064
  408.750    5.709    0.268    0.502   80.272
  409.000    5.928    0.248    0.507   80.269
  409.250    6.632    0.082    0.486   79.655
  409.500    7.993    0.039    0.433   69.892
  409.750    9.816    0.020    0.195   65.007
  410.000   12.053    0.016    0.185   61.344
  410.250   16.245    0.018    0.178   57.680
  410.500   18.517    0.041    0.174   54.625
  410.750   16.264    0.060    0.196   52.788
  411.000   13.763    0.092    0.265   51.562
  411.250   11.432    0.127    0.363   50.946
  411.500   10.418    0.202    0.398   53.381
  411.750    8.184    0.285    0.434   59.469
  412.000    7.186    0.316    0.444   63.124
  412.250    6.081    0.313    0.448   69.215
  412.500    5.862    0.305    0.471   72.259
  412.750    5.865    0.299    0.479   72.862
  413.000    5.868    0.290    0.494   70.414
  413.250    5.872    0.282    0.496   68.579
  413.500    5.986    0.272    0.486   67.965
  413.750    5.990    0.304    0.480   69.787
  414.000    6.105    0.324    0.480   72.221
  414.250    6.107    0.298    0.491   75.262
  414.500    6.227    0.284    0.472   75.869
  414.750    6.229    0.275    0.455   77.691
  415.000    6.232    0.267    0.446   77.076
  415.250    6.353    0.265    0.444   78.288
  415.500    6.355    0.247    0.443   81.331
  415.750    6.481    0.240    0.444   84.983
  416.000    6.484    0.263    0.453   86.807
  416.250    6.608    0.283    0.450   84.362
  416.500    6.736    0.264    0.440   80.695
  416.750    6.865    0.274    0.451   78.859
  417.000    6.869    0.288    0.467   77.025
  417.250    7.003    0.288    0.451   75.802
  417.500    7.139    0.282    0.443   76.404
  417.750    7.143    0.274    0.438   78.228
  418.000    7.014    0.253    0.448   81.267
  418.250    6.888    0.241    0.451   83.093
  418.500    6.640    0.243    0.451   84.306
  418.750    6.400    0.260    0.451   83.691
  419.000    6.056    0.260    0.450   81.853
  419.250    5.730    0.256    0.465   81.239
  419.500    5.322    0.252    0.489   82.451
  419.750    5.130    0.263    0.505   83.665
  420.000    4.677    0.312    0.506   84.879
  420.250    4.507    0.326    0.501   85.484
  420.500    4.427    0.325    0.528   84.865
  420.750    4.513    0.333    0.541   83.643
  421.000    4.686    0.368    0.512   80.588
  421.250    4.958    0.323    0.487   81.801
  421.500    4.520    0.259    0.485   83.625
  421.750    4.044    0.252    0.511   88.492
  422.000    3.619    0.259    0.536   90.317
  422.250    3.120    0.269    0.553   91.532
  422.500    2.897    0.276    0.562   92.746
  422.750    2.545    0.267    0.547   90.299
  423.000    2.453    0.262    0.528   88.464
  423.250    2.409    0.259    0.521   88.459
  423.500    2.410    0.261    0.515   89.063
  423.750    2.412    0.267    0.548   90.277
  424.000    2.458    0.273    0.570   89.660
  424.250    2.700    0.264    0.567   89.044
  424.500    2.803    0.259    0.562   90.257
  424.750    3.137    0.255    0.547   92.079
  425.000    3.380    0.252    0.505   92.076
  425.250    3.926    0.249    0.492   90.241
  425.500    4.231    0.245    0.494   85.356
  425.750    4.915    0.241    0.487   85.351
  426.000    5.199    0.262    0.469   83.512
  426.250    5.709    0.252    0.432   82.289
  426.500    6.154    0.243    0.418   80.452
  426.750    6.273    0.229    0.436   79.839
  427.000    6.517    0.206    0.443   80.442
  427.250    6.519    0.175    0.454   82.263
  427.500    6.646    0.165    0.448   81.038
  427.750    6.649    0.210    0.459   79.205
  428.000    6.652    0.228    0.468   81.024
  428.250    6.655    0.241    0.474   82.240
  428.500    6.536    0.240    0.474   85.279
  428.750    6.418    0.255    0.470   85.885
  429.000    6.423    0.238    0.464   86.490
  429.250    6.425    0.216    0.460   87.093
  429.500    6.551    0.203    0.456   87.086
  429.750    6.677    0.195    0.452   85.251
  430.000    6.681    0.176    0.447   83.416
  430.250    6.683    0.189    0.423   84.629
