~VERSION INFORMATION
 VERS.                 2.0:   CWLS LOG ASCII STANDARD -VERSION 2.0
 WRAP.                  NO:   ONE LINE PER DEPTH STEP
~WELL INFORMATION BLOCK
#MNEM.UNIT           DATA                    DESCRIPTION OF MNEMONIC
#---------    -------------------            -------------------------------
# Generated from Intellog Unique Number	CC_80_83/WELL/2378
NULL.         -999.25                        : NULL_VALUE
WELL.         PACIFIC STONY RAPIDS           : Well_name    - WELL
LOC .         10-27-080-18W4                 : Location     - LOCATION          
UWI .         00/10-27-080-18W4/0            : Uwi          - UNIQUE WELL ID    
ENTR.         DW                             : Entered      - ENTERED BY        
SRVC.         SCHLUMBERGER                   : Scn          - SERVICE COMPANY   
DATE.         04 FEB 77                      : Date         - LOG DATE
STRT.M        149.352                        : top_depth    - START DEPTH       
STOP.M        356.617                        : bot_depth    - STOP DEPTH        
STEP.M        0.305                          : increment    - STEP LENGTH       
~CURVE INFORMATION BLOCK
#MNEM UNIT       ERCB CURVE CODE    CURVE DESCRIPTION
#-----------   ------------------   ----------------------------------
DEPT.M        00 001 00 00         : DEPTH        - DEPTH                       
DPHI.V/V      00 890 00 00         : PHID         - DENSITY POROSITY (LIMESTONE)
NPHI.V/V      00 330 00 00         : PHIN         - NEUTRON POROSITY (LIMESTONE)
GR  .API      00 310 00 00         : GR           - GAMMA RAY                   
ILD .OHMM     00 120 00 00         : RESD         - DEEP RESISTIVITY (DIL)      
~PARAMETER INFORMATION       
#MNEM.UNIT           DATA             DESCRIPTION OF MNEMONIC
#---------         -----------     ------------------------------
GL  .M        554.126              : gl           - GROUND LEVEL ELEVATION      
EREF.M        557.327              : kb           - ELEVATION OF DEPTH REFERENCE
DATM.M        557.327              : datum        - DATUM ELEVATION             
TDD .M        387.401              : tdd          - TOTAL DEPTH DRILLER         
RUN .         ONE                  : Run          - RUN NUMBER                  
ENG .         BILL                 : Engineer     - RECORDING ENGINEER          
WIT .         JIM                  : Witness      - WITNESSED BY                
MUD .         GEL                  : Mud_type     - MUD TYPE                    
MATR.         LIMESTONE            : Logunit      - NEUTRON MATRIX              
TMAX.C        19.4444              : BHT          - MAXIMUM RECORDED TEMPERATURE
BHTD.M        387.096              : BHTDEP       - MAXIMUM RECORDED TEMPERATURE
MATR.         1                    : LOGUNIT      - NEUTRON MATRIX              
RMT .C        25                   : MDTP         - TEMPERATURE OF MUD          
NEUT.         1                    : NEUTRON      - NEUTRON TYPE                
RESI.         0                    : RESIST       - RESISTIVITY TYPE            
RMC .OHMM     0.25                 : RMC          - RESISTIVITY OF MUD CAKE     
RMF .OHMM     0.25                 : RMF          - RESISTIVITY OF MUD FILTRATE 
SUFT.C        15                   : SUFT         - SURFACE TEMPERATURE         
~A  DEPTH     PHID     PHIN       GR     RESD
# ...
  255.420    0.270    0.364  109.986    8.020
  255.725    0.270    0.356  107.498    7.816
  256.030    0.270    0.392  102.520    7.611
  256.335    0.274    0.420  100.031    7.407
  256.640    0.291    0.405   97.542    7.405
  256.944    0.301    0.377   95.677    7.607
  257.249    0.295    0.347   96.300    7.809
  257.554    0.250    0.353   97.545    8.010
  257.859    0.319    0.357   96.924    8.415
  258.164    0.314    0.348   95.680    9.429
  258.469    0.304    0.350   98.792   10.241
  258.773    0.265    0.374  103.150   10.850
  259.078    0.224    0.357  105.640   11.254
  259.383    0.268    0.378  106.264   11.253
  259.688    0.275    0.398  111.866   11.251
  259.993    0.270    0.395  116.846   10.844
  260.297    0.267    0.379  116.847   10.232
  260.602    0.267    0.362  114.358   10.027
  260.907    0.271    0.368  104.401    9.620
  261.212    0.278    0.371   98.801    9.415
  261.517    0.285    0.358   99.424    9.414
  261.821    0.298    0.340  102.537    9.412
  262.126    0.285    0.324  106.272    9.817
  262.431    0.270    0.329  106.273    9.815
  262.736    0.262    0.353  110.631   10.018
  263.041    0.263    0.376  116.856   10.219
  263.345    0.267    0.376  120.591   10.014
  263.650    0.267    0.376  122.459   10.012
  263.955    0.265    0.372  123.704    9.808
  264.260    0.264    0.368  123.706    9.400
  264.565    0.263    0.361  123.084    9.196
  264.870    0.263    0.360  119.351    8.991
  265.174    0.263    0.372  115.617    8.785
  265.479    0.267    0.377  113.129    8.581
  265.784    0.273    0.373  113.752    8.579
  266.089    0.276    0.378  114.375    8.578
  266.394    0.276    0.386  113.131    8.374
  266.698    0.273    0.386  110.020    8.372
  267.003    0.275    0.382  108.154    8.168
  267.308    0.284    0.377  101.931    7.963
  267.613    0.298    0.362   94.463    7.759
  267.918    0.333    0.337   90.108    7.554
  268.222    0.346    0.319   86.374    7.958
  268.527    0.346    0.312   84.508    8.160
  268.832    0.348    0.314   83.264    8.971
  269.137    0.347    0.315   88.244   10.189
  269.442    0.345    0.326   94.469   11.204
  269.746    0.343    0.337   95.092   11.406
  270.051    0.343    0.329   93.226   11.608
  270.356    0.336    0.310   91.982   11.606
  270.661    0.330    0.306   90.738   11.401
  270.966    0.337    0.322   88.872   11.196
  271.271    0.341    0.340   87.628   11.195
  271.575    0.347    0.342   86.384   11.194
  271.880    0.348    0.340   84.518   11.801
  272.185    0.350    0.338   90.120   12.002
  272.490    0.348    0.338   99.457   12.204
  272.795    0.351    0.337   89.500   12.407
  273.099    0.352    0.331   87.634   12.405
  273.404    0.353    0.324   87.012   12.608
  273.709    0.351    0.302   92.615   12.605
  274.014    0.338    0.294   95.105   12.604
  274.319    0.331    0.329   95.106   12.603
  274.623    0.312    0.304   96.352   12.398
  274.928    0.280    0.285  101.954   12.194
  275.233    0.234    0.294  105.689   12.192
  275.538    0.329    0.325  105.690   11.987
  275.843    0.348    0.341   99.467   11.986
  276.147    0.352    0.332  100.713   11.985
  276.452    0.348    0.330  101.336   11.983
  276.757    0.336    0.327   99.470   11.981
  277.062    0.321    0.314   96.982   11.573
  277.367    0.306    0.247   93.870   11.165
  277.672    0.289    0.242   90.759   11.164
  277.976    0.244    0.249   90.138   11.366
  278.281    0.296    0.268   93.873   12.177
  278.586    0.345    0.300   99.476   12.582
  278.891    0.351    0.329  105.700   13.597
  279.196    0.350    0.335  115.037   13.595
  279.500    0.347    0.330  117.528   13.188
  279.805    0.342    0.330  115.039   12.780
  280.110    0.336    0.338   98.858   11.965
  280.415    0.326    0.346   91.390   10.947
  280.720    0.317    0.353   97.615   10.540
  281.024    0.321    0.352  105.084    9.928
  281.329    0.326    0.347  110.064    9.724
  281.634    0.326    0.343  111.310    9.519
  281.939    0.324    0.333  102.598    9.314
  282.244    0.322    0.333   96.997    9.517
  282.548    0.321    0.352   95.131    9.515
  282.853    0.320    0.371   96.999    9.716
  283.158    0.319    0.371  101.356    9.918
  283.463    0.317    0.358  107.581   10.120
  283.768    0.316    0.348  111.939   10.321
  284.073    0.312    0.348  108.206   10.320
  284.377    0.301    0.337  102.605   10.319
  284.682    0.295    0.330  102.606   10.317
  284.987    0.295    0.347  109.453   10.113
  285.292    0.301    0.364  109.454    9.705
  285.597    0.286    0.366  108.210    9.703
  285.901    0.271    0.361  108.211    9.499
  286.206    0.269    0.345  110.079    8.887
  286.511    0.263    0.343  110.080    8.682
  286.816    0.252    0.360  113.815    8.478
  287.121    0.249    0.369  115.683    8.273
  287.425    0.252    0.398  118.174    8.272
  287.730    0.254    0.412  117.552    8.474
  288.035    0.252    0.389  121.910    8.472
  288.340    0.252    0.379  126.890    8.471
  288.645    0.250    0.378  127.513    8.266
  288.949    0.250    0.372  126.269    8.264
  289.254    0.245    0.362  113.200    8.263
  289.559    0.239    0.353  111.334    8.464
  289.864    0.232    0.348  114.447    8.666
  290.169    0.229    0.345  113.203    9.072
  290.474    0.232    0.352  122.540    9.882
  290.778    0.239    0.369  124.408   10.288
  291.083    0.240    0.372  121.297   10.286
  291.388    0.240    0.379  114.452   10.285
  291.693    0.239    0.403  113.830    9.674
  291.998    0.238    0.410  117.566    9.266
  292.302    0.234    0.382  118.189    9.265
  292.607    0.233    0.374  113.833    9.059
  292.912    0.232    0.383  111.344    9.261
  293.217    0.232    0.390  111.345    9.259
  293.522    0.233    0.381  114.458    9.259
  293.826    0.236    0.371  121.927    9.257
  294.131    0.239    0.366  126.907    9.255
  294.436    0.238    0.371  125.664    9.050
  294.741    0.237    0.373  125.042    9.049
  295.046    0.233    0.362  123.799    8.845
  295.350    0.219    0.351  123.800    8.640
  295.655    0.216    0.343  125.045    8.435
  295.960    0.237    0.345  128.158    8.637
  296.265    0.245    0.350  130.648    9.042
  296.570    0.238    0.362  133.139   10.056
  296.875    0.233    0.346  131.895   10.462
  297.179    0.233    0.341  128.784    9.647
  297.484    0.231    0.335  131.897    8.833
  297.789    0.224    0.330  131.898    8.425
  298.094    0.212    0.315  131.899    8.423
  298.399    0.188    0.300  115.717    8.625
  298.703    0.188    0.291  107.627    9.639
  299.008    0.243    0.295  111.362   10.045
  299.313    0.267    0.310  111.986   10.856
  299.618    0.273    0.320  114.476   11.870
  299.923    0.270    0.322  115.722   11.463
  300.227    0.274    0.336  121.324   11.055
  300.532    0.276    0.355  123.815   10.240
  300.837    0.271    0.358  123.193    9.832
  301.142    0.265    0.360  115.726    9.831
  301.447    0.262    0.361  114.482    9.830
  301.751    0.262    0.355  119.462    9.828
  302.056    0.258    0.347  116.351    9.827
  302.361    0.244    0.345  113.240    9.825
  302.666    0.212    0.341  113.241    9.824
  302.971    0.227    0.333  111.374   10.025
  303.276    0.233    0.322  111.375   10.024
  303.580    0.176    0.304  111.999   10.226
  303.885    0.193    0.288  109.510   10.427
  304.190    0.206    0.179  112.001   10.629
  304.495    0.157    0.143  105.778   11.237
  304.800    0.058    0.099   92.708   12.049
  305.104    0.057    0.000   83.996   15.299
  305.409    0.074    0.077   83.997   23.629
  305.714    0.112    0.159   86.487   31.349
  306.019    0.141    0.267   94.579   32.161
  306.324    0.206    0.279  141.259   29.721
  306.628    0.216    0.290  156.198   20.575
  306.933    0.185    0.296  155.576   15.900
  307.238    0.161    0.314  134.416   15.288
  307.543    0.190    0.335  117.612   15.084
  307.848    0.231    0.377  109.522   13.863
  308.152    0.268    0.389  108.278   13.049
