~VERSION INFORMATION
 VERS.                 2.0:   CWLS LOG ASCII STANDARD -VERSION 2.0
 WRAP.                  NO:   ONE LINE PER DEPTH STEP
~WELL INFORMATION BLOCK
#MNEM.UNIT           DATA                    DESCRIPTION OF MNEMONIC
#---------    -------------------            -------------------------------
# Generated from Intellog Unique Number	CW_76_78/WELL/2584
WELL.         PETROMARK ET AL MARTIN CREEK   : Well_name    - WELL
LOC .         00/11-31-078-05W5/0            : Location     - LOCATION
UWI .         00/11-31-078-05W5/0            : Uwi          - UNIQUE WELL ID
ENTR.         MAX                            : Entered      - ENTERED BY
SRVC.         SCHLUMBERGER                   : Scn          - SERVICE COMPANY
STRT.M        325                            : top_depth    - START DEPTH
STOP.M        570                            : bot_depth    - STOP DEPTH
STEP.M        0.25                           : increment    - STEP LENGTH
 NULL. -999.2500:NULL Value
~CURVE INFORMATION BLOCK
#MNEM UNIT       ERCB CURVE CODE    CURVE DESCRIPTION
#-----------   ------------------   ----------------------------------
DEPT.M        00 001 00 00         : DEPTH        - DEPTH
ILD .OHMM     00 120 00 00         : RESD         - DEEP RESISTIVITY (DIL)
NPHI.V/V      00 330 00 00         : PHIN         - NEUTRON POROSITY (SANDSTONE)
DPHI.V/V      00 890 00 00         : PHID         - DENSITY POROSITY (SANDSTONE)
CALI.MM       00 280 01 00         : CAL          - CALIPER
GR  .API      00 310 00 00         : GR           - GAMMA RAY
~PARAMETER INFORMATION
#MNEM.UNIT           DATA             DESCRIPTION OF MNEMONIC
#---------         -----------     ------------------------------
GL  .M        658.4                : gl           - GROUND LEVEL ELEVATION
EREF.M        662.4                : kb           - ELEVATION OF DEPTH REFERENCE
DATM.M        658.4                : datum        - DATUM ELEVATION
TDD .M        1828                 : tdd          - TOTAL DEPTH DRILLER
RUN .         ONE                  : Run          - RUN NUMBER
ENG .         BILL                 : Engineer     - RECORDING ENGINEER
WIT .         JIM                  : Witness      - WITNESSED BY
MUD .         GEL                  : Mud_type     - MUD TYPE
MATR.         SANDSTONE            : Logunit      - NEUTRON MATRIX
TMAX.C        32                   : BHT          - MAXIMUM RECORDED TEMPERATURE
BHTD.M        1828                 : BHTDEP       - MAXIMUM RECORDED TEMPERATURE
RMT .C        28                   : MDTP         - TEMPERATURE OF MUD
MUDD.KG/M     1170                 : MWT          - MUD DENSITY
NEUT.         1                    : NEUTRON      - NEUTRON TYPE
RESI.         0                    : RESIST       - RESISTIVITY TYPE
RM  .OHMM     0.0926               : RM           - RESISTIVITY OF MUD
RMC .OHMM     0                    : RMC          - RESISTIVITY OF MUD CAKE
RMF .OHMM     0.0867               : RMF          - RESISTIVITY OF MUD FILTRATE
SUFT.C        -20                  : SUFT         - SURFACE TEMPERATURE
~A  DEPTH     RESD     PHIN     PHID      CAL       GR
# ...
  398.000    8.597    0.471    0.261  215.872   67.409
  398.250    8.000    0.465    0.276  214.446   69.250
  398.500    5.884    0.452    0.288  214.510   73.789
  398.750    5.627    0.448    0.289  213.583   74.143
  399.000    5.943    0.452    0.293  213.157   72.089
  399.250    7.590    0.441    0.292  214.727   70.024
  399.500    9.871    0.456    0.287  215.826   67.376
  399.750   10.520    0.467    0.281  215.899   65.017
  400.000   10.815    0.462    0.279  214.963   62.064
  400.250   10.819    0.449    0.282  213.529   57.912
  400.500   10.630    0.445    0.289  211.603   51.063
  400.750   10.630    0.429    0.309  211.186   47.216
  401.000   10.449    0.430    0.305  210.750   44.852
  401.250   10.082    0.449    0.302  210.323   43.402
  401.500    9.994    0.453    0.311  209.397   43.152
  401.750   10.000    0.451    0.315  207.490   41.087
  402.000   10.000    0.436    0.313  207.054   39.338
  402.250    9.920    0.424    0.322  207.054   39.986
  402.500    9.922    0.442    0.319  205.737   40.623
  402.750    9.922    0.454    0.322  205.264   40.672
  403.000    9.932    0.451    0.324  205.264   40.716
  403.250    9.935    0.456    0.320  204.447   41.359
  403.500   10.030    0.459    0.312  202.994   42.301
  403.750   10.034    0.444    0.303  202.576   42.944
  404.000   10.038    0.425    0.326  202.159   42.394
  404.250    9.952    0.447    0.329  202.159   41.533
  404.500    9.866    0.435    0.327  202.313   41.871
  404.750    9.960    0.428    0.327  202.358   43.130
  405.000    9.785    0.435    0.324  202.431   44.971
  405.250    9.614    0.440    0.331  202.503   45.015
  405.500    9.193    0.444    0.332  202.576   44.453
  405.750    8.252    0.429    0.328  202.158   45.096
  406.000    7.890    0.432    0.319  202.730   46.943
  406.250    7.822    0.439    0.323  202.794   47.586
  406.500    7.897    0.444    0.323  202.884   47.619
  406.750    7.829    0.453    0.322  202.948   47.068
  407.000    7.090    0.469    0.328  203.529   45.319
  407.250    6.598    0.463    0.334  204.092   47.156
  407.500    6.542    0.457    0.339  204.165   49.596
  407.750    6.544    0.452    0.336  204.237   50.544
  408.000    6.430    0.450    0.332  204.310   50.888
  408.250    6.377    0.448    0.329  204.882   51.825
  408.500    6.263    0.435    0.324  205.463   54.865
  408.750    6.154    0.417    0.305  205.045   53.721
  409.000    6.559    0.412    0.302  205.045   52.255
  409.250    7.248    0.421    0.294  205.199   52.309
  409.500    7.795    0.448    0.276  205.254   53.247
  409.750    7.590    0.446    0.307  205.254   54.489
  410.000    6.751    0.439    0.305  205.408   55.448
  410.250    6.339    0.432    0.304  204.981   55.780
  410.500    6.399    0.436    0.316  204.554   55.529
  410.750    6.698    0.464    0.323  204.627   55.562
  411.000    7.204    0.461    0.327  204.690   54.712
  411.250    7.679    0.453    0.334  205.281   53.257
  411.500    7.751    0.441    0.341  205.853   53.295
  411.750    7.020    0.438    0.346  206.425   56.052
  412.000    5.306    0.452    0.333  206.997   57.583
  412.250    4.938    0.461    0.318  207.551   58.537
  412.500    4.764    0.477    0.307  207.632   58.874
  412.750    4.853    0.476    0.310  208.213   58.618
  413.000    5.080    0.471    0.319  208.277   56.864
  413.250    5.513    0.463    0.331  208.876   56.308
  413.500    5.566    0.454    0.336  209.920   57.556
  413.750    5.274    0.457    0.339  210.002   58.498
  414.000    5.276    0.454    0.342  210.084   58.531
  414.250    5.278    0.445    0.337  210.638   58.280
  414.500    5.329    0.461    0.335  211.219   58.329
  414.750    5.050    0.464    0.329  211.791   58.373
  415.000    4.699    0.462    0.326  212.354   58.721
  415.250    4.493    0.465    0.329  212.935   59.964
  415.500    4.746    0.493    0.326  214.006   61.495
  415.750    5.104    0.508    0.309  217.075   62.138
  416.000    5.539    0.483    0.294  219.645   62.786
  416.250    5.798    0.449    0.280  224.213   64.933
  416.500    6.292    0.437    0.281  228.281   68.567
  416.750    7.081    0.444    0.282  230.860   69.210
  417.000    7.021    0.438    0.275  235.945   67.460
  417.250    6.773    0.441    0.281  232.521   66.011
  417.500    5.260    0.439    0.287  228.090   66.643
  417.750    4.895    0.449    0.284  225.157   67.885
  418.000    5.815    0.460    0.285  223.232   67.929
  418.250    7.035    0.467    0.289  225.302   67.673
  418.500    7.430    0.467    0.285  230.868   65.924
  418.750    7.105    0.454    0.278  230.460   67.466
  419.000    5.179    0.458    0.276  227.518   69.612
  419.250    4.952    0.467    0.280  226.101   69.961
  419.500    5.137    0.477    0.285  224.167   71.203
  419.750    5.575    0.480    0.288  221.243   72.135
  420.000    5.577    0.472    0.289  219.826   70.386
  420.250    5.190    0.468    0.299  217.892   69.830
  420.500    5.054    0.476    0.306  213.469   70.468
  420.750    5.054    0.487    0.293  210.046   70.811
  421.000    5.013    0.489    0.285  208.121   69.961
  421.250    4.969    0.485    0.266  207.194   70.304
  421.500    4.969    0.492    0.253  207.194   72.156
  421.750    4.930    0.493    0.255  207.376   72.195
  422.000    4.931    0.468    0.275  208.429   71.633
  422.250    4.933    0.456    0.277  210.499   70.789
  422.500    4.980    0.445    0.253  213.560   72.026
  422.750    5.308    0.443    0.247  217.637   74.466
  423.000    5.708    0.448    0.238  220.715   75.403
  423.250    5.763    0.453    0.222  219.280   74.548
  423.500    5.461    0.455    0.249  218.844   74.297
  423.750    5.175    0.455    0.260  219.416   78.242
  424.000    5.132    0.458    0.252  219.998   79.784
  424.250    5.087    0.466    0.225  225.564   78.923
  424.500    5.088    0.469    0.258  229.632   78.367
  424.750    5.088    0.484    0.280  229.214   79.909
  425.000    5.282    0.491    0.304  228.279   79.353
  425.250    5.428    0.478    0.319  226.862   77.610
  425.500    5.428    0.473    0.292  225.446   77.354
  425.750    5.433    0.471    0.254  224.510   77.386
  426.000    5.584    0.468    0.249  224.083   77.430
  426.250    5.952    0.460    0.249  222.649   78.683
  426.500    6.009    0.464    0.249  221.223   79.620
  426.750    5.694    0.490    0.249  220.805   77.577
  427.000    5.696    0.493    0.246  218.380   76.711
  427.250    6.072    0.489    0.248  213.449   75.561
  427.500    6.354    0.474    0.257  209.527   73.806
  427.750    6.533    0.462    0.266  205.613   71.159
  428.000    6.360    0.455    0.273  204.695   71.801
  428.250    6.248    0.424    0.276  205.258   73.033
  428.500    6.139    0.419    0.262  205.840   74.885
  428.750    6.254    0.433    0.247  205.912   77.321
  429.000    6.371    0.452    0.228  204.477   80.067
  429.250    6.316    0.466    0.223  203.551   78.912
  429.500    6.040    0.469    0.212  203.124   78.056
  429.750    5.323    0.475    0.232  203.206   79.598
  430.000    4.248    0.469    0.237  203.769   79.641
  430.250    2.959    0.457    0.280  206.348   78.181
  430.500    2.539    0.453    0.297  208.917   77.625
  430.750    2.428    0.507    0.311  209.480   79.472
  431.000    2.495    0.513    0.316  210.061   81.913
  431.250    2.733    0.521    0.330  211.142   82.551
  431.500    3.075    0.520    0.304  211.206   81.995
  431.750    3.277    0.517    0.264  210.279   80.246
  432.000    3.557    0.520    0.280  208.863   79.085
  432.250    3.757    0.513    0.284  206.928   77.641
  432.500    3.793    0.491    0.276  206.002   75.288
  432.750    3.934    0.462    0.273  204.585   72.923
  433.000    5.070    0.464    0.270  203.659   65.775
  433.250    6.654    0.461    0.280  200.735   61.329
  433.500    7.834    0.449    0.304  198.819   59.280
  433.750    7.908    0.439    0.305  198.819   61.416
  434.000    8.130    0.424    0.310  198.446   62.064
  434.250    8.130    0.428    0.316  198.446   60.599
