~VERSION INFORMATION
 VERS.                 2.0:   CWLS LOG ASCII STANDARD -VERSION 2.0
 WRAP.                  NO:   ONE LINE PER DEPTH STEP
~WELL INFORMATION BLOCK
#MNEM.UNIT           DATA                    DESCRIPTION OF MNEMONIC
#---------    -------------------            -------------------------------
# Generated from Intellog Unique Number	CS_71_72/WELL/3325
WELL.         SASKATCHEWAN OIL AND GAS CO.   : Well_name    - WELL
LOC .         00/10-29-072-18W4/0            : Location     - LOCATION
UWI .         00/10-29-072-18W4/0            : Uwi          - UNIQUE WELL ID
ENTR.         JOETTE                         : Entered      - ENTERED BY
SRVC.         SCHLUMBERGER                   : Scn          - SERVICE COMPANY
DATE.         05/13/92                       : Date         - LOG DATE
STRT.M        285                            : top_depth    - START DEPTH
STOP.M        465                            : bot_depth    - STOP DEPTH
STEP.M        0.25                           : increment    - STEP LENGTH
 NULL. -999.2500:NULL Value
~CURVE INFORMATION BLOCK
#MNEM UNIT       ERCB CURVE CODE    CURVE DESCRIPTION
#-----------   ------------------   ----------------------------------
DEPT.M        00 001 00 00         : DEPTH        - DEPTH
CALI.MM       00 280 01 00         : CAL          - CALIPER
GR  .API      00 310 00 00         : GR           - GAMMA RAY
NPHI.V/V      00 330 00 00         : PHIN         - NEUTRON POROSITY (SANDSTONE)
DPHI.V/V      00 890 00 00         : PHID         - DENSITY POROSITY (SANDSTONE)
ILD .OHMM     00 120 00 00         : RESD         - DEEP RESISTIVITY (DIL)
~PARAMETER INFORMATION
#MNEM.UNIT           DATA             DESCRIPTION OF MNEMONIC
#---------         -----------     ------------------------------
GL  .M        587.9                : gl           - GROUND LEVEL ELEVATION
EREF.M        601.4                : kb           - ELEVATION OF DEPTH REFERENCE
DATM.M        601.4                : datum        - DATUM ELEVATION
TDD .M        504                  : tdd          - TOTAL DEPTH DRILLER
RUN .         ONE                  : Run          - RUN NUMBER
ENG .         BILL                 : Engineer     - RECORDING ENGINEER
WIT .         JIM                  : Witness      - WITNESSED BY
MUD .         GEL                  : Mud_type     - MUD TYPE
MATR.         SANDSTONE            : Logunit      - NEUTRON MATRIX
TMAX.C        21                   : BHT          - MAXIMUM RECORDED TEMPERATURE
BHTD.M        504                  : BHTDEP       - MAXIMUM RECORDED TEMPERATURE
MATR.         1                    : LOGUNIT      - NEUTRON MATRIX
RMT .C        24                   : MDTP         - TEMPERATURE OF MUD
NEUT.         1                    : NEUTRON      - NEUTRON TYPE
RESI.         0                    : RESIST       - RESISTIVITY TYPE
RMC .OHMM     4.1                  : RMC          - RESISTIVITY OF MUD CAKE
RMF .OHMM     4.1                  : RMF          - RESISTIVITY OF MUD FILTRATE
SUFT.C        15                   : SUFT         - SURFACE TEMPERATURE
~A  DEPTH      CAL       GR     PHIN     PHID     RESD
# ...
  358.000  152.726   64.051    0.439    0.348    7.059
  358.250  152.715   63.443    0.441    0.347    7.055
  358.500  152.704   63.439    0.444    0.347    7.051
  358.750  152.690   61.632    0.429    0.346    7.048
  359.000  152.679   62.826    0.438    0.343    7.043
  359.250  152.668   65.820    0.453    0.336    7.167
  359.500  152.657   65.814    0.422    0.330    7.164
  359.750  151.645   65.205    0.413    0.334    7.292
  360.000  151.634   63.998    0.428    0.340    7.424
  360.250  151.620   63.391    0.431    0.340    7.984
  360.500  151.609   64.585    0.430    0.340    8.277
  360.750  151.601   67.579    0.440    0.332    8.427
  361.000  151.590   71.176    0.432    0.324    8.735
  361.250  151.579   76.571    0.416    0.303    8.571
  361.500  152.565   74.162    0.415    0.287    8.256
  361.750  152.554   74.155    0.424    0.255    8.103
  362.000  153.541   75.948    0.419    0.247    7.805
  362.250  154.536   76.543    0.408    0.236    7.518
  362.500  154.524   76.534    0.406    0.244    7.376
  362.750  155.511   77.130    0.438    0.249    7.372
  363.000  156.497   79.522    0.439    0.244    7.233
  363.250  156.492   78.915    0.432    0.238    7.231
  363.500  156.481   77.110    0.424    0.242    7.226
  363.750  157.467   77.102    0.415    0.248    7.089
  364.000  157.456   79.497    0.420    0.261    7.086
  364.250  157.448   80.691    0.430    0.260    6.952
  364.500  157.437   81.883    0.436    0.258    6.696
  364.750  157.426   85.480    0.427    0.260    6.572
  365.000  157.412   84.873    0.408    0.262    6.215
  365.250  157.404   87.867    0.415    0.241    5.988
  365.500  156.387   92.662    0.430    0.227    5.875
  365.750  156.378   91.455    0.447    0.230    5.981
  366.000  156.367   90.848    0.460    0.233    6.314
  366.250  156.356   92.042    0.465    0.237    6.547
  366.500  156.342   92.035    0.423    0.237    6.544
  366.750  156.331   90.828    0.417    0.233    6.421
  367.000  156.320   90.819    0.411    0.230    5.962
  367.250  156.309   92.612    0.422    0.235    5.536
  367.500  156.298   92.606    0.437    0.237    5.048
  367.750  157.287   87.797    0.451    0.242    4.773
  368.000  158.279   84.189    0.471    0.247    4.682
  368.250  160.269   82.982    0.484    0.253    4.680
  368.500  164.257   87.779    0.505    0.260    4.679
  368.750  166.249   86.572    0.503    0.272    4.849
  369.000  167.238   82.364    0.475    0.287    4.938
  369.250  166.227   74.554    0.420    0.298    5.025
  369.500  161.214   69.746    0.392    0.308    5.115
  369.750  156.196   66.138    0.419    0.316    5.207
  370.000  155.187   62.527    0.430    0.348    5.300
  370.250  154.170   61.923    0.428    0.373    5.396
  370.500  154.162   61.316    0.424    0.379    5.593
  370.750  154.150   61.907    0.419    0.370    5.694
  371.000  154.139   61.301    0.417    0.373    5.689
  371.250  154.126   60.094    0.412    0.376    5.686
  371.500  153.117   58.886    0.419    0.369    5.683
  371.750  153.109   58.280    0.425    0.358    5.680
  372.000  152.097   58.272    0.424    0.355    5.676
  372.250  152.086   58.265    0.418    0.358    5.570
  372.500  152.075   60.059    0.419    0.360    5.566
  372.750  152.064   58.851    0.428    0.358    5.562
  373.000  151.052   57.647    0.425    0.354    5.458
  373.250  151.039   58.841    0.415    0.353    5.454
  373.500  151.028   61.835    0.422    0.354    5.449
  373.750  151.016   61.227    0.433    0.356    5.448
  374.000  151.003   60.021    0.429    0.356    5.444
  374.250  150.992   60.013    0.422    0.356    5.441
  374.500  151.984   61.805    0.417    0.354    5.437
  374.750  151.967   64.201    0.421    0.347    5.435
  375.000  151.961   62.394    0.426    0.342    5.430
  375.250  151.948   59.984    0.434    0.337    5.427
  375.500  151.939   60.578    0.432    0.339    5.425
  375.750  151.928   60.573    0.424    0.345    5.420
  376.000  151.917   60.566    0.421    0.350    5.418
  376.250  151.906   60.558    0.428    0.351    5.413
  376.500  151.895   60.548    0.424    0.350    5.411
  376.750  151.881   59.943    0.421    0.353    5.407
  377.000  151.870   59.940    0.433    0.356    5.404
  377.250  151.862   59.333    0.429    0.358    5.401
  377.500  151.848   58.726    0.420    0.356    5.398
  377.750  151.840   59.920    0.425    0.350    5.393
  378.000  152.820   63.514    0.427    0.348    5.391
  378.250  152.812   61.107    0.422    0.347    5.388
  378.500  152.804   57.497    0.411    0.352    5.484
  378.750  152.793   56.890    0.410    0.356    5.582
  379.000  152.782   58.081    0.416    0.356    5.682
  379.250  152.771   58.076    0.429    0.355    5.890
  379.500  152.757   56.869    0.417    0.354    6.219
  379.750  152.743   59.265    0.414    0.353    6.690
  380.000  152.737   62.257    0.428    0.350    7.886
  380.250  152.724   59.250    0.447    0.345    9.471
  380.500  152.712   56.242    0.464    0.335   11.583
  380.750  152.701   53.836    0.427    0.313   14.696
  381.000  152.693   51.427    0.231    0.275   16.099
  381.250  153.682   49.019    0.190    0.236   14.948
  381.500  153.668   47.811    0.165    0.041   12.666
  381.750  154.658   48.406    0.163    0.041   10.155
  382.000  156.645   49.598    0.211    0.046    8.447
  382.250  157.639   51.395    0.265    0.053    7.156
  382.500  158.626   55.590    0.294    0.091    6.060
  382.750  158.615   60.385    0.371    0.196    5.839
  383.000  155.603   62.179    0.432    0.312    5.730
  383.250  153.588   56.767    0.432    0.308    5.622
  383.500  153.580   55.560    0.409    0.294    5.516
  383.750  153.569   56.154    0.412    0.324    5.512
  384.000  153.555   59.150    0.414    0.333    5.510
  384.250  153.544   59.142    0.405    0.339    5.608
  384.500  153.533   59.135    0.393    0.339    5.604
  384.750  153.524   60.931    0.394    0.336    5.704
  385.000  153.513   62.723    0.401    0.334    5.701
  385.250  152.502   60.317    0.407    0.335    5.698
  385.500  152.491   58.508    0.402    0.340    5.693
  385.750  152.480   58.502    0.406    0.344    5.691
  386.000  152.466   56.694    0.414    0.346    5.793
  386.250  151.452   54.887    0.413    0.348    5.789
  386.500  151.443   56.683    0.402    0.350    5.785
  386.750  151.430   60.876    0.396    0.354    5.677
  387.000  151.421   58.470    0.388    0.356    5.674
  387.250  151.402   56.663    0.376    0.357    5.566
  387.500  150.393   54.252    0.384    0.352    5.564
  387.750  150.385   53.645    0.396    0.350    5.458
  388.000  150.377   53.640    0.401    0.346    5.455
  388.250  150.363   53.632    0.404    0.345    5.451
  388.500  149.354   53.623    0.402    0.341    5.348
  388.750  149.340   54.220    0.393    0.340    5.346
  389.000  149.332   56.014    0.405    0.332    5.245
  389.250  148.318   56.008    0.407    0.328    5.242
  389.500  148.304   53.598    0.404    0.333    5.143
  389.750  148.298   52.992    0.395    0.346    5.140
  390.000  148.284   54.185    0.399    0.352    5.137
  390.250  147.273   56.581    0.411    0.353    5.135
  390.500  147.262   60.176    0.413    0.351    5.324
  390.750  147.251   61.970    0.414    0.344    5.831
  391.000  147.240   60.161    0.414    0.331    6.388
  391.250  148.229   57.155    0.409    0.327    7.957
  391.500  149.215   52.943    0.367    0.334    9.210
  391.750  150.205   50.536    0.318    0.345    9.203
  392.000  152.192   50.529    0.297    0.358    8.391
  392.250  153.184   51.721    0.307    0.366    7.512
  392.500  155.173   52.918    0.363    0.351    6.849
  392.750  156.165   55.313    0.381    0.318    6.018
  393.000  155.151   56.505    0.407    0.313    5.799
  393.250  154.143   57.097    0.422    0.318    5.484
  393.500  153.131   57.092    0.423    0.327    5.284
  393.750  153.117   57.687    0.422    0.336    5.088
  394.000  153.103   59.478    0.419    0.348    5.087
  394.250  153.095   60.673    0.415    0.355    4.990
