~VERSION INFORMATION
 VERS.                 2.0:   CWLS LOG ASCII STANDARD -VERSION 2.0
 WRAP.                  NO:   ONE LINE PER DEPTH STEP
~WELL INFORMATION BLOCK
#MNEM.UNIT           DATA                    DESCRIPTION OF MNEMONIC
#---------    -------------------            -------------------------------
# Generated from Intellog Unique Number	CW_82_90/WELL/3074
WELL.         PARA ET AL LIVOCK 10-36        : Well_name    - WELL
LOC .         00/10-36-085-19W4/0            : Location     - LOCATION
UWI .         00/10-36-085-19W4/0            : Uwi          - UNIQUE WELL ID
ENTR.         JAYE                           : Entered      - ENTERED BY
SRVC.         COMPUTALOG                     : Scn          - SERVICE COMPANY
DATE.         6 FEB 78                       : Date         - LOG DATE
STRT.M        188.976                        : top_depth    - START DEPTH
STOP.M        304.726                        : bot_depth    - STOP DEPTH
STEP.M        0.25                           : increment    - STEP LENGTH
 NULL. -999.2500:NULL Value
~CURVE INFORMATION BLOCK
#MNEM UNIT       ERCB CURVE CODE    CURVE DESCRIPTION
#-----------   ------------------   ----------------------------------
DEPT.M        00 001 00 00         : DEPTH        - DEPTH
CALI.MM       00 280 01 00         : CAL          - CALIPER
GR  .API      00 310 00 00         : GR           - GAMMA RAY
NPHI.V/V      00 330 00 00         : PHIN         - NEUTRON POROSITY (SANDSTONE)
DPHI.V/V      00 890 00 00         : PHID         - DENSITY POROSITY (SANDSTONE)
ILD .OHMM     00 120 00 00         : RESD         - DEEP RESISTIVITY (DIL)
~PARAMETER INFORMATION
#MNEM.UNIT           DATA             DESCRIPTION OF MNEMONIC
#---------         -----------     ------------------------------
GL  .M        576.072              : gl           - GROUND LEVEL ELEVATION
EREF.M        579.12               : kb           - ELEVATION OF DEPTH REFERENCE
DATM.M        576.072              : datum        - DATUM ELEVATION
TDD .M        304.19               : tdd          - TOTAL DEPTH DRILLER
RUN .         ONE                  : Run          - RUN NUMBER
ENG .         FITZSIMMONS          : Engineer     - RECORDING ENGINEER
WIT .         GEORGE               : Witness      - WITNESSED BY
BASE.         EDMONTON             : Branch       - HOME BASE OF LOGGING UNIT
MUD .         GEL CHEM             : Mud_type     - MUD TYPE
MATR.         SANDSTONE            : Logunit      - NEUTRON MATRIX
TMAX.C        18.3333              : BHT          - MAXIMUM RECORDED TEMPERATURE
BHTD.M        304.19               : BHTDEP       - MAXIMUM RECORDED TEMPERATURE
RMT .C        15.5556              : MDTP         - TEMPERATURE OF MUD
MUDD.KG/M     9300                 : MWT          - MUD DENSITY
NEUT.         0                    : NEUTRON      - NEUTRON TYPE
RESI.         0                    : RESIST       - RESISTIVITY TYPE
RM  .OHMM     5                    : RM           - RESISTIVITY OF MUD
RMC .OHMM     0                    : RMC          - RESISTIVITY OF MUD CAKE
RMF .OHMM     4.6                  : RMF          - RESISTIVITY OF MUD FILTRATE
SUFT.C        -17.7778             : SUFT         - SURFACE TEMPERATURE
~A  DEPTH      CAL       GR     PHIN     PHID     RESD
  188.976  196.949   45.705    0.324    0.273    8.908
  189.226  197.132   45.746    0.308    0.269    8.466
  189.476  196.371   47.274    0.297    0.268    7.862
  189.726  194.861   50.789    0.294    0.272    7.399
  189.976  189.912   55.596    0.296    0.271    7.097
  190.226  184.215   62.205    0.291    0.263    6.735
  190.476  180.938   65.040    0.286    0.262    6.533
  190.726  173.775   63.656    0.288    0.271    6.411
  190.976  168.396   55.650    0.300    0.265    6.510
  191.226  163.537   52.289    0.328    0.266    6.629
  191.476  160.904   53.881    0.320    0.275    6.648
  191.726  159.601   53.745    0.316    0.291    6.968
  191.976  157.790   49.886    0.311    0.291    7.468
  192.226  155.578   48.937    0.298    0.284    8.169
  192.476  153.949   48.618    0.284    0.279    8.950
  192.726  153.212   47.044    0.277    0.278    9.952
  192.976  153.285   43.745    0.275    0.277   10.533
  193.226  153.155   42.613    0.282    0.280   11.053
  193.476  152.994   46.005    0.281    0.277   11.493
  193.726  153.075   46.669    0.284    0.277   11.773
  193.976  153.157   43.436    0.290    0.275   11.912
  194.226  153.429   43.790    0.289    0.272   11.971
  194.476  155.088   45.373    0.288    0.274   11.970
  194.726  156.933   47.956    0.283    0.269   11.948
  194.976  157.342   48.376    0.279    0.264   11.947
  195.226  157.211   44.824    0.279    0.270   11.905
  195.476  157.264   47.471    0.283    0.271   11.764
  195.726  156.613   47.761    0.291    0.270   11.742
  195.976  156.686   42.237    0.286    0.272   11.621
  196.226  157.203   45.008    0.281    0.268   11.439
  196.476  157.987   49.198    0.285    0.266   11.317
  196.726  160.703   51.727    0.295    0.265   11.316
  196.976  163.285   48.731    0.301    0.261   11.415
  197.226  164.397   45.736    0.283    0.267   11.574
  197.476  163.005   51.544    0.280    0.268   11.713
  197.726  157.977   53.936    0.283    0.275   11.812
  197.976  157.504   50.763    0.288    0.279   11.831
  198.226  157.688   46.656    0.291    0.276   11.890
  198.476  159.234   50.977    0.293    0.265   11.828
  198.726  160.567   47.737    0.292    0.267   12.068
  198.976  160.736   39.119    0.280    0.276   12.468
  199.226  159.967   38.226    0.152    0.257   13.169
  199.476  156.371   40.819    0.121    0.045   14.873
  199.726  157.407   39.868    0.149    0.038   16.377
  199.976  160.402   40.590    0.165    0.139   17.077
  200.226  161.025   44.472    0.193    0.199   16.615
  200.476  159.927   45.509    0.216    0.236   15.008
  200.726  158.325   41.157    0.261    0.279   13.863
  200.976  156.923   46.216    0.284    0.286   12.939
  201.226  156.592   47.691    0.282    0.282   12.356
  201.476  155.395   45.378    0.282    0.278   12.274
  201.726  155.483   50.003    0.290    0.270   12.353
  201.976  157.338   48.749    0.285    0.267   12.151
  202.226  157.406   47.181    0.284    0.274   11.729
  202.476  154.557   48.528    0.283    0.271   11.547
  202.726  153.358   47.953    0.280    0.273   11.485
  202.976  153.233   41.679    0.277    0.273   11.424
  203.226  152.780   42.843    0.283    0.271   11.282
  203.476  152.455   47.778    0.282    0.277   11.040
  203.726  152.627   49.005    0.278    0.276   10.858
  203.976  152.796   50.967    0.279    0.274   10.616
  204.226  153.614   53.359    0.275    0.276   10.474
  204.476  154.005   53.279    0.274    0.271   10.393
  204.726  154.809   48.928    0.270    0.261   10.311
  204.976  156.246   52.005    0.269    0.261   10.169
  205.226  156.855   55.641    0.272    0.262   10.088
  205.476  156.187   53.949    0.278    0.258   10.046
  205.726  155.527   46.689    0.286    0.249   10.105
  205.976  154.773   50.512    0.281    0.245   10.024
  206.226  154.831   57.921    0.276    0.240    9.882
  206.476  159.001   60.133    0.275    0.244    9.540
  206.726  159.488   63.219    0.276    0.257    9.258
  206.976  159.255   64.495    0.273    0.261    9.015
  207.226  158.925   58.226    0.264    0.250    8.994
  207.476  158.883   58.330    0.262    0.236    8.932
  207.726  159.164   61.840    0.265    0.234    8.971
  207.976  159.864   63.995    0.273    0.252    9.030
  208.226  160.364   57.841    0.275    0.251    9.109
  208.476  160.873   59.746    0.268    0.248    9.148
  208.726  160.941   59.602    0.264    0.253    9.087
  208.976  161.018   55.498    0.264    0.251    9.005
  209.226  160.659   57.957    0.265    0.247    8.963
  209.476  160.002   55.775    0.264    0.250    8.902
  209.726  161.554   56.824    0.265    0.252    8.901
  209.976  162.677   57.287    0.270    0.246    8.799
  210.226  162.854   53.555    0.269    0.251    8.637
  210.476  161.667   55.516    0.266    0.250    8.375
  210.726  160.801   55.069    0.270    0.237    8.033
  210.976  160.882   55.109    0.272    0.221    7.590
  211.226  160.530   62.276    0.275    0.203    7.248
  211.476  160.190   72.662    0.280    0.199    6.925
  211.726  160.680   77.848    0.278    0.205    6.623
  211.976  161.491   81.851    0.273    0.219    6.381
  212.226  161.353   78.681    0.272    0.238    6.199
  212.476  160.696   73.708    0.273    0.248    6.178
  212.726  162.976   70.472    0.280    0.243    6.197
  212.976  164.620   67.106    0.283    0.251    6.115
  213.226  165.333   66.408    0.271    0.237    6.094
  213.476  163.726   67.690    0.268    0.186    6.193
  213.726  160.548   64.455    0.261    0.169    6.332
  213.976  161.038   67.789    0.248    0.097    6.652
  214.226  161.855   67.018    0.223    0.056    7.633
  214.476  160.139   53.068    0.137    0.007    9.077
  214.726  159.798   41.038    0.140    0.016   11.102
  214.976  160.510   37.062    0.170    0.030   14.351
  215.226  160.695   46.515    0.203    0.142   14.831
  215.476  159.503   58.266    0.240    0.180   12.402
  215.726  158.528   61.226    0.261    0.191    9.773
  215.976  157.758   62.934    0.273    0.217    8.327
  216.226  157.945   69.977    0.280    0.240    7.764
  216.476  161.273   75.292    0.280    0.253    7.301
  216.726  163.647   72.664    0.278    0.237    7.119
  216.976  164.458   62.740    0.273    0.195    7.178
  217.226  160.653   60.866    0.282    0.203    7.357
  217.476  154.326   58.809    0.292    0.223    7.516
  217.726  151.790   58.289    0.291    0.257    7.635
  217.976  151.338   64.034    0.281    0.257    7.674
  218.226  154.977   58.131    0.282    0.198    7.853
  218.476  159.245   56.007    0.292    0.212    8.053
  218.726  158.489   61.686    0.293    0.236    8.613
  218.976  154.465   57.772    0.291    0.250    9.595
  219.226  150.031   52.428    0.294    0.267   11.159
  219.476  148.951   47.770    0.295    0.288   12.120
  219.726  148.508   47.126    0.301    0.263   12.661
  219.976  148.158   51.511    0.305    0.244   12.880
  220.226  147.919   55.765    0.300    0.242   12.959
  220.476  146.743   57.972    0.299    0.253   13.139
  220.726  145.767   56.413    0.305    0.231   12.977
  220.976  145.432   54.285    0.313    0.240   12.454
  221.226  144.768   52.412    0.311    0.269   11.831
  221.476  144.847   53.444    0.311    0.277   11.247
  221.726  146.481   59.371    0.318    0.264   10.584
  221.976  150.751   64.814    0.313    0.242   10.021
  222.226  156.383   65.099    0.304    0.271    9.518
  222.476  162.225   62.295    0.304    0.290    9.416
  222.726  166.180   60.729    0.315    0.271    9.395
  222.976  173.177   61.882    0.307    0.278    9.374
  223.226  175.347   68.736    0.285    0.264    9.392
  223.476  168.189   69.091    0.312    0.296    9.371
  223.726  165.118   67.467    0.310    0.310    9.390
  223.976  164.772   68.498    0.272    0.318    9.368
  224.226  168.205   68.359    0.287    0.316    9.287
  224.476  180.231   66.242    0.342    0.311    9.165
  224.726  197.291   67.455    0.408    0.297    9.084
  224.976  199.992   70.661    0.408    0.283    9.082
  225.226  184.243   69.657    0.401    0.272    9.201
