~VERSION INFORMATION
 VERS.                 2.0:   CWLS LOG ASCII STANDARD -VERSION 2.0
 WRAP.                  NO:   ONE LINE PER DEPTH STEP
~WELL INFORMATION BLOCK
#MNEM.UNIT           DATA                    DESCRIPTION OF MNEMONIC
#---------    -------------------            -------------------------------
# Generated from Intellog Unique Number	CX_WELLS/WELL/3924
WELL.         14-05-097-21W4                 : Well_name    - WELL
LOC .         00/14-05-097-21W4/0            : Location     - LOCATION
UWI .         00/14-05-097-21W4/0            : Uwi          - UNIQUE WELL ID
ENTR.         TIM                            : Entered      - ENTERED BY
SRVC.         SCHLUMBERGER                   : Scn          - SERVICE COMPANY
DATE.         08/11/92                       : Date         - LOG DATE
STRT.M        320.04                         : top_depth    - START DEPTH
STOP.M        503.04                         : bot_depth    - STOP DEPTH
STEP.M        0.25                           : increment    - STEP LENGTH
 NULL. -999.2500:NULL Value
~CURVE INFORMATION BLOCK
#MNEM UNIT       ERCB CURVE CODE    CURVE DESCRIPTION
#-----------   ------------------   ----------------------------------
DEPT.M        00 001 00 00         : DEPTH        - DEPTH
DPHI.V/V      00 890 00 00         : PHID         - DENSITY POROSITY (SANDSTONE)
GR  .API      00 310 00 00         : GR           - GAMMA RAY
ILD .OHMM     00 120 00 00         : RESD         - DEEP RESISTIVITY (DIL)
RHOB.KG/M3    00 350 00 00         : DENS         - BULK DENSITY
NPHI.V/V      00 330 00 00         : PHIN         - NEUTRON POROSITY (SANDSTONE)
~PARAMETER INFORMATION
#MNEM.UNIT           DATA             DESCRIPTION OF MNEMONIC
#---------         -----------     ------------------------------
GL  .M        330.5                : gl           - GROUND LEVEL ELEVATION
EREF.M        330.5                : kb           - ELEVATION OF DEPTH REFERENCE
DATM.M        330.5                : datum        - DATUM ELEVATION
TDD .M        518.16               : tdd          - TOTAL DEPTH DRILLER
RUN .         ONE                  : Run          - RUN NUMBER
ENG .         BILL                 : Engineer     - RECORDING ENGINEER
WIT .         JIM                  : Witness      - WITNESSED BY
MUD .         GEL                  : Mud_type     - MUD TYPE
MATR.         SANDSTONE            : Logunit      - NEUTRON MATRIX
TMAX.C        0                    : BHT          - MAXIMUM RECORDED TEMPERATURE
BHTD.M        518.16               : BHTDEP       - MAXIMUM RECORDED TEMPERATURE
RMT .C        0                    : MDTP         - TEMPERATURE OF MUD
MUDD.KG/M     0                    : MWT          - MUD DENSITY
NEUT.         1                    : NEUTRON      - NEUTRON TYPE
RESI.         0                    : RESIST       - RESISTIVITY TYPE
RM  .OHMM     0                    : RM           - RESISTIVITY OF MUD
RMC .OHMM     0                    : RMC          - RESISTIVITY OF MUD CAKE
RMF .OHMM     0                    : RMF          - RESISTIVITY OF MUD FILTRATE
SUFT.C        4                    : SUFT         - SURFACE TEMPERATURE
~A  DEPTH     PHID       GR     RESD     DENS     PHIN
# ...
  429.540    0.257   62.110    6.408 2226.470    0.430
  429.790    0.256   63.314    7.281 2228.370    0.438
  430.040    0.258   65.324    7.837 2224.310    0.447
  430.290    0.262   65.316    7.678 2218.260    0.455
  430.540    0.263   63.286    7.281 2216.210    0.442
  430.790    0.258   62.065    6.883 2224.080    0.429
  431.040    0.252   60.440    6.486 2233.910    0.424
  431.290    0.259   60.027    5.929 2221.900    0.417
  431.540    0.266   60.827    5.770 2211.880    0.411
  431.790    0.268   60.819    5.611 2207.820    0.411
  432.040    0.264   60.812    5.293 2213.700    0.413
  432.290    0.260   59.591    5.531 2221.560    0.419
  432.540    0.252   59.985    6.564 2233.400    0.417
  432.790    0.248   62.401    7.835 2241.280    0.413
  433.040    0.242   64.416    9.820 2251.130    0.405
  433.290    0.230   65.617    9.264 2270.920    0.388
  433.540    0.194   65.609    7.754 2330.440    0.386
  433.790    0.178   64.792    6.563 2356.190    0.381
  434.040    0.150   63.975    6.086 2401.800    0.346
  434.290    0.129   62.754    5.926 2437.460    0.316
  434.540    0.145   62.339    6.085 2411.570    0.334
  434.790    0.169   62.335    6.641 2371.740    0.361
  435.040    0.213   63.537    7.197 2298.120    0.441
  435.290    0.245   64.336   10.056 2246.370    0.440
  435.540    0.234   64.328   13.790 2264.170    0.425
  435.790    0.223   63.105   11.168 2281.950    0.426
  436.040    0.226   62.696    8.467 2277.890    0.430
  436.290    0.228   63.090    6.719 2273.850    0.436
  436.540    0.229   65.508    6.004 2271.780    0.437
  436.790    0.228   67.519    6.003 2273.680    0.431
  437.040    0.239   67.106    6.003 2255.710    0.419
  437.290    0.256   65.885    5.844 2227.770    0.412
  437.540    0.251   65.474    5.526 2235.630    0.410
  437.790    0.254   64.657    4.890 2231.590    0.407
  438.040    0.256   64.649    4.572 2227.530    0.405
  438.290    0.236   64.236    4.890 2261.230    0.410
  438.540    0.233   63.821    5.207 2265.090    0.422
  438.790    0.232   63.002    5.366 2267.020    0.427
  439.040    0.224   62.589    5.128 2280.840    0.427
  439.290    0.212   62.579    4.810 2300.630    0.422
  439.540    0.193   62.574    4.730 2332.330    0.404
  439.790    0.194   63.776    4.968 2330.260    0.384
  440.040    0.211   65.788    5.285 2302.360    0.367
  440.290    0.214   66.590    5.603 2296.270    0.360
  440.540    0.212   68.603    5.921 2300.200    0.355
  440.790    0.205   70.211    5.523 2312.020    0.348
  441.040    0.196   73.029    4.967 2325.860    0.341
  441.290    0.192   75.042    5.523 2333.730    0.335
  441.540    0.185   76.246    6.078 2345.560    0.338
  441.790    0.177   76.237    6.237 2357.400    0.336
  442.040    0.173   75.824    6.554 2365.240    0.333
  442.290    0.173   75.412    6.316 2365.180    0.330
  442.540    0.171   75.807    6.157 2367.060    0.324
  442.790    0.173   75.799    6.395 2364.990    0.316
  443.040    0.179   74.580    6.554 2354.990    0.313
  443.290    0.192   72.550    6.394 2333.030    0.314
  443.540    0.193   70.925    6.632 2330.950    0.316
  443.790    0.185   70.510    7.029 2344.780    0.319
  444.040    0.173   70.502    7.109 2364.540    0.322
  444.290    0.174   70.895    7.108 2362.490    0.328
  444.540    0.177   70.891    6.949 2358.410    0.334
  444.790    0.178   71.282    6.790 2356.360    0.337
  445.040    0.180   71.278    6.552 2352.300    0.339
  445.290    0.183   71.671    6.392 2348.240    0.337
  445.540    0.189   72.069    6.313 2338.200    0.334
  445.790    0.191   72.061    6.392 2334.140    0.328
  446.040    0.185   69.625    6.710 2343.990    0.323
  446.290    0.177   68.404    6.948 2357.840    0.327
  446.540    0.167   68.395    6.868 2373.650    0.333
  446.790    0.156   68.389    6.629 2393.410    0.332
  447.040    0.151   67.168    6.550 2401.300    0.319
  447.290    0.154   63.926    6.947 2395.250    0.302
  447.540    0.162   65.534    7.105 2383.240    0.310
  447.790    0.177   68.759    9.170 2357.310    0.336
  448.040    0.198   70.769   11.553 2323.440    0.373
  448.290    0.204   69.146   12.030 2313.420    0.414
  448.540    0.214   67.925   10.044 2297.420    0.442
  448.790    0.221   68.320    8.057 2285.440    0.444
  449.040    0.231   69.524    5.992 2269.460    0.429
  449.290    0.243   71.132    5.912 2249.460    0.426
  449.540    0.240   71.524    5.832 2253.370    0.434
  449.790    0.231   71.515    5.832 2269.180    0.432
  450.040    0.220   71.103    5.911 2286.980    0.422
  450.290    0.208   70.690    5.911 2306.760    0.405
  450.540    0.195   70.681    5.911 2328.530    0.381
  450.790    0.184   70.675    5.990 2346.330    0.348
  451.040    0.182   71.470    6.069 2350.220    0.337
  451.290    0.182   72.272    6.148 2350.120    0.338
  451.540    0.182   73.476    5.910 2350.030    0.338
  451.790    0.184   75.491    5.353 2345.970    0.332
  452.040    0.189   77.099    5.274 2337.940    0.325
  452.290    0.188   75.070    5.750 2339.840    0.320
  452.540    0.184   73.442    6.227 2345.740    0.316
  452.790    0.189   76.669    6.465 2337.710    0.320
  453.040    0.205   78.277    6.147 2311.790    0.324
  453.290    0.213   80.290    5.988 2297.770    0.331
  453.540    0.194   81.085    5.987 2329.500    0.352
  453.790    0.187   80.677    5.987 2341.340    0.357
  454.040    0.192   79.860    6.146 2333.310    0.362
  454.290    0.208   78.232    6.463 2307.370    0.369
  454.540    0.217   77.011    7.019 2291.390    0.374
  454.790    0.227   75.790    6.542 2275.390    0.379
  455.040    0.232   74.569    6.304 2267.350    0.384
  455.290    0.226   74.159    5.986 2277.230    0.389
  455.540    0.215   74.554    5.985 2295.020    0.396
  455.790    0.226   75.352    5.985 2277.060    0.397
  456.040    0.233   76.154    6.064 2265.030    0.392
  456.290    0.225   76.951    6.064 2278.850    0.385
  456.540    0.230   77.347    5.984 2270.840    0.378
  456.790    0.233   76.530    5.984 2264.770    0.377
  457.040    0.227   74.501    5.904 2274.640    0.427
  457.290    0.218   70.857    5.825 2290.460    0.450
  457.540    0.213   70.846    5.745 2298.280    0.456
  457.790    0.208   71.244    5.586 2306.140    0.442
  458.040    0.201   72.443    5.189 2318.000    0.428
  458.290    0.190   72.841    4.791 2335.800    0.419
  458.540    0.182   72.835    4.791 2349.620    0.414
  458.790    0.182   73.230    4.870 2349.530    0.404
  459.040    0.236   72.818    5.029 2260.040    0.387
  459.290    0.265   72.403    5.664 2212.260    0.378
  459.540    0.273   72.392    6.696 2200.230    0.474
  459.790    0.286   72.786    7.252 2178.290    0.476
  460.040    0.326   72.781    6.775 2112.640    0.479
  460.290    0.308   72.367    5.107 2142.360    0.504
  460.540    0.296   72.356    4.868 2162.120    0.534
  460.790    0.297   72.352    4.233 2160.050    0.531
  461.040    0.296   69.918    3.279 2161.950    0.487
  461.290    0.281   65.059    2.405 2185.730    0.475
  461.540    0.265   61.815    2.246 2213.460    0.483
  461.790    0.260   61.402    2.802 2221.310    0.481
  462.040    0.266   62.606    3.675 2211.310    0.468
  462.290    0.267   65.025    3.596 2209.240    0.455
  462.540    0.258   67.846    4.151 2225.050    0.450
  462.790    0.243   70.666    4.548 2248.810    0.444
  463.040    0.236   72.275    4.866 2260.640    0.439
  463.290    0.230   73.883    5.025 2270.490    0.446
  463.540    0.230   74.278    5.104 2270.410    0.459
  463.790    0.237   73.057    5.262 2258.400    0.465
  464.040    0.241   70.624    5.421 2252.350    0.470
  464.290    0.243   68.998    5.262 2248.270    0.477
  464.540    0.246   68.181    5.579 2244.220    0.480
  464.790    0.245   68.173    6.056 2246.120    0.474
  465.040    0.239   68.569    5.579 2255.970    0.471
  465.290    0.220   69.366    4.705 2287.670    0.466
  465.540    0.205   69.762    4.943 2311.460    0.457
  465.790    0.187   72.585    5.419 2341.170    0.448
