~VERSION INFORMATION
 VERS.                 2.0:   CWLS LOG ASCII STANDARD -VERSION 2.0
 WRAP.                  NO:   ONE LINE PER DEPTH STEP
~WELL INFORMATION BLOCK
#MNEM.UNIT           DATA                    DESCRIPTION OF MNEMONIC
#---------    -------------------            -------------------------------
# Generated from Intellog Unique Number	CW_73_75/WELL/1030
WELL.         CHEVRON ET AL ROCK 10-33       : Well_name    - WELL
LOC .         00/10-33-075-22W4/0            : Location     - LOCATION
UWI .         00/10-33-075-22W4/0            : Uwi          - UNIQUE WELL ID
ENTR.         JAYE                           : Entered      - ENTERED BY
SRVC.         SCHLUMBERGER                   : Scn          - SERVICE COMPANY
DATE.         14 JAN 73                      : Date         - LOG DATE
STRT.M        371.856                        : top_depth    - START DEPTH
STOP.M        655.356                        : bot_depth    - STOP DEPTH
STEP.M        0.25                           : increment    - STEP LENGTH
 NULL. -999.2500:NULL Value
~CURVE INFORMATION BLOCK
#MNEM UNIT       ERCB CURVE CODE    CURVE DESCRIPTION
#-----------   ------------------   ----------------------------------
DEPT.M        00 001 00 00         : DEPTH        - DEPTH
ILD .OHMM     00 120 00 00         : RESD         - DEEP RESISTIVITY (DLL)
NPHI.V/V      00 330 00 00         : PHIN         - NEUTRON POROSITY (SANDSTONE)
DPHI.V/V      00 890 00 00         : PHID         - DENSITY POROSITY (SANDSTONE)
GR  .API      00 310 00 00         : GR           - GAMMA RAY
CALI.MM       00 280 01 00         : CAL          - CALIPER
~PARAMETER INFORMATION
#MNEM.UNIT           DATA             DESCRIPTION OF MNEMONIC
#---------         -----------     ------------------------------
GL  .M        669.036              : gl           - GROUND LEVEL ELEVATION
EREF.M        672.267              : kb           - ELEVATION OF DEPTH REFERENCE
DATM.M        669.036              : datum        - DATUM ELEVATION
TDD .M        603.504              : tdd          - TOTAL DEPTH DRILLER
RUN .         ONE                  : Run          - RUN NUMBER
MATR.         SANDSTONE            : Logunit      - NEUTRON MATRIX
TMAX.C        32.7778              : BHT          - MAXIMUM RECORDED TEMPERATURE
BHTD.M        603.199              : BHTDEP       - MAXIMUM RECORDED TEMPERATURE
RMT .C        18.8889              : MDTP         - TEMPERATURE OF MUD
MUDD.KG/M     0                    : MWT          - MUD DENSITY
NEUT.         0                    : NEUTRON      - NEUTRON TYPE
RESI.         1                    : RESIST       - RESISTIVITY TYPE
RM  .OHMM     0                    : RM           - RESISTIVITY OF MUD
RMC .OHMM     3.5                  : RMC          - RESISTIVITY OF MUD CAKE
RMF .OHMM     3.51                 : RMF          - RESISTIVITY OF MUD FILTRATE
SUFT.C        -17.7778             : SUFT         - SURFACE TEMPERATURE
~A  DEPTH     RESD     PHIN     PHID       GR      CAL
# ...
  590.856    7.970    0.337    0.112  100.206  215.957
  591.106    7.758    0.324    0.127  109.633  213.140
  591.356    7.564    0.341    0.146  113.240  213.643
  591.606    7.402    0.334    0.140  113.170  214.460
  591.856    7.296    0.307    0.129  100.110  215.689
  592.106    7.156    0.315    0.109   97.588  216.504
  592.356    6.988    0.331    0.125   90.043  216.800
  592.606    6.765    0.314    0.158   82.129  215.644
  592.856    6.632    0.311    0.161   80.097  215.318
  593.106    6.586    0.323    0.157   83.275  215.511
  593.356    6.578    0.321    0.142   82.408  216.534
  593.606    6.533    0.317    0.146   81.052  215.999
  593.856    6.427    0.329    0.147   83.188  211.316
  594.106    6.246    0.312    0.122   89.734  212.235
  594.356    6.079    0.336    0.108   94.750  213.983
  594.606    5.992    0.353    0.092  103.260  214.798
  594.856    5.972    0.370    0.109  115.505  213.954
  595.106    5.964    0.381    0.123  101.771  212.175
  595.356    6.024    0.343    0.134   89.323  213.094
  595.606    6.091    0.337    0.140   90.600  215.464
  595.856    5.908    0.349    0.142   94.943  216.902
  596.106    5.293    0.359    0.131   94.689  211.596
  596.356    4.505    0.345    0.135   92.964  211.165
  596.606    3.943    0.354    0.145   87.563  209.490
  596.856    3.455    0.382    0.154   81.120  209.474
  597.106    3.096    0.406    0.189   74.923  208.733
  597.356    2.872    0.435    0.276   67.990  207.577
  597.606    2.791    0.408    0.266   51.559  206.731
  597.856    2.897    0.414    0.228   18.646  205.886
  598.106    3.159    0.434    0.241   13.488  205.354
  598.356    3.458    0.397    0.245   15.931  205.650
  598.606    3.835    0.366    0.220   21.683  205.530
  598.856    4.068    0.364    0.181   36.196  206.761
  599.106    4.373    0.390    0.138   42.866  209.443
  599.356    4.614    0.406    0.158   49.843  215.550
  599.606    4.659    0.418    0.172   67.419  207.545
  599.856    4.363    0.443    0.204   84.262  205.040
  600.106    3.945    0.450    0.160   73.775  204.506
  600.356    3.588    0.408    0.161   61.327  204.388
  600.606    3.434    0.391    0.234   55.374  203.958
  600.856    3.355    0.400    0.248   52.730  204.874
  601.106    3.295    0.410    0.237   50.392  205.173
  601.356    3.261    0.414    0.215   47.443  205.469
  601.606    3.257    0.404    0.205   43.512  205.452
  601.856    3.269    0.389    0.215   39.215  206.062
  602.106    3.319    0.362    0.245   34.058  206.254
  602.356    3.376    0.306    0.224   29.453  207.172
  602.606    3.429    0.258    0.262   56.100  214.317
  602.856    3.512    0.239    0.216   53.640  202.889
  603.106    3.652    0.230    0.179   39.293  168.011
  603.356    3.832    0.229    0.170   28.867  171.213
  603.606    3.884    0.230    0.173   23.650  170.159
  603.856    8.423    0.354    0.146   97.478  216.803
  604.106    7.962    0.351    0.157   99.219  216.928
  604.356    7.566    0.357    0.165  101.508  216.657
  604.606    7.256    0.364    0.149  104.044  216.583
  604.856    6.909    0.378    0.141  106.579  216.405
  605.106    6.639    0.385    0.126  108.439  216.326
  605.356    6.472    0.392    0.116  105.882  216.255
  605.606    6.117    0.397    0.125  104.118  216.078
  605.856    5.782    0.375    0.125  101.188  216.113
  606.106    5.596    0.382    0.124   96.233  216.242
  606.356    5.446    0.388    0.126   92.998  216.586
  606.606    5.291    0.391    0.129   93.447  216.933
  606.856    5.159    0.383    0.134   94.326  217.173
  607.106    5.058    0.371    0.144   95.265  217.513
  607.356    5.013    0.372    0.158   96.757  217.544
  607.606    4.996    0.386    0.167   99.907  217.264
  607.856    5.035    0.411    0.180  100.787  213.869
  608.106    5.102    0.550    0.212  101.112  211.197
  608.356    5.178    0.572    0.264  102.295  209.669
  608.606    5.276    0.589    0.279  107.962  209.289
  608.856    5.405    0.608    0.225  112.709  208.901
  609.106    5.487    0.575    0.216  113.894  208.929
  609.356    5.498    0.551    0.236  109.307  210.310
  609.606    5.510    0.468    0.249   97.293  212.420
  609.856    5.491    0.443    0.258   89.759  213.287
  610.106    5.423    0.413    0.271   82.596  213.633
  610.356    5.326    0.425    0.281   79.053  213.667
  610.606    5.241    0.429    0.289   79.193  214.007
  610.856    5.253    0.420    0.278   82.650  214.352
  611.106    5.322    0.403    0.254   93.783  214.587
  611.356    5.422    0.386    0.240  100.862  215.043
  611.606    5.545    0.397    0.215  105.424  215.387
  611.856    5.618    0.444    0.194  109.862  215.419
  612.106    5.619    0.435    0.182  112.708  215.335
  612.356    5.469    0.457    0.171  113.588  215.265
  612.606    5.227    0.477    0.159  113.850  215.087
  612.856    5.078    0.502    0.170  113.440  215.222
  613.106    5.005    0.597    0.186  111.491  215.151
  613.356    4.907    0.526    0.202  107.335  214.870
  613.606    4.837    0.504    0.226  101.889  214.381
  613.856    4.795    0.481    0.251   94.418  213.372
  614.106    4.823    0.467    0.296   88.111  212.368
  614.356    4.886    0.456    0.321   78.674  211.568
  614.606    4.987    0.462    0.345   70.650  210.769
  614.856    5.185    0.546    0.367   63.365  209.654
  615.106    5.399    0.578    0.396   58.837  208.958
  615.356    5.633    0.590    0.465   52.226  207.636
  615.606    5.823    0.610    0.514   46.718  205.903
  615.856    6.234    0.588    0.330   44.035  204.684
  616.106    6.588    0.440    0.292   42.888  204.824
  616.356    6.949    0.414    0.277   42.659  204.852
  616.606    7.277    0.355    0.270   42.309  204.989
  616.856    7.537    0.315    0.264   41.776  205.538
  617.106    7.849    0.298    0.253   42.167  206.508
  617.356    8.205    0.285    0.243   43.042  207.062
  617.606    8.451    0.287    0.245   45.146  207.718
  617.856    8.721    0.316    0.266   47.438  207.952
  618.106    8.836    0.329    0.257   49.238  207.983
  618.356    8.904    0.335    0.264   50.054  207.820
  618.606    8.923    0.336    0.271   50.504  207.838
  618.856    8.845    0.364    0.274   51.197  207.973
  619.106    8.671    0.375    0.293   52.319  207.598
  619.356    8.424    0.389    0.302   54.119  207.316
  619.606    8.214    0.381    0.306   56.900  207.238
  619.856    8.141    0.367    0.298   63.367  207.162
  620.106    8.129    0.381    0.285   68.664  207.198
  620.356    8.117    0.396    0.278   75.070  207.332
  620.606    8.061    0.411    0.288   79.569  207.264
  620.856    8.004    0.487    0.294   84.008  207.187
  621.106    7.891    0.527    0.309   81.879  207.223
  621.356    7.778    0.549    0.328   76.555  206.937
  621.606    7.570    0.447    0.353   72.152  206.976
  621.856    7.247    0.422    0.321   67.691  207.004
  622.106    6.750    0.395    0.285   63.287  207.030
  622.356    6.415    0.363    0.266   56.859  207.061
  622.606    6.074    0.365    0.274   52.273  206.787
  622.856    5.647    0.436    0.283   63.220  206.710
  623.106    5.136    0.513    0.301   71.773  206.644
  623.356    4.646    0.425    0.308   84.072  206.784
  623.606    4.391    0.401    0.328   83.294  207.022
  623.856    4.203    0.369    0.278   78.091  207.150
  624.106    4.159    0.353    0.273   67.120  207.286
  624.356    4.198    0.362    0.272   58.849  207.106
  624.606    4.405    0.356    0.257   66.482  206.940
  624.856    4.672    0.360    0.268   84.061  207.070
  625.106    4.928    0.381    0.254   92.122  207.308
  625.356    5.076    0.415    0.244   99.695  207.552
  625.606    5.268    0.439    0.248  102.167  207.786
  625.856    5.396    0.463    0.268  104.092  207.816
  626.106    5.765    0.544    0.280  256.389  207.749
  626.356    6.104    0.575    0.272  259.039  207.569
  626.606    6.545    0.611    0.255  260.285  207.600
  626.856    6.955    0.598    0.254  261.227  207.630
  627.106    7.350    0.587    0.262  264.190  207.974
