~VERSION INFORMATION
 VERS.                 2.0:   CWLS LOG ASCII STANDARD -VERSION 2.0
 WRAP.                  NO:   ONE LINE PER DEPTH STEP
~WELL INFORMATION BLOCK
#MNEM.UNIT           DATA                    DESCRIPTION OF MNEMONIC
#---------    -------------------            -------------------------------
# Generated from Intellog Unique Number	CW_70_72/WELL/3032
NULL.         -999.25                        : NULL_VALUE
WELL.         DECALTA ET AL SMITH 11-27      : Well_name    - WELL              
LOC .         11-27-070-01W5                 : Location     - LOCATION          
UWI .         00/11-27-070-01W5/0            : Uwi          - UNIQUE WELL ID    
ENTR.         JAYE                           : Entered      - ENTERED BY        
SRVC.         SCHLUMBERGER                   : Scn          - SERVICE COMPANY   
DATE.         7 FEB 78                       : Date         - LOG DATE          
STRT.M        384.048                        : top_depth    - START DEPTH       
STOP.M        634.048                        : bot_depth    - STOP DEPTH        
STEP.M        0.25                           : increment    - STEP LENGTH       
~CURVE INFORMATION BLOCK
#MNEM UNIT       ERCB CURVE CODE    CURVE DESCRIPTION
#-----------   ------------------   ----------------------------------
DEPT.M        00 001 00 00         : DEPTH        - DEPTH                       
ILD .OHMM     00 120 00 00         : RESD         - DEEP RESISTIVITY (DIL)      
CALI.MM       00 280 01 00         : CAL          - CALIPER                     
GR  .API      00 310 00 00         : GR           - GAMMA RAY                   
NPHI.V/V      00 330 00 00         : PHIN         - NEUTRON POROSITY (SANDSTONE)
DPHI.V/V      00 890 00 00         : PHID         - DENSITY POROSITY (SANDSTONE)
~PARAMETER INFORMATION       
#MNEM.UNIT           DATA             DESCRIPTION OF MNEMONIC
#---------         -----------     ------------------------------
GL  .M        559.918              : gl           - GROUND LEVEL ELEVATION      
EREF.M        562.966              : kb           - ELEVATION OF DEPTH REFERENCE
DATM.M        559.918              : datum        - DATUM ELEVATION             
TDD .M        642.214              : tdd          - TOTAL DEPTH DRILLER         
RUN .         ONE                  : Run          - RUN NUMBER                  
ENG .         GUNN                 : Engineer     - RECORDING ENGINEER          
WIT .         WALLGREN             : Witness      - WITNESSED BY                
BASE.         EDM                  : Branch       - HOME BASE OF LOGGING UNIT   
MUD .         GEL CHEM             : Mud_type     - MUD TYPE                    
MATR.         SANDSTONE            : Logunit      - NEUTRON MATRIX              
TMAX.C        -17.7778             : BHT          - MAXIMUM RECORDED TEMPERATURE
BHTD.M        641.604              : BHTDEP       - MAXIMUM RECORDED TEMPERATURE
RMT .C        15.5556              : MDTP         - TEMPERATURE OF MUD          
MUDD.KG/M     1152                 : MWT          - MUD DENSITY                 
NEUT.         1                    : NEUTRON      - NEUTRON TYPE                
RESI.         0                    : RESIST       - RESISTIVITY TYPE            
RM  .OHMM     2.61                 : RM           - RESISTIVITY OF MUD          
RMC .OHMM     0.25                 : RMC          - RESISTIVITY OF MUD CAKE     
RMF .OHMM     1.93                 : RMF          - RESISTIVITY OF MUD FILTRATE 
SUFT.C        -17.7778             : SUFT         - SURFACE TEMPERATURE         
~A  DEPTH     RESD      CAL       GR     PHIN     PHID
  384.048    2.221  190.658  122.954    0.501    0.165
  384.298    2.230  189.294  124.319    0.491    0.164
  384.548    2.231  184.779  122.893    0.474    0.175
  384.798    2.236  181.419  120.351    0.499    0.185
  385.048    2.253  178.269  117.871    0.519    0.190
  385.298    2.296  177.115  115.266    0.521    0.190
  385.548    2.349  176.697  111.235    0.500    0.189
  385.798    2.426  176.698  107.513    0.499    0.191
  386.048    2.542  177.015  102.117    0.520    0.193
  386.298    2.645  178.698   93.309    0.537    0.181
  386.548    2.751  180.485   84.253    0.502    0.174
  386.798    2.799  165.255   73.956    0.446    0.159
  387.048    2.810  159.059   77.059    0.416    0.145
  387.298    2.739  157.800   87.668    0.434    0.218
  387.548    2.625  161.163   85.994    0.453    0.221
  387.798    2.606  162.635   84.878    0.447    0.218
  388.048    2.701  160.536   88.601    0.439    0.208
  388.298    2.836  158.121   90.588    0.436    0.197
  388.548    3.045  156.232   88.851    0.426    0.198
  388.798    3.413  155.498   83.083    0.412    0.219
  389.048    3.396  157.181   76.757    0.426    0.198
  389.298    3.242  160.334   71.795    0.414    0.168
  389.548    3.038  160.020   77.813    0.396    0.131
  389.798    2.869  158.971   91.151    0.409    0.175
  390.048    2.750  157.397  104.614    0.443    0.213
  390.298    2.761  157.189  114.603    0.513    0.226
  390.548    2.926  163.073  114.852    0.486    0.212
  390.798    3.292  170.533  111.255    0.455    0.187
  391.048    3.594  169.904  103.315    0.422    0.196
  391.298    3.691  164.548   94.879    0.398    0.215
  391.548    3.472  157.092   83.590    0.358    0.289
  391.798    3.218  155.097   73.169    0.325    0.317
  392.048    2.954  156.254   59.522    0.327    0.347
  392.298    2.598  158.252   57.972    0.363    0.368
  392.548    2.329  160.460   64.611    0.397    0.301
  392.798    2.274  161.512   70.939    0.407    0.281
  393.048    2.361  161.198   78.074    0.418    0.257
  393.298    2.656  160.465   94.887    0.423    0.227
  393.548    2.906  159.101   90.980    0.437    0.204
  393.798    3.017  158.157   85.584    0.428    0.226
  394.048    3.041  153.746   84.902    0.409    0.240
  394.298    3.134  151.857   81.801    0.408    0.249
  394.548    3.467  153.014   76.467    0.411    0.237
  394.798    4.079  155.747   68.714    0.408    0.207
  395.048    4.421  159.425   66.978    0.392    0.171
  395.298    4.365  159.742   71.879    0.365    0.151
  395.548    3.993  158.483   79.759    0.384    0.188
  395.798    3.612  158.380   88.135    0.431    0.237
  396.048    3.417  157.856   92.974    0.416    0.242
  396.298    3.299  157.648   96.387    0.412    0.234
  396.548    3.445  157.860   97.008    0.423    0.208
  396.798    3.624  158.281   96.637    0.438    0.204
  397.048    3.935  158.283   97.320    0.439    0.202
  397.298    4.048  157.549  103.339    0.430    0.190
  397.548    3.982  157.550  108.737    0.421    0.182
  397.798    3.838  158.708  112.088    0.429    0.183
  398.048    3.699  161.861  111.530    0.453    0.203
  398.298    3.558  166.695  112.586    0.459    0.208
  398.548    3.335  169.637  116.371    0.441    0.203
  398.798    3.190  170.690  119.288    0.419    0.187
  399.048    2.984  169.956  124.624    0.421    0.165
  399.298    2.801  168.487  127.912    0.467    0.150
  399.548    2.640  174.371  118.856    0.497    0.198
  399.798    2.507  187.293  107.319    0.511    0.195
  400.048    2.407  176.790   95.161    0.509    0.215
  400.298    2.264  181.834   85.608    0.483    0.298
  400.548    2.158  167.654   68.798    0.439    0.302
  400.798    2.026  160.198   57.943    0.406    0.283
  401.048    1.885  151.585   52.174    0.396    0.272
  401.298    1.760  150.011   51.245    0.396    0.273
  401.548    1.658  150.643   52.114    0.372    0.285
  401.798    1.607  153.271   47.959    0.368    0.286
  402.048    1.669  156.424   44.114    0.384    0.264
  402.298    1.756  157.581   52.117    0.378    0.266
  402.548    1.816  157.163   66.882    0.375    0.280
  402.798    1.824  156.324   70.853    0.384    0.263
  403.048    1.764  154.645   62.045    0.399    0.249
  403.298    1.722  154.226   50.880    0.401    0.282
  403.548    1.723  153.808   56.588    0.396    0.306
  403.798    1.763  153.599   70.485    0.392    0.306
  404.048    1.893  153.391   83.700    0.381    0.284
  404.298    2.149  153.602   93.130    0.381    0.261
  404.548    2.391  153.394   99.334    0.389    0.216
  404.798    2.616  153.395  105.291    0.400    0.181
  405.048    2.872  153.607  113.728    0.407    0.183
  405.298    3.084  154.029  118.630    0.381    0.214
  405.548    3.330  156.657  123.470    0.397    0.223
  405.798    3.523  165.062  126.200    0.428    0.169
  406.048    3.776  175.043  127.256    0.422    0.157
  406.298    4.062  176.515  124.837    0.389    0.182
  406.548    4.186  169.584  124.342    0.388    0.157
  406.798    3.794  166.329  125.770    0.410    0.139
  407.048    3.264  167.381  125.895    0.451    0.181
  407.298    2.750  171.165  125.958    0.480    0.162
  407.548    2.370  177.574  127.572    0.521    0.140
  407.798    2.238  173.374  134.458    0.538    0.161
  408.048    2.189  181.779  125.154    0.545    0.186
  408.298    2.231  183.776  115.540    0.509    0.201
  408.548    2.409  177.055   92.712    0.451    0.220
  408.798    2.597  167.182   77.700    0.417    0.241
  409.048    2.830  160.356   69.140    0.389    0.263
  409.298    3.096  156.156   72.801    0.364    0.230
  409.548    3.509  154.267   69.266    0.333    0.211
  409.798    3.761  155.739   72.245    0.302    0.195
  410.048    3.840  160.257   79.752    0.280    0.139
  410.298    3.694  161.625   93.959    0.424    0.200
  410.548    3.323  158.370  101.094    0.451    0.250
  410.798    2.995  172.868   95.512    0.460    0.303
  411.048    2.849  167.932   84.533    0.431    0.255
  411.298    2.980  159.320   83.727    0.433    0.243
  411.548    3.153  154.489   89.870    0.446    0.258
  411.798    3.298  151.970   96.074    0.433    0.256
  412.048    3.367  151.236   93.159    0.416    0.244
  412.298    3.325  150.398   85.964    0.389    0.234
  412.548    3.216  150.084   80.010    0.369    0.246
  412.798    3.048  150.716   72.194    0.369    0.275
  413.048    2.894  151.348   69.900    0.387    0.283
  413.298    2.738  152.715   72.879    0.406    0.261
  413.548    2.590  153.662   80.882    0.430    0.241
  413.798    2.487  154.084   85.225    0.454    0.249
  414.048    2.370  154.506   71.020    0.450    0.261
  414.298    2.284  154.297   64.322    0.430    0.276
  414.548    2.247  154.614   64.509    0.425    0.282
  414.798    2.333  155.036   69.845    0.429    0.265
  415.048    2.440  155.247   73.009    0.426    0.250
  415.298    2.596  154.934   69.847    0.406    0.234
  415.548    2.607  155.041   66.374    0.356    0.205
  415.798    2.517  155.042   66.188    0.415    0.199
  416.048    2.377  154.624   66.624    0.429    0.241
  416.298    2.227  153.785   68.362    0.412    0.280
  416.548    2.171  152.631   71.154    0.400    0.302
  416.798    2.143  149.481   75.125    0.429    0.305
  417.048    2.209  143.810   81.268    0.426    0.283
  417.298    2.311  139.925   87.100    0.418    0.261
  417.548    2.329  142.343   91.629    0.433    0.240
  417.798    2.236  146.652   96.345    0.449    0.224
  418.048    2.065  151.590  102.239    0.459    0.221
  418.298    2.024  155.373  106.521    0.474    0.186
  418.548    2.109  160.312  101.373    0.523    0.206
  418.798    2.231  165.146   96.225    0.483    0.224
  419.048    2.464  153.803  101.499    0.458    0.254
  419.298    2.695  148.342  108.696    0.425    0.246
  419.548    3.004  145.927  115.024    0.388    0.236
  419.798    3.232  150.236  121.539    0.378    0.214
  420.048    3.337  158.431  123.339    0.392    0.180
  420.298    3.264  164.945  118.563    0.406    0.180
