~VERSION INFORMATION
 VERS.                 2.0:   CWLS LOG ASCII STANDARD -VERSION 2.0
 WRAP.                  NO:   ONE LINE PER DEPTH STEP
~WELL INFORMATION BLOCK
#MNEM.UNIT           DATA                    DESCRIPTION OF MNEMONIC
#---------    -------------------            -------------------------------
# Generated from Intellog Unique Number	CS_71_72/WELL/900
WELL.         SULPETRO ET AL IPIATIK         : Well_name    - WELL
LOC .         00/11-17-072-10W4/0            : Location     - LOCATION
UWI .         00/11-17-072-10W4/0            : Uwi          - UNIQUE WELL ID
ENTR.         SP                             : Entered      - ENTERED BY
SRVC.         SCHLUMBERGER                   : Scn          - SERVICE COMPANY
STRT.M        300                            : top_depth    - START DEPTH
STOP.M        520                            : bot_depth    - STOP DEPTH
STEP.M        0.25                           : increment    - STEP LENGTH
 NULL. -999.2500:NULL Value
~CURVE INFORMATION BLOCK
#MNEM UNIT       ERCB CURVE CODE    CURVE DESCRIPTION
#-----------   ------------------   ----------------------------------
DEPT.M        00 001 00 00         : DEPTH        - DEPTH
ILD .OHMM     00 120 00 00         : RESD         - DEEP RESISTIVITY (DIL)
DPHI.V/V      00 890 00 00         : PHID         - DENSITY POROSITY (LIMESTONE)
NPHI.V/V      00 330 00 00         : PHIN         - NEUTRON POROSITY (LIMESTONE)
GR  .API      00 310 00 00         : GR           - GAMMA RAY
~PARAMETER INFORMATION
#MNEM.UNIT           DATA             DESCRIPTION OF MNEMONIC
#---------         -----------     ------------------------------
GL  .M        651.83               : gl           - GROUND LEVEL ELEVATION
EREF.M        655.44               : kb           - ELEVATION OF DEPTH REFERENCE
DATM.M        651.83               : datum        - DATUM ELEVATION
TDD .M        524                  : tdd          - TOTAL DEPTH DRILLER
RUN .         ONE                  : Run          - RUN NUMBER
ENG .         BILL                 : Engineer     - RECORDING ENGINEER
WIT .         JIM                  : Witness      - WITNESSED BY
MUD .         GEL                  : Mud_type     - MUD TYPE
MATR.         LIMESTONE            : Logunit      - NEUTRON MATRIX
TMAX.C        30                   : BHT          - MAXIMUM RECORDED TEMPERATURE
BHTD.M        524                  : BHTDEP       - MAXIMUM RECORDED TEMPERATURE
MATR.         1                    : LOGUNIT      - NEUTRON MATRIX
RMT .C        25                   : MDTP         - TEMPERATURE OF MUD
NEUT.         1                    : NEUTRON      - NEUTRON TYPE
RESI.         0                    : RESIST       - RESISTIVITY TYPE
RMC .OHMM     0.25                 : RMC          - RESISTIVITY OF MUD CAKE
RMF .OHMM     0.25                 : RMF          - RESISTIVITY OF MUD FILTRATE
SUFT.C        15                   : SUFT         - SURFACE TEMPERATURE
~A  DEPTH     RESD     PHID     PHIN       GR
# ...
  387.000   17.755    0.325    0.420   52.850
  387.250   17.754    0.321    0.400   53.448
  387.500   17.751    0.322    0.403   54.047
  387.750   17.747    0.329    0.416   54.645
  388.000   17.414    0.333    0.420   55.243
  388.250   17.410    0.331    0.417   55.843
  388.500   17.406    0.330    0.423   55.222
  388.750   17.080    0.331    0.420   55.211
  389.000   17.076    0.327    0.422   56.420
  389.250   17.074    0.327    0.441   58.238
  389.500   17.070    0.325    0.427   60.665
  389.750   16.749    0.324    0.427   61.877
  390.000   16.747    0.320    0.426   61.255
  390.250   16.743    0.318    0.429   59.414
  390.500   16.429    0.320    0.442   59.404
  390.750   16.427    0.314    0.430   61.223
  391.000   16.422    0.308    0.420   63.646
  391.250   16.114    0.299    0.435   64.248
  391.500   16.111    0.302    0.402   64.843
  391.750   16.109    0.309    0.392   64.835
  392.000   16.105    0.319    0.415   65.435
  392.250   16.103    0.321    0.449   66.032
  392.500   15.800    0.307    0.462   66.019
  392.750   15.797    0.302    0.435   66.619
  393.000   15.795    0.298    0.448   67.216
  393.250   15.793    0.297    0.468   67.820
  393.500   15.496    0.296    0.465   67.199
  393.750   15.493    0.295    0.440   67.797
  394.000   15.489    0.294    0.434   69.004
  394.250   15.198    0.294    0.442   68.995
  394.500   15.196    0.297    0.442   68.981
  394.750   14.911    0.296    0.446   68.970
  395.000   14.908    0.296    0.409   69.568
  395.250   14.354    0.300    0.417   69.556
  395.500   13.822    0.303    0.436   69.546
  395.750   13.060    0.305    0.467   69.535
  396.000   12.815    0.301    0.456   70.132
  396.250   12.109    0.307    0.438   71.341
  396.500   11.660    0.307    0.430   71.332
  396.750   11.659    0.306    0.424   71.323
  397.000   11.438    0.310    0.429   70.090
  397.250   11.654    0.317    0.446   70.689
  397.500   11.873    0.318    0.441   72.507
  397.750   12.561    0.318    0.434   74.935
  398.000   13.798    0.320    0.435   76.141
  398.250   15.738    0.276    0.454   76.133
  398.500   16.651    0.193    0.396   71.244
  398.750   18.638    0.007    0.257   65.747
  399.000   17.947    0.023    0.205   62.687
  399.250   15.147    0.192    0.259   61.458
  399.500   13.027    0.248    0.320   70.590
  399.750   10.791    0.284    0.351   75.457
  400.000    9.281    0.304    0.387   75.445
  400.250    8.446    0.301    0.423   79.091
  400.500    7.686    0.281    0.470   83.347
  400.750    7.400    0.276    0.456   83.950
  401.000    7.261    0.288    0.421   82.109
  401.250    7.124    0.297    0.417   80.880
  401.500    7.124    0.308    0.439   79.647
  401.750    6.989    0.292    0.449   83.296
  402.000    6.988    0.272    0.447   85.114
  402.250    6.857    0.266    0.466   83.274
  402.500    6.855    0.258    0.439   85.702
  402.750    6.726    0.259    0.429   88.739
  403.000    6.725    0.260    0.433   86.898
  403.250    6.598    0.244    0.442   83.839
  403.500    6.598    0.234    0.433   84.436
  403.750    6.474    0.226    0.437   86.865
  404.000    6.472    0.220    0.455   88.075
  404.250    6.471    0.231    0.456   88.670
  404.500    6.470    0.231    0.442   87.440
  404.750    6.349    0.225    0.429   88.040
  405.000    6.347    0.219    0.420   91.078
  405.250    6.347    0.220    0.419   92.895
  405.500    6.345    0.223    0.421   91.049
  405.750    6.344    0.232    0.446   90.435
  406.000    6.343    0.237    0.462   89.813
  406.250    6.224    0.231    0.476   89.800
  406.500    6.223    0.225    0.437   90.399
  406.750    6.222    0.219    0.412   90.999
  407.000    6.220    0.227    0.411   90.986
  407.250    6.220    0.234    0.435   91.589
  407.500    6.102    0.235    0.434   91.575
  407.750    6.101    0.238    0.428   92.173
  408.000    6.101    0.239    0.419   92.772
  408.250    6.215    0.230    0.428   92.152
  408.500    6.214    0.190    0.445   92.752
  408.750    6.451    0.134    0.432   93.350
  409.000    6.573    0.043    0.419   87.848
  409.250    6.697    0.043    0.344   71.989
  409.500    6.823    0.126    0.307   75.636
  409.750    6.695    0.185    0.344   86.597
  410.000    6.446    0.215    0.415   91.467
  410.250    6.325    0.212    0.457   94.504
  410.500    6.206    0.212    0.450   95.100
  410.750    6.205    0.212    0.438   94.480
  411.000    6.204    0.212    0.438   93.862
  411.250    6.203    0.216    0.435   93.851
  411.500    6.201    0.220    0.404   93.836
  411.750    6.200    0.216    0.398   94.439
  412.000    6.084    0.218    0.420   95.647
  412.250    6.083    0.225    0.429   96.245
  412.500    5.857    0.209    0.427   94.405
  412.750    5.639    0.204    0.412   95.611
  413.000    5.534    0.212    0.433   99.259
  413.250    5.429    0.213    0.449  101.077
  413.500    5.429    0.211    0.437  100.455
  413.750    5.531    0.211    0.430   99.225
  414.000    5.530    0.213    0.439   97.995
  414.250    5.634    0.219    0.457   96.766
  414.500    5.633    0.232    0.471   94.316
  414.750    5.739    0.229    0.442   92.476
  415.000    5.847    0.208    0.421   91.247
  415.250    5.846    0.196    0.420   94.893
  415.500    5.845    0.192    0.416   99.150
  415.750    5.844    0.208    0.415   94.256
  416.000    5.843    0.213    0.434   91.811
  416.250    5.026    0.204    0.447   94.848
  416.500    3.861    0.207    0.423   99.103
  416.750    2.911    0.227    0.424  101.534
  417.000    2.457    0.248    0.460  104.571
  417.250    2.194    0.260    0.499  105.778
  417.500    1.959    0.247    0.559  105.768
  417.750    1.887    0.240    0.539  103.925
  418.000    2.034    0.235    0.529  102.085
  418.250    2.192    0.236    0.526  100.851
  418.500    2.646    0.224    0.500  100.235
  418.750    2.962    0.217    0.478   98.393
  419.000    3.643    0.202    0.466   97.165
  419.250    4.155    0.198    0.437   94.105
  419.500    4.739    0.205    0.453   94.705
  419.750    5.013    0.203    0.412   97.133
  420.000    5.108    0.214    0.401   95.899
  420.250    5.107    0.233    0.433   95.282
  420.500    5.011    0.242    0.413   94.048
  420.750    5.010    0.256    0.433   91.601
  421.000    5.201    0.263    0.451   87.931
  421.250    5.400    0.273    0.467   84.871
  421.500    5.399    0.278    0.439   83.642
  421.750    5.501    0.263    0.423   86.676
  422.000    5.604    0.243    0.423   89.714
  422.250    5.603    0.233    0.418   92.145
  422.500    5.603    0.240    0.412   90.303
  422.750    5.708    0.261    0.409   84.803
  423.000    5.707    0.283    0.413   83.573
  423.250    5.705    0.295    0.407   84.783
  423.500    5.598    0.300    0.433   86.601
  423.750    5.597    0.294    0.455   81.713
  424.000    5.597    0.282    0.444   78.041
  424.250    5.702    0.266    0.433   79.251
  424.500    5.809    0.251    0.415   82.289
  424.750    5.919    0.243    0.401   81.668
  425.000    5.917    0.241    0.405   79.218
  425.250    5.917    0.255    0.417   74.328
  425.500    6.028    0.278    0.428   72.488
  425.750    6.027    0.281    0.445   73.697
  426.000    6.140    0.274    0.408   77.345
  426.250    6.140    0.276    0.437   78.553
  426.500    6.255    0.282    0.467   79.152
  426.750    6.254    0.294    0.442   76.701
  427.000    6.371    0.298    0.426   74.860
  427.250    6.370    0.291    0.442   74.851
  427.500    6.251    0.294    0.446   77.276
  427.750    5.907    0.281    0.460   79.705
  428.000    5.375    0.258    0.444   81.525
  428.250    5.079    0.253    0.431   85.779
  428.500    4.799    0.252    0.437   88.209
  428.750    4.535    0.249    0.443   89.418
  429.000    4.450    0.245    0.437   91.236
  429.250    4.285    0.246    0.428   93.052
  429.500    4.204    0.247    0.417   91.821
  429.750    4.204    0.259    0.428   88.759
  430.000    4.283    0.263    0.398   88.144
  430.250    4.363    0.270    0.400   85.081
