~VERSION INFORMATION
 VERS.                 2.0:   CWLS LOG ASCII STANDARD -VERSION 2.0
 WRAP.                  NO:   ONE LINE PER DEPTH STEP
~WELL INFORMATION BLOCK
#MNEM.UNIT           DATA                    DESCRIPTION OF MNEMONIC
#---------    -------------------            -------------------------------
# Generated from Intellog Unique Number	CW_70_72/WELL/3023
NULL.         -999.25                        : NULL_VALUE
WELL.         CHIEFCO POR ER AL RANCH 10-23  : Well_name    - WELL              
LOC .         10-23-070-26W4                 : Location     - LOCATION          
UWI .         00/10-23-070-26W4/0            : Uwi          - UNIQUE WELL ID    
ENTR.         J                              : Entered      - ENTERED BY        
SRVC.         WESTERN ATLAS                  : Scn          - SERVICE COMPANY   
DATE.         17 JUNE 75                     : Date         - LOG DATE          
STRT.M        454.152                        : top_depth    - START DEPTH       
STOP.M        670.652                        : bot_depth    - STOP DEPTH        
STEP.M        0.25                           : increment    - STEP LENGTH       
~CURVE INFORMATION BLOCK
#MNEM UNIT       ERCB CURVE CODE    CURVE DESCRIPTION
#-----------   ------------------   ----------------------------------
DEPT.M        00 001 00 00         : DEPTH        - DEPTH                       
ILD .OHMM     00 120 00 00         : RESD         - DEEP RESISTIVITY (DIL)      
CALI.MM       00 280 01 00         : CAL          - CALIPER                     
GR  .API      00 310 00 00         : GR           - GAMMA RAY                   
NPHI.V/V      00 330 00 00         : PHIN         - NEUTRON POROSITY (SANDSTONE)
DPHI.V/V      00 890 00 00         : PHID         - DENSITY POROSITY (SANDSTONE)
~PARAMETER INFORMATION       
#MNEM.UNIT           DATA             DESCRIPTION OF MNEMONIC
#---------         -----------     ------------------------------
GL  .M        633.191              : gl           - GROUND LEVEL ELEVATION      
EREF.M        635.813              : kb           - ELEVATION OF DEPTH REFERENCE
DATM.M        633.191              : datum        - DATUM ELEVATION             
TDD .M        688.543              : tdd          - TOTAL DEPTH DRILLER         
RUN .         ONE                  : Run          - RUN NUMBER                  
ENG .         GAU-ROBERGE          : Engineer     - RECORDING ENGINEER          
WIT .         COULSON              : Witness      - WITNESSED BY                
MUD .         MUD GEL              : Mud_type     - MUD TYPE                    
MATR.         SANDSTONE            : Logunit      - NEUTRON MATRIX              
TMAX.C        27.2222              : BHT          - MAXIMUM RECORDED TEMPERATURE
BHTD.M        687.629              : BHTDEP       - MAXIMUM RECORDED TEMPERATURE
RMT .C        15.5556              : MDTP         - TEMPERATURE OF MUD          
MUDD.KG/M     1140                 : MWT          - MUD DENSITY                 
NEUT.         1                    : NEUTRON      - NEUTRON TYPE                
RESI.         0                    : RESIST       - RESISTIVITY TYPE            
RM  .OHMM     2.9                  : RM           - RESISTIVITY OF MUD          
RMC .OHMM     0.25                 : RMC          - RESISTIVITY OF MUD CAKE     
RMF .OHMM     0.25                 : RMF          - RESISTIVITY OF MUD FILTRATE 
SUFT.C        -17.7778             : SUFT         - SURFACE TEMPERATURE         
~A  DEPTH     RESD      CAL       GR     PHIN     PHID
# ...
  490.652    2.876  170.286  116.359    0.398    0.233
  490.902    2.991  164.940  112.041    0.397    0.236
  491.152    3.115  166.004  103.995    0.382    0.230
  491.402    3.380  170.384   98.025    0.404    0.217
  491.652    3.776  172.170   91.321    0.414    0.219
  491.902    4.112  172.199   96.044    0.427    0.270
  492.152    4.259  171.196  101.072    0.443    0.288
  492.402    4.159  169.262   98.892    0.447    0.234
  492.652    3.921  164.437   95.064    0.424    0.239
  492.902    3.623  161.357   91.783    0.419    0.272
  493.152    3.397  157.354   86.242    0.415    0.301
  493.402    3.144  153.668   80.943    0.404    0.305
  493.652    2.862  155.975   76.989    0.389    0.285
  493.902    2.733  158.899   74.259    0.398    0.272
  494.152    2.749  159.861   72.199    0.420    0.280
  494.402    2.790  159.688   69.956    0.410    0.274
  494.652    2.859  160.439   72.540    0.409    0.265
  494.902    2.983  164.923   79.341    0.415    0.246
  495.152    3.142  167.544   78.199    0.402    0.244
  495.402    3.196  167.570   71.437    0.386    0.249
  495.652    3.161  167.084   74.206    0.392    0.250
  495.902    3.086  166.600   78.744    0.433    0.250
  496.152    2.970  166.426   86.645    0.414    0.259
  496.402    2.868  165.936   86.912    0.384    0.264
  496.652    2.739  164.623   84.605    0.388    0.275
  496.902    2.670  163.002   81.445    0.397    0.274
  497.152    2.621  161.582   77.126    0.399    0.274
  497.402    2.602  161.411   74.640    0.389    0.268
  497.652    2.598  160.924   80.219    0.381    0.268
  497.902    2.603  162.194   82.928    0.387    0.263
  498.152    2.604  165.541   81.358    0.406    0.256
  498.402    2.619  168.884   84.611    0.427    0.263
  498.652    2.658  170.566   93.245    0.427    0.277
  498.902    2.734  171.940   94.125    0.435    0.290
  499.152    2.895  170.424   93.531    0.438    0.275
  499.402    3.101  166.728   92.873    0.394    0.243
  499.652    3.357  163.044   91.548    0.382    0.222
  499.902    3.536  163.480   90.161    0.380    0.220
  500.152    3.670  167.239   87.309    0.375    0.220
  500.402    3.725  165.301   88.976    0.407    0.215
  500.652    3.712  162.953   96.939    0.421    0.206
  500.902    3.625  167.230   97.448    0.419    0.206
  501.152    3.494  173.467   95.997    0.437    0.209
  501.402    3.313  177.020   96.627    0.453    0.228
  501.652    3.094  176.741  101.965    0.482    0.281
  501.902    2.885  173.249  108.827    0.497    0.306
  502.152    2.807  165.835  107.623    0.466    0.286
  502.402    2.802  162.758  101.285    0.435    0.278
  502.652    2.898  161.244   90.549    0.409    0.266
  502.902    3.052  160.958   80.974    0.397    0.249
  503.152    3.256  161.404   81.055    0.397    0.233
  503.402    3.318  163.092   85.170    0.416    0.217
  503.652    3.282  164.884   88.608    0.421    0.216
  503.902    3.140  170.407   92.292    0.397    0.216
  504.152    2.977  173.535   93.288    0.398    0.219
  504.402    2.838  170.986   93.427    0.405    0.230
  504.652    2.781  168.524   92.652    0.407    0.259
  504.902    2.855  165.038   89.065    0.411    0.287
  505.152    2.963  164.244   83.280    0.398    0.274
  505.402    3.191  164.273   77.554    0.381    0.259
  505.652    3.404  170.616   79.346    0.401    0.258
  505.902    3.592  164.648   84.251    0.431    0.271
  506.152    3.735  166.023   85.308    0.447    0.284
  506.402    3.742  169.676   78.239    0.478    0.280
  506.652    3.438  173.435   83.942    0.500    0.278
  506.902    3.084  172.535   86.955    0.531    0.306
  507.152    2.792  169.047   87.158    0.496    0.351
  507.402    2.523  165.461   85.465    0.452    0.280
  507.652    2.326  163.939   82.061    0.419    0.286
  507.902    2.181  163.450   81.406    0.389    0.303
  508.152    2.130  163.278   78.674    0.376    0.299
  508.402    2.061  163.106   74.600    0.406    0.301
  508.652    2.053  163.340   75.048    0.433    0.305
  508.902    2.073  163.375   74.332    0.402    0.305
  509.152    2.092  163.195   68.789    0.385    0.305
  509.402    2.070  162.705   65.692    0.373    0.312
  509.652    2.044  161.601   64.307    0.362    0.307
  509.902    2.018  161.010   62.736    0.379    0.307
  510.152    1.981  162.077   62.142    0.411    0.309
  510.402    1.938  164.386   62.406    0.393    0.309
  510.652    1.900  165.449   63.281    0.388    0.323
  510.902    1.841  164.455   64.643    0.393    0.325
  511.152    1.772  161.692   64.660    0.396    0.322
  511.402    1.749  158.925   64.194    0.402    0.314
  511.652    1.856  155.653   67.510    0.410    0.323
  511.902    2.262  154.639   69.054    0.417    0.329
  512.152    3.160  157.165   64.614    0.403    0.305
  512.402    4.123  159.048   63.715    0.366    0.263
  512.652    5.243  163.117   67.154    0.322    0.200
  512.902    6.001  165.528   68.701    0.237    0.147
  513.152    6.286  166.696   66.826    0.203    0.162
  513.402    6.369  160.106   64.338    0.224    0.194
  513.652    6.276  157.551   63.381    0.265    0.222
  513.902    6.278  160.069   61.567    0.331    0.174
  514.152    6.408  165.378   61.341    0.280    0.159
  514.402    6.030  167.373   63.987    0.249    0.131
  514.652    5.117  167.403   66.204    0.236    0.119
  514.902    4.464  165.782   66.651    0.217    0.140
  515.152    3.845  163.748   62.818    0.205    0.169
  515.402    3.070  162.014   71.088    0.371    0.251
  515.652    2.900  160.388   77.705    0.393    0.271
  515.902    2.826  159.490   80.290    0.380    0.263
  516.152    2.917  160.864   77.864    0.366    0.249
  516.402    3.027  163.586   81.610    0.366    0.235
  516.652    3.153  165.381   81.446    0.367    0.232
  516.902    3.108  165.516   79.513    0.366    0.234
  517.152    2.974  163.998   79.715    0.375    0.238
  517.402    2.925  161.545   81.745    0.392    0.255
  517.652    2.997  159.302   84.940    0.394    0.271
  517.902    3.306  160.670   83.798    0.394    0.261
  518.152    3.639  162.776   82.838    0.392    0.272
  518.402    4.259  161.872   82.003    0.372    0.224
  518.652    4.847  162.008   73.893    0.312    0.201
  518.902    5.386  162.970   65.602    0.304    0.192
  519.152    6.211  166.518   68.248    0.298    0.181
  519.402    6.850  163.967   65.517    0.284    0.227
  519.652    7.654  160.684   62.541    0.309    0.214
  519.902    8.137  162.785   60.244    0.304    0.125
  520.152    7.545  165.820   58.913    0.227    0.161
  520.402    5.827  164.816   56.244    0.262    0.178
  520.652    4.204  164.948   56.750    0.283    0.170
  520.902    3.271  164.773   57.990    0.320    0.228
  521.152    2.521  162.735   58.011    0.354    0.269
  521.402    2.160  161.118   62.305    0.388    0.302
  521.652    1.881  160.729   64.586    0.378    0.297
  521.902    1.793  160.449   61.669    0.372    0.297
  522.152    1.728  160.069   60.468    0.379    0.298
  522.402    1.716  159.901   59.814    0.389    0.301
  522.652    1.710  159.610   60.258    0.383    0.303
  522.902    1.729  158.200   62.660    0.373    0.301
  523.152    1.758  157.604   65.979    0.368    0.299
  523.402    1.775  156.708   62.943    0.368    0.299
  523.652    1.785  156.326   61.313    0.383    0.295
  523.902    1.789  156.355   61.942    0.380    0.297
  524.152    1.786  156.181   63.364    0.377    0.312
  524.402    1.783  156.521   64.054    0.370    0.313
  524.652    1.787  156.458   66.274    0.375    0.313
  524.902    1.771  156.178   66.965    0.390    0.313
  525.152    1.758  156.305   65.212    0.393    0.314
  525.402    1.761  156.957   63.702    0.388    0.316
  525.652    1.755  157.816   62.376    0.382    0.317
  525.902    1.720  158.571   61.355    0.377    0.317
  526.152    1.702  159.747   59.114    0.383    0.317
  526.402    1.690  160.809   57.666    0.384    0.316
  526.652    1.687  162.287   58.541    0.372    0.312
  526.902    1.672  161.493   61.429    0.375    0.311
