~VERSION INFORMATION
 VERS.                 2.0:   CWLS LOG ASCII STANDARD -VERSION 2.0
 WRAP.                  NO:   ONE LINE PER DEPTH STEP
~WELL INFORMATION BLOCK
#MNEM.UNIT           DATA                    DESCRIPTION OF MNEMONIC
#---------    -------------------            -------------------------------
# Generated from Intellog Unique Number	CW_73_75/WELL/1052
WELL.         MANNVILLE ER AL FRANCIS 15-08  : Well_name    - WELL
LOC .         00/15-08-074-22W4/0            : Location     - LOCATION
UWI .         00/15-08-074-22W4/0            : Uwi          - UNIQUE WELL ID
ENTR.         JAYE                           : Entered      - ENTERED BY
SRVC.         SCHLUMBERGER                   : Scn          - SERVICE COMPANY
DATE.         4 DEC 81                       : Date         - LOG DATE
STRT.M        365                            : top_depth    - START DEPTH
STOP.M        587                            : bot_depth    - STOP DEPTH
STEP.M        0.25                           : increment    - STEP LENGTH
 NULL. -999.2500:NULL Value
~CURVE INFORMATION BLOCK
#MNEM UNIT       ERCB CURVE CODE    CURVE DESCRIPTION
#-----------   ------------------   ----------------------------------
DEPT.M        00 001 00 00         : DEPTH        - DEPTH
CALI.MM       00 280 01 00         : CAL          - CALIPER
GR  .API      00 310 00 00         : GR           - GAMMA RAY
NPHI.V/V      00 330 00 00         : PHIN         - NEUTRON POROSITY (SANDSTONE)
DPHI.V/V      00 890 00 00         : PHID         - DENSITY POROSITY (SANDSTONE)
ILD .OHMM     00 120 00 00         : RESD         - DEEP RESISTIVITY (DIL)
~PARAMETER INFORMATION
#MNEM.UNIT           DATA             DESCRIPTION OF MNEMONIC
#---------         -----------     ------------------------------
GL  .M        655.1                : gl           - GROUND LEVEL ELEVATION
EREF.M        658                  : kb           - ELEVATION OF DEPTH REFERENCE
DATM.M        655.1                : datum        - DATUM ELEVATION
TDD .M        588                  : tdd          - TOTAL DEPTH DRILLER
RUN .         ONE                  : Run          - RUN NUMBER
ENG .         WRIGHT               : Engineer     - RECORDING ENGINEER
WIT .         SAMOTA               : Witness      - WITNESSED BY
BASE.         WAUN                 : Branch       - HOME BASE OF LOGGING UNIT
MUD .         GEL CHEM             : Mud_type     - MUD TYPE
MATR.         SANDSTONE            : Logunit      - NEUTRON MATRIX
TMAX.C        25.5                 : BHT          - MAXIMUM RECORDED TEMPERATURE
BHTD.M        588.5                : BHTDEP       - MAXIMUM RECORDED TEMPERATURE
RMT .C        15.5                 : MDTP         - TEMPERATURE OF MUD
MUDD.KG/M     1100                 : MWT          - MUD DENSITY
NEUT.         1                    : NEUTRON      - NEUTRON TYPE
RESI.         0                    : RESIST       - RESISTIVITY TYPE
RM  .OHMM     4.098                : RM           - RESISTIVITY OF MUD
RMC .OHMM     0                    : RMC          - RESISTIVITY OF MUD CAKE
RMF .OHMM     3.54                 : RMF          - RESISTIVITY OF MUD FILTRATE
SUFT.C        0                    : SUFT         - SURFACE TEMPERATURE
~A  DEPTH      CAL       GR     PHIN     PHID     RESD
# ...
  547.500  159.874  107.026    0.353    0.130    6.263
  547.750  159.732  105.643    0.364    0.144    6.158
  548.000  160.107  103.828    0.365    0.150    6.033
  548.250  160.062  107.765    0.372    0.125    5.965
  548.500  160.339  112.318    0.376    0.103    5.899
  548.750  160.707  110.627    0.380    0.138    5.746
  549.000  160.677  108.562    0.390    0.153    5.598
  549.250  160.330  109.345    0.391    0.137    5.443
  549.500  160.086  111.981    0.372    0.130    5.184
  549.750  159.639  115.298    0.376    0.146    5.069
  550.000  159.703  116.885    0.394    0.155    5.031
  550.250  159.765  113.214    0.414    0.164    5.031
  550.500  159.933  102.243    0.439    0.156    5.146
  550.750  159.800  105.620    0.423    0.155    5.322
  551.000  159.557  110.425    0.412    0.157    5.484
  551.250  159.308  112.071    0.411    0.154    5.598
  551.500  159.166  111.432    0.420    0.160    5.641
  551.750  159.131  109.800    0.396    0.165    5.557
  552.000  159.091  108.664    0.376    0.157    5.393
  552.250  159.058  111.547    0.377    0.148    5.098
  552.500  159.228  113.754    0.395    0.150    4.784
  552.750  159.602  116.391    0.410    0.159    4.472
  553.000  159.875  118.225    0.428    0.170    4.228
  553.250  160.039  119.007    0.428    0.176    4.088
  553.500  160.208  116.818    0.426    0.168    4.080
  553.750  160.380  111.230    0.429    0.156    4.316
  554.000  160.754  101.311    0.422    0.150    4.749
  554.250  161.028   93.308    0.376    0.144    5.558
  554.500  161.298   83.141    0.339    0.148    6.702
  554.750  161.161   85.470    0.320    0.159    7.542
  555.000  161.329   98.623    0.308    0.161    7.613
  555.250  161.495  109.982    0.303    0.147    7.305
  555.500  161.764  124.928    0.321    0.127    6.529
  555.750  161.830  143.649    0.374    0.118    6.127
  556.000  161.793  147.274    0.379    0.138    5.913
  556.250  161.755  139.521    0.381    0.162    5.781
  556.500  161.620  128.551    0.389    0.147    5.611
  556.750  161.580  117.763    0.363    0.141    5.354
  557.000  161.543  125.783    0.354    0.153    5.235
  557.250  161.814  127.677    0.388    0.161    5.196
  557.500  161.881  122.643    0.419    0.174    5.275
  557.750  161.844  117.552    0.400    0.171    5.476
  558.000  161.809  110.663    0.352    0.151    5.858
  558.250  161.459  111.940    0.345    0.138    6.314
  558.500  161.114  109.504    0.353    0.130    6.818
  558.750  160.769  104.596    0.356    0.119    7.473
  559.000  160.314   99.067    0.316    0.110    7.861
  559.250  160.073   99.850    0.296    0.118    7.905
  559.500  160.035  101.434    0.298    0.131    7.773
  559.750  159.996   99.681    0.307    0.137    7.558
  560.000  159.962  101.886    0.318    0.131    7.321
  560.250  159.925  103.099    0.319    0.138    7.119
  560.500  159.888   98.500    0.317    0.137    7.119
  560.750  160.057   95.509    0.346    0.133    7.119
  561.000  160.323  107.054    0.377    0.125    7.132
  561.250  160.598  129.052    0.363    0.113    7.146
  561.500  160.765  151.669    0.325    0.114    7.199
  561.750  160.628  150.719    0.368    0.119    7.308
  562.000  160.271  132.819    0.399    0.115    7.460
  562.250  160.036  122.839    0.352    0.119    7.545
  562.500  159.587  114.651    0.322    0.130    7.587
  562.750  159.242  112.093    0.317    0.136    7.461
  563.000  158.999  111.079    0.332    0.135    7.364
  563.250  158.855  115.945    0.336    0.127    7.254
  563.500  158.511  119.262    0.330    0.124    7.173
  563.750  158.366  120.660    0.325    0.130    7.054
  564.000  157.921  121.319    0.326    0.138    6.975
  564.250  157.675  119.999    0.337    0.143    7.041
  564.500  157.530  104.822    0.334    0.153    7.351
  564.750  157.189   87.851    0.325    0.215    8.209
  565.000  156.836   78.735    0.645    0.455   10.811
  565.250  156.598   69.064    0.725    0.514   14.290
  565.500  156.766   36.196    0.592    0.391   17.891
  565.750  157.247   23.740    0.429    0.309   22.232
  566.000  156.897   26.810    0.326    0.278   27.266
  566.250  156.657   34.333    0.299    0.273   30.451
  566.500  156.207   37.405    0.304    0.289   31.028
  566.750  155.648   31.876    0.330    0.292   28.255
  567.000  155.508   31.852    0.335    0.288   24.553
  567.250  155.372   54.224    0.333    0.313   20.668
  567.500  155.851  103.378    0.379    0.448   17.561
  567.750  156.531  140.840    0.555    0.448   14.893
  568.000  156.597  135.374    0.573    0.393   12.537
  568.250  156.559   89.701    0.526    0.304   11.142
  568.500  156.114   70.936    0.366    0.262    9.921
  568.750  155.148   70.419    0.362    0.259    8.702
  569.000  153.771   72.129    0.350    0.267    7.534
  569.250  152.703   52.622    0.349    0.259    6.646
  569.500  153.280   35.032    0.345    0.258    5.829
  569.750  154.173   34.701    0.324    0.269    4.753
  570.000  154.343   34.926    0.313    0.259    3.905
  570.250  152.963   40.965    0.312    0.251    3.529
  570.500  152.515   67.541    0.318    0.262    3.349
  570.750  152.995   99.808    0.343    0.283    3.470
  571.000  154.607  110.858    0.324    0.206    3.905
  571.250  156.218  116.461    0.267    0.156    4.402
  571.500  157.417  117.678    0.267    0.098    5.191
  571.750  158.206  116.046    0.282    0.104    6.319
  572.000  158.474  111.138    0.285    0.116    7.735
  572.250  158.336  106.289    0.286    0.120    8.495
  572.500  157.887  103.051    0.290    0.118    8.639
  572.750  156.919   99.936    0.296    0.131    7.852
  573.000  154.513   96.389    0.293    0.140    7.493
  573.250  153.031   95.934    0.290    0.136    7.272
  573.500  154.231   91.394    0.297    0.132    7.058
  573.750  155.325   90.198    0.312    0.132    6.888
  574.000  154.982   92.897    0.304    0.145    6.748
  574.250  153.090  100.358    0.271    0.162    6.610
  574.500  152.228  103.738    0.265    0.160    6.284
  574.750  152.188  101.428    0.289    0.135    5.886
  575.000  151.838   91.075    0.301    0.131    5.596
  575.250  151.288   79.053    0.310    0.148    5.360
  575.500  150.532  210.707    0.301    0.188    5.182
  575.750  149.772  209.771    0.277    0.205    5.048
  576.000  149.322  215.501    0.271    0.205    4.964
  576.250  148.457  223.643    0.276    0.198    4.946
  576.500  147.596  223.743    0.288    0.178    5.077
  576.750  146.940  218.960    0.288    0.167    5.311
  577.000  147.004  217.886    0.283    0.167    5.692
  577.250  149.032  228.008    0.276    0.159    6.169
  577.500  153.531  242.397    0.274    0.153    6.513
  577.750  158.442  247.570    0.290    0.136    7.033
  578.000  160.672  250.889    0.306    0.123    7.274
  578.250  159.805  252.352    0.328    0.115    6.800
  578.500  159.565  245.586    0.331    0.114    6.600
  578.750  159.012  242.657    0.304    0.116    6.489
  579.000  159.493  272.140    0.287    0.116    6.441
  579.250  160.072  450.696    0.278    0.115    6.298
  579.500  160.445  427.416    0.295    0.127    6.089
  579.750  160.409  376.486    0.316    0.113    5.877
  580.000  159.548  338.545    0.360    0.051    5.412
  580.250  149.616  254.708    0.402    0.059    5.174
  580.500  145.864  218.191    0.374    0.129    4.616
  580.750  145.623  200.477    0.351    0.192    4.156
  581.000  145.480  199.156    0.306    0.233    3.864
  581.250  145.651  199.257    0.297    0.241    3.653
  581.500  146.124  202.389    0.297    0.252    3.518
  581.750  146.193  208.366    0.302    0.248    3.460
  582.000  147.083  213.662    0.315    0.234    3.447
  582.250  148.799  209.745    0.332    0.198    4.019
  582.500  149.485  204.897    0.372    0.136    5.098
  582.750  150.375  206.916    0.406    0.099    6.840
  583.000  150.957  212.090    0.306    0.001    8.628
  583.250  150.608  216.520    0.272   -0.014    9.076
  583.500  149.643  217.921    0.258   -0.004    9.059
  583.750  148.473  217.961    0.238    0.047    7.872
