~VERSION INFORMATION
 VERS.                 2.0:   CWLS LOG ASCII STANDARD -VERSION 2.0
 WRAP.                  NO:   ONE LINE PER DEPTH STEP
~WELL INFORMATION BLOCK
#MNEM.UNIT           DATA                    DESCRIPTION OF MNEMONIC
#---------    -------------------            -------------------------------
# Generated from Intellog Unique Number	CW_76_78/WELL/879
WELL.         NORTHSTAR ET AL MARTEN HILLS 1 : Well_name    - WELL
LOC .         00/10-18-076-03W5/0            : Location     - LOCATION
UWI .         00/10-18-076-03W5/0            : Uwi          - UNIQUE WELL ID
ENTR.         JAYE                           : Entered      - ENTERED BY
SRVC.         COMPUTALOG                     : Scn          - SERVICE COMPANY
DATE.         13 MAR 81                      : Date         - LOG DATE
STRT.M        575                            : top_depth    - START DEPTH
STOP.M        790                            : bot_depth    - STOP DEPTH
STEP.M        0.25                           : increment    - STEP LENGTH
 NULL. -999.2500:NULL Value
~CURVE INFORMATION BLOCK
#MNEM UNIT       ERCB CURVE CODE    CURVE DESCRIPTION
#-----------   ------------------   ----------------------------------
DEPT.M        00 001 00 00         : DEPTH        - DEPTH
ILD .OHMM     00 120 00 00         : RESD         - DEEP RESISTIVITY (DIL)
NPHI.V/V      00 330 00 00         : PHIN         - NEUTRON POROSITY (SANDSTONE)
DPHI.V/V      00 890 00 00         : PHID         - DENSITY POROSITY (SANDSTONE)
GR  .API      00 310 00 00         : GR           - GAMMA RAY
CALI.MM       00 280 01 00         : CAL          - CALIPER
~PARAMETER INFORMATION
#MNEM.UNIT           DATA             DESCRIPTION OF MNEMONIC
#---------         -----------     ------------------------------
GL  .M        861                  : gl           - GROUND LEVEL ELEVATION
EREF.M        865.1                : kb           - ELEVATION OF DEPTH REFERENCE
DATM.M        861                  : datum        - DATUM ELEVATION
TDD .M        798                  : tdd          - TOTAL DEPTH DRILLER
RUN .         ONE                  : Run          - RUN NUMBER
ENG .         GUNDERSON            : Engineer     - RECORDING ENGINEER
WIT .         FITZSIMMONS          : Witness      - WITNESSED BY
BASE.         EDM                  : Branch       - HOME BASE OF LOGGING UNIT
MUD .         GEL CHEM             : Mud_type     - MUD TYPE
MATR.         SANDSTONE            : Logunit      - NEUTRON MATRIX
TMAX.C        27                   : BHT          - MAXIMUM RECORDED TEMPERATURE
BHTD.M        799.6                : BHTDEP       - MAXIMUM RECORDED TEMPERATURE
RMT .C        16                   : MDTP         - TEMPERATURE OF MUD
MUDD.KG/M     1140                 : MWT          - MUD DENSITY
NEUT.         1                    : NEUTRON      - NEUTRON TYPE
RESI.         0                    : RESIST       - RESISTIVITY TYPE
RM  .OHMM     3.8                  : RM           - RESISTIVITY OF MUD
RMC .OHMM     3                    : RMC          - RESISTIVITY OF MUD CAKE
RMF .OHMM     0                    : RMF          - RESISTIVITY OF MUD FILTRATE
SUFT.C        0                    : SUFT         - SURFACE TEMPERATURE
~A  DEPTH     RESD     PHIN     PHID       GR      CAL
# ...
  721.000    9.228    0.375    0.148   92.547  205.664
  721.250    8.879    0.380    0.162   95.484  205.396
  721.500    8.406    0.393    0.168   99.354  205.123
  721.750    8.155    0.396    0.173  100.741  205.480
  722.000    8.060    0.396    0.175  101.881  205.507
  722.250    8.055    0.384    0.174  101.968  205.864
  722.500    8.239    0.379    0.171   98.147  206.212
  722.750    8.431    0.381    0.166   94.946  206.460
  723.000    8.591    0.377    0.154   97.326  206.597
  723.250    8.726    0.364    0.144   95.800  206.957
  723.500    8.754    0.374    0.133   93.219  207.203
  723.750    8.708    0.363    0.133   95.167  207.453
  724.000    8.399    0.362    0.146   98.725  207.599
  724.250    8.099    0.383    0.154  106.439  207.727
  724.500    8.070    0.374    0.146  109.316  208.389
  724.750    8.295    0.372    0.139  106.984  208.947
  725.000    8.364    0.355    0.131  102.231  209.501
  725.250    8.154    0.350    0.119   96.116  210.268
  725.500    7.953    0.357    0.095   89.256  210.510
  725.750    7.742    0.348    0.114   86.491  210.864
  726.000    7.500    0.382    0.150   92.528  210.905
  726.250    7.257    0.396    0.176   98.630  211.047
  726.500    6.924    0.418    0.175   99.834  211.190
  726.750    6.714    0.447    0.161   99.917  211.439
  727.000    6.652    0.414    0.148  100.686  211.688
  727.250    6.704    0.396    0.137  102.139  211.515
  727.500    6.995    0.389    0.126  103.215  211.242
  727.750    7.220    0.381    0.135  104.602  210.770
  728.000    7.264    0.372    0.160  108.287  209.465
  728.250    7.276    0.358    0.168  113.269  207.645
  728.500    7.649    0.349    0.173  116.455  206.028
  728.750    7.981    0.348    0.174  115.985  204.521
  729.000    8.017    0.347    0.169  117.621  203.631
  729.250    8.053    0.357    0.149  118.326  202.531
  729.500    8.516    0.361    0.122  111.157  202.053
  729.750    9.234    0.354    0.129  103.989  202.612
  730.000   10.222    0.346    0.148   98.369  202.960
  730.250   11.809    0.339    0.162   94.113  202.693
  730.500   14.004    0.341    0.178  100.029  201.285
  730.750   16.609    0.370    0.194  103.028  198.747
  731.000   18.155    0.388    0.210  103.365  197.231
  731.250   20.071    0.392    0.222  102.705  196.650
  731.500   19.147    0.398    0.233  100.001  197.102
  731.750   16.664    0.401    0.241   89.855  198.184
  732.000   15.600    0.384    0.242   78.965  199.145
  732.250   15.128    0.395    0.232   67.269  201.154
  732.500   15.484    0.410    0.216   68.412  202.538
  732.750   16.727    0.416    0.207   72.277  203.816
  733.000   18.273    0.433    0.211   79.246  203.544
  733.250   19.442    0.443    0.217   83.549  202.655
  733.500   20.118    0.448    0.221   89.402  202.074
  733.750   20.491    0.445    0.222   81.303  201.704
  734.000   20.446    0.449    0.226   78.413  201.849
  734.250   20.285    0.461    0.230   74.159  201.881
  734.500   19.221    0.471    0.225   78.277  202.137
  734.750   18.002    0.473    0.213   81.276  202.589
  735.000   17.349    0.465    0.202   82.105  202.420
  735.250   16.917    0.438    0.191   74.564  202.360
  735.500   16.781    0.421    0.189   72.418  202.506
  735.750   16.785    0.391    0.201   75.976  202.749
  736.000   16.763    0.388    0.205   78.852  203.609
  736.250   16.734    0.409    0.202   78.007  203.648
  736.500   16.581    0.429    0.194   74.745  197.486
  736.750   16.289    0.461    0.194   77.067  193.188
  737.000   15.464    0.474    0.191   80.249  190.334
  737.250   14.761    0.467    0.192   78.104  190.786
  737.500   14.215    0.433    0.197   75.026  194.653
  737.750   13.529    0.401    0.201   76.603  197.996
  738.000   14.123    0.387    0.200   79.479  200.621
  738.250   16.179    0.412    0.196   84.216  202.317
  738.500   18.299    0.447    0.186   87.217  203.598
  738.750   19.715    0.361    0.172   84.262  204.356
  739.000   20.227    0.298    0.156   77.592  205.021
  739.250   20.419    0.224    0.102   73.210  205.368
  739.500   20.546    0.177    0.019   63.002  205.406
  739.750   20.598    0.169    0.037   61.728  205.244
  740.000   20.634    0.196    0.066   65.530  205.082
  740.250   20.654    0.288    0.091   62.267  204.705
  740.500   20.576    0.287    0.092   67.254  204.750
  740.750   20.440    0.257    0.074   79.740  205.002
  741.000   20.057    0.231    0.053   80.388  205.132
  741.250   19.306    0.231    0.082   73.401  203.413
  741.500   19.153    0.369    0.181   80.866  201.078
  741.750   19.567    0.399    0.203   78.040  199.052
  742.000   20.014    0.398    0.199   69.134  197.435
  742.250   20.230    0.390    0.202   72.382  196.751
  742.500   20.324    0.403    0.195   78.234  196.590
  742.750   20.229    0.424    0.182   83.032  196.623
  743.000   19.666    0.456    0.176   75.429  197.076
  743.250   18.562    0.418    0.179   72.539  197.536
  743.500   17.982    0.383    0.188   75.353  197.780
  743.750   17.715    0.356    0.197   83.811  198.543
  744.000   17.809    0.420    0.208   87.927  199.719
  744.250   17.919    0.448    0.216   81.380  200.898
  744.500   16.412    0.406    0.188   75.078  202.386
  744.750   15.094    0.389    0.163   73.923  204.085
  745.000   12.463    0.375    0.192   76.431  205.045
  745.250   10.555    0.372    0.202   80.546  205.915
  745.500    9.450    0.385    0.166   84.908  206.260
  745.750    8.649    0.380    0.127   95.289  206.300
  746.000    7.906    0.394    0.097   97.111  206.038
  746.250    7.466    0.376    0.088   96.328  205.660
  746.500    7.264    0.359    0.114   92.507  204.979
  746.750    7.292    0.372    0.141   95.073  204.396
  747.000    7.378    0.409    0.130   99.748  204.019
  747.250    7.422    0.435    0.112   99.213  204.270
  747.500    7.459    0.438    0.121   91.735  204.929
  747.750    7.511    0.399    0.148   94.116  205.689
  748.000    7.646    0.390    0.148   97.551  207.077
  748.250    7.830    0.370    0.137  100.798  208.148
  748.500    7.907    0.368    0.128  100.822  208.808
  748.750    7.796    0.367    0.149  103.326  209.364
  749.000    7.618    0.387    0.149   99.816  210.337
  749.250    7.433    0.397    0.132  100.584  210.994
  749.500    7.248    0.402    0.136  105.630  210.726
  749.750    7.071    0.397    0.148  111.918  210.247
  750.000    6.992    0.401    0.140  115.851  209.256
  750.250    7.028    0.386    0.139  108.743  208.472
  750.500    7.253    0.387    0.146  103.617  207.887
  750.750    7.700    0.420    0.139   97.442  206.789
  751.000    7.933    0.427    0.141   93.372  205.795
  751.250    7.846    0.392    0.122   88.745  205.011
  751.500    7.891    0.358    0.101   91.313  204.428
  751.750    8.346    0.387    0.112   99.211  204.054
  752.000    8.866    0.413    0.142  108.290  203.790
  752.250    9.813    0.422    0.145  118.358  203.617
  752.500   11.549    0.377    0.122  113.423  203.246
  752.750   12.627    0.346    0.116  104.950  202.874
  753.000   13.460    0.335    0.118  101.687  202.192
  753.250   13.947    0.349    0.116  104.191  201.502
  753.500   14.468    0.355    0.124  111.346  200.623
  753.750   15.407    0.350    0.134  106.720  200.039
  754.000   16.141    0.365    0.145   83.242  199.559
  754.250   16.645    0.387    0.171   76.943  199.286
  754.500   17.551    0.374    0.179   75.724  198.814
  754.750   19.056    0.365    0.169   78.233  198.538
  755.000   19.774    0.385    0.146   72.795  198.165
  755.250   20.163    0.414    0.160   74.742  197.905
  755.500   20.347    0.432    0.180   77.620  197.939
  755.750   20.465    0.389    0.184   80.618  198.185
  756.000   20.552    0.317    0.159   76.367  198.639
  756.250   20.603    0.298    0.113   78.188  199.099
  756.500   20.632    0.310    0.126   81.497  199.442
  756.750   20.660    0.331    0.151   89.892  199.684
  757.000   20.638    0.339    0.157  102.071  199.728
  757.250   20.502    0.350    0.157  107.303  199.978
