~VERSION INFORMATION
 VERS.                 2.0:   CWLS LOG ASCII STANDARD -VERSION 2.0
 WRAP.                  NO:   ONE LINE PER DEPTH STEP
~WELL INFORMATION BLOCK
#MNEM.UNIT           DATA                    DESCRIPTION OF MNEMONIC
#---------    -------------------            -------------------------------
# Generated from Intellog Unique Number	CS_67_68/WELL/856
WELL.         CHIEFTIAN DEVELOPMENT CO.      : Well_name    - WELL
LOC .         00/14-30-068-11W4/0            : Location     - LOCATION
UWI .         00/14-30-068-11W4/0            : Uwi          - UNIQUE WELL ID
ENTR.         SP                             : Entered      - ENTERED BY
SRVC.         SCHLUMBERGER                   : Scn          - SERVICE COMPANY
STRT.M        280                            : top_depth    - START DEPTH
STOP.M        480                            : bot_depth    - STOP DEPTH
STEP.M        0.25                           : increment    - STEP LENGTH
 NULL. -999.2500:NULL Value
~CURVE INFORMATION BLOCK
#MNEM UNIT       ERCB CURVE CODE    CURVE DESCRIPTION
#-----------   ------------------   ----------------------------------
DEPT.M        00 001 00 00         : DEPTH        - DEPTH
ILD .OHMM     00 120 00 00         : RESD         - DEEP RESISTIVITY (DIL)
DPHI.V/V      00 890 00 00         : PHID         - DENSITY POROSITY (LIMESTONE)
NPHI.V/V      00 330 00 00         : PHIN         - NEUTRON POROSITY (LIMESTONE)
GR  .API      00 310 00 00         : GR           - GAMMA RAY
~PARAMETER INFORMATION
#MNEM.UNIT           DATA             DESCRIPTION OF MNEMONIC
#---------         -----------     ------------------------------
GL  .M        592.5                : gl           - GROUND LEVEL ELEVATION
EREF.M        599.5                : kb           - ELEVATION OF DEPTH REFERENCE
DATM.M        592.5                : datum        - DATUM ELEVATION
TDD .M        486                  : tdd          - TOTAL DEPTH DRILLER
RUN .         ONE                  : Run          - RUN NUMBER
ENG .         BILL                 : Engineer     - RECORDING ENGINEER
WIT .         JIM                  : Witness      - WITNESSED BY
MUD .         GEL                  : Mud_type     - MUD TYPE
MATR.         LIMESTONE            : Logunit      - NEUTRON MATRIX
TMAX.C        22                   : BHT          - MAXIMUM RECORDED TEMPERATURE
BHTD.M        486                  : BHTDEP       - MAXIMUM RECORDED TEMPERATURE
MATR.         1                    : LOGUNIT      - NEUTRON MATRIX
RMT .C        25                   : MDTP         - TEMPERATURE OF MUD
NEUT.         1                    : NEUTRON      - NEUTRON TYPE
RESI.         0                    : RESIST       - RESISTIVITY TYPE
RMC .OHMM     0.25                 : RMC          - RESISTIVITY OF MUD CAKE
RMF .OHMM     0.25                 : RMF          - RESISTIVITY OF MUD FILTRATE
SUFT.C        15                   : SUFT         - SURFACE TEMPERATURE
~A  DEPTH     RESD     PHID     PHIN       GR
# ...
  323.500    2.570    0.184    0.411  102.060
  323.750    2.580    0.192    0.404   99.231
  324.000    2.610    0.199    0.402   94.950
  324.250    2.645    0.204    0.396   90.186
  324.500    2.706    0.212    0.388   86.991
  324.750    2.778    0.216    0.383   84.100
  325.000    2.863    0.204    0.377   81.937
  325.250    2.945    0.197    0.373   81.408
  325.500    3.035    0.198    0.376   82.392
  325.750    3.133    0.205    0.381   83.799
  326.000    3.229    0.214    0.386   84.659
  326.250    3.272    0.222    0.383   85.280
  326.500    3.273    0.228    0.381   85.475
  326.750    3.189    0.228    0.382   85.671
  327.000    3.032    0.224    0.388   86.050
  327.250    2.944    0.230    0.399   86.729
  327.500    2.852    0.234    0.409   87.651
  327.750    2.826    0.228    0.405   88.697
  328.000    2.816    0.220    0.401   89.255
  328.250    2.822    0.215    0.398   90.238
  328.500    2.833    0.208    0.404   92.614
  328.750    2.866    0.203    0.416   94.504
  329.000    2.942    0.204    0.423   96.457
  329.250    3.009    0.208    0.428   97.378
  329.500    3.038    0.217    0.426   96.303
  329.750    3.039    0.232    0.419   93.960
  330.000    3.017    0.250    0.411   91.430
  330.250    3.012    0.264    0.419   89.750
  330.500    3.018    0.254    0.426   91.521
  330.750    3.047    0.242    0.428   93.835
  331.000    3.099    0.236    0.442   95.726
  331.250    3.164    0.237    0.446   96.467
  331.500    3.249    0.243    0.449   96.300
  331.750    3.298    0.229    0.453   94.680
  332.000    3.330    0.192    0.446   92.819
  332.250    3.337    0.171    0.441   94.532
  332.500    3.306    0.170    0.434   95.634
  332.750    3.234    0.195    0.426   95.224
  333.000    3.145    0.215    0.418   93.302
  333.250    3.047    0.229    0.411   89.324
  333.500    2.936    0.243    0.405   85.162
  333.750    2.834    0.254    0.399   82.275
  334.000    2.705    0.262    0.398   82.167
  334.250    2.636    0.257    0.398   82.484
  334.500    2.544    0.265    0.393   82.015
  334.750    2.479    0.281    0.390   81.184
  335.000    2.452    0.297    0.389   80.471
  335.250    2.499    0.301    0.387   80.546
  335.500    2.518    0.292    0.386   81.773
  335.750    2.547    0.282    0.389   82.935
  336.000    2.561    0.272    0.393   84.407
  336.250    2.548    0.280    0.404   84.722
  336.500    2.524    0.291    0.419   84.555
  336.750    2.511    0.277    0.422   84.023
  337.000    2.516    0.271    0.415   82.647
  337.250    2.545    0.276    0.408   81.271
  337.500    2.564    0.265    0.401   82.558
  337.750    2.599    0.248    0.391   84.023
  338.000    2.648    0.237    0.383   85.611
  338.250    2.729    0.230    0.376   85.870
  338.500    2.860    0.233    0.371   85.399
  338.750    2.920    0.239    0.365   84.687
  339.000    3.027    0.225    0.362   85.911
  339.250    3.102    0.205    0.364   89.321
  339.500    3.220    0.194    0.369   90.904
  339.750    3.369    0.183    0.384   92.673
  340.000    3.498    0.187    0.391   94.566
  340.250    3.632    0.176    0.398   95.548
  340.500    3.757    0.167    0.401   96.348
  340.750    3.828    0.169    0.405   97.090
  341.000    3.873    0.165    0.407   98.437
  341.250    3.873    0.153    0.404  100.508
  341.500    3.874    0.138    0.405  101.793
  341.750    3.846    0.125    0.412  100.295
  342.000    3.782    0.178    0.414   92.806
  342.250    3.665    0.215    0.411   81.626
  342.500    3.485    0.241    0.414   74.621
  342.750    3.222    0.265    0.420   70.160
  343.000    2.980    0.253    0.414   69.387
  343.250    2.760    0.251    0.408   70.130
  343.500    2.655    0.263    0.400   71.473
  343.750    2.515    0.272    0.397   72.153
  344.000    2.401    0.278    0.394   72.290
  344.250    2.361    0.278    0.393   71.519
  344.500    2.362    0.274    0.396   70.200
  344.750    2.389    0.261    0.384   68.703
  345.000    2.434    0.248    0.373   73.927
  345.250    2.561    0.241    0.364   76.844
  345.500    2.659    0.237    0.357   79.520
  345.750    2.766    0.225    0.351   81.108
  346.000    2.920    0.213    0.349   81.485
  346.250    3.055    0.204    0.349   79.807
  346.500    3.172    0.200    0.354   79.516
  346.750    3.245    0.199    0.360   80.746
  347.000    3.288    0.186    0.362   82.451
  347.250    3.307    0.174    0.364   84.826
  347.500    3.271    0.157    0.366   86.293
  347.750    3.217    0.171    0.371   82.799
  348.000    3.128    0.201    0.374   77.550
  348.250    3.077    0.226    0.378   73.508
  348.500    3.015    0.248    0.382   69.288
  348.750    2.872    0.262    0.387   66.761
  349.000    2.626    0.268    0.391   68.775
  349.250    2.451    0.272    0.393   70.786
  349.500    2.371    0.259    0.392   72.251
  349.750    2.331    0.234    0.386   73.782
  350.000    2.332    0.216    0.379   74.398
  350.250    2.350    0.222    0.373   71.448
  350.500    2.359    0.234    0.368   69.289
  350.750    2.351    0.245    0.364   68.694
  351.000    2.321    0.241    0.362   69.072
  351.250    2.278    0.230    0.363   70.842
  351.500    2.241    0.222    0.372   72.612
  351.750    2.212    0.208    0.379   73.899
  352.000    2.237    0.191    0.378   73.367
  352.250    2.276    0.175    0.372   72.781
  352.500    2.315    0.170    0.367   72.852
  352.750    2.408    0.200    0.362   74.141
  353.000    2.519    0.238    0.376   75.362
  353.250    2.576    0.235    0.390   77.737
  353.500    2.587    0.244    0.399   80.476
  353.750    2.602    0.256    0.410   83.334
  354.000    2.602    0.258    0.422   86.314
  354.250    2.564    0.237    0.437   88.813
  354.500    2.407    0.221    0.445   90.278
  354.750    2.250    0.212    0.450   90.051
  355.000    2.193    0.247    0.453   86.313
  355.250    2.144    0.267    0.444   80.276
  355.500    2.105    0.280    0.436   73.999
  355.750    2.078    0.291    0.426   69.475
  356.000    2.059    0.300    0.416   67.615
  356.250    2.052    0.307    0.398   67.387
  356.500    2.045    0.306    0.390   69.402
  356.750    2.068    0.301    0.386   70.380
  357.000    2.124    0.299    0.384   71.486
  357.250    2.168    0.297    0.387   71.622
  357.500    2.268    0.299    0.395   71.029
  357.750    2.316    0.303    0.393   70.380
  358.000    2.364    0.310    0.390   70.272
  358.250    2.427    0.317    0.391   70.111
  358.500    2.487    0.320    0.397   70.307
  358.750    2.530    0.322    0.404   70.443
  359.000    2.573    0.313    0.408   70.277
  359.250    2.579    0.308    0.412   69.807
  359.500    2.570    0.309    0.416   69.457
  359.750    2.604    0.315    0.420   68.987
  360.000    2.614    0.319    0.416   68.515
  360.250    2.586    0.324    0.412   67.865
  360.500    2.519    0.325    0.411   67.943
  360.750    2.369    0.326    0.419   68.562
  361.000    2.278    0.310    0.419   69.242
  361.250    2.245    0.290    0.412   70.406
  361.500    2.254    0.279    0.403   71.874
  361.750    2.297    0.274    0.397   72.794
  362.000    2.403    0.270    0.398   73.414
  362.250    2.467    0.269    0.405   74.100
  362.500    2.552    0.274    0.414   74.722
  362.750    2.620    0.279    0.418   75.218
  363.000    2.665    0.284    0.416   75.231
  363.250    2.655    0.289    0.415   74.759
  363.500    2.641    0.299    0.407   72.778
  363.750    2.656    0.313    0.393   72.127
  364.000    2.697    0.302    0.386   72.081
  364.250    2.806    0.296    0.383   72.038
  364.500    2.929    0.292    0.382   71.930
  364.750    3.140    0.291    0.384   71.580
  365.000    3.297    0.292    0.387   70.994
  365.250    3.417    0.298    0.382   71.004
  365.500    3.501    0.306    0.371   72.108
  365.750    3.489    0.314    0.362   73.394
  366.000    3.299    0.322    0.356   74.558
  366.250    3.022    0.329    0.354   75.300
  366.500    2.837    0.335    0.345   74.528
  366.750    2.703    0.339    0.341   72.666
