~VERSION INFORMATION
 VERS.                 2.0:   CWLS LOG ASCII STANDARD -VERSION 2.0
 WRAP.                  NO:   ONE LINE PER DEPTH STEP
~WELL INFORMATION BLOCK
#MNEM.UNIT           DATA                    DESCRIPTION OF MNEMONIC
#---------    -------------------            -------------------------------
# Generated from Intellog Unique Number	CS_67_68/WELL/2214
WELL.         GEOG et al HYLO                : Well_name    - WELL
LOC .         00/13-18-067-14W4/0            : Location     - LOCATION
UWI .         00/13-18-067-14W4/0            : Uwi          - UNIQUE WELL ID
ENTR.         SP                             : Entered      - ENTERED BY
SRVC.         SCHLUMBERGER                   : Scn          - SERVICE COMPANY
STRT.M        300                            : top_depth    - START DEPTH
STOP.M        491                            : bot_depth    - STOP DEPTH
STEP.M        0.25                           : increment    - STEP LENGTH
 NULL. -999.2500:NULL Value
~CURVE INFORMATION BLOCK
#MNEM UNIT       ERCB CURVE CODE    CURVE DESCRIPTION
#-----------   ------------------   ----------------------------------
DEPT.M        00 001 00 00         : DEPTH        - DEPTH
ILD .OHMM     00 120 00 00         : RESD         - DEEP RESISTIVITY (DIL)
DPHI.V/V      00 890 00 00         : PHID         - DENSITY POROSITY (LIMESTONE)
NPHI.V/V      00 330 00 00         : PHIN         - NEUTRON POROSITY (LIMESTONE)
GR  .API      00 310 00 00         : GR           - GAMMA RAY
CALI.MM       00 280 01 00         : CAL          - CALIPER
~PARAMETER INFORMATION
#MNEM.UNIT           DATA             DESCRIPTION OF MNEMONIC
#---------         -----------     ------------------------------
GL  .M        563                  : gl           - GROUND LEVEL ELEVATION
EREF.M        565.7                : kb           - ELEVATION OF DEPTH REFERENCE
DATM.M        563                  : datum        - DATUM ELEVATION
TDD .M        493                  : tdd          - TOTAL DEPTH DRILLER
RUN .         ONE                  : Run          - RUN NUMBER
ENG .         BILL                 : Engineer     - RECORDING ENGINEER
WIT .         JIM                  : Witness      - WITNESSED BY
MUD .         GEL                  : Mud_type     - MUD TYPE
MATR.         LIMESTONE            : Logunit      - NEUTRON MATRIX
TMAX.C        30                   : BHT          - MAXIMUM RECORDED TEMPERATURE
BHTD.M        490                  : BHTDEP       - MAXIMUM RECORDED TEMPERATURE
MATR.         1                    : LOGUNIT      - NEUTRON MATRIX
RMT .C        25                   : MDTP         - TEMPERATURE OF MUD
NEUT.         1                    : NEUTRON      - NEUTRON TYPE
RESI.         0                    : RESIST       - RESISTIVITY TYPE
RMC .OHMM     0.25                 : RMC          - RESISTIVITY OF MUD CAKE
RMF .OHMM     0.25                 : RMF          - RESISTIVITY OF MUD FILTRATE
SUFT.C        15                   : SUFT         - SURFACE TEMPERATURE
~A  DEPTH     RESD     PHID     PHIN       GR      CAL
# ...
  336.500    2.660    0.272    0.484  233.686  166.726
  336.750    2.625    0.270    0.515  227.005  166.947
  337.000    2.586    0.245    0.482  216.247  167.177
  337.250    2.538    0.227    0.462  200.256  167.192
  337.500    2.504    0.222    0.487  183.048  167.110
  337.750    2.467    0.238    0.511  161.276  166.826
  338.000    2.444    0.258    0.506  137.680  166.239
  338.250    2.490    0.268    0.487  121.385  165.853
  338.500    2.500    0.237    0.500  110.870  165.468
  338.750    2.403    0.239    0.484  104.249  164.780
  339.000    2.349    0.252    0.468   98.238  164.090
  339.250    2.318    0.260    0.478   94.720  163.603
  339.500    2.323    0.273    0.489   95.280  163.217
  339.750    2.331    0.269    0.498   96.998  162.833
  340.000    2.345    0.267    0.484   98.529  162.649
  340.250    2.394    0.247    0.478   99.759  162.264
  340.500    2.453    0.207    0.492  100.318  161.879
  340.750    2.537    0.191    0.499   98.019  161.697
  341.000    2.620    0.214    0.470   96.449  161.515
  341.250    2.679    0.208    0.450   97.008  161.536
  341.500    2.730    0.227    0.479   96.900  161.556
  341.750    2.766    0.237    0.500   96.608  161.273
  342.000    2.824    0.254    0.463   95.707  161.190
  342.250    2.883    0.241    0.428   94.198  161.109
  342.500    2.927    0.239    0.416   93.541  161.132
  342.750    2.932    0.246    0.413   93.797  161.154
  343.000    2.856    0.235    0.422   95.755  161.170
  343.250    2.669    0.236    0.435   97.411  161.191
  343.500    2.434    0.253    0.449   98.093  161.211
  343.750    2.292    0.266    0.461   93.238  161.131
  344.000    2.220    0.269    0.473   90.330  161.050
  344.250    2.211    0.273    0.464   89.248  160.969
  344.500    2.420    0.274    0.458   88.527  160.786
  344.750    2.730    0.245    0.445   85.010  160.299
  345.000    3.155    0.223    0.426   79.790  159.812
  345.250    4.184    0.183    0.405   74.873  159.224
  345.500    4.675    0.071    0.363   71.174  158.436
  345.750    4.993    0.042    0.289   69.787  158.151
  346.000    4.800    0.027    0.234   72.660  158.172
  346.250    4.176    0.044    0.363   75.776  158.495
  346.500    3.434    0.099    0.409   79.864  159.229
  346.750    2.960    0.160    0.438   84.563  159.753
  347.000    2.624    0.226    0.454   87.556  160.383
  347.250    2.589    0.258    0.461   89.697  160.606
  347.500    2.609    0.248    0.468   91.657  160.527
  347.750    2.634    0.237    0.464   93.008  159.734
  348.000    2.668    0.219    0.461   94.055  159.348
  348.250    2.704    0.216    0.471   91.936  159.774
  348.500    2.729    0.223    0.473   94.382  160.202
  348.750    2.750    0.220    0.459   95.795  160.525
  349.000    2.786    0.224    0.449   93.739  160.545
  349.250    2.786    0.223    0.439   95.941  160.466
  349.500    2.781    0.227    0.453   96.865  160.182
  349.750    2.765    0.238    0.462   93.227  160.408
  350.000    2.760    0.247    0.468   93.911  161.237
  350.250    2.791    0.252    0.472   95.868  163.184
  350.500    2.860    0.238    0.476   98.316  163.711
  350.750    2.942    0.227    0.459  101.006  163.730
  351.000    3.061    0.215    0.449  104.485  163.245
  351.250    3.251    0.211    0.447  109.610  162.858
  351.500    3.382    0.198    0.452  113.332  162.985
  351.750    3.551    0.196    0.461  116.449  163.508
  352.000    3.708    0.193    0.469  114.330  163.834
  352.250    3.865    0.194    0.466  112.760  164.158
  352.500    3.983    0.205    0.455  113.990  163.671
  352.750    4.058    0.216    0.447  111.020  163.086
  353.000    4.112    0.228    0.446  105.497  162.702
  353.250    4.112    0.221    0.455  102.953  162.617
  353.500    4.066    0.214    0.457  103.877  163.044
  353.750    4.005    0.213    0.456  106.689  163.571
  354.000    3.953    0.211    0.468  110.474  163.794
  354.250    3.864    0.214    0.500  114.379  163.815
  354.500    3.729    0.205    0.526  120.418  163.735
  354.750    3.632    0.214    0.515  124.628  163.246
  355.000    3.551    0.209    0.479  124.335  162.353
  355.250    3.531    0.215    0.459  119.723  161.767
  355.500    3.524    0.205    0.457  115.537  161.786
  355.750    3.524    0.220    0.448  107.760  162.719
  356.000    3.530    0.241    0.435  101.869  163.145
  356.250    3.537    0.250    0.426  107.723  162.354
  356.500    3.557    0.211    0.416  113.029  161.462
  356.750    3.611    0.202    0.424  114.989  160.772
  357.000    3.700    0.199    0.435  108.553  160.692
  357.250    3.842    0.198    0.428  107.651  160.611
  357.500    3.989    0.200    0.416  110.401  160.834
  357.750    4.119    0.184    0.410  112.422  161.974
  358.000    4.229    0.174    0.403  111.764  162.701
  358.250    4.358    0.175    0.397  110.499  163.128
  358.500    4.399    0.187    0.411  110.573  163.862
  358.750    4.424    0.178    0.430  110.219  164.182
  359.000    4.399    0.177    0.441  110.295  164.506
  359.250    4.309    0.178    0.460  111.888  163.715
  359.500    4.165    0.190    0.449  111.412  161.303
  359.750    3.981    0.201    0.435  104.122  159.601
  360.000    3.679    0.209    0.432  100.544  158.203
  360.250    3.419    0.210    0.467  101.956  157.813
  360.500    3.219    0.221    0.470   90.348  157.835
  360.750    3.036    0.236    0.451   86.465  157.957
  361.000    2.875    0.226    0.439   85.382  158.078
  361.250    2.722    0.233    0.449   84.420  158.607
  361.500    2.578    0.265    0.439   82.486  159.640
  361.750    2.492    0.272    0.441   80.063  161.589
  362.000    2.414    0.278    0.446   76.729  163.337
  362.250    2.360    0.272    0.432   75.098  164.470
  362.500    2.373    0.264    0.423   77.911  165.198
  362.750    2.450    0.276    0.433   80.599  165.321
  363.000    2.515    0.257    0.445   84.264  165.243
  363.250    2.568    0.247    0.452   86.953  164.955
  363.500    2.622    0.248    0.457   89.094  164.876
  363.750    2.676    0.253    0.458   90.933  165.100
  364.000    2.712    0.243    0.459   90.397  165.322
  364.250    2.758    0.241    0.459   89.496  164.530
  364.500    2.821    0.230    0.456   91.760  161.005
  364.750    2.896    0.218    0.444   94.024  158.892
  365.000    3.042    0.212    0.431   97.504  158.303
  365.250    3.255    0.219    0.423  100.195  160.761
  365.500    3.443    0.205    0.421  100.692  162.910
  365.750    3.650    0.189    0.421  102.592  164.960
  366.000    3.797    0.178    0.424  106.437  166.298
  366.250    4.010    0.180    0.435  111.074  167.025
  366.500    4.203    0.185    0.426  114.432  168.161
  366.750    4.291    0.181    0.418  116.332  168.690
  367.000    4.172    0.177    0.410  118.595  168.309
  367.250    4.025    0.174    0.415  121.346  167.921
  367.500    3.891    0.172    0.437  119.167  168.143
  367.750    3.719    0.193    0.445  111.148  168.467
  368.000    3.650    0.208    0.429  108.238  168.690
  368.250    3.568    0.207    0.418  111.780  168.406
  368.500    3.482    0.215    0.410  115.321  168.021
  368.750    3.411    0.198    0.405  114.421  167.737
  369.000    3.366    0.188    0.400  111.333  167.760
  369.250    3.322    0.169    0.395  109.762  168.184
  369.500    3.360    0.177    0.396  108.556  168.713
  369.750    3.449    0.176    0.401  110.333  168.734
  370.000    3.535    0.189    0.392  110.771  168.954
  370.250    3.677    0.198    0.381  107.193  168.976
  370.500    3.804    0.182    0.373  107.328  168.794
  370.750    3.883    0.182    0.391  110.869  168.512
  371.000    3.942    0.184    0.410  113.437  168.529
  371.250    4.009    0.178    0.416  115.214  169.360
  371.500    4.002    0.164    0.407  115.956  170.295
  371.750    3.789    0.150    0.414  114.021  170.621
  372.000    3.481    0.165    0.426  105.758  169.732
  372.250    3.247    0.172    0.431  100.780  168.227
  372.500    3.046    0.187    0.423   98.845  166.421
  372.750    2.804    0.205    0.420  105.004  165.934
