~VERSION INFORMATION
 VERS.                 2.0:   CWLS LOG ASCII STANDARD -VERSION 2.0
 WRAP.                  NO:   ONE LINE PER DEPTH STEP
~WELL INFORMATION BLOCK
#MNEM.UNIT           DATA                    DESCRIPTION OF MNEMONIC
#---------    -------------------            -------------------------------
# Generated from Intellog Unique Number	CN_91_93/WELL/3077
WELL.         CANADIAN SUPERIOR OIL LTD.     : Well_name    - WELL
LOC .         00/11-36-092-21W4/0            : Location     - LOCATION
UWI .         00/11-36-092-21W4/0            : Uwi          - UNIQUE WELL ID
ENTR.         JOETTE                         : Entered      - ENTERED BY
SRVC.         SCHLUMBERGER                   : Scn          - SERVICE COMPANY
DATE.         04/10/92                       : Date         - LOG DATE
STRT.M        50                             : top_depth    - START DEPTH
STOP.M        235                            : bot_depth    - STOP DEPTH
STEP.M        0.25                           : increment    - STEP LENGTH
 NULL. -999.2500:NULL Value
~CURVE INFORMATION BLOCK
#MNEM UNIT       ERCB CURVE CODE    CURVE DESCRIPTION
#-----------   ------------------   ----------------------------------
DEPT.M        00 001 00 00         : DEPTH        - DEPTH
CALI.MM       00 280 01 00         : CAL          - CALIPER
GR  .API      00 310 00 00         : GR           - GAMMA RAY
NPHI.V/V      00 330 00 00         : PHIN         - NEUTRON POROSITY (SANDSTONE)
ILD .OHMM     00 120 00 00         : RESD         - DEEP RESISTIVITY (DIL)
DPHI.V/V      00 890 00 00         : PHID         - DENSITY POROSITY (SANDSTONE)
~PARAMETER INFORMATION
#MNEM.UNIT           DATA             DESCRIPTION OF MNEMONIC
#---------         -----------     ------------------------------
GL  .M        535.4                : gl           - GROUND LEVEL ELEVATION
EREF.M        539.2                : kb           - ELEVATION OF DEPTH REFERENCE
DATM.M        539.2                : datum        - DATUM ELEVATION
TDD .M        238.8                : tdd          - TOTAL DEPTH DRILLER
RUN .         ONE                  : Run          - RUN NUMBER
ENG .         BILL                 : Engineer     - RECORDING ENGINEER
WIT .         JIM                  : Witness      - WITNESSED BY
MUD .         GEL                  : Mud_type     - MUD TYPE
MATR.         SANDSTONE            : Logunit      - NEUTRON MATRIX
TMAX.C        20                   : BHT          - MAXIMUM RECORDED TEMPERATURE
BHTD.M        238.8                : BHTDEP       - MAXIMUM RECORDED TEMPERATURE
RMT .C        15                   : MDTP         - TEMPERATURE OF MUD
MUDD.KG/M     1100                 : MWT          - MUD DENSITY
NEUT.         1                    : NEUTRON      - NEUTRON TYPE
RESI.         0                    : RESIST       - RESISTIVITY TYPE
RM  .OHMM     5.68                 : RM           - RESISTIVITY OF MUD
RMC .OHMM     5.68                 : RMC          - RESISTIVITY OF MUD CAKE
RMF .OHMM     5.29                 : RMF          - RESISTIVITY OF MUD FILTRATE
SUFT.C        4                    : SUFT         - SURFACE TEMPERATURE
~A  DEPTH      CAL       GR     PHIN     RESD     PHID
   50.000  268.748  103.207    0.496    4.702    0.222
   50.250  267.754  103.188    0.499    4.277    0.224
   50.500  268.813  103.784    0.493    4.038    0.227
   50.750  270.891  106.222    0.476    4.190    0.238
   51.000  272.976  106.204    0.471    4.685    0.246
   51.250  273.017  106.176    0.500    5.047    0.249
   51.500  272.023  106.157    0.490    5.139    0.249
   51.750  270.002  106.134    0.469    5.432    0.244
   52.000  271.069  106.125    0.459    5.529    0.242
   52.250  273.155  105.492    0.464    5.631    0.240
   52.500  274.222  105.492    0.466    5.842    0.237
   52.750  274.255  104.840    0.463    6.060    0.232
   53.000  272.234  103.588    0.458    6.285    0.225
   53.250  271.240  103.570    0.451    6.281    0.216
   53.500  271.264  103.556    0.451    6.274    0.219
   53.750  272.323  104.151    0.465    6.152    0.227
   54.000  275.460  104.128    0.472    6.147    0.233
   54.250  275.476  104.105    0.479    6.029    0.236
   54.500  274.482  104.091    0.500    6.022    0.244
   54.750  271.435  103.458    0.516    6.017    0.249
   55.000  269.422  102.820    0.521    6.128    0.244
   55.250  268.428  102.806    0.515    6.239    0.242
   55.500  266.407  102.164    0.511    6.352    0.234
   55.750  266.440  101.536    0.505    6.467    0.225
   56.000  265.445  100.903    0.499    6.461    0.223
   56.250  265.478  100.889    0.496    6.827    0.223
   56.500  265.527   99.022    0.491    6.954    0.224
   56.750  265.567   97.166    0.487    7.212    0.229
   57.000  266.610   92.847    0.484    7.771    0.232
   57.250  268.696   85.457    0.479   10.488    0.236
   57.500  269.763   70.690    0.442   13.891    0.237
   57.750  269.795   42.414    0.429   18.399    0.240
   58.000  265.730   33.795    0.410   24.832    0.256
   58.250  265.762   28.248    0.378   36.817    0.265
   58.500  267.848   22.077    0.307   41.177    0.251
   58.750  269.925   23.901    0.285   45.186    0.246
   59.000  267.905   25.725    0.290   45.148    0.265
   59.250  259.724   25.707    0.296   44.260    0.273
   59.500  257.720   24.455    0.310   42.609    0.284
   59.750  258.779   23.831    0.345   39.482    0.292
   60.000  259.830   22.584    0.348   38.001    0.286
   60.250  259.862   22.561    0.334   35.205    0.274
   60.500  257.842   23.771    0.320   35.835    0.271
   60.750  253.784   26.209    0.355   36.491    0.271
   61.000  253.816   26.805    0.343   37.160    0.271
   61.250  255.902   26.172    0.312   38.534    0.271
   61.500  259.014   24.925    0.310   38.502    0.271
   61.750  260.073   24.901    0.323   39.207    0.272
   62.000  261.132   24.887    0.333   39.174    0.275
   62.250  261.165   24.855    0.342   38.420    0.280
   62.500  263.251   24.227    0.343   37.673    0.282
   62.750  263.283   23.603    0.334   36.237    0.280
   63.000  262.289   22.970    0.296   35.547    0.276
   63.250  261.303   22.947    0.275   35.510    0.265
   63.500  262.378   22.928    0.281   36.153    0.267
   63.750  264.448   23.528    0.277   37.506    0.261
   64.000  268.587   24.124    0.298   38.177    0.246
   64.250  276.832   24.720    0.318   38.153    0.256
   64.500  280.979   24.701    0.375   38.104    0.278
   64.750  277.931   24.683    0.400   37.379    0.298
   65.000  273.858   25.269    0.373   36.644    0.304
   65.250  272.863   25.874    0.381   35.939    0.282
   65.500  274.949   27.084    0.407   35.225    0.255
   65.750  278.086   28.294    0.398   34.548    0.283
   66.000  278.102   30.109    0.373   33.869    0.292
   66.250  278.134   30.709    0.370   33.224    0.280
   66.500  278.167   30.690    0.374   32.578    0.296
   66.750  284.359   31.896    0.375   31.343    0.311
   67.000  288.514   32.491    0.379   30.155    0.319
   67.250  283.405   34.316    0.393   29.018    0.307
   67.500  280.358   35.526    0.448   28.459    0.348
   67.750  283.470   36.126    0.471   27.381    0.362
   68.000  290.697   37.331    0.449   26.348    0.366
   68.250  294.844   37.312    0.428   24.419    0.361
   68.500  286.664   37.908    0.407   22.637    0.353
   68.750  278.475   37.890    0.414   20.580    0.323
   69.000  270.303   36.642    0.419   19.804    0.310
   69.250  277.514   34.166    0.421   20.163    0.304
   69.500  290.892   31.695    0.409   22.135    0.294
   69.750  304.278   29.825    0.349   23.395    0.279
   70.000  305.337   34.111    0.358   24.736    0.284
   70.250  287.918   39.006    0.372   25.184    0.308
   70.500  275.631   40.212    0.388   21.650    0.334
   70.750  266.424   36.512    0.402   18.608    0.347
   71.000  263.377   32.188    0.398   20.428    0.238
   71.250  257.258   30.327    0.293   25.099    0.217
   71.500  257.290   30.304    0.340   30.262    0.235
   71.750  261.437   30.294    0.364   32.597    0.250
   72.000  257.355   31.500    0.375   34.451    0.236
   72.250  255.334   37.629    0.373   34.422    0.258
   72.500  255.367   48.048    0.369   30.160    0.293
   72.750  255.408   53.563    0.370   22.304    0.250
   73.000  255.448   60.911    0.375   17.130    0.250
   73.250  256.515   66.426    0.382   14.183    0.251
   73.500  256.532   73.775    0.394   11.524    0.254
   73.750  257.599   75.603    0.407    8.686    0.253
   74.000  257.631   76.199    0.419    6.923    0.250
   74.250  257.680   76.180    0.433    6.540    0.247
   74.500  257.696   78.000    0.441    6.411    0.243
   74.750  256.702   75.524    0.434    6.529    0.239
   75.000  254.689   71.820    0.430    6.769    0.219
   75.250  254.714   69.339    0.431    6.896    0.214
   75.500  253.736   68.711    0.438    7.288    0.238
   75.750  254.787   68.078    0.440    7.561    0.254
   76.000  257.899   67.441    0.451    7.699    0.254
   76.250  261.020   67.422    0.453    7.546    0.244
   76.500  263.105   67.399    0.437    7.543    0.231
   76.750  264.164   67.389    0.404    7.395    0.233
   77.000  259.080   64.909    0.414    7.670    0.241
   77.250  257.043   60.590    0.428    7.809    0.251
   77.500  256.057   58.733    0.415    7.950    0.262
   77.750  256.081   61.172    0.413    7.945    0.254
   78.000  256.122   64.839    0.418    7.787    0.230
   78.250  255.128   69.116    0.404    7.637    0.230
   78.500  255.160   72.168    0.402    7.489    0.231
   78.750  257.262   72.764    0.413    7.345    0.235
   79.000  258.305   70.903    0.427    7.066    0.237
   79.250  261.434   67.198    0.420    6.928    0.240
   79.500  260.431   61.651    0.412    7.056    0.240
   79.750  258.411   56.104    0.407    7.457    0.239
   80.000  256.390   49.942    0.412    7.885    0.245
   80.250  255.396   46.233    0.411    8.649    0.258
   80.500  255.436   45.600    0.396    8.976    0.262
   80.750  256.495   48.038    0.384    9.489    0.255
   81.000  257.554   56.625    0.391   10.219    0.247
   81.250  258.614   60.287    0.397   10.406    0.220
   81.500  258.654   61.497    0.407   10.204    0.220
   81.750  258.695   55.950    0.411    9.632    0.219
   82.000  261.807   53.474    0.376    9.449    0.215
   82.250  262.866   50.989    0.334    9.441    0.208
   82.500  259.811   52.818    0.296    9.794    0.161
   82.750  258.816   54.028    0.333   10.158    0.109
   83.000  260.910   55.242    0.366   10.541    0.213
   83.250  259.916   55.838    0.394   10.933    0.239
   83.500  258.930   57.043    0.395   11.133    0.262
   83.750  256.909   53.953    0.400   11.545    0.243
   84.000  255.915   50.254    0.408   11.538    0.232
   84.250  261.081   42.249    0.427   11.523    0.267
   84.500  265.220   31.783    0.397   11.301    0.265
   84.750  264.234   29.921    0.293   12.176    0.160
   85.000  259.141   36.660    0.294   14.405    0.171
   85.250  257.104   39.708    0.302   15.814    0.208
   85.500  259.190   39.080    0.317   19.429    0.213
   85.750  265.390   37.832    0.287   26.228    0.182
   86.000  267.476   31.671    0.280   33.451    0.170
   86.250  266.482   28.581    0.284   35.361    0.149
