~VERSION INFORMATION
 VERS.                 2.0:   CWLS LOG ASCII STANDARD -VERSION 2.0
 WRAP.                  NO:   ONE LINE PER DEPTH STEP
~WELL INFORMATION BLOCK
#MNEM.UNIT           DATA                    DESCRIPTION OF MNEMONIC
#---------    -------------------            -------------------------------
# Generated from Intellog Unique Number	CW_73_75/WELL/1028
WELL.         PCP MARTEN HILLS 10-28         : Well_name    - WELL
LOC .         00/10-28-075-04W5/0            : Location     - LOCATION
UWI .         00/10-28-075-04W5/0            : Uwi          - UNIQUE WELL ID
ENTR.         JAYE                           : Entered      - ENTERED BY
SRVC.         SCHLUMBERGER                   : Scn          - SERVICE COMPANY
DATE.         27 FEB 74                      : Date         - LOG DATE
STRT.M        670.56                         : top_depth    - START DEPTH
STOP.M        890.06                         : bot_depth    - STOP DEPTH
STEP.M        0.25                           : increment    - STEP LENGTH
 NULL. -999.2500:NULL Value
~CURVE INFORMATION BLOCK
#MNEM UNIT       ERCB CURVE CODE    CURVE DESCRIPTION
#-----------   ------------------   ----------------------------------
DEPT.M        00 001 00 00         : DEPTH        - DEPTH
ILD .OHMM     00 120 00 00         : RESD         - DEEP RESISTIVITY (DIL)
NPHI.V/V      00 330 00 00         : PHIN         - NEUTRON POROSITY (SANDSTONE)
DPHI.V/V      00 890 00 00         : PHID         - DENSITY POROSITY (SANDSTONE)
GR  .API      00 310 00 00         : GR           - GAMMA RAY
CALI.MM       00 280 01 00         : CAL          - CALIPER
~PARAMETER INFORMATION
#MNEM.UNIT           DATA             DESCRIPTION OF MNEMONIC
#---------         -----------     ------------------------------
GL  .M        943.051              : gl           - GROUND LEVEL ELEVATION
EREF.M        946.404              : kb           - ELEVATION OF DEPTH REFERENCE
DATM.M        973.531              : datum        - DATUM ELEVATION
TDD .M        903.732              : tdd          - TOTAL DEPTH DRILLER
RUN .         ONE                  : Run          - RUN NUMBER
ENG .         SIMPSOM              : Engineer     - RECORDING ENGINEER
WIT .         STIEL                : Witness      - WITNESSED BY
BASE.         EDM                  : Branch       - HOME BASE OF LOGGING UNIT
MUD .         GEL                  : Mud_type     - MUD TYPE
MATR.         SANDSTONE            : Logunit      - NEUTRON MATRIX
TMAX.C        33.3333              : BHT          - MAXIMUM RECORDED TEMPERATURE
BHTD.M        903.732              : BHTDEP       - MAXIMUM RECORDED TEMPERATURE
RMT .C        19.4444              : MDTP         - TEMPERATURE OF MUD
MUDD.KG/M     1140                 : MWT          - MUD DENSITY
NEUT.         1                    : NEUTRON      - NEUTRON TYPE
RESI.         0                    : RESIST       - RESISTIVITY TYPE
RM  .OHMM     4.6                  : RM           - RESISTIVITY OF MUD
RMC .OHMM     0                    : RMC          - RESISTIVITY OF MUD CAKE
RMF .OHMM     6.22                 : RMF          - RESISTIVITY OF MUD FILTRATE
SUFT.C        -17.7778             : SUFT         - SURFACE TEMPERATURE
~A  DEPTH     RESD     PHIN     PHID       GR      CAL
# ...
  780.060    3.442    0.486    0.220   98.672  201.722
  780.310    3.485    0.502    0.196   92.978  205.377
  780.560    3.606    0.486    0.225   87.164  205.846
  780.810    3.808    0.469    0.264   83.601  200.015
  781.060    4.171    0.456    0.291   77.969  199.239
  781.310    4.586    0.443    0.280   76.232  200.220
  781.560    4.969    0.431    0.268   78.883  201.512
  781.810    5.276    0.431    0.276   80.311  202.279
  782.060    5.469    0.437    0.289   78.818  202.750
  782.310    5.505    0.451    0.282   76.048  202.890
  782.560    5.441    0.466    0.273   74.676  202.843
  782.810    5.347    0.466    0.260   74.951  202.381
  783.060    5.256    0.456    0.261   76.988  202.323
  783.310    5.203    0.439    0.274   77.077  202.267
  783.560    5.172    0.426    0.286   74.734  202.012
  783.810    5.130    0.431    0.280   75.007  201.953
  784.060    5.097    0.439    0.282   76.681  200.974
  784.310    5.093    0.449    0.291   77.502  199.791
  784.560    5.165    0.454    0.284   77.347  198.703
  784.810    5.181    0.443    0.270   76.647  197.104
  785.060    5.215    0.450    0.282   74.910  196.020
  785.310    5.337    0.445    0.296   73.051  195.244
  785.560    5.793    0.418    0.260   72.108  194.888
  785.810    8.104    0.371    0.136   71.832  195.657
  786.060   13.777    0.224    0.082   67.235  197.353
  786.310   19.308    0.161    0.036   59.837  200.288
  786.560   19.834    0.149    0.005   55.483  204.358
  786.810   15.518    0.168    0.002   56.609  207.809
  787.060   12.668    0.199    0.022   59.502  208.484
  787.310   10.669    0.282    0.048   62.636  204.712
  787.560    8.534    0.312    0.073   66.196  200.741
  787.810    7.005    0.326    0.120   69.756  203.265
  788.060    5.846    0.317    0.156   72.463  205.686
  788.310    4.763    0.417    0.130   74.684  206.151
  788.560    4.116    0.442    0.162   76.904  205.070
  788.810    3.629    0.451    0.293   80.101  203.570
  789.060    3.230    0.453    0.297   81.833  201.868
  789.310    3.093    0.458    0.288   80.889  201.198
  789.560    3.097    0.479    0.276   82.439  201.360
  789.810    3.193    0.495    0.268   83.995  201.604
  790.060    3.353    0.477    0.266   85.238  201.864
  790.310    3.521    0.452    0.237   87.704  203.251
  790.560    3.711    0.453    0.213   89.742  204.438
  790.810    3.819    0.464    0.209   87.154  205.413
  791.060    3.809    0.477    0.221   87.791  205.671
  791.310    3.737    0.485    0.203   89.707  205.624
  791.560    3.693    0.489    0.208   90.286  205.882
  791.810    3.657    0.461    0.237   90.923  205.918
  792.060    3.694    0.451    0.249   91.992  206.088
  792.310    3.773    0.459    0.229   93.419  205.925
  792.560    3.841    0.448    0.216   96.795  206.072
  792.810    3.895    0.455    0.210   99.869  205.816
  793.060    3.892    0.472    0.233   94.844  202.769
  793.310    3.804    0.479    0.276   88.848  199.106
  793.560    3.712    0.465    0.241   84.555  201.112
  793.810    3.607    0.467    0.214   91.463  203.849
  794.060    3.552    0.464    0.187   93.626  206.784
  794.310    3.570    0.457    0.204   94.870  207.763
  794.560    3.619    0.464    0.212   98.066  207.609
  794.810    3.705    0.477    0.218   95.356  207.456
  795.060    3.904    0.495    0.206   95.752  207.196
  795.310    4.033    0.473    0.197   96.267  206.738
  795.560    4.051    0.455    0.198   93.739  206.463
  795.810    4.019    0.454    0.209   92.796  207.232
  796.060    3.958    0.478    0.199   95.748  207.697
  796.310    3.919    0.494    0.188   97.604  207.643
  796.560    3.830    0.497    0.185   97.632  206.659
  796.810    3.771    0.490    0.196   97.235  206.927
  797.060    3.747    0.481    0.206   96.290  206.966
  797.310    3.717    0.470    0.189   95.894  207.633
  797.560    3.715    0.462    0.185   97.810  210.367
  797.810    3.732    0.475    0.195   98.569  212.168
  798.060    3.764    0.491    0.215   95.677  210.050
  798.310    3.810    0.503    0.207   96.924  208.351
  798.560    3.856    0.492    0.209   93.728  207.169
  798.810    3.896    0.481    0.226   90.956  206.492
  799.060    3.936    0.465    0.227   90.986  206.237
  799.310    3.970    0.450    0.219   91.808  207.416
  799.560    4.003    0.454    0.203   93.967  208.393
  799.810    4.059    0.457    0.195   97.649  207.415
  800.060    4.132    0.468    0.198  101.332  207.051
  800.310    4.220    0.484    0.204   96.371  206.378
  800.560    4.280    0.476    0.229   92.382  205.704
  800.810    4.332    0.453    0.214   90.342  204.312
  801.060    4.360    0.434    0.206   89.886  202.816
  801.310    4.349    0.432    0.223   90.277  201.323
  801.560    4.370    0.449    0.221   91.281  200.035
  801.810    4.375    0.456    0.222   93.381  198.954
  802.060    4.340    0.447    0.227   95.661  198.689
  802.310    4.281    0.444    0.224   97.091  199.250
  802.560    4.238    0.443    0.234   97.733  201.572
  802.810    4.197    0.453    0.220  100.438  205.126
  803.060    4.110    0.459    0.202  103.211  206.720
  803.310    4.002    0.460    0.197  102.566  207.598
  803.560    3.869    0.467    0.203  102.169  208.366
  803.810    3.768    0.482    0.188  102.077  209.551
  804.060    3.690    0.497    0.174  101.863  210.425
  804.310    3.687    0.516    0.176  101.224  211.299
  804.560    3.725    0.506    0.187   99.548  210.113
  804.810    3.812    0.472    0.227   95.863  206.965
  805.060    3.952    0.470    0.218   93.763  203.306
  805.310    4.127    0.464    0.205   94.645  201.603
  805.560    4.390    0.445    0.246   97.108  200.828
  805.810    4.670    0.458    0.242  102.312  200.572
  806.060    4.859    0.471    0.245  107.699  200.620
  806.310    4.982    0.482    0.270  102.128  200.461
  806.560    4.978    0.479    0.261   96.434  200.308
  806.810    4.760    0.473    0.268   90.011  200.664
  807.060    4.379    0.477    0.258   85.172  201.032
  807.310    3.756    0.480    0.270   81.182  201.386
  807.560    3.175    0.468    0.244   86.385  202.567
  807.810    2.664    0.485    0.223   91.711  206.022
  808.060    2.315    0.506    0.194   96.795  209.779
  808.310    2.209    0.515    0.176   99.807  211.581
  808.560    2.191    0.494    0.205  101.055  210.293
  808.810    2.170    0.496    0.199  101.694  208.795
  809.060    2.172    0.513    0.185  103.062  208.122
  809.310    2.123    0.512    0.178  105.586  208.483
  809.560    2.106    0.501    0.167  105.798  208.635
  809.810    2.058    0.511    0.191  104.124  208.687
  810.060    1.990    0.526    0.177  103.057  208.747
  810.310    1.913    0.503    0.188  102.843  209.100
  810.560    1.926    0.482    0.195  106.098  209.349
  810.810    1.978    0.492    0.191  100.953  209.398
  811.060    2.051    0.498    0.204   98.609  208.214
  811.310    2.177    0.498    0.197   99.496  208.880
  811.560    2.299    0.482    0.188  101.042  210.889
  811.810    2.414    0.479    0.178  103.142  211.764
  812.060    2.554    0.478    0.188  101.527  211.304
  812.310    2.717    0.472    0.190  102.658  211.040
  812.560    2.858    0.486    0.173  104.873  210.370
  812.810    2.887    0.473    0.165  106.302  210.737
  813.060    2.885    0.469    0.177  101.950  211.188
  813.310    2.883    0.487    0.176   98.269  211.443
  813.560    2.881    0.498    0.186   94.946  210.774
  813.810    2.879    0.491    0.185   91.995  209.070
  814.060    2.930    0.479    0.203   89.835  206.443
  814.310    3.054    0.466    0.218   87.180  203.918
  814.560    3.190    0.480    0.247   83.497  202.220
  814.810    3.307    0.480    0.257   78.596  201.742
  815.060    3.397    0.478    0.253   79.903  201.586
  815.310    3.406    0.478    0.243   82.127  201.644
  815.560    3.410    0.465    0.269   81.730  201.687
  815.810    3.376    0.453    0.258   81.574  201.952
  816.060    3.324    0.470    0.252   82.825  201.792
  816.310    3.285    0.491    0.258   85.590  202.771
