~VERSION INFORMATION
 VERS.                 2.0:   CWLS LOG ASCII STANDARD -VERSION 2.0
 WRAP.                  NO:   ONE LINE PER DEPTH STEP
~WELL INFORMATION BLOCK
#MNEM.UNIT           DATA                    DESCRIPTION OF MNEMONIC
#---------    -------------------            -------------------------------
# Generated from Intellog Unique Number	CS_67_68/WELL/2193
WELL.         10-08-067-03W4                 : Well_name    - WELL
LOC .         00/10-08-067-03W4/0            : Location     - LOCATION
UWI .         00/10-08-067-03W4/0            : Uwi          - UNIQUE WELL ID
ENTR.         SP                             : Entered      - ENTERED BY
SRVC.         SCHLUMBERGER                   : Scn          - SERVICE COMPANY
STRT.M        340                            : top_depth    - START DEPTH
STOP.M        576                            : bot_depth    - STOP DEPTH
STEP.M        0.25                           : increment    - STEP LENGTH
 NULL. -999.2500:NULL Value
~CURVE INFORMATION BLOCK
#MNEM UNIT       ERCB CURVE CODE    CURVE DESCRIPTION
#-----------   ------------------   ----------------------------------
DEPT.M        00 001 00 00         : DEPTH        - DEPTH
ILD .OHMM     00 120 00 00         : RESD         - DEEP RESISTIVITY (DIL)
DPHI.V/V      00 890 00 00         : PHID         - DENSITY POROSITY (LIMESTONE)
NPHI.V/V      00 330 00 00         : PHIN         - NEUTRON POROSITY (LIMESTONE)
GR  .API      00 310 00 00         : GR           - GAMMA RAY
CALI.MM       00 280 01 00         : CAL          - CALIPER
~PARAMETER INFORMATION
#MNEM.UNIT           DATA             DESCRIPTION OF MNEMONIC
#---------         -----------     ------------------------------
GL  .M        673.54               : gl           - GROUND LEVEL ELEVATION
EREF.M        678.04               : kb           - ELEVATION OF DEPTH REFERENCE
DATM.M        678.04               : datum        - DATUM ELEVATION
TDD .M        584                  : tdd          - TOTAL DEPTH DRILLER
RUN .         ONE                  : Run          - RUN NUMBER
ENG .         BILL                 : Engineer     - RECORDING ENGINEER
WIT .         JIM                  : Witness      - WITNESSED BY
MUD .         GEL                  : Mud_type     - MUD TYPE
MATR.         LIMESTONE            : Logunit      - NEUTRON MATRIX
TMAX.C        18.3                 : BHT          - MAXIMUM RECORDED TEMPERATURE
BHTD.M        584.5                : BHTDEP       - MAXIMUM RECORDED TEMPERATURE
MATR.         1                    : LOGUNIT      - NEUTRON MATRIX
RMT .C        25                   : MDTP         - TEMPERATURE OF MUD
NEUT.         1                    : NEUTRON      - NEUTRON TYPE
RESI.         0                    : RESIST       - RESISTIVITY TYPE
RMC .OHMM     0.25                 : RMC          - RESISTIVITY OF MUD CAKE
RMF .OHMM     0.25                 : RMF          - RESISTIVITY OF MUD FILTRATE
SUFT.C        15                   : SUFT         - SURFACE TEMPERATURE
~A  DEPTH     RESD     PHID     PHIN       GR      CAL
# ...
  413.000    6.489    0.285    0.485   75.582  160.725
  413.250    7.835    0.296    0.474   70.635  161.220
  413.500    8.791    0.299    0.466   69.650  161.512
  413.750    9.358    0.308    0.475   69.217  161.600
  414.000    9.468    0.316    0.484   69.088  161.488
  414.250    9.402    0.299    0.490   67.556  161.576
  414.500    9.266    0.307    0.503   67.851  161.560
  414.750    8.745    0.310    0.486   69.065  161.449
  415.000    7.657    0.298    0.470   70.826  161.233
  415.250    7.159    0.289    0.456   72.647  161.119
  415.500    6.782    0.282    0.467   74.835  161.106
  415.750    6.684    0.275    0.474   73.852  160.991
  416.000    6.712    0.278    0.469   72.807  160.776
  416.250    6.817    0.285    0.464   74.569  160.662
  416.500    6.911    0.293    0.451   76.633  160.646
  416.750    6.992    0.286    0.436   73.029  161.034
  417.000    7.049    0.279    0.444   70.338  159.706
  417.250    7.065    0.274    0.436   68.257  159.594
  417.500    7.042    0.271    0.445   67.335  159.887
  417.750    7.019    0.268    0.443   67.084  159.770
  418.000    7.009    0.278    0.434   68.722  159.860
  418.250    6.973    0.277    0.448   69.995  159.948
  418.500    6.924    0.271    0.457   71.085  160.037
  418.750    6.824    0.268    0.443   69.796  160.128
  419.000    6.789    0.276    0.435   68.143  159.807
  419.250    6.703    0.288    0.439   66.611  159.795
  419.500    6.606    0.288    0.443   68.919  159.682
  419.750    6.709    0.275    0.436   70.864  159.365
  420.000    7.156    0.265    0.431   69.026  158.640
  420.250    8.044    0.257    0.425   66.945  157.917
  420.500   10.121    0.276    0.443   65.475  157.601
  420.750   13.628    0.307    0.455   63.332  157.890
  421.000   16.924    0.327    0.453   61.801  158.285
  421.250   20.243    0.348    0.445   60.574  158.780
  421.500   23.014    0.340    0.437   59.835  158.970
  421.750   25.245    0.333    0.432   59.156  159.264
  422.000   27.026    0.332    0.425   58.051  159.350
  422.250   28.339    0.327    0.420   55.849  159.640
  422.500   29.217    0.320    0.418   51.573  159.628
  422.750   29.014    0.314    0.428   48.882  159.316
  423.000   26.823    0.309    0.423   46.923  159.200
  423.250   24.199    0.299    0.425   49.538  159.391
  423.500   20.445    0.292    0.449   50.201  159.582
  423.750   18.444    0.309    0.467   45.864  159.976
  424.000   16.735    0.344    0.460   43.112  160.269
  424.250   15.617    0.349    0.447   43.836  160.661
  424.500   14.630    0.347    0.443   44.315  160.955
  424.750   14.500    0.342    0.444   43.942  160.636
  425.000   15.348    0.345    0.446   43.324  160.420
  425.250   16.586    0.347    0.453   42.586  160.408
  425.500   17.922    0.350    0.451   40.505  160.290
  425.750   19.368    0.353    0.444   39.400  160.484
  426.000   20.347    0.356    0.435   39.270  160.573
  426.250   20.396    0.355    0.426   39.324  160.151
  426.500   18.997    0.353    0.423   39.560  159.429
  426.750   15.544    0.350    0.426   40.223  158.705
  427.000   13.355    0.347    0.425   41.129  157.982
  427.250   11.155    0.355    0.429   41.794  157.258
  427.500    9.441    0.369    0.419   44.469  156.533
  427.750    8.006    0.368    0.438   47.023  156.519
  428.000    6.853    0.365    0.448   47.868  156.911
  428.250    6.206    0.362    0.444   47.922  157.512
  428.500    5.727    0.352    0.438   50.231  158.008
  428.750    5.446    0.345    0.428   53.211  158.603
  429.000    5.287    0.333    0.449   53.509  159.302
  429.250    5.075    0.341    0.443   53.562  159.697
  429.500    4.799    0.347    0.434   59.531  159.885
  429.750    4.437    0.302    0.428   84.401  160.380
  430.000    4.133    0.258    0.464   92.198  160.572
  430.250    3.930    0.234    0.490   95.422  161.068
  430.500    3.696    0.225    0.483   95.230  161.463
  430.750    3.601    0.235    0.467   94.065  161.754
  431.000    3.549    0.241    0.475   91.741  161.741
  431.250    3.564    0.236    0.507   89.538  161.626
  431.500    3.600    0.257    0.523   88.007  161.512
  431.750    3.663    0.268    0.503   85.498  161.194
  432.000    3.841    0.264    0.481   83.540  160.877
  432.250    4.088    0.258    0.478   79.752  160.256
  432.500    4.410    0.289    0.468   74.257  159.021
  432.750    4.694    0.318    0.445   65.895  158.402
  433.000    5.016    0.343    0.461   62.046  157.881
  433.250    5.360    0.364    0.454   59.538  157.868
  433.500    5.609    0.366    0.435   57.031  157.957
  433.750    5.805    0.359    0.448   58.913  158.045
  434.000    5.985    0.354    0.479   61.101  157.931
  434.250    6.101    0.349    0.467   61.825  157.817
  434.500    6.302    0.344    0.453   60.415  157.701
  434.750    6.523    0.340    0.446   58.883  157.689
  435.000    6.725    0.337    0.451   57.899  157.576
  435.250    6.959    0.335    0.456   57.221  157.360
  435.500    7.189    0.337    0.467   56.360  157.038
  435.750    7.342    0.343    0.487   56.108  156.826
  436.000    7.457    0.351    0.498   55.003  156.507
  436.250    7.489    0.349    0.492   53.410  156.699
  436.500    7.423    0.342    0.477   52.426  156.787
  436.750    7.370    0.338    0.465   53.578  156.774
  437.000    7.277    0.337    0.463   55.093  156.863
  437.250    7.213    0.338    0.464   56.001  157.055
  437.500    7.175    0.340    0.466   53.677  157.243
  437.750    7.125    0.341    0.465   52.266  157.334
  438.000    7.088    0.348    0.450   53.112  157.422
  438.250    7.025    0.357    0.463   53.897  157.612
  438.500    6.912    0.363    0.475   54.864  157.801
  438.750    6.888    0.358    0.466   55.346  157.890
  439.000    6.801    0.354    0.460   54.851  157.677
  439.250    6.690    0.348    0.466   52.952  157.359
  439.500    6.643    0.347    0.466   52.701  157.347
  439.750    6.609    0.351    0.455   53.913  157.029
  440.000    6.637    0.355    0.446   55.125  156.915
  440.250    6.690    0.358    0.455   54.202  156.903
  440.500    7.148    0.360    0.445   52.974  156.784
  440.750    8.142    0.359    0.440   52.541  156.775
  441.000    9.274    0.355    0.462   53.021  156.763
  441.250   10.097    0.350    0.470   54.843  156.850
  441.500   10.870    0.351    0.456   56.969  157.040
  441.750   11.549    0.356    0.445   58.974  157.132
  442.000   12.156    0.359    0.443   58.722  157.524
  442.250   12.940    0.347    0.489   57.496  158.120
  442.500   14.010    0.274    0.509   55.842  158.617
  442.750   15.632    0.211    0.373   53.517  159.315
  443.000   17.838    0.033    0.175   49.363  159.811
  443.250   20.394    0.000    0.121   46.002  160.205
  443.500   24.949    0.000    0.109   41.604  160.495
  443.750   27.679    0.000    0.106   41.291  160.790
  444.000   24.785    0.000    0.107   45.247  160.877
  444.250   14.404    0.002    0.136   50.117  160.866
  444.500   11.097    0.186    0.169   54.013  160.849
  444.750    8.533    0.285    0.409   56.993  160.738
  445.000    6.904    0.329    0.451   59.300  160.319
  445.250    6.287    0.346    0.461   59.904  160.001
  445.500    5.890    0.349    0.449   59.347  159.175
  445.750    5.960    0.354    0.443   58.666  158.758
  446.000    6.019    0.361    0.469   58.416  158.135
  446.250    6.067    0.361    0.488   58.166  157.512
  446.500    6.127    0.356    0.500   58.647  157.194
  446.750    6.212    0.350    0.477   60.895  157.283
  447.000    6.285    0.351    0.461   61.436  157.475
  447.250    6.323    0.351    0.451   61.490  157.666
  447.500    6.362    0.345    0.460   61.604  157.653
  447.750    6.413    0.338    0.462   59.584  157.030
  448.000    6.392    0.330    0.479   59.027  157.017
  448.250    6.395    0.328    0.468   60.789  156.903
  448.500    6.410    0.332    0.455   60.964  156.992
  448.750    6.450    0.334    0.472   60.774  157.180
  449.000    6.513    0.331    0.479   61.863  157.373
  449.250    6.603    0.325    0.468   62.831  157.462
