~VERSION INFORMATION
 VERS.                 2.0:   CWLS LOG ASCII STANDARD -VERSION 2.0
 WRAP.                  NO:   ONE LINE PER DEPTH STEP
~WELL INFORMATION BLOCK
#MNEM.UNIT           DATA                    DESCRIPTION OF MNEMONIC
#---------    -------------------            -------------------------------
# Generated from Intellog Unique Number	CC_84_87/WELL/2321
NULL.         -999.25                        : NULL_VALUE
WELL.         SUNCOR CHEECHAM LEASE          : Well_name    - WELL
LOC .         11-05-085-06W4                 : Location     - LOCATION          
UWI .         00/11-05-085-06W400            : Uwi          - UNIQUE WELL ID    
ENTR.         JHS                            : Entered      - ENTERED BY        
SRVC.         SCHLUMBERGER                   : Scn          - SERVICE COMPANY   
DATE.         07 FEB 81                      : Date         - LOG DATE
STRT.M        100                            : top_depth    - START DEPTH       
STOP.M        265.001                        : bot_depth    - STOP DEPTH        
STEP.M        0.3                            : increment    - STEP LENGTH       
~CURVE INFORMATION BLOCK
#MNEM UNIT       ERCB CURVE CODE    CURVE DESCRIPTION
#-----------   ------------------   ----------------------------------
DEPT.M        00 001 00 00         : DEPTH        - DEPTH                       
DPHI.V/V      00 890 00 00         : PHID         - DENSITY POROSITY (LIMESTONE)
NPHI.V/V      00 330 00 00         : PHIN         - NEUTRON POROSITY (LIMESTONE)
GR  .API      00 310 00 00         : GR           - GAMMA RAY                   
ILD .OHMM     00 120 00 00         : RESD         - DEEP RESISTIVITY (DIL)      
~PARAMETER INFORMATION       
#MNEM.UNIT           DATA             DESCRIPTION OF MNEMONIC
#---------         -----------     ------------------------------
GL  .M        477                  : gl           - GROUND LEVEL ELEVATION      
EREF.M        480.63               : kb           - ELEVATION OF DEPTH REFERENCE
DATM.M        480.63               : datum        - DATUM ELEVATION             
TDD .M        269.5                : tdd          - TOTAL DEPTH DRILLER         
RUN .         ONE                  : Run          - RUN NUMBER                  
ENG .         BILL                 : Engineer     - RECORDING ENGINEER          
WIT .         JIM                  : Witness      - WITNESSED BY                
MUD .         GEL                  : Mud_type     - MUD TYPE                    
MATR.         LIMESTONE            : Logunit      - NEUTRON MATRIX              
TMAX.C        60                   : BHT          - MAXIMUM RECORDED TEMPERATURE
BHTD.M        269.5                : BHTDEP       - MAXIMUM RECORDED TEMPERATURE
MATR.         1                    : LOGUNIT      - NEUTRON MATRIX              
RMT .C        25                   : MDTP         - TEMPERATURE OF MUD          
NEUT.         1                    : NEUTRON      - NEUTRON TYPE                
RESI.         0                    : RESIST       - RESISTIVITY TYPE            
RMC .OHMM     0.25                 : RMC          - RESISTIVITY OF MUD CAKE     
RMF .OHMM     0.25                 : RMF          - RESISTIVITY OF MUD FILTRATE 
SUFT.C        15                   : SUFT         - SURFACE TEMPERATURE         
~A  DEPTH     PHID     PHIN       GR     RESD
# ...
  204.401    0.195    0.483  110.143    3.865
  204.701    0.189    0.484  109.557    3.870
  205.001    0.166    0.485  107.147    3.875
  205.301    0.183    0.487  103.525    3.881
  205.601    0.168    0.449   96.257    4.036
  205.901    0.164    0.404   86.558    4.119
  206.201    0.209    0.409   82.328    4.366
  206.501    0.226    0.423   81.740    4.372
  206.801    0.151    0.423   81.762    4.461
  207.101    0.109    0.402   84.818    4.469
  207.401    0.073    0.388   89.088    4.309
  207.701    0.081    0.422   89.716    4.079
  208.001    0.208    0.437   91.557    3.934
  208.301    0.197    0.437   95.221    3.794
  208.601    0.205    0.448   99.490    3.730
  208.901    0.196    0.465  100.119    3.807
  209.201    0.196    0.459   95.278    3.884
  209.501    0.232    0.436   78.902    3.746
  209.801    0.243    0.428   74.672    3.613
  210.101    0.261    0.431   81.371    3.485
  210.401    0.229    0.423   86.249    3.491
  210.701    0.231    0.410   86.272    3.699
  211.001    0.230    0.427   85.076    3.994
  211.301    0.212    0.439   87.523    4.564
  211.601    0.222    0.428   91.795    4.927
  211.901    0.220    0.422   97.280    5.125
  212.201    0.190    0.415  103.371    5.228
  212.501    0.169    0.429  107.646    5.541
  212.801    0.197    0.433   92.480    6.213
  213.101    0.212    0.412   56.063    7.511
  213.401    0.219    0.384   49.403   10.359
  213.701    0.225    0.369   47.602   15.991
  214.001    0.237    0.379   46.408   22.904
  214.301    0.245    0.386   47.034   27.172
  214.601    0.221    0.380   53.735   29.893
  214.901    0.219    0.391   61.041   25.279
  215.201    0.227    0.413   63.490   17.048
  215.501    0.235    0.406   70.799    8.042
  215.801    0.206    0.381   78.713    6.075
  216.101    0.206    0.382   84.197    5.642
  216.401    0.191    0.389   89.075    5.547
  216.701    0.177    0.386   87.274    5.553
  217.001    0.168    0.396   80.612    6.227
  217.301    0.189    0.410   71.525    7.527
  217.601    0.209    0.414   60.612   12.297
  217.901    0.226    0.393   52.130   16.334
  218.201    0.233    0.395   44.257   19.743
  218.501    0.237    0.392   41.846   25.258
  218.801    0.244    0.385   45.510   25.297
  219.101    0.297    0.411   47.962   13.611
  219.401    0.324    0.417   49.800   11.951
  219.701    0.287    0.400   55.894   15.576
  220.001    0.257    0.416   61.986   23.160
  220.301    0.245    0.443   58.364   31.346
  220.601    0.249    0.443   49.273   40.106
  220.901    0.270    0.449   45.043   43.296
  221.201    0.260    0.413   42.632   32.085
  221.501    0.258    0.388   43.868   18.269
  221.801    0.254    0.376   49.353   12.558
  222.101    0.242    0.374   56.661    8.471
  222.401    0.235    0.385   62.753    7.436
  222.701    0.223    0.407   67.023    9.512
  223.001    0.219    0.437   64.007   18.064
  223.301    0.245    0.434   49.451   26.865
  223.601    0.252    0.419   39.148   37.046
  223.901    0.248    0.403   37.952   48.291
  224.201    0.236    0.400   37.367   51.178
  224.501    0.251    0.393   38.603   45.775
  224.801    0.246    0.386   39.835   28.640
  225.101    0.235    0.386   42.890   17.582
  225.401    0.235    0.382   48.982   16.030
  225.701    0.227    0.380   54.469   18.662
  226.001    0.226    0.396   45.986   27.227
  226.301    0.220    0.387   36.898   40.485
  226.601    0.278    0.394   37.526   51.799
  226.901    0.258    0.403   37.543   55.931
  227.201    0.239    0.393   38.171   56.011
  227.501    0.231    0.399   37.585   54.025
  227.801    0.222    0.394   36.389   55.131
  228.101    0.243    0.381   37.017   54.191
  228.401    0.239    0.388   40.075   51.292
  228.701    0.247    0.392   43.129   45.019
  229.001    0.256    0.384   44.362   36.662
  229.301    0.254    0.378   44.989   29.292
  229.601    0.244    0.362   47.441   22.123
  229.901    0.240    0.362   48.068   16.087
  230.201    0.234    0.369   51.732   11.482
  230.501    0.234    0.382   56.001   10.466
  230.801    0.262    0.416   54.807   11.737
  231.101    0.289    0.438   51.181   15.296
  231.401    0.305    0.459   46.343   23.177
  231.701    0.303    0.463   42.719   29.093
  232.001    0.247    0.415   40.310   32.622
  232.301    0.230    0.412   41.546   32.674
  232.601    0.222    0.426   38.531   30.922
  232.901    0.251    0.430   40.978   30.969
  233.201    0.250    0.423   41.607   31.014
  233.501    0.257    0.402   41.016   28.811
  233.801    0.271    0.387   40.431   24.823
  234.101    0.275    0.393   42.273   21.381
  234.401    0.278    0.408   49.579   18.078
  234.701    0.273    0.408   54.458   13.911
  235.001    0.262    0.427   56.907    9.561
  235.301    0.269    0.436   58.747    7.358
  235.601    0.237    0.425   70.305    8.096
  235.901    0.214    0.434   80.041    9.605
  236.201    0.192    0.457   68.523   13.498
  236.501    0.262    0.435   46.073   17.929
  236.801    0.270    0.434   43.663   15.740
  237.101    0.265    0.434   50.972   11.664
  237.401    0.238    0.420   64.958    5.932
  237.701    0.216    0.426   88.054    5.943
  238.001    0.189    0.434   89.897    5.951
  238.301    0.172    0.425   70.484    5.323
  238.601    0.220    0.434   61.396    3.147
  238.901    0.266    0.427   60.201    2.377
  239.201    0.245    0.385   71.758    2.381
  239.501    0.203    0.384   83.317    2.522
  239.801    0.199    0.399   80.302    2.937
  240.101    0.214    0.399   73.639    3.055
  240.401    0.222    0.395   76.696    3.117
  240.701    0.173    0.432   87.646    3.181
  241.001    0.187    0.508   87.667    3.568
  241.301    0.200    0.500   63.395    4.231
  241.601    0.266    0.477   51.271    6.783
  241.901    0.277    0.461   44.609   10.087
  242.201    0.283    0.452   39.770   10.891
  242.501    0.308    0.442   38.575   10.706
  242.801    0.317    0.438   39.812   10.520
  243.101    0.310    0.499   42.866   10.340
  243.401    0.319    0.520   43.493   10.957
  243.701    0.333    0.513   38.049   12.056
  244.001    0.300    0.455   37.463   12.078
  244.301    0.284    0.405   42.947   11.009
  244.601    0.266    0.406   42.358   10.820
  244.901    0.261    0.424   39.342   10.635
  245.201    0.235    0.416   39.970   10.254
  245.501    0.247    0.408   46.062    9.173
  245.801    0.252    0.404   49.120    6.928
  246.101    0.265    0.435   51.569    3.945
  246.401    0.257    0.418   54.017    2.515
  246.701    0.255    0.419   75.897    2.519
  247.001    0.247    0.467   76.528    2.670
  247.301    0.263    0.458   66.220    2.776
  247.602    0.266    0.431   65.028    2.728
  247.902    0.252    0.427   71.118    2.440
  248.202    0.228    0.423   82.069    1.878
  248.502    0.204    0.446   89.986    1.392
  248.802    0.186    0.435   86.968    0.975
  249.102    0.190    0.420   74.235    0.750
  249.402    0.229    0.413   63.932    0.671
  249.702    0.282    0.413   54.842    0.635
  250.002    0.301    0.421   50.005    0.660
  250.302    0.305    0.438   51.239    0.741
  250.602    0.281    0.449   54.900    0.862
  250.902    0.259    0.427   60.992    0.967
  251.202    0.238    0.400   65.871    1.005
  251.502    0.229    0.388   61.640    1.026
  251.802    0.246    0.385   62.878    1.067
  252.102    0.243    0.388   72.003    1.174
  252.402    0.251    0.391   84.170    1.316
  252.702    0.225    0.396   89.048    1.344
  253.002    0.218    0.400   84.819    1.296
  253.302    0.188    0.408   76.336    1.203
  253.602    0.194    0.415   70.284    1.161
  253.902    0.229    0.405   68.480    1.162
  254.202    0.228    0.391   69.714    1.232
  254.502    0.216    0.379   72.769    1.257
  254.802    0.200    0.387   78.258    1.259
  255.102    0.197    0.400   78.882    1.261
  255.402    0.182    0.395   81.938    1.239
  255.702    0.182    0.401   78.314    1.241
  256.002    0.192    0.397   77.731    1.243
  256.302    0.185    0.396   81.392    1.245
