~VERSION INFORMATION
 VERS.                 2.0:   CWLS LOG ASCII STANDARD -VERSION 2.0
 WRAP.                  NO:   ONE LINE PER DEPTH STEP
~WELL INFORMATION BLOCK
#MNEM.UNIT           DATA                    DESCRIPTION OF MNEMONIC
#---------    -------------------            -------------------------------
# Generated from Intellog Unique Number	CS_77_79/WELL/998
WELL.         MESA HB THORNBURY              : Well_name    - WELL
LOC .         00/11-25-078-13W4/0            : Location     - LOCATION
UWI .         00/11-25-078-13W4/0            : Uwi          - UNIQUE WELL ID
ENTR.         JHS                            : Entered      - ENTERED BY
SRVC.         SCHLUMBERGER                   : Scn          - SERVICE COMPANY
STRT.M        253.234                        : top_depth    - START DEPTH
STOP.M        475.234                        : bot_depth    - STOP DEPTH
STEP.M        0.25                           : increment    - STEP LENGTH
 NULL. -999.2500:NULL Value
~CURVE INFORMATION BLOCK
#MNEM UNIT       ERCB CURVE CODE    CURVE DESCRIPTION
#-----------   ------------------   ----------------------------------
DEPT.M        00 001 00 00         : DEPTH        - DEPTH
RHOB.KG/M3    00 350 00 00         : DENS         - BULK DENSITY
GR  .API      00 310 00 00         : GR           - GAMMA RAY
DPHI.V/V      00 890 00 00         : PHID         - DENSITY POROSITY (SANDSTONE)
NPHI.V/V      00 330 00 00         : PHIN         - NEUTRON POROSITY (SANDSTONE)
ILD .OHMM     00 120 00 00         : RESD         - DEEP RESISTIVITY (DIL)
~PARAMETER INFORMATION
#MNEM.UNIT           DATA             DESCRIPTION OF MNEMONIC
#---------         -----------     ------------------------------
GL  .M        669.127              : gl           - GROUND LEVEL ELEVATION
EREF.M        673.349              : kb           - ELEVATION OF DEPTH REFERENCE
DATM.M        673.349              : datum        - DATUM ELEVATION
TDD .M        486.156              : tdd          - TOTAL DEPTH DRILLER
RUN .         ONE                  : Run          - RUN NUMBER
ENG .         BILL                 : Engineer     - RECORDING ENGINEER
WIT .         JIM                  : Witness      - WITNESSED BY
MUD .         GEL                  : Mud_type     - MUD TYPE
MATR.         SANDSTONE            : Logunit      - NEUTRON MATRIX
TMAX.C        60                   : BHT          - MAXIMUM RECORDED TEMPERATURE
BHTD.M        486.156              : BHTDEP       - MAXIMUM RECORDED TEMPERATURE
MATR.         1                    : LOGUNIT      - NEUTRON MATRIX
RMT .C        25                   : MDTP         - TEMPERATURE OF MUD
NEUT.         1                    : NEUTRON      - NEUTRON TYPE
RESI.         0                    : RESIST       - RESISTIVITY TYPE
RMC .OHMM     0.25                 : RMC          - RESISTIVITY OF MUD CAKE
RMF .OHMM     0.25                 : RMF          - RESISTIVITY OF MUD FILTRATE
SUFT.C        15                   : SUFT         - SURFACE TEMPERATURE
~A  DEPTH     DENS       GR     PHID     PHIN     RESD
# ...
  399.234   -0.000   69.883    0.301    0.474    6.281
  399.484   -0.000   69.152    0.290    0.486    6.410
  399.734    0.000   66.623    0.301    0.474    6.516
  399.984    0.000   65.924    0.307    0.466    6.536
  400.234    0.000   64.178    0.294    0.481    6.395
  400.484   -0.000   60.966    0.283    0.495    6.403
  400.734   -0.000   63.745    0.281    0.508    6.349
  400.984   -0.000   69.139    0.266    0.494    6.281
  401.234    0.000   69.536    0.292    0.482    6.070
  401.484    0.000   70.322    0.305    0.483    6.016
  401.734    0.000   69.586    0.292    0.499    5.941
  401.984   -0.000   67.264    0.287    0.495    5.941
  402.234   -0.000   66.582    0.292    0.501    5.946
  402.484    0.000   67.072    0.284    0.495    5.839
  402.734    0.000   68.115    0.285    0.506    5.715
  402.984    0.000   66.791    0.298    0.519    5.721
  403.234   -0.000   68.344    0.323    0.509    5.723
  403.484   -0.000   73.717    0.304    0.490    5.734
  403.734   -0.000   71.923    0.322    0.506    5.611
  403.984    0.000   70.973    0.319    0.506    5.531
  404.234    0.000   70.150    0.309    0.517    5.514
  404.484    0.000   70.188    0.313    0.525    5.511
  404.734   -0.000   69.205    0.317    0.525    5.511
  404.984   -0.000   68.668    0.323    0.514    5.512
  405.234    0.000   70.212    0.305    0.504    5.512
  405.484    0.000   70.134    0.315    0.497    5.501
  405.734    0.000   70.803    0.294    0.489    5.629
  405.984   -0.000   69.103    0.294    0.514    5.611
  406.234   -0.000   66.976    0.294    0.525    5.733
  406.484   -0.000   67.442    0.293    0.518    5.724
  406.734    0.000   70.564    0.272    0.506    5.724
  406.984    0.000   72.741    0.264    0.491    5.735
  407.234    0.000   77.230    0.243    0.479    5.614
  407.484   -0.000   79.576    0.235    0.470    5.537
  407.734   -0.000   82.689    0.230    0.474    5.515
  407.984   -0.000   83.121    0.230    0.500    5.512
  408.234    0.000   85.449    0.219    0.495    5.588
  408.484    0.000   85.406    0.219    0.476    5.638
  408.734   -0.000   83.781    0.244    0.459    5.831
  408.984   -0.000   81.163    0.263    0.452    5.832
  409.234   -0.000   78.575    0.278    0.466    5.834
  409.484    0.000   77.140    0.271    0.506    5.833
  409.734    0.002   74.987    0.265    0.512    5.823
  409.984    0.007   69.580    0.266    0.513    5.954
  410.234   -0.076   65.878    0.276    0.520    5.936
  410.484   -1.078   68.440    0.278    0.517    6.118
  410.734   -2.243   72.929    0.267    0.490    6.173
  410.984   63.334   79.634    0.259    0.475    6.174
  411.234  756.550   84.075    0.241    0.466    6.174
  411.484 2303.840   81.876    0.239    0.460    6.174
  411.734 2336.990   80.190    0.226    0.470    6.170
  411.984 2342.570   80.153    0.216    0.468    6.144
  412.234 2369.560   81.219    0.199    0.460    6.063
  412.484 2364.850   80.927    0.202    0.457    5.947
  412.734 2349.280   80.830    0.211    0.460    5.825
  412.984 2346.370   82.428    0.213    0.475    5.837
  413.234 2381.080   82.195    0.192    0.480    5.835
  413.484 2343.170   81.917    0.215    0.481    5.834
  413.734 2359.610   85.820    0.205    0.483    5.912
  413.984 2358.690   89.245    0.205    0.493    6.062
  414.234 2328.150   87.344    0.223    0.503    6.182
  414.484 2349.030   86.720    0.211    0.500    6.276
  414.734 2363.960   86.488    0.202    0.481    6.590
  414.984 2388.750   84.359    0.188    0.464    6.780
  415.234 2393.460   83.540    0.185    0.473    6.989
  415.484 2413.900   86.147    0.173    0.464    7.188
  415.734 2412.430   89.664    0.174    0.450    7.188
  415.984 2403.250   91.884    0.179    0.438    7.060
  416.234 2383.450   96.562    0.191    0.437    6.768
  416.484 2370.830  100.881    0.198    0.457    6.702
  416.734 2370.120   99.360    0.199    0.439    6.352
  416.984 2371.520   97.021    0.198    0.426    6.175
  417.234 2391.590   96.846    0.186    0.424    6.028
  417.484 2381.950   97.183    0.192    0.442    5.705
  417.734 2395.470   96.575    0.184    0.464    5.215
  417.984 2406.040   95.600    0.178    0.448    4.909
  418.234 2393.040   94.816    0.185    0.439    4.637
  418.484 2375.950   95.442    0.195    0.451    4.336
  418.734 2407.230   91.159    0.177    0.456    4.150
  418.984 2398.610   87.137    0.182    0.459    3.441
  419.234 2380.410   86.773    0.193    0.488    3.019
  419.484 2334.460   86.595    0.220    0.530    2.450
  419.734 2267.130   84.840    0.259    0.558    2.141
  419.984 2285.050   83.819    0.249    0.564    1.983
  420.234 2303.090   83.557    0.238    0.547    1.909
  420.484 2300.860   82.495    0.239    0.541    1.889
  420.734 2258.950   82.454    0.264    0.554    1.945
  420.984 2276.120   90.178    0.254    0.569    2.055
  421.234 2282.590   94.102    0.250    0.575    2.275
  421.484 2287.890   93.108    0.247    0.566    2.494
  421.734 2312.050   89.962    0.233    0.503    2.915
  421.984 2360.960   88.058    0.204    0.475    3.806
  422.234 2412.630   86.867    0.174    0.459    4.351
  422.484 2406.120   84.122    0.178    0.446    4.694
  422.734 2396.270   84.190    0.183    0.457    5.355
  422.984 2392.340   83.358    0.186    0.459    5.679
  423.234 2422.280   84.509    0.168    0.433    5.712
  423.484 2425.150   87.010    0.167    0.411    5.279
  423.734 2411.250   87.411    0.175    0.412    4.726
  423.984 2399.660   90.502    0.181    0.438    4.320
  424.234 2365.480   92.922    0.201    0.468    4.240
  424.484 2340.100   90.059    0.216    0.497    4.409
  424.734 2334.620   84.575    0.220    0.490    4.907
  424.984 2366.760   77.645    0.201    0.465    5.928
  425.234 2386.190   75.761    0.189    0.449    6.628
  425.484 2436.100   76.710    0.160    0.423    6.932
  425.734 2456.470   81.974    0.148    0.407    6.609
  425.984 2351.930   89.564    0.209    0.445    6.126
  426.234 2386.840   90.385    0.189    0.478    5.200
  426.484 2402.850   89.591    0.180    0.454    4.765
  426.734 2401.600   88.630    0.180    0.462    4.141
  426.984 2380.590   90.801    0.193    0.510    3.509
  427.234 2318.810   95.384    0.229    0.536    3.295
  427.484 2347.230   96.004    0.212    0.532    3.259
  427.734 2377.020   93.998    0.195    0.522    3.404
  427.984 2396.920   92.064    0.183    0.514    3.541
  428.234 2382.890   92.228    0.191    0.500    3.780
  428.484 2399.460   94.594    0.182    0.490    3.939
  428.734 2386.640   96.073    0.189    0.499    4.087
  428.984 2417.660   97.495    0.171    0.509    4.152
  429.234 2434.760  101.059    0.161    0.489    4.162
  429.484 2423.840  100.681    0.167    0.471    4.165
  429.734 2434.430   98.184    0.161    0.464    4.157
  429.984 2406.960  101.124    0.177    0.467    4.254
  430.234 2427.310  102.114    0.165    0.477    4.245
  430.484 2435.820   99.984    0.160    0.498    4.326
  430.734 2474.730   99.678    0.138    0.478    4.461
  430.984 2479.210  105.130    0.135    0.458    4.652
  431.234 2441.990  105.124    0.157    0.456    4.992
  431.484 2402.920  102.493    0.180    0.469    5.419
  431.734 2397.220   91.961    0.183    0.461    5.915
  431.984 2389.850   82.923    0.187    0.438    6.618
  432.234 2400.190   82.792    0.181    0.413    7.231
  432.484 2374.230   84.367    0.196    0.401    7.901
  432.734 2342.880   82.361    0.215    0.444    8.825
  432.984 2308.620   79.320    0.235    0.417    9.561
  433.234 2338.890   76.063    0.217    0.399    9.736
  433.484 2308.210   75.255    0.235    0.388    9.471
  433.734 2305.670   77.604    0.236    0.393    9.186
  433.984 2329.940   81.809    0.222    0.407    8.872
  434.234 2348.240   80.301    0.212    0.430    9.013
  434.484 2343.890   79.390    0.212    0.438    9.471
  434.734 2238.850   82.191    0.227    0.461   10.629
  434.984 1859.030   81.641    0.236    0.429   11.319
  435.234 1899.920   85.010    0.242    0.404   10.412
  435.484 2254.150   98.865    0.219    0.398    9.327
