~VERSION INFORMATION
 VERS.                 2.0:   CWLS LOG ASCII STANDARD -VERSION 2.0
 WRAP.                  NO:   ONE LINE PER DEPTH STEP
~WELL INFORMATION BLOCK
#MNEM.UNIT           DATA                    DESCRIPTION OF MNEMONIC
#---------    -------------------            -------------------------------
# Generated from Intellog Unique Number	CC_80_83/WELL/2380
NULL.         -999.25                        : NULL_VALUE
WELL.         BVX ET AL WATCHUSK             : Well_name    - WELL
LOC .         10-27-082-02W4                 : Location     - LOCATION          
UWI .         00/10-27-082-02W400            : Uwi          - UNIQUE WELL ID    
ENTR.         DW                             : Entered      - ENTERED BY        
SRVC.         SCHLUMBERGER                   : Scn          - SERVICE COMPANY   
DATE.         04 FEB 79                      : Date         - LOG DATE
STRT.M        125                            : top_depth    - START DEPTH       
STOP.M        310.099                        : bot_depth    - STOP DEPTH        
STEP.M        0.3                            : increment    - STEP LENGTH       
~CURVE INFORMATION BLOCK
#MNEM UNIT       ERCB CURVE CODE    CURVE DESCRIPTION
#-----------   ------------------   ----------------------------------
DEPT.M        00 001 00 00         : DEPTH        - DEPTH                       
DPHI.V/V      00 890 00 00         : PHID         - DENSITY POROSITY (LIMESTONE)
NPHI.V/V      00 330 00 00         : PHIN         - NEUTRON POROSITY (LIMESTONE)
GR  .API      00 310 00 00         : GR           - GAMMA RAY                   
ILD .OHMM     00 120 00 00         : RESD         - DEEP RESISTIVITY (DIL)      
~PARAMETER INFORMATION       
#MNEM.UNIT           DATA             DESCRIPTION OF MNEMONIC
#---------         -----------     ------------------------------
GL  .M        466                  : gl           - GROUND LEVEL ELEVATION      
EREF.M        469.4                : kb           - ELEVATION OF DEPTH REFERENCE
DATM.M        469.4                : datum        - DATUM ELEVATION             
TDD .M        322                  : tdd          - TOTAL DEPTH DRILLER         
RUN .         ONE                  : Run          - RUN NUMBER                  
ENG .         BILL                 : Engineer     - RECORDING ENGINEER          
WIT .         JIM                  : Witness      - WITNESSED BY                
MUD .         GEL                  : Mud_type     - MUD TYPE                    
MATR.         LIMESTONE            : Logunit      - NEUTRON MATRIX              
TMAX.C        25                   : BHT          - MAXIMUM RECORDED TEMPERATURE
BHTD.M        322                  : BHTDEP       - MAXIMUM RECORDED TEMPERATURE
MATR.         1                    : LOGUNIT      - NEUTRON MATRIX              
RMT .C        25                   : MDTP         - TEMPERATURE OF MUD          
NEUT.         1                    : NEUTRON      - NEUTRON TYPE                
RESI.         0                    : RESIST       - RESISTIVITY TYPE            
RMC .OHMM     0.25                 : RMC          - RESISTIVITY OF MUD CAKE     
RMF .OHMM     0.25                 : RMF          - RESISTIVITY OF MUD FILTRATE 
SUFT.C        15                   : SUFT         - SURFACE TEMPERATURE         
~A  DEPTH     PHID     PHIN       GR     RESD
  125.000    0.406    0.485   59.598   15.435
  125.300    0.447    0.525   61.473   17.951
  125.600    0.486    0.573   61.486   21.276
  125.900    0.497    0.591   60.882   22.945
  126.200    0.467    0.564   58.422   23.383
  126.500    0.389    0.510   56.576   23.829
  126.800    0.400    0.495   55.975   24.284
  127.100    0.382    0.512   56.611   25.219
  127.400    0.389    0.529   57.244   25.220
  127.700    0.395    0.522   56.640   25.221
  128.000    0.401    0.543   56.034   25.701
  128.300    0.396    0.529   54.808   25.703
  128.600    0.412    0.518   52.965   25.703
  128.900    0.437    0.508   52.981   26.194
  129.200    0.381    0.509   53.615   31.044
  129.500    0.344    0.497   56.107   38.936
  129.800    0.241    0.472   59.222   51.679
  130.100    0.111    0.174   57.378   57.877
  130.400    0.020    0.160   52.441   61.250
  130.700    0.018    0.173   51.217   56.798
  131.000    0.041    0.212   51.846   41.995
  131.300    0.091    0.260   53.721   27.208
  131.600    0.193    0.349   56.214   24.296
  131.900    0.330    0.439   57.465   22.109
  132.200    0.333    0.440   56.244   21.290
  132.500    0.351    0.435   54.398   19.743
  132.800    0.367    0.446   52.557   19.374
  133.100    0.404    0.472   52.575   19.744
  133.400    0.420    0.494   54.445   19.745
  133.700    0.442    0.521   57.556   20.121
  134.000    0.437    0.503   59.429   20.122
  134.300    0.413    0.480   61.302   20.123
  134.600    0.405    0.473   59.461   20.123
  134.900    0.414    0.505   57.002   20.124
  135.200    0.377    0.505   55.776   20.508
  135.500    0.353    0.504   57.027   20.509
  135.800    0.348    0.506   59.522   20.126
  136.100    0.352    0.458   60.773   19.750
  136.400    0.360    0.442   62.646   19.019
  136.700    0.365    0.457   65.138   17.973
  137.000    0.343    0.489   67.631   16.355
  137.300    0.333    0.500   68.266   11.866
  137.600    0.363    0.483   68.279   10.398
  137.900    0.362    0.495   70.773   13.041
  138.200    0.343    0.502   70.788   16.986
  138.500    0.324    0.484   68.947   19.385
  138.800    0.315    0.458   65.242   19.756
  139.100    0.339    0.457   58.447   18.319
  139.400    0.350    0.447   58.463   15.752
  139.700    0.343    0.455   63.432   14.608
  140.000    0.345    0.470   67.166   14.608
  140.300    0.326    0.481   68.419   14.887
  140.600    0.348    0.476   64.713   15.460
  140.900    0.351    0.503   62.253   15.755
  141.200    0.344    0.471   68.462   15.755
  141.500    0.339    0.456   69.713   15.172
  141.800    0.340    0.443   64.775   13.806
  142.100    0.350    0.465   60.453   12.564
  142.400    0.372    0.480   61.087   11.872
  142.700    0.350    0.477   67.296   11.219
  143.000    0.355    0.505   72.887   12.804
  143.300    0.336    0.482   71.663   13.550
  143.600    0.335    0.475   68.580   13.809
  143.900    0.346    0.478   67.357   12.805
  144.200    0.371    0.492   67.372   11.435
  144.500    0.362    0.510   74.817    9.291
  144.800    0.329    0.489   82.267    8.780
  145.100    0.337    0.467   82.283    7.990
  145.400    0.335    0.463   80.438    5.907
  145.700    0.325    0.525   80.453    4.451
  146.000    0.313    0.531   87.283    3.975
  146.300    0.301    0.525   95.348    3.483
  146.600    0.300    0.584  102.179    2.939
  146.900    0.298    0.596  106.528    2.777
  147.200    0.291    0.593  110.261    2.830
  147.500    0.278    0.590  112.138    2.884
  147.800    0.277    0.584  112.148    2.939
  148.100    0.267    0.575  111.551    3.052
  148.400    0.268    0.546  111.559    3.111
  148.700    0.273    0.572  111.574    3.230
  149.000    0.274    0.564  110.970    3.292
  149.300    0.280    0.560  109.747    3.355
  149.600    0.290    0.580  107.284    3.484
  149.900    0.299    0.565  106.678    3.902
  150.200    0.291    0.553  107.312    4.208
  150.500    0.279    0.534  106.089    4.802
  150.800    0.255    0.508  103.010    5.082
  151.100    0.254    0.494   99.923    5.692
  151.400    0.265    0.487   94.367    5.911
  151.700    0.280    0.495   93.762    5.801
  152.000    0.292    0.475   93.776    5.801
  152.300    0.298    0.482   88.837    6.139
  152.600    0.301    0.491   84.518    6.747
  152.900    0.301    0.496   81.432    7.276
  153.200    0.296    0.497   86.406    7.556
  153.500    0.275    0.511   87.656    7.847
  153.800    0.266    0.517   86.434    8.463
  154.100    0.251    0.486   80.257    8.788
  154.400    0.266    0.467   77.793    8.956
  154.700    0.267    0.444   77.806    9.659
  155.000    0.255    0.456   84.634    9.843
  155.300    0.279    0.471   80.933   10.031
  155.600    0.284    0.466   77.853   10.417
  155.900    0.279    0.430   81.581   11.448
  156.200    0.295    0.425   83.456   11.889
  156.500    0.305    0.442   82.853   12.116
  156.800    0.298    0.452   85.963   12.582
  157.100    0.292    0.452   84.741   12.583
  157.400    0.294    0.446   77.943   12.348
  157.700    0.298    0.445   74.862   12.117
  158.000    0.304    0.445   78.592   12.118
  158.300    0.309    0.443   79.224   12.584
  158.600    0.304    0.436   78.001   13.572
  158.900    0.275    0.406   76.778   15.489
  159.200    0.201    0.331   76.793   17.677
  159.500    0.059    0.299   76.190   18.358
  159.800    0.069    0.285   76.205   17.023
  160.100    0.118    0.388   79.318   12.826
  160.400    0.143    0.430   86.145   10.036
  160.700    0.210    0.473   91.114    8.794
  161.000    0.281    0.457   91.749    8.155
  161.300    0.278    0.443   91.142    7.282
  161.600    0.270    0.480   97.352    6.753
  161.900    0.264    0.499  101.084    6.503
  162.200    0.258    0.489  101.098    6.145
  162.500    0.255    0.475  100.495    6.145
  162.800    0.255    0.474  101.750    5.807
  163.100    0.251    0.464  106.099    4.994
  163.400    0.267    0.517  109.214    4.376
  163.700    0.277    0.539  107.368    3.907
  164.000    0.261    0.512  102.427    3.623
  164.300    0.256    0.511  100.583    3.692
  164.600    0.266    0.524  101.837    4.058
  164.900    0.282    0.532  106.808    4.376
  165.200    0.272    0.538  103.729    4.631
  165.500    0.275    0.507  101.889    4.720
  165.800    0.280    0.480  103.143    4.295
  166.100    0.283    0.505  104.391    3.624
  166.400    0.289    0.546  113.076    3.236
  166.700    0.293    0.556  118.047    3.236
  167.000    0.279    0.551  111.869    3.557
  167.300    0.272    0.536  110.643    3.836
  167.600    0.266    0.526   93.936    4.215
  167.900    0.262    0.499   92.712    4.903
  168.200    0.255    0.495   95.204    5.810
  168.500    0.240    0.489   92.743    6.386
  168.800    0.231    0.479   91.518    7.151
  169.100    0.241    0.447   93.391    7.713
  169.400    0.250    0.440   95.883    7.860
  169.700    0.240    0.440   94.041    6.887
  170.000    0.242    0.447   90.960    5.389
  170.300    0.242    0.469   94.073    4.997
  170.600    0.247    0.494   96.564    5.093
  170.900    0.262    0.469   93.480    6.036
  171.200    0.285    0.474   89.161    6.888
  171.500    0.284    0.470   87.320    7.570
  171.800    0.272    0.467   86.714    8.320
  172.100    0.262    0.476   86.731    8.478
  172.400    0.273    0.447   87.983    8.479
  172.700    0.281    0.442   92.335    8.012
  173.000    0.278    0.474   97.923    7.571
  173.300    0.270    0.516  101.654    7.291
  173.600    0.263    0.517  101.052    6.761
  173.900    0.260    0.491   99.828    6.761
  174.201    0.255    0.476   94.884    6.762
  174.501    0.253    0.480   93.662    7.156
  174.801    0.259    0.465   93.059    7.431
  175.101    0.274    0.450   91.214    7.573
  175.401    0.309    0.454   85.652    7.023
  175.701    0.304    0.451   83.190    5.815
  176.001    0.292    0.475   99.311    4.550
  176.301    0.275    0.520   99.326    3.697
  176.601    0.262    0.560   94.388    3.061
  176.901    0.313    0.576   88.210    2.734
