~VERSION INFORMATION
 VERS.                 2.0:   CWLS LOG ASCII STANDARD -VERSION 2.0
 WRAP.                  NO:   ONE LINE PER DEPTH STEP
~WELL INFORMATION BLOCK
#MNEM.UNIT           DATA                    DESCRIPTION OF MNEMONIC
#---------    -------------------            -------------------------------
# Generated from Intellog Unique Number	CW_70_72/WELL/1056
NULL.         -999.25                        : NULL_VALUE
WELL.         SACKVILLE ET AL MITSUE 11-12   : Well_name    - WELL              
LOC .         11-12-071-03W5                 : Location     - LOCATION          
UWI .         00/11-12-071-03W5/2            : Uwi          - UNIQUE WELL ID    
ENTR.         JAYE                           : Entered      - ENTERED BY        
SRVC.         SCHLUMBERGER                   : Scn          - SERVICE COMPANY   
DATE.         9 DEC 77                       : Date         - LOG DATE          
STRT.M        417.576                        : top_depth    - START DEPTH       
STOP.M        652.326                        : bot_depth    - STOP DEPTH        
STEP.M        0.25                           : increment    - STEP LENGTH       
~CURVE INFORMATION BLOCK
#MNEM UNIT       ERCB CURVE CODE    CURVE DESCRIPTION
#-----------   ------------------   ----------------------------------
DEPT.M        00 001 00 00         : DEPTH        - DEPTH                       
DPHI.V/V      00 890 00 00         : PHID         - DENSITY POROSITY (SANDSTONE)
NPHI.V/V      00 330 00 00         : PHIN         - NEUTRON POROSITY (SANDSTONE)
GR  .API      00 310 00 00         : GR           - GAMMA RAY                   
CALI.MM       00 280 01 00         : CAL          - CALIPER                     
ILD .OHMM     00 120 00 00         : RESD         - DEEP RESISTIVITY (DIL)      
~PARAMETER INFORMATION       
#MNEM.UNIT           DATA             DESCRIPTION OF MNEMONIC
#---------         -----------     ------------------------------
GL  .M        610.514              : gl           - GROUND LEVEL ELEVATION      
EREF.M        613.562              : kb           - ELEVATION OF DEPTH REFERENCE
DATM.M        610.514              : datum        - DATUM ELEVATION             
TDD .M        659.892              : tdd          - TOTAL DEPTH DRILLER         
RUN .         ONE                  : Run          - RUN NUMBER                  
ENG .         KOOYMAN              : Engineer     - RECORDING ENGINEER          
WIT .         MINKEN/PODULSKY      : Witness      - WITNESSED BY                
BASE.         EDM                  : Branch       - HOME BASE OF LOGGING UNIT   
MUD .         GEL                  : Mud_type     - MUD TYPE                    
MATR.         SANDSTONE            : Logunit      - NEUTRON MATRIX              
TMAX.C        23.8889              : BHT          - MAXIMUM RECORDED TEMPERATURE
BHTD.M        658.063              : BHTDEP       - MAXIMUM RECORDED TEMPERATURE
RMT .C        10                   : MDTP         - TEMPERATURE OF MUD          
MUDD.KG/M     1140                 : MWT          - MUD DENSITY                 
NEUT.         1                    : NEUTRON      - NEUTRON TYPE                
RESI.         0                    : RESIST       - RESISTIVITY TYPE            
RM  .OHMM     4.33                 : RM           - RESISTIVITY OF MUD          
RMC .OHMM     0                    : RMC          - RESISTIVITY OF MUD CAKE     
RMF .OHMM     4.09                 : RMF          - RESISTIVITY OF MUD FILTRATE 
SUFT.C        -17.7778             : SUFT         - SURFACE TEMPERATURE         
~A  DEPTH     PHID     PHIN       GR      CAL     RESD
  417.576    0.203    0.434  132.116  180.656    3.298
  417.826    0.203    0.437  121.328  180.211    3.036
  418.076    0.232    0.450   91.489  176.388    2.707
  418.326    0.253    0.428   72.856  168.556    2.365
  418.576    0.256    0.406   55.156  163.887    2.156
  418.826    0.261    0.356   41.630  161.963    1.898
  419.076    0.264    0.323   30.655  160.247    1.727
  419.326    0.274    0.326   25.096  158.850    1.632
  419.576    0.286    0.329   23.088  158.394    1.542
  419.826    0.289    0.323   22.695  158.469    1.485
  420.076    0.285    0.314   22.680  158.439    1.451
  420.326    0.276    0.302   22.974  158.409    1.448
  420.576    0.265    0.307   24.079  158.595    1.477
  420.826    0.275    0.315   27.113  158.779    1.547
  421.076    0.273    0.325   30.955  159.171    1.611
  421.326    0.265    0.340   37.165  159.773    1.710
  421.576    0.267    0.347   38.706  160.379    1.804
  421.826    0.290    0.339   33.770  160.777    1.851
  422.076    0.299    0.336   35.185  160.853    1.906
  422.326    0.296    0.336   39.277  160.933    1.992
  422.576    0.288    0.316   48.101  161.533    2.099
  422.826    0.280    0.303   58.545  162.667    2.223
  423.076    0.259    0.340   71.913  165.273    2.412
  423.326    0.283    0.383   86.715  170.728    2.642
  423.576    0.306    0.412   98.901  182.508    2.889
  423.826    0.277    0.432  105.795  190.914    3.042
  424.076    0.255    0.448   95.504  184.244    3.081
  424.326    0.280    0.442   86.272  186.746    2.938
  424.576    0.273    0.441   80.278  179.335    2.741
  424.826    0.279    0.411   73.911  170.346    2.513
  425.076    0.225    0.379   67.358  158.828    2.275
  425.326    0.186    0.363   60.679  151.943    2.102
  425.576    0.235    0.355   67.761  148.959    1.938
  425.826    0.274    0.408   68.118  148.410    1.811
  426.076    0.297    0.394   71.276  149.855    1.757
  426.326    0.234    0.374   87.445  151.833    1.769
  426.576    0.228    0.405   92.847  154.858    1.812
  426.826    0.237    0.402   96.877  157.255    1.898
  427.076    0.224    0.391   94.245  158.807    2.048
  427.326    0.234    0.387   91.551  158.147    2.226
  427.576    0.249    0.381   91.904  153.693    2.407
  427.826    0.250    0.375   90.021  152.608    2.602
  428.076    0.220    0.363   88.699  154.686    2.840
  428.326    0.222    0.356   91.357  156.981    3.105
  428.576    0.210    0.366   96.945  161.269    3.258
  428.826    0.191    0.380  104.212  164.933    3.361
  429.076    0.204    0.408  109.177  170.913    3.391
  429.326    0.210    0.432  105.486  173.629    3.389
  429.576    0.219    0.438  105.533  172.652    3.375
  429.826    0.203    0.418  110.745  172.412    3.373
  430.076    0.194    0.415  115.398  172.907    3.353
  430.326    0.187    0.421  117.498  173.621    3.295
  430.576    0.175    0.427  120.344  174.962    3.208
  430.826    0.161    0.439  123.317  176.095    3.117
  431.076    0.174    0.458  127.285  177.014    3.047
  431.326    0.188    0.483  117.990  177.508    2.972
  431.576    0.200    0.465  116.355  178.009    2.926
  431.826    0.206    0.448  117.457  178.718    2.892
  432.076    0.195    0.429  119.498  179.429    2.858
  432.326    0.170    0.420  121.286  179.819    2.825
  432.576    0.189    0.438  123.134  180.113    2.766
  432.826    0.193    0.449  123.928  180.504    2.698
  433.076    0.179    0.456  123.975  181.420    2.612
  433.326    0.174    0.462  124.268  182.345    2.534
  433.576    0.185    0.479  124.377  182.949    2.453
  433.826    0.190    0.474  123.364  183.449    2.393
  434.076    0.203    0.477  123.098  182.049    2.352
  434.326    0.198    0.487  123.891  180.334    2.324
  434.576    0.176    0.478  125.990  181.990    2.297
  434.826    0.175    0.487  129.773  183.333    2.287
  435.076    0.188    0.479  131.248  184.782    2.273
  435.326    0.201    0.473  130.984  186.231    2.247
  435.576    0.218    0.484  131.214  186.833    2.212
  435.826    0.231    0.496  131.946  187.017    2.166
  436.076    0.234    0.508  133.735  185.195    2.121
  436.326    0.232    0.537  134.341  185.589    2.065
  436.576    0.243    0.545  130.401  187.984    2.007
  436.826    0.236    0.531  126.150  188.485    1.950
  437.076    0.223    0.524  124.825  189.297    1.906
  437.326    0.224    0.540  125.494  190.219    1.898
  437.576    0.219    0.544  123.112  191.451    1.900
  437.826    0.223    0.518  126.706  192.272    1.910
  438.076    0.234    0.499  124.074  191.819    1.938
  438.326    0.231    0.502  119.823  190.210    1.955
  438.576    0.226    0.519  115.387  189.655    1.965
  438.826    0.227    0.525  118.234  191.628    1.964
  439.076    0.228    0.502  121.704  194.975    1.970
  439.326    0.225    0.498  122.867  199.374    1.984
  439.576    0.231    0.511  122.977  197.976    2.016
  439.826    0.242    0.523  122.773  194.994    2.050
  440.076    0.229    0.531  122.507  193.804    2.083
  440.326    0.220    0.523  123.734  193.034    2.118
  440.576    0.225    0.513  125.650  192.480    2.168
  440.826    0.196    0.515  129.244  190.979    2.200
  441.076    0.194    0.519  125.491  187.469    2.228
  441.326    0.189    0.511  121.241  180.908    2.260
  441.576    0.180    0.510  118.485  183.725    2.289
  441.826    0.162    0.525  114.732  184.644    2.344
  442.076    0.149    0.545  108.613  182.506    2.396
  442.326    0.120    0.551  104.924  175.522    2.458
  442.576    0.064    0.488  108.641  162.633    2.484
  442.826    0.142    0.449  119.271  164.713    2.521
  443.076    0.180    0.486  124.424  171.853    2.576
  443.326    0.218    0.507  126.399  177.201    2.604
  443.576    0.225    0.521  127.190  182.230    2.603
  443.826    0.245    0.528  127.547  191.589    2.587
  444.076    0.302    0.562  128.963  180.172    2.571
  444.326    0.186    0.557  134.176  181.409    2.536
  444.576    0.188    0.512  136.898  187.602    2.511
  444.826    0.188    0.495  133.332  188.733    2.514
  445.076    0.182    0.500  127.962  187.228    2.537
  445.326    0.194    0.487  122.964  186.460    2.578
  445.576    0.188    0.455  119.647  186.641    2.636
  445.826    0.172    0.435  121.561  186.404    2.714
  446.076    0.175    0.447  122.415  184.267    2.821
  446.326    0.210    0.460  119.285  176.543    2.944
  446.576    0.226    0.462  113.728  167.976    3.095
  446.826    0.224    0.426  107.983  160.459    3.223
  447.076    0.225    0.387  105.411  159.475    3.344
  447.326    0.227    0.407  106.452  160.509    3.281
  447.576    0.228    0.423  108.057  165.013    3.071
  447.826    0.228    0.449  110.030  172.049    2.870
  448.076    0.227    0.483  110.948  176.977    2.507
  448.326    0.223    0.505  110.497  180.634    2.239
  448.576    0.226    0.522  106.247  180.923    2.285
  448.826    0.244    0.509  100.627  174.783    2.470
  449.076    0.250    0.440   96.376  171.482    2.788
  449.326    0.198    0.430   92.437  171.453    3.077
  449.576    0.162    0.448   84.451  170.585    3.339
  449.826    0.115    0.400   77.772  167.710    3.420
  450.076    0.188    0.408   79.001  163.676    3.443
  450.326    0.275    0.426   79.230  161.116    3.365
  450.576    0.271    0.408   78.157  160.242    3.252
  450.826    0.281    0.395   80.942  160.212    3.196
  451.076    0.285    0.381   83.227  160.393    3.224
  451.326    0.280    0.371   83.086  160.892    3.296
  451.576    0.258    0.368   81.888  160.865    3.400
  451.826    0.212    0.381   80.440  160.833    3.502
  452.076    0.165    0.399   83.534  161.234    3.566
  452.326    0.086    0.414   91.860  161.522    3.571
  452.576    0.120    0.415  102.429  163.180    3.549
  452.826    0.177    0.427  113.991  166.840    3.475
  453.076    0.191    0.449  110.427  170.816    3.320
  453.326    0.210    0.446  112.961  170.578    3.167
  453.576    0.208    0.446  118.612  173.820    3.089
  453.826    0.197    0.453  115.917  176.110    3.093
