~VERSION INFORMATION
 VERS.                 2.0:   CWLS LOG ASCII STANDARD -VERSION 2.0
 WRAP.                  NO:   ONE LINE PER DEPTH STEP
~WELL INFORMATION BLOCK
#MNEM.UNIT           DATA                    DESCRIPTION OF MNEMONIC
#---------    -------------------            -------------------------------
# Generated from Intellog Unique Number	CS_73_76/WELL/3244
WELL.         10-27-076-05W4                 : Well_name    - WELL
LOC .         00/10-27-076-05W4/0            : Location     - LOCATION
UWI .         00/10-27-076-05W4/0            : Uwi          - UNIQUE WELL ID
ENTR.         SP                             : Entered      - ENTERED BY
SRVC.         SCHLUMBERGER                   : Scn          - SERVICE COMPANY
STRT.M        160                            : top_depth    - START DEPTH
STOP.M        410                            : bot_depth    - STOP DEPTH
STEP.M        0.25                           : increment    - STEP LENGTH
 NULL. -999.2500:NULL Value
~CURVE INFORMATION BLOCK
#MNEM UNIT       ERCB CURVE CODE    CURVE DESCRIPTION
#-----------   ------------------   ----------------------------------
DEPT.M        00 001 00 00         : DEPTH        - DEPTH
DPHI.V/V      00 890 00 00         : PHID         - DENSITY POROSITY (LIMESTONE)
NPHI.V/V      00 330 00 00         : PHIN         - NEUTRON POROSITY (LIMESTONE)
GR  .API      00 310 00 00         : GR           - GAMMA RAY
ILD .OHMM     00 120 00 00         : RESD         - DEEP RESISTIVITY (DIL)
~PARAMETER INFORMATION
#MNEM.UNIT           DATA             DESCRIPTION OF MNEMONIC
#---------         -----------     ------------------------------
GL  .M        569.67               : gl           - GROUND LEVEL ELEVATION
EREF.M        573.87               : kb           - ELEVATION OF DEPTH REFERENCE
DATM.M        569.67               : datum        - DATUM ELEVATION
TDD .M        416.7                : tdd          - TOTAL DEPTH DRILLER
RUN .         ONE                  : Run          - RUN NUMBER
ENG .         BILL                 : Engineer     - RECORDING ENGINEER
WIT .         JIM                  : Witness      - WITNESSED BY
MUD .         GEL                  : Mud_type     - MUD TYPE
MATR.         LIMESTONE            : Logunit      - NEUTRON MATRIX
TMAX.C        36.7                 : BHT          - MAXIMUM RECORDED TEMPERATURE
BHTD.M        416.7                : BHTDEP       - MAXIMUM RECORDED TEMPERATURE
MATR.         1                    : LOGUNIT      - NEUTRON MATRIX
RMT .C        25                   : MDTP         - TEMPERATURE OF MUD
NEUT.         1                    : NEUTRON      - NEUTRON TYPE
RESI.         0                    : RESIST       - RESISTIVITY TYPE
RMC .OHMM     0.25                 : RMC          - RESISTIVITY OF MUD CAKE
RMF .OHMM     0.25                 : RMF          - RESISTIVITY OF MUD FILTRATE
SUFT.C        15                   : SUFT         - SURFACE TEMPERATURE
~A  DEPTH     PHID     PHIN       GR     RESD
# ...
  247.000    0.321    0.469   70.033   19.483
  247.250    0.303    0.474   74.294   19.140
  247.500    0.326    0.474   77.951   18.799
  247.750    0.325    0.478   86.469   18.467
  248.000    0.310    0.485   93.160   18.480
  248.250    0.318    0.493   94.388   16.855
  248.500    0.304    0.492   92.578   11.222
  248.750    0.248    0.497   93.806    7.200
  249.000    0.211    0.491   91.391    5.559
  249.250    0.193    0.491   89.583    4.454
  249.500    0.200    0.517   91.417    4.376
  249.750    0.196    0.531   95.072    4.544
  250.000    0.196    0.518   95.086    4.719
  250.250    0.225    0.524   91.454    4.899
  250.500    0.208    0.522   87.822    5.088
  250.750    0.247    0.489   84.798    5.186
  251.000    0.252    0.459   82.381    5.190
  251.250    0.212    0.471   90.289    5.004
  251.500    0.224    0.486   91.517    4.826
  251.750    0.232    0.523   87.888    4.654
  252.000    0.265    0.501   85.471    4.486
  252.250    0.263    0.486   82.445    4.247
  252.500    0.244    0.496   89.141    3.946
  252.750    0.196    0.499   93.404    3.735
  253.000    0.193    0.510   97.060    3.738
  253.250    0.248    0.534   97.681    3.811
  253.500    0.242    0.553   94.656    3.885
  253.750    0.251    0.562   91.028    4.108
  254.000    0.237    0.522   89.823    4.427
  254.250    0.225    0.484   89.232    4.771
  254.500    0.216    0.476   88.030    5.336
  254.750    0.232    0.471   86.826    5.857
  255.000    0.226    0.468   86.229    6.797
  255.250    0.238    0.464   83.206    7.889
  255.500    0.278    0.454   79.579    8.343
  255.750    0.278    0.459   77.161    9.330
  256.000    0.270    0.447   70.490   10.241
  256.250    0.270    0.443   70.506   10.440
  256.500    0.274    0.449   71.731    9.178
  256.750    0.273    0.459   79.641    7.352
  257.000    0.252    0.486   88.763    5.783
  257.250    0.230    0.512   95.454    4.465
  257.500    0.217    0.529   97.898    3.782
  257.750    0.207    0.538   99.125    3.387
  258.000    0.235    0.542  100.354    3.266
  258.250    0.241    0.544   99.151    3.455
  258.500    0.235    0.544   97.948    3.723
  258.750    0.246    0.553   96.746    4.088
  259.000    0.276    0.560   93.722    4.323
  259.250    0.305    0.563   86.446    4.834
  259.500    0.324    0.555   77.349    5.610
  259.750    0.333    0.508   69.466    6.881
  260.000    0.331    0.481   67.658    8.600
  260.250    0.324    0.468   65.849   10.167
  260.500    0.316    0.458   59.182   10.955
  260.750    0.308    0.452   55.550   11.591
  261.000    0.306    0.450   55.564   12.035
  261.250    0.306    0.451   56.184   12.269
  261.500    0.308    0.440   56.199   12.276
  261.750    0.320    0.446   58.639   12.058
  262.000    0.319    0.457   60.473   11.628
  262.250    0.317    0.468   61.701   11.421
  262.500    0.317    0.460   62.323   11.017
  262.750    0.320    0.456   61.727   11.020
  263.000    0.342    0.460   60.524   10.827
  263.250    0.341    0.466   59.928   10.834
  263.500    0.324    0.462   59.337   10.839
  263.750    0.332    0.465   58.134   10.652
  264.000    0.344    0.454   58.144   10.655
  264.250    0.358    0.461   58.765   10.861
  264.500    0.370    0.475   55.742   11.705
  264.750    0.339    0.460   54.541   12.850
  265.000    0.313    0.431   53.946   13.342
  265.250    0.303    0.436   54.567   13.600
  265.500    0.301    0.447   56.400   13.610
  265.750    0.310    0.458   60.666   13.369
  266.000    0.325    0.473   63.712   13.378
  266.250    0.315    0.449   62.512   13.143
  266.500    0.324    0.438   61.309   12.910
  266.750    0.328    0.447   65.576   12.915
  267.000    0.324    0.454   66.800   12.687
  267.250    0.307    0.461   65.599   12.934
  267.500    0.303    0.455   64.398   12.942
  267.750    0.307    0.453   62.588   12.952
  268.000    0.305    0.449   59.564   13.202
  268.250    0.304    0.441   60.791   13.460
  268.500    0.317    0.440   61.413   13.718
  268.750    0.314    0.449   58.995   13.726
  269.000    0.311    0.444   59.007   13.992
  269.250    0.312    0.438   58.419   14.262
  269.500    0.270    0.444   58.425   14.272
  269.750    0.170    0.432   56.616   14.549
  270.000    0.048    0.349   54.202   15.108
  270.250    0.014    0.176   52.392   15.686
  270.500    0.025    0.165   51.190   20.345
  270.750    0.054    0.201   49.987   28.942
  271.000    0.125    0.262   51.214   49.555
  271.250    0.189    0.319   53.657   41.203
  271.500    0.257    0.387   55.491   28.999
  271.750    0.327    0.429   57.934   20.410
  272.000    0.316    0.422   56.731   15.188
  272.250    0.328    0.411   54.923   13.597
  272.500    0.328    0.416   53.114   12.872
  272.750    0.327    0.422   51.307   12.881
  273.000    0.330    0.434   52.533   12.889
  273.250    0.334    0.427   53.759   12.896
  273.500    0.324    0.428   55.597   12.907
  273.750    0.339    0.427   56.214   12.918
  274.000    0.342    0.421   56.225   12.924
  274.250    0.329    0.417   56.240   12.935
  274.500    0.324    0.415   52.608   12.941
  274.750    0.319    0.425   52.017   12.714
  275.000    0.320    0.447   53.245   12.720
  275.250    0.329    0.466   54.470   12.730
  275.500    0.332    0.468   55.695   12.736
  275.750    0.349    0.458   56.315   12.512
  276.000    0.347    0.445   53.900   12.521
  276.250    0.325    0.441   52.699   12.526
  276.500    0.330    0.452   53.924   12.536
  276.750    0.331    0.435   55.155   12.546
  277.000    0.318    0.430   55.165   12.321
  277.250    0.329    0.442   54.573   12.104
  277.500    0.330    0.455   54.585   11.890
  277.750    0.330    0.466   55.203   11.678
  278.000    0.326    0.454   56.431   10.652
  278.250    0.321    0.460   58.266    9.539
  278.500    0.328    0.483   60.707    9.029
  278.750    0.331    0.509   64.975    8.707
  279.000    0.332    0.511   63.768    8.876
  279.250    0.340    0.497   59.531    9.047
  279.500    0.337    0.477   61.365    9.393
  279.750    0.328    0.480   65.630   10.124
  280.000    0.338    0.492   62.605   10.514
  280.250    0.343    0.482   57.760   10.718
  280.500    0.328    0.473   57.773   10.922
  280.750    0.322    0.467   59.607   10.929
  281.000    0.328    0.479   59.012   10.937
  281.250    0.326    0.483   59.636   11.149
  281.500    0.315    0.498   60.862   11.364
  281.750    0.322    0.497   62.694   11.371
  282.000    0.311    0.490   67.566   10.765
  282.250    0.269    0.486   73.046    9.117
  282.500    0.231    0.495   79.740    6.299
  282.750    0.236    0.522   85.824    4.516
  283.000    0.266    0.548   87.052    3.687
  283.250    0.286    0.574   87.676    3.122
  283.500    0.297    0.598   88.899    2.694
  283.750    0.281    0.608   91.951    2.458
  284.000    0.300    0.561   96.215    2.414
  284.250    0.265    0.540   99.262    2.461
  284.500    0.232    0.529  101.704    2.556
  284.750    0.207    0.543  102.323    2.703
  285.000    0.234    0.549   98.087    2.807
  285.250    0.225    0.539   96.883    2.970
  285.500    0.237    0.545   95.685    2.971
  285.750    0.241    0.562   95.093    2.974
  286.000    0.267    0.578   95.100    2.975
  286.250    0.295    0.603   94.505    3.033
  286.500    0.294    0.587   90.874    3.208
  286.750    0.244    0.503   89.675    3.588
  287.000    0.225    0.472   93.331    4.087
  287.250    0.229    0.482   92.734    4.486
  287.500    0.244    0.495   89.711    5.207
  287.750    0.255    0.477   92.152    5.931
  288.000    0.256    0.482   97.632    6.392
  288.250    0.234    0.493  110.400    6.636
  288.500    0.244    0.508  118.913    6.893
  288.750    0.251    0.539   99.495    7.026
  289.000    0.262    0.510   92.218    7.295
  289.250    0.262    0.465   83.726    7.576
  289.500    0.260    0.458   75.845    8.013
  289.750    0.279    0.455   69.783    8.635
  290.000    0.286    0.446   63.722    9.305
  290.250    0.283    0.443   65.560    9.845
