~VERSION INFORMATION
 VERS.                 2.0:   CWLS LOG ASCII STANDARD -VERSION 2.0
 WRAP.                  NO:   ONE LINE PER DEPTH STEP
~WELL INFORMATION BLOCK
#MNEM.UNIT           DATA                    DESCRIPTION OF MNEMONIC
#---------    -------------------            -------------------------------
# Generated from Intellog Unique Number	CS_77_79/WELL/983
WELL.         HOME OIL COMPANY LIMITED       : Well_name    - WELL
LOC .         00/11-02-077-08W4/0            : Location     - LOCATION
UWI .         00/11-02-077-08W4/0            : Uwi          - UNIQUE WELL ID
ENTR.         SP                             : Entered      - ENTERED BY
SRVC.         SCHLUMBERGER                   : Scn          - SERVICE COMPANY
STRT.M        150                            : top_depth    - START DEPTH
STOP.M        380                            : bot_depth    - STOP DEPTH
STEP.M        0.25                           : increment    - STEP LENGTH
 NULL. -999.2500:NULL Value
~CURVE INFORMATION BLOCK
#MNEM UNIT       ERCB CURVE CODE    CURVE DESCRIPTION
#-----------   ------------------   ----------------------------------
DEPT.M        00 001 00 00         : DEPTH        - DEPTH
ILD .OHMM     00 120 00 00         : RESD         - DEEP RESISTIVITY (DIL)
DPHI.V/V      00 890 00 00         : PHID         - DENSITY POROSITY (LIMESTONE)
NPHI.V/V      00 330 00 00         : PHIN         - NEUTRON POROSITY (LIMESTONE)
GR  .API      00 310 00 00         : GR           - GAMMA RAY
~PARAMETER INFORMATION
#MNEM.UNIT           DATA             DESCRIPTION OF MNEMONIC
#---------         -----------     ------------------------------
GL  .M        575.6                : gl           - GROUND LEVEL ELEVATION
EREF.M        579.11               : kb           - ELEVATION OF DEPTH REFERENCE
DATM.M        575.61               : datum        - DATUM ELEVATION
TDD .M        400                  : tdd          - TOTAL DEPTH DRILLER
RUN .         ONE                  : Run          - RUN NUMBER
ENG .         BILL                 : Engineer     - RECORDING ENGINEER
WIT .         JIM                  : Witness      - WITNESSED BY
MUD .         GEL                  : Mud_type     - MUD TYPE
MATR.         LIMESTONE            : Logunit      - NEUTRON MATRIX
TMAX.C        36                   : BHT          - MAXIMUM RECORDED TEMPERATURE
BHTD.M        400                  : BHTDEP       - MAXIMUM RECORDED TEMPERATURE
MATR.         1                    : LOGUNIT      - NEUTRON MATRIX
RMT .C        25                   : MDTP         - TEMPERATURE OF MUD
NEUT.         1                    : NEUTRON      - NEUTRON TYPE
RESI.         0                    : RESIST       - RESISTIVITY TYPE
RMC .OHMM     0.25                 : RMC          - RESISTIVITY OF MUD CAKE
RMF .OHMM     0.25                 : RMF          - RESISTIVITY OF MUD FILTRATE
SUFT.C        15                   : SUFT         - SURFACE TEMPERATURE
~A  DEPTH     RESD     PHID     PHIN       GR
# ...
  193.500   23.411    0.312    0.326   61.139
  193.750   24.770    0.317    0.330   62.384
  194.000   24.780    0.318    0.334   66.719
  194.250   24.335    0.315    0.348   69.198
  194.500   22.184    0.314    0.324   73.531
  194.750   20.985    0.293    0.295   77.860
  195.000   18.778    0.259    0.304   83.428
  195.250   17.437    0.264    0.301   86.526
  195.500   15.894    0.251    0.280   89.623
  195.750   14.487    0.229    0.273   93.337
  196.000   13.205    0.214    0.288   97.668
  196.250   11.383    0.190    0.281  108.791
  196.500   10.185    0.196    0.307  118.680
  196.750    9.636    0.185    0.364  119.924
  197.000    8.949    0.195    0.404  126.729
  197.250    8.625    0.200    0.416  127.355
  197.500    8.630    0.199    0.458  124.900
  197.750    8.960    0.204    0.394  121.818
  198.000    9.840    0.213    0.344  100.225
  198.250   10.804    0.215    0.292   99.619
  198.500   11.865    0.230    0.271  100.245
  198.750   12.094    0.235    0.286  107.046
  199.000   11.656    0.221    0.300  118.786
  199.250   10.825    0.212    0.330  131.143
  199.500    9.868    0.199    0.347  130.538
  199.750    9.335    0.207    0.355  128.079
  200.000    8.999    0.226    0.337  118.213
  200.250    9.345    0.253    0.334  111.432
  200.500   10.261    0.276    0.325  106.505
  200.750   11.695    0.304    0.314  100.346
  201.000   11.920    0.289    0.303   98.501
  201.250   12.151    0.243    0.311  102.215
  201.500   11.931    0.253    0.329  106.549
  201.750   11.502    0.259    0.338  108.410
  202.000   11.506    0.250    0.338  115.831
  202.250   11.950    0.250    0.337  114.608
  202.500   12.407    0.259    0.328  110.914
  202.750   12.885    0.260    0.317  102.899
  203.000   13.134    0.260    0.305  100.441
  203.250   13.386    0.266    0.292  105.389
  203.500   13.145    0.261    0.276  102.316
  203.750   12.671    0.250    0.279  106.645
  204.000   12.213    0.239    0.287  114.065
  204.250   11.771    0.228    0.302  114.691
  204.500   11.346    0.212    0.311  112.234
  204.750   11.141    0.229    0.351  109.774
  205.000   10.943    0.245    0.364   99.290
  205.250   10.947    0.241    0.345   93.128
  205.500   11.158    0.272    0.330   87.583
  205.750   11.372    0.269    0.308   83.275
  206.000   11.811    0.274    0.303   82.666
  206.250   11.815    0.268    0.311   84.534
  206.500   12.043    0.273    0.320   82.072
  206.750   11.826    0.278    0.318   80.229
  207.000   11.613    0.261    0.329   80.858
  207.250   12.059    0.251    0.369   84.573
  207.500   13.492    0.258    0.404   78.410
  207.750   15.094    0.273    0.397   71.014
  208.000   17.201    0.281    0.353   65.468
  208.250   21.122    0.287    0.295   59.922
  208.500   24.986    0.291    0.309   59.933
  208.750   29.012    0.302    0.311   63.032
  209.000   31.270    0.297    0.300   65.511
  209.250   33.704    0.291    0.302   61.822
  209.500   35.662    0.293    0.319   61.829
  209.750   37.033    0.296    0.349   61.840
  210.000   37.046    0.301    0.374   61.235
  210.250   38.478    0.302    0.351   60.011
  210.500   39.220    0.306    0.336   61.873
  210.750   39.235    0.310    0.306   64.351
  211.000   39.989    0.315    0.321   62.510
  211.250   40.009    0.309    0.335   60.673
  211.500   40.779    0.298    0.302   60.066
  211.750   40.795    0.293    0.291   60.074
  212.000   40.810    0.296    0.304   61.320
  212.250   41.606    0.302    0.318   66.269
  212.500   42.401    0.308    0.335   63.196
  212.750   42.418    0.314    0.348   61.971
  213.000   43.245    0.320    0.356   61.365
  213.250   44.077    0.328    0.369   61.373
  213.500   44.920    0.330    0.382   61.386
  213.750   44.950    0.333    0.392   62.014
  214.000   44.961    0.337    0.398   62.024
  214.250   44.154    0.333    0.392   62.653
  214.500   43.363    0.326    0.375   63.897
  214.750   43.385    0.332    0.356   63.290
  215.000   43.396    0.334    0.365   63.300
  215.250   42.613    0.326    0.375   62.695
  215.500   41.851    0.328    0.356   60.855
  215.750   38.864    0.332    0.343   60.864
  216.000   32.883    0.322    0.316   62.728
  216.250   28.878    0.328    0.333   63.355
  216.500   27.325    0.333    0.374   61.513
  216.750   27.847    0.335    0.396   64.615
  217.000   29.463    0.334    0.377   65.858
  217.250   34.212    0.329    0.359   68.957
  217.500   38.989    0.327    0.351   69.582
  217.750   43.620    0.329    0.331   70.212
  218.000   43.643    0.329    0.307   73.925
  218.250   42.855    0.339    0.323   70.849
  218.500   42.874    0.356    0.338   70.243
  218.750   44.525    0.345    0.348   70.870
  219.000   45.377    0.332    0.350   67.178
  219.250   45.413    0.330    0.378   66.570
  219.500   45.435    0.332    0.392   67.199
  219.750   45.449    0.332    0.417   66.591
  220.000   45.462    0.339    0.431   71.544
  220.250   43.821    0.339    0.405   74.023
  220.500   39.943    0.345    0.357   72.182
  220.750   35.082    0.345    0.338   69.721
  221.000   31.387    0.340    0.325   69.736
  221.250   29.149    0.335    0.328   72.215
  221.500   29.162    0.328    0.330   72.841
  221.750   31.431    0.331    0.342   72.234
  222.000   33.877    0.335    0.357   69.775
  222.250   35.837    0.335    0.352   67.317
  222.500   37.224    0.335    0.328   71.649
  222.750   37.241    0.339    0.311   71.044
  223.000   37.259    0.339    0.342   71.672
  223.250   36.591    0.337    0.390   69.832
  223.500   36.607    0.331    0.406   67.988
  223.750   36.621    0.341    0.381   64.915
  224.000   36.634    0.339    0.388   64.923
  224.250   36.650    0.332    0.391   70.489
  224.500   37.364    0.336    0.376   66.182
  224.750   37.380    0.337    0.352   65.573
  225.000   37.392    0.338    0.325   67.437
  225.250   37.407    0.338    0.314   65.594
  225.500   36.737    0.338    0.341   63.753
  225.750   36.750    0.336    0.358   63.149
  226.000   36.093    0.330    0.358   62.539
  226.250   35.443    0.335    0.354   64.404
  226.500   35.461    0.341    0.364   63.178
  226.750   35.483    0.343    0.376   62.572
  227.000   34.839    0.344    0.375   61.967
  227.250   34.850    0.338    0.381   62.594
  227.500   34.877    0.332    0.405   62.606
  227.750   34.891    0.329    0.417   60.149
  228.000   34.908    0.322    0.380   64.480
  228.250   34.275    0.330    0.365   65.723
  228.500   34.286    0.331    0.371   63.270
  228.750   34.309    0.332    0.383   62.660
  229.000   34.319    0.330    0.406   61.435
  229.250   34.342    0.336    0.412   60.211
  229.500   34.353    0.333    0.371   60.840
  229.750   34.366    0.333    0.336   60.853
  230.000   35.031    0.341    0.315   59.628
  230.250   34.400    0.338    0.326   60.872
  230.500   34.415    0.327    0.350   63.353
  230.750   35.079    0.326    0.356   65.835
  231.000   34.446    0.328    0.333   67.080
  231.250   35.115    0.323    0.337   67.707
  231.500   35.131    0.312    0.340   67.716
  231.750   35.147    0.310    0.336   67.109
  232.000   35.159    0.308    0.336   64.034
  232.250   34.530    0.303    0.359   63.427
  232.500   33.908    0.301    0.370   64.061
  232.750   32.684    0.296    0.379   64.684
  233.000   30.352    0.300    0.370   69.017
  233.250   27.156    0.303    0.288   70.262
  233.500   24.295    0.309    0.307   68.420
  233.750   20.944    0.312    0.333   67.814
  234.000   17.394    0.306    0.333   69.677
  234.250   14.992    0.304    0.349   75.860
  234.500   12.925    0.307    0.384   85.747
  234.750   11.351    0.268    0.441   99.956
  235.000   10.539    0.243    0.479  103.671
  235.250    9.258    0.235    0.484  105.537
  235.500    8.598    0.229    0.346  101.224
  235.750    8.441    0.218    0.334  100.001
  236.000    7.987    0.233    0.339  100.010
  236.250    7.417    0.246    0.357   96.934
  236.500    7.018    0.262    0.341  100.036
  236.750    6.765    0.256    0.345  101.894
