~VERSION INFORMATION
 VERS.                 2.0:   CWLS LOG ASCII STANDARD -VERSION 2.0
 WRAP.                  NO:   ONE LINE PER DEPTH STEP
~WELL INFORMATION BLOCK
#MNEM.UNIT           DATA                    DESCRIPTION OF MNEMONIC
#---------    -------------------            -------------------------------
# Generated from Intellog Unique Number	CW_70_72/WELL/1062
NULL.         -999.25                        : NULL_VALUE
WELL.         MIKAS AMOCO CALLLING LAKE 11-3 : Well_name    - WELL              
LOC .         11-34-071-20W4                 : Location     - LOCATION          
UWI .         00/11-34-071-20W4/0            : Uwi          - UNIQUE WELL ID    
ENTR.         JAYE                           : Entered      - ENTERED BY        
SRVC.         SCHLUMBERGER                   : Scn          - SERVICE COMPANY   
DATE.         8 FEB 73                       : Date         - LOG DATE          
STRT.M        320.04                         : top_depth    - START DEPTH       
STOP.M        533.04                         : bot_depth    - STOP DEPTH        
STEP.M        0.25                           : increment    - STEP LENGTH       
~CURVE INFORMATION BLOCK
#MNEM UNIT       ERCB CURVE CODE    CURVE DESCRIPTION
#-----------   ------------------   ----------------------------------
DEPT.M        00 001 00 00         : DEPTH        - DEPTH                       
DPHI.V/V      00 890 00 00         : PHID         - DENSITY POROSITY (SANDSTONE)
NPHI.V/V      00 330 00 00         : PHIN         - NEUTRON POROSITY (SANDSTONE)
GR  .API      00 310 00 00         : GR           - GAMMA RAY                   
CALI.MM       00 280 01 00         : CAL          - CALIPER                     
ILD .OHMM     00 120 00 00         : RESD         - DEEP RESISTIVITY (DIL)      
~PARAMETER INFORMATION       
#MNEM.UNIT           DATA             DESCRIPTION OF MNEMONIC
#---------         -----------     ------------------------------
GL  .M        591.83               : gl           - GROUND LEVEL ELEVATION      
EREF.M        594.97               : kb           - ELEVATION OF DEPTH REFERENCE
DATM.M        591.83               : datum        - DATUM ELEVATION             
TDD .M        541.63               : tdd          - TOTAL DEPTH DRILLER         
RUN .         ONE                  : Run          - RUN NUMBER                  
ENG .         MACIJUK              : Engineer     - RECORDING ENGINEER          
WIT .         LEWIN/CONVENEY       : Witness      - WITNESSED BY                
BASE.         EDM                  : Branch       - HOME BASE OF LOGGING UNIT   
MUD .         GEL                  : Mud_type     - MUD TYPE                    
MATR.         SANDSTONE            : Logunit      - NEUTRON MATRIX              
TMAX.C        25.5556              : BHT          - MAXIMUM RECORDED TEMPERATURE
BHTD.M        540.41               : BHTDEP       - MAXIMUM RECORDED TEMPERATURE
RMT .C        15                   : MDTP         - TEMPERATURE OF MUD          
MUDD.KG/M     1104                 : MWT          - MUD DENSITY                 
NEUT.         1                    : NEUTRON      - NEUTRON TYPE                
RESI.         0                    : RESIST       - RESISTIVITY TYPE            
RM  .OHMM     4.44                 : RM           - RESISTIVITY OF MUD          
RMC .OHMM     0                    : RMC          - RESISTIVITY OF MUD CAKE     
RMF .OHMM     4.5                  : RMF          - RESISTIVITY OF MUD FILTRATE 
SUFT.C        0                    : SUFT         - SURFACE TEMPERATURE         
~A  DEPTH     PHID     PHIN       GR      CAL     RESD
# ...
  356.540    0.267    0.600  100.978  185.016    3.743
  356.790    0.244    0.613   97.538  179.507    4.354
  357.040    0.232    0.571   91.299  178.336    4.936
  357.290    0.231    0.501   83.958  173.035    5.956
  357.540    0.252    0.453   76.438  162.465    7.704
  357.790    0.218    0.433   78.736  160.577    8.328
  358.040    0.160    0.418   81.276  160.651    7.734
  358.290    0.172    0.395   80.713  161.127    7.090
  358.540    0.178    0.404   80.991  161.827    6.267
  358.790    0.191    0.454   82.069  161.675    5.610
  359.040    0.235    0.456   83.632  161.840    5.267
  359.290    0.241    0.450   86.417  161.907    4.937
  359.540    0.219    0.464   90.173  161.981    4.669
  359.790    0.222    0.506   88.629  161.631    4.344
  360.040    0.261    0.534   86.298  161.593    4.034
  360.290    0.286    0.510   84.075  161.678    3.794
  360.540    0.287    0.493   81.192  162.156    3.655
  360.790    0.284    0.493   77.570  162.221    3.547
  361.040    0.280    0.478   74.320  162.282    3.524
  361.290    0.274    0.433   73.260  162.152    3.619
  361.540    0.303    0.417   73.726  162.017    3.941
  361.790    0.310    0.418   75.480  162.176    4.395
  362.040    0.300    0.419   79.414  162.858    4.804
  362.290    0.265    0.417   85.800  164.597    5.136
  362.540    0.239    0.429   89.862  166.101    5.451
  362.790    0.219    0.462   92.524  168.237    5.609
  363.040    0.223    0.538   87.564  169.436    5.719
  363.290    0.241    0.533   85.167  170.227    5.799
  363.540    0.222    0.521   85.754  170.917    5.835
  363.790    0.242    0.530   86.586  171.292    5.895
  364.040    0.241    0.521   87.298  171.468    5.956
  364.290    0.234    0.513   88.196  171.424    6.016
  364.540    0.229    0.509   89.760  171.392    6.114
  364.790    0.227    0.512   91.136  170.946    6.152
  365.040    0.230    0.518   92.461  169.683    6.204
  365.290    0.223    0.508   93.044  169.525    6.209
  365.540    0.218    0.508   91.255  168.974    6.159
  365.790    0.221    0.500   85.871  167.287    6.166
  366.040    0.240    0.492   88.897  166.630    6.228
  366.290    0.249    0.481   92.781  167.004    6.269
  366.540    0.244    0.475   90.928  167.909    6.184
  366.790    0.227    0.489   91.396  168.593    6.156
  367.040    0.226    0.498   95.034  169.386    6.085
  367.290    0.232    0.512   93.978  169.861    6.058
  367.540    0.217    0.530   89.074  170.249    5.997
  367.790    0.212    0.538   91.314  170.929    5.948
  368.040    0.220    0.526   93.913  171.307    5.934
  368.290    0.214    0.550   91.451  171.477    5.907
  368.540    0.208    0.565   91.677  171.239    5.901
  368.790    0.213    0.549   95.196  171.103    5.918
  369.040    0.217    0.540   96.635  171.371    5.936
  369.290    0.229    0.543   93.443  171.443    5.941
  369.540    0.220    0.529   90.130  170.788    5.980
  369.790    0.215    0.528   86.698  170.747    5.954
  370.040    0.223    0.509   84.116  170.607    5.959
  370.290    0.220    0.504   82.929  170.476    5.846
  370.540    0.216    0.479   81.210  170.231    5.715
  370.790    0.226    0.493   80.085  169.999    5.617
  371.040    0.237    0.509   78.232  169.840    5.572
  371.290    0.219    0.506   75.164  169.399    5.557
  371.540    0.227    0.484   72.582  169.167    5.552
  371.790    0.236    0.470   73.290  168.812    5.568
  372.040    0.238    0.481   74.124  168.264    5.614
  372.290    0.231    0.480   74.224  167.609    5.661
  372.540    0.236    0.467   74.695  166.841    5.668
  372.790    0.230    0.471   76.931  166.910    5.683
  373.040    0.220    0.505   79.352  166.778    5.741
  373.290    0.210    0.524   81.763  166.637    5.822
  373.540    0.219    0.533   85.770  166.604    5.892
  373.790    0.231    0.510   88.247  165.219    5.930
  374.040    0.237    0.483   89.322  166.116    5.926
  374.290    0.230    0.492   86.862  165.484    5.921
  374.540    0.219    0.518   81.301  165.129    5.884
  374.790    0.223    0.545   79.563  164.895    5.868
  375.040    0.233    0.534   83.264  164.957    5.853
  375.290    0.249    0.517   88.853  164.914    5.815
  375.540    0.241    0.542   88.593  164.256    5.791
  375.790    0.231    0.543   84.060  163.405    5.764
  376.040    0.217    0.517   80.928  162.430    5.728
  376.290    0.216    0.530   79.502  161.564    5.670
  376.540    0.226    0.519   78.204  160.808    5.595
  376.790    0.229    0.497   77.145  160.457    5.538
  377.040    0.235    0.486   78.890  159.513    5.463
  377.290    0.226    0.495   82.590  159.372    5.370
  377.540    0.234    0.479   78.604  159.131    5.268
  377.790    0.234    0.474   73.708  158.685    5.084
  378.040    0.223    0.486   74.719  158.542    4.951
  378.290    0.230    0.492   77.264  158.392    4.813
  378.540    0.227    0.506   80.043  158.144    4.586
  378.790    0.228    0.508   83.926  158.529    4.369
  379.040    0.232    0.513   86.528  158.483    4.239
  379.290    0.242    0.516   79.981  158.463    4.099
  379.540    0.257    0.522   73.312  158.626    4.096
  379.790    0.282    0.498   65.364  158.686    4.245
  380.040    0.291    0.485   66.692  158.550    4.513
  380.290    0.274    0.474   71.114  159.241    4.915
  380.540    0.255    0.457   76.642  161.168    5.217
  380.790    0.231    0.461   79.549  163.110    5.387
  381.040    0.216    0.479   81.053  164.419    5.502
  381.290    0.211    0.497   82.011  165.301    5.528
  381.540    0.212    0.542   82.970  165.976    5.257
  381.790    0.232    0.573   83.127  166.770    4.918
  382.040    0.258    0.595   80.544  169.008    4.484
  382.290    0.240    0.609   83.570  172.167    4.241
  382.540    0.261    0.612   84.895  173.894    4.153
  382.790    0.287    0.612   82.249  173.661    4.180
  383.040    0.285    0.612   84.121  172.992    4.200
  383.290    0.278    0.610   85.436  171.209    4.113
  383.540    0.293    0.608   79.200  168.893    3.933
  383.790    0.315    0.598   73.688  164.933    3.625
  384.040    0.307    0.572   66.837  160.878    3.312
  384.290    0.314    0.514   56.940  158.991    3.138
  384.540    0.333    0.489   52.892  158.640    3.006
  384.790    0.351    0.472   52.077  158.294    2.912
  385.040    0.342    0.467   51.024  158.359    2.878
  385.290    0.337    0.462   49.170  158.840    2.865
  385.540    0.341    0.462   45.309  159.217    2.879
  385.790    0.356    0.474   45.350  159.592    2.908
  386.040    0.367    0.497   46.550  159.784    2.942
  386.290    0.369    0.518   47.929  160.055    2.995
  386.540    0.377    0.533   49.368  160.425    3.042
  386.790    0.389    0.538   50.447  160.692    3.068
  387.040    0.370    0.517   51.109  161.065    3.071
  387.290    0.355    0.501   51.328  161.236    3.074
  387.540    0.337    0.489   51.435  161.413    3.099
  387.790    0.364    0.479   51.712  161.695    3.132
  388.040    0.367    0.466   51.931  161.657    3.163
  388.290    0.333    0.455   51.911  161.407    3.225
  388.540    0.336    0.464   51.525  160.750    3.275
  388.790    0.344    0.477   50.950  160.820    3.340
  389.040    0.352    0.481   49.892  160.886    3.430
  389.290    0.338    0.486   49.632  160.758    3.594
  389.540    0.320    0.494   50.156  160.204    3.773
  389.790    0.307    0.507   51.232  159.542    3.954
  390.040    0.313    0.515   52.795  159.310    4.068
  390.290    0.337    0.535   54.421  159.491    4.163
  390.540    0.344    0.579   55.985  159.441    4.129
  390.790    0.319    0.554   58.222  159.409    4.058
  391.040    0.318    0.524   60.517  159.484    4.055
  391.290    0.308    0.493   63.855  159.639    4.111
  391.540    0.317    0.471   66.519  159.829    4.316
  391.790    0.321    0.477   68.139  160.099    4.606
  392.040    0.320    0.479   69.950  160.259    4.961
  392.290    0.312    0.469   71.940  160.012    5.333
  392.540    0.298    0.443   70.028  158.635    5.872
  392.790    0.271    0.410   64.642  158.906    6.302
