~VERSION INFORMATION
 VERS.                 2.0:   CWLS LOG ASCII STANDARD -VERSION 2.0
 WRAP.                  NO:   ONE LINE PER DEPTH STEP
~WELL INFORMATION BLOCK
#MNEM.UNIT           DATA                    DESCRIPTION OF MNEMONIC
#---------    -------------------            -------------------------------
# Generated from Intellog Unique Number	CS_77_79/WELL/3307
WELL.         UNIVERSAL EXPLORATIONS LTD.    : Well_name    - WELL
LOC .         00/13-24-078-07W4/0            : Location     - LOCATION
UWI .         00/13-24-078-07W4/0            : Uwi          - UNIQUE WELL ID
ENTR.         JOETTE                         : Entered      - ENTERED BY
SRVC.         SCHLUMBERGER                   : Scn          - SERVICE COMPANY
DATE.         08-26-92                       : Date         - LOG DATE
STRT.M        125                            : top_depth    - START DEPTH
STOP.M        321                            : bot_depth    - STOP DEPTH
STEP.M        0.25                           : increment    - STEP LENGTH
 NULL. -999.2500:NULL Value
~CURVE INFORMATION BLOCK
#MNEM UNIT       ERCB CURVE CODE    CURVE DESCRIPTION
#-----------   ------------------   ----------------------------------
DEPT.M        00 001 00 00         : DEPTH        - DEPTH
ILD .OHMM     00 120 00 00         : RESD         - DEEP RESISTIVITY (DIL)
DPHI.V/V      00 890 00 00         : PHID         - DENSITY POROSITY (SANDSTONE)
NPHI.V/V      00 330 00 00         : PHIN         - NEUTRON POROSITY (SANDSTONE)
GR  .API      00 310 00 00         : GR           - GAMMA RAY
~PARAMETER INFORMATION
#MNEM.UNIT           DATA             DESCRIPTION OF MNEMONIC
#---------         -----------     ------------------------------
GL  .M        547.2                : gl           - GROUND LEVEL ELEVATION
EREF.M        550.73               : kb           - ELEVATION OF DEPTH REFERENCE
DATM.M        550.73               : datum        - DATUM ELEVATION
TDD .M        325                  : tdd          - TOTAL DEPTH DRILLER
RUN .         ONE                  : Run          - RUN NUMBER
ENG .         BILL                 : Engineer     - RECORDING ENGINEER
WIT .         JIM                  : Witness      - WITNESSED BY
MUD .         GEL                  : Mud_type     - MUD TYPE
MATR.         SANDSTONE            : Logunit      - NEUTRON MATRIX
TMAX.C        18                   : BHT          - MAXIMUM RECORDED TEMPERATURE
BHTD.M        325                  : BHTDEP       - MAXIMUM RECORDED TEMPERATURE
MATR.         1                    : LOGUNIT      - NEUTRON MATRIX
RMT .C        16                   : MDTP         - TEMPERATURE OF MUD
NEUT.         1                    : NEUTRON      - NEUTRON TYPE
RESI.         0                    : RESIST       - RESISTIVITY TYPE
RMC .OHMM     0.533                : RMC          - RESISTIVITY OF MUD CAKE
RMF .OHMM     0.533                : RMF          - RESISTIVITY OF MUD FILTRATE
SUFT.C        15                   : SUFT         - SURFACE TEMPERATURE
~A  DEPTH     RESD     PHID     PHIN       GR
# ...
  255.500    8.071    0.306    0.433   75.758
  255.750    8.223    0.308    0.436   75.751
  256.000    8.536    0.311    0.441   75.736
  256.250    8.696    0.318    0.437   78.772
  256.500    8.692    0.313    0.442   81.205
  256.750    8.526    0.307    0.436   86.079
  257.000    8.204    0.306    0.431   91.564
  257.250    7.896    0.296    0.443   92.160
  257.500    7.457    0.286    0.464   90.923
  257.750    7.314    0.285    0.471   90.908
  258.000    7.038    0.282    0.470   93.337
  258.250    7.036    0.273    0.468   93.322
  258.500    7.033    0.262    0.465   90.863
  258.750    6.898    0.252    0.461   89.011
  259.000    7.028    0.247    0.454   87.162
  259.250    7.157    0.251    0.442   86.536
  259.500    7.431    0.261    0.483   85.910
  259.750    7.716    0.272    0.479   85.287
  260.000    8.162    0.272    0.441   84.046
  260.250    8.160    0.270    0.442   83.413
  260.500    8.156    0.281    0.444   84.009
  260.750    8.152    0.291    0.442   84.612
  261.000    7.997    0.294    0.438   86.427
  261.250    7.843    0.287    0.444   87.027
  261.500    7.549    0.280    0.487   89.456
  261.750    6.734    0.280    0.487   88.826
  262.000    6.482    0.277    0.489   86.978
  262.250    5.782    0.266    0.492   86.963
  262.500    5.566    0.265    0.477   90.007
  262.750    5.060    0.268    0.473   94.266
  263.000    4.963    0.268    0.495   93.033
  263.250    4.776    0.270    0.560   91.795
  263.500    4.686    0.274    0.571   91.169
  263.750    4.683    0.277    0.567   89.932
  264.000    4.771    0.284    0.557   88.695
  264.250    5.143    0.291    0.549   84.402
  264.500    5.442    0.306    0.540   73.383
  264.750    5.758    0.327    0.520   71.527
  265.000    6.093    0.340    0.514   72.131
  265.250    6.694    0.346    0.488   73.334
  265.500    6.819    0.341    0.475   72.708
  265.750    6.948    0.332    0.487   67.197
  266.000    7.077    0.328    0.469   67.182
  266.250    7.208    0.328    0.455   70.222
  266.500    7.208    0.327    0.453   70.207
  266.750    7.624    0.328    0.451   68.970
  267.000    7.624    0.331    0.442   70.788
  267.250    7.764    0.336    0.437   73.829
  267.500    7.761    0.331    0.457   78.084
  267.750    7.329    0.321    0.481   80.517
  268.000    6.538    0.306    0.474   82.339
  268.250    6.174    0.289    0.463   88.431
  268.500    6.172    0.282    0.483   85.975
  268.750    6.407    0.292    0.488   81.072
  269.000    6.779    0.300    0.457   78.612
  269.250    7.172    0.305    0.455   78.593
  269.500    7.307    0.306    0.468   81.023
  269.750    7.166    0.305    0.491   82.841
  270.000    6.640    0.298    0.496   83.437
  270.250    6.513    0.292    0.494   84.033
  270.500    6.510    0.282    0.489   84.014
  270.750    6.632    0.275    0.479   83.999
  271.000    7.017    0.277    0.463   83.984
  271.250    7.424    0.290    0.476   74.806
  271.500    7.855    0.293    0.503   63.791
  271.750    9.135    0.287    0.524   55.221
  272.000    9.850    0.238    0.537   71.094
  272.250    9.847    0.070    0.377   76.579
  272.500    9.841    0.193    0.314   84.509
  272.750    9.473    0.206    0.329   86.938
  273.000    8.293    0.236    0.405   88.753
  273.250    5.464    0.284    0.417   90.571
  273.500    4.969    0.275    0.434   93.612
  273.750    4.518    0.270    0.442   98.489
  274.000    3.956    0.272    0.458   93.581
  274.250    3.666    0.275    0.548   91.122
  274.500    3.952    0.279    0.561   89.273
  274.750    4.262    0.267    0.523   88.647
  275.000    4.957    0.263    0.496   89.851
  275.250    5.447    0.258    0.482   89.840
  275.500    5.761    0.260    0.471   89.821
  275.750    5.760    0.252    0.464   89.191
  276.000    5.757    0.256    0.453   89.794
  276.250    5.647    0.261    0.443   90.383
  276.500    5.644    0.260    0.454   90.987
  276.750    5.643    0.256    0.481   92.190
  277.000    5.858    0.255    0.477   94.008
  277.250    5.967    0.252    0.474   96.441
  277.500    6.312    0.259    0.459   95.204
  277.750    6.432    0.265    0.466   93.356
  278.000    6.428    0.264    0.486   90.889
  278.250    6.187    0.261    0.490   90.270
  278.500    5.954    0.254    0.462   92.085
  278.750    5.517    0.240    0.446   89.014
  279.000    5.211    0.238    0.477   87.777
  279.250    4.310    0.250    0.490   87.762
  279.500    3.433    0.267    0.474   87.135
  279.750    2.349    0.292    0.549   86.505
  280.000    2.177    0.313    0.577   86.490
  280.250    2.056    0.315    0.598   84.642
  280.500    2.017    0.308    0.606   82.797
  280.750    2.016    0.302    0.580   82.782
  281.000    2.015    0.297    0.567   83.379
  281.250    2.014    0.298    0.536   82.752
  281.500    2.052    0.302    0.535   84.567
  281.750    2.090    0.302    0.554   85.774
  282.000    2.129    0.298    0.562   85.148
  282.250    2.210    0.296    0.551   87.577
  282.500    2.338    0.287    0.552   90.622
  282.750    2.521    0.275    0.557   89.384
  283.000    2.770    0.269    0.550   85.703
  283.250    2.876    0.259    0.502   87.513
  283.500    3.474    0.255    0.480   88.728
  283.750    3.890    0.253    0.477   89.935
  284.000    4.275    0.253    0.482   86.254
  284.250    4.523    0.252    0.490   85.624
  284.500    4.696    0.245    0.495   85.605
  284.750    4.696    0.231    0.460   84.979
  285.000    6.232    0.230    0.445   88.023
  285.250    5.998    0.233    0.435   93.508
  285.500    5.558    0.241    0.439   93.493
  285.750    5.249    0.263    0.445   86.752
  286.000    4.864    0.267    0.488   89.181
  286.250    4.508    0.255    0.480   91.614
  286.500    4.177    0.255    0.469   93.433
  286.750    3.870    0.256    0.480   94.029
  287.000    3.797    0.253    0.495   91.569
  287.250    3.653    0.248    0.501   89.721
  287.500    3.652    0.238    0.515   93.372
  287.750    3.582    0.234    0.525   93.357
  288.000    3.448    0.237    0.515   91.509
  288.250    3.381    0.238    0.506   92.712
  288.500    3.381    0.242    0.510   93.919
  288.750    3.316    0.239    0.499   96.349
  289.000    3.314    0.236    0.486   95.723
  289.250    3.313    0.243    0.498   93.874
  289.500    3.311    0.249    0.517   92.022
  289.750    3.310    0.249    0.509   89.559
  290.000    3.436    0.249    0.498   88.937
  290.250    3.567    0.251    0.508   88.307
  290.500    3.846    0.253    0.500   88.910
  290.750    4.069    0.244    0.478   90.118
  291.000    4.471    0.240    0.469   86.432
  291.250    4.914    0.242    0.471   82.750
  291.500    5.503    0.240    0.488   79.680
  291.750    6.522    0.229    0.466   78.442
  292.000    7.033    0.199    0.441   80.876
  292.250    7.582    0.161    0.408   77.194
  292.500    8.023    0.148    0.410   72.901
  292.750    8.488    0.187    0.430   71.049
  293.000    8.810    0.277    0.424   71.034
  293.250    9.321    0.289    0.419   71.626
  293.500    9.497    0.287    0.421   72.226
  293.750    9.675    0.278    0.415   72.822
  294.000    8.470    0.274    0.409   70.970
  294.250    6.746    0.272    0.420   66.681
  294.500    5.795    0.290    0.453   61.777
  294.750    6.248    0.309    0.475   58.095
  295.000    6.997    0.320    0.470   57.469
  295.250    8.138    0.322    0.452   58.061
  295.500    9.646    0.320    0.419   59.880
  295.750   11.219    0.314    0.408   63.535
  296.000   12.562    0.304    0.403   71.464
  296.250   12.797    0.281    0.408   73.890
  296.500   12.085    0.277    0.424   76.319
  296.750   10.987    0.270    0.414   78.141
  297.000   10.576    0.267    0.387   81.182
  297.250   10.571    0.263    0.374   81.774
  297.500   10.974    0.253    0.440   78.707
  297.750   11.834    0.242    0.449   73.189
  298.000   12.760    0.255    0.438   68.896
  298.250   14.562    0.276    0.423   69.484
  298.500   20.079    0.288    0.410   68.866
  298.750   20.079    0.290    0.395   66.406
