~VERSION INFORMATION
 VERS.                 2.0:   CWLS LOG ASCII STANDARD -VERSION 2.0
 WRAP.                  NO:   ONE LINE PER DEPTH STEP
~WELL INFORMATION BLOCK
#MNEM.UNIT           DATA                    DESCRIPTION OF MNEMONIC
#---------    -------------------            -------------------------------
# Generated from Intellog Unique Number	CC_80_83/WELL/2436
COMP.         SEAGULL ENERGY COMPANY LTD     : COMPANY
WELL.         SEAGULL NEWBY                  : Well_name    - WELL
LOC .         14-20-083-04W4                 : Location     - LOCATION
UWI .         00/14-20-083-04W4/0            : Uwi          - UNIQUE WELL ID
ENTR.         DW                             : Entered      - ENTERED BY
SRVC.         SCHLUMBERGER                   : Scn          - SERVICE COMPANY
STRT.M        70                             : top_depth    - START DEPTH
STOP.M        250.002                        : bot_depth    - STOP DEPTH
STEP.M        0.3                            : increment    - STEP LENGTH
 NULL. -999.2500:NULL Value
~CURVE INFORMATION BLOCK
#MNEM UNIT       ERCB CURVE CODE    CURVE DESCRIPTION
#-----------   ------------------   ----------------------------------
DEPT.M        00 001 00 00         : DEPTH        - DEPTH
DPHI.V/V      00 890 00 00         : PHID         - DENSITY POROSITY (LIMESTONE)
NPHI.V/V      00 330 00 00         : PHIN         - NEUTRON POROSITY (LIMESTONE)
GR  .API      00 310 00 00         : GR           - GAMMA RAY
ILD .OHMM     00 120 00 00         : RESD         - DEEP RESISTIVITY (DIL)
~PARAMETER INFORMATION
#MNEM.UNIT           DATA             DESCRIPTION OF MNEMONIC
#---------         -----------     ------------------------------
GL  .M        460.44               : gl           - GROUND LEVEL ELEVATION
EREF.M        463.5                : kb           - ELEVATION OF DEPTH REFERENCE
DATM.M        463.5                : datum        - DATUM ELEVATION
TDD .M        160                  : tdd          - TOTAL DEPTH DRILLER
RUN .         ONE                  : Run          - RUN NUMBER
ENG .         BILL                 : Engineer     - RECORDING ENGINEER
WIT .         JIM                  : Witness      - WITNESSED BY
MUD .         GEL                  : Mud_type     - MUD TYPE
MATR.         LIMESTONE            : Logunit      - NEUTRON MATRIX
TMAX.C        23                   : BHT          - MAXIMUM RECORDED TEMPERATURE
BHTD.M        260                  : BHTDEP       - MAXIMUM RECORDED TEMPERATURE
MATR.         1                    : LOGUNIT      - NEUTRON MATRIX
RMT .C        25                   : MDTP         - TEMPERATURE OF MUD
NEUT.         1                    : NEUTRON      - NEUTRON TYPE
RESI.         0                    : RESIST       - RESISTIVITY TYPE
RMC .OHMM     0.25                 : RMC          - RESISTIVITY OF MUD CAKE
RMF .OHMM     0.25                 : RMF          - RESISTIVITY OF MUD FILTRATE
SUFT.C        4                    : SUFT         - SURFACE TEMPERATURE
~A  DEPTH     PHID     PHIN       GR     RESD
# ...
  122.201    0.331    0.389   69.920    6.118
  122.501    0.338    0.407   68.060    6.098
  122.801    0.326    0.394   70.448    5.973
  123.101    0.312    0.372   72.828    5.954
  123.401    0.308    0.390   75.809    5.941
  123.701    0.311    0.423   76.386    5.922
  124.001    0.325    0.398   73.921    6.014
  124.301    0.337    0.402   68.424    6.108
  124.601    0.330    0.419   68.992    6.085
  124.901    0.314    0.410   70.767    6.063
  125.201    0.313    0.396   70.736    6.165
  125.501    0.322    0.391   70.084    6.257
  125.801    0.327    0.386   74.289    6.126
  126.101    0.310    0.386   75.457    6.110
  126.401    0.317    0.414   73.002    6.085
  126.701    0.323    0.425   68.724    6.075
  127.001    0.320    0.432   70.501    6.163
  127.301    0.320    0.441   70.459    6.150
  127.601    0.314    0.406   71.027    6.245
  127.901    0.313    0.401   77.652    6.341
  128.201    0.321    0.414   83.062    6.440
  128.501    0.319    0.421   78.783    6.300
  128.801    0.319    0.427   76.925    6.168
  129.101    0.324    0.432   73.855    6.148
  129.401    0.325    0.403   72.600    6.246
  129.701    0.313    0.406   73.777    6.457
  130.001    0.324    0.424   76.764    6.328
  130.301    0.323    0.415   80.364    6.306
  130.601    0.312    0.419   83.354    6.164
  130.901    0.313    0.447   80.283    6.152
  131.201    0.316    0.443   76.004    6.130
  131.501    0.314    0.391   76.571    6.220
  131.801    0.308    0.384   82.587    6.209
  132.101    0.311    0.403   78.305    6.190
  132.401    0.317    0.427   75.845    6.174
  132.701    0.324    0.437   72.780    6.270
  133.001    0.326    0.419   69.713    6.369
  133.301    0.324    0.424   73.297    6.469
  133.601    0.326    0.432   75.086    6.571
  133.901    0.349    0.437   76.257    6.549
  134.201    0.348    0.395   73.781    6.652
  134.501    0.307    0.398   71.935    6.630
  134.801    0.303    0.423   73.108    6.491
  135.101    0.301    0.427   79.127    6.350
  135.401    0.288    0.435   85.749    6.334
  135.701    0.287    0.439   88.737    6.196
  136.001    0.293    0.440   88.696    6.064
  136.301    0.297    0.438   91.687    5.719
  136.601    0.280    0.434   95.888    4.912
  136.901    0.285    0.460  102.512    3.991
  137.201    0.286    0.478  109.739    3.495
  137.501    0.276    0.515  110.912    3.295
  137.801    0.275    0.527  108.448    3.538
  138.101    0.284    0.469  102.352    3.800
  138.401    0.295    0.453   95.048    3.787
  138.701    0.290    0.423   99.244    3.442
  139.001    0.300    0.448  108.290    3.069
  139.301    0.321    0.518  107.644    2.636
  139.601    0.346    0.536  107.608    2.394
  139.901    0.330    0.542  111.202    2.301
  140.201    0.305    0.506  108.125    2.337
  140.501    0.292    0.522  105.069    2.603
  140.801    0.263    0.529  104.423    2.795
  141.101    0.260    0.505  107.410    3.004
  141.401    0.270    0.492  105.547    3.348
  141.701    0.279    0.507  104.302    3.800
  142.001    0.288    0.510  104.868    4.236
  142.301    0.279    0.425  103.012    4.811
  142.601    0.268    0.437   98.735    5.168
  142.901    0.281    0.461   98.679    5.448
  143.201    0.278    0.471   98.041    5.531
  143.501    0.233    0.407   95.589    5.621
  143.801    0.251    0.400   90.703    5.922
  144.101    0.279    0.416   88.844    6.245
  144.401    0.283    0.421   90.018    7.356
  144.701    0.268    0.391   86.946    8.513
  145.001    0.295    0.348   89.331    9.489
  145.301    0.334    0.344   92.321   10.386
  145.601    0.338    0.331   84.410   10.351
  145.901    0.336    0.327   83.160    9.944
  146.201    0.322    0.366   89.175    8.863
  146.501    0.296    0.406   95.192    7.761
  146.801    0.282    0.438   98.788    6.541
  147.101    0.270    0.474   98.748    6.891
  147.401    0.259    0.458   99.919    7.141
  147.701    0.261    0.408  101.094    7.527
  148.001    0.268    0.429  100.442    8.076
  148.301    0.277    0.462   97.980    7.908
  148.601    0.261    0.445   91.274    7.741
  148.901    0.239    0.401   91.238    7.570
  149.201    0.287    0.421   91.808    7.277
  149.501    0.293    0.447   93.585    6.487
  149.801    0.281    0.466   99.607    6.004
  150.101    0.264    0.465  109.860    5.553
  150.401    0.254    0.416  103.159    5.640
  150.701    0.263    0.412   99.489    5.842
  151.001    0.274    0.425  101.865    6.264
  151.301    0.256    0.438   96.986    6.490
  151.601    0.261    0.433   90.888    6.342
  151.901    0.279    0.412   95.697    6.213
  152.201    0.291    0.415  101.714    5.968
  152.501    0.292    0.459  110.760    5.325
  152.801    0.280    0.495  108.289    3.799
  153.101    0.283    0.468  104.621    3.716
  153.401    0.290    0.455  105.186    3.771
  153.701    0.294    0.462  105.756    3.830
  154.001    0.301    0.480  103.899    3.815
  154.301    0.303    0.491   96.591    3.881
  154.601    0.316    0.444   91.707    4.247
  154.901    0.322    0.409   90.457    5.598
  155.201    0.302    0.392   94.043    5.278
  155.501    0.297    0.402   97.643    4.209
  155.801    0.303    0.447  101.847    3.358
  156.101    0.296    0.515  106.047    2.991
  156.401    0.280    0.503  105.396    3.041
  156.701    0.255    0.438  101.727    3.390
  157.001    0.255    0.398  100.476    4.223
  157.301    0.273    0.369   93.772    5.775
  157.601    0.299    0.297   86.469    7.470
  157.901    0.344    0.283   88.242    9.837
  158.201    0.397    0.296   92.445   10.555
  158.501    0.395    0.315   88.162   10.733
  158.801    0.393    0.333   83.888   10.120
  159.101    0.394    0.361   79.605    8.850
  159.401    0.367    0.405   76.537    7.749
  159.701    0.328    0.422   78.311    6.916
  160.001    0.327    0.443   78.269    6.050
  160.301    0.336    0.459   77.621    5.814
  160.601    0.343    0.432   77.589    5.791
  160.901    0.328    0.427   75.132    5.882
  161.201    0.257    0.426   70.848    6.205
  161.501    0.285    0.391   72.020    6.534
  161.801    0.317    0.402   76.225    6.637
  162.101    0.322    0.428   76.790    6.626
  162.401    0.298    0.410   80.988    6.246
  162.701    0.262    0.383   88.218    5.782
  163.001    0.277    0.404   91.206    5.450
  163.301    0.271    0.428   91.776    5.328
  163.601    0.275    0.422   92.338    5.409
  163.901    0.279    0.425   94.721    5.501
  164.201    0.280    0.443   97.109    5.690
  164.501    0.285    0.448   94.644    6.000
  164.801    0.267    0.399   93.391    6.207
  165.101    0.259    0.397   98.202    6.307
  165.401    0.267    0.397  101.187    6.283
  165.701    0.275    0.391   96.905    6.264
  166.001    0.286    0.385   95.055    6.248
  166.301    0.280    0.384   94.405    6.001
  166.601    0.285    0.385   91.944    5.352
  166.901    0.319    0.431   88.880    3.817
  167.201    0.332    0.475   89.446    3.535
  167.501    0.339    0.529   86.984    2.522
  167.801    0.343    0.555   81.494    2.249
  168.101    0.334    0.540   82.055    2.160
  168.401    0.325    0.513   88.076    2.236
  168.701    0.291    0.486   86.827    2.586
  169.001    0.290    0.425   83.153    2.991
  169.301    0.309    0.439   83.113    3.460
  169.601    0.307    0.458   84.282    3.928
  169.901    0.289    0.453   86.660    4.461
  170.201    0.270    0.440   87.826    4.704
  170.501    0.251    0.407   88.404    4.868
  170.801    0.267    0.380   88.361    4.941
  171.101    0.279    0.390   89.539    4.836
  171.401    0.288    0.428   93.740    4.557
  171.701    0.295    0.463  103.390    4.140
  172.001    0.295    0.482   97.291    3.762
  172.301    0.286    0.457   92.407    3.355
  172.601    0.289    0.455   90.554    3.105
  172.901    0.289    0.468   93.537    2.983
  173.201    0.286    0.479   95.923    2.921
  173.501    0.282    0.462   94.068    2.907
  173.801    0.279    0.463   94.627    2.903
  174.101    0.278    0.470   96.407    3.003
