~VERSION INFORMATION
 VERS.                 2.0:   CWLS LOG ASCII STANDARD -VERSION 2.0
 WRAP.                  NO:   ONE LINE PER DEPTH STEP
~WELL INFORMATION BLOCK
#MNEM.UNIT           DATA                    DESCRIPTION OF MNEMONIC
#---------    -------------------            -------------------------------
# Generated from Intellog Unique Number	CS_67_68/WELL/810
WELL.         INTER-CITY MANFACTURING        : Well_name    - WELL
LOC .         00/10-27-068-13W4/0            : Location     - LOCATION
UWI .         00/10-27-068-13W4/0            : Uwi          - UNIQUE WELL ID
ENTR.         SP                             : Entered      - ENTERED BY
SRVC.         SCHLUMBERGER                   : Scn          - SERVICE COMPANY
STRT.M        289.56                         : top_depth    - START DEPTH
STOP.M        469.060                        : bot_depth    - STOP DEPTH
STEP.M        0.25                           : increment    - STEP LENGTH
 NULL. -999.2500:NULL Value
~CURVE INFORMATION BLOCK
#MNEM UNIT       ERCB CURVE CODE    CURVE DESCRIPTION
#-----------   ------------------   ----------------------------------
DEPT.M        00 001 00 00         : DEPTH        - DEPTH
GR  .API      00 310 00 00         : GR           - GAMMA RAY
DPHI.V/V      00 890 00 00         : PHID         - DENSITY POROSITY (SANDSTONE)
NPHI.V/V      00 330 00 00         : PHIN         - NEUTRON POROSITY (SANDSTONE)
ILD .OHMM     00 120 00 00         : RESD         - DEEP RESISTIVITY (DIL)
~PARAMETER INFORMATION
#MNEM.UNIT           DATA             DESCRIPTION OF MNEMONIC
#---------         -----------     ------------------------------
GL  .M        585.911              : gl           - GROUND LEVEL ELEVATION
EREF.M        589.188              : kb           - ELEVATION OF DEPTH REFERENCE
DATM.M        585.835              : datum        - DATUM ELEVATION
TDD .M        474.269              : tdd          - TOTAL DEPTH DRILLER
RUN .         ONE                  : Run          - RUN NUMBER
ENG .         BILL                 : Engineer     - RECORDING ENGINEER
WIT .         JIM                  : Witness      - WITNESSED BY
MUD .         GEL                  : Mud_type     - MUD TYPE
MATR.         SANDSTONE            : Logunit      - NEUTRON MATRIX
TMAX.C        18.8889              : BHT          - MAXIMUM RECORDED TEMPERATURE
BHTD.M        474.269              : BHTDEP       - MAXIMUM RECORDED TEMPERATURE
MATR.         1                    : LOGUNIT      - NEUTRON MATRIX
RMT .C        25                   : MDTP         - TEMPERATURE OF MUD
NEUT.         1                    : NEUTRON      - NEUTRON TYPE
RESI.         0                    : RESIST       - RESISTIVITY TYPE
RMC .OHMM     0.25                 : RMC          - RESISTIVITY OF MUD CAKE
RMF .OHMM     0.25                 : RMF          - RESISTIVITY OF MUD FILTRATE
SUFT.C        15                   : SUFT         - SURFACE TEMPERATURE
~A  DEPTH       GR     PHID     PHIN     RESD
# ...
  376.560   85.156    0.215    0.392    3.193
  376.810   88.177    0.281    0.429    2.789
  377.060   89.613    0.288    0.454    2.603
  377.310   89.540    0.267    0.467    2.536
  377.560   89.905    0.246    0.471    2.632
  377.810   90.915    0.239    0.468    2.908
  378.060   88.403    0.241    0.457    3.094
  378.310   84.316    0.247    0.450    3.298
  378.560   88.003    0.254    0.445    3.461
  378.810   94.480    0.271    0.440    3.572
  379.060   99.584    0.282    0.452    3.581
  379.310   99.658    0.293    0.466    3.548
  379.560   96.529    0.288    0.456    3.359
  379.810  100.961    0.277    0.450    3.176
  380.060  103.629    0.270    0.456    2.994
  380.310  106.321    0.282    0.471    2.894
  380.560  108.771    0.275    0.470    2.889
  380.810  109.094    0.254    0.463    2.960
  381.060  107.000    0.236    0.460    3.039
  381.310  101.559    0.242    0.456    3.205
  381.560  100.769    0.261    0.450    3.315
  381.810  101.448    0.249    0.445    3.414
  382.060   98.992    0.233    0.441    3.485
  382.310   93.670    0.217    0.436    3.528
  382.560   93.274    0.208    0.446    3.560
  382.810   97.459    0.217    0.461    3.577
  383.060   98.844    0.218    0.477    3.586
  383.310   96.817    0.214    0.489    3.584
  383.560   95.170    0.207    0.471    3.577
  383.810   95.811    0.211    0.453    3.555
  384.060   97.556    0.221    0.448    3.514
  384.310   98.744    0.202    0.465    3.507
  384.560  100.294    0.192    0.478    3.511
  384.810  101.815    0.187    0.487    3.533
  385.060  102.407    0.203    0.490    3.598
  385.310   98.141    0.214    0.479    3.738
  385.560   94.621    0.201    0.472    4.009
  385.810   91.825    0.200    0.459    4.299
  386.060   89.499    0.151    0.446    4.599
  386.310   87.385    0.095    0.437    4.797
  386.560   93.240    0.182    0.358    4.910
  386.810   98.254    0.205    0.337    4.880
  387.060  102.710    0.209    0.345    4.642
  387.310  105.639    0.203    0.379    4.298
  387.560  106.454    0.212    0.405    4.035
  387.810  101.197    0.227    0.431    3.977
  388.060   96.049    0.231    0.436    4.006
  388.310   93.167    0.205    0.439    4.110
  388.560   92.272    0.195    0.438    4.205
  388.810   88.624    0.210    0.436    4.280
  389.060   82.856    0.210    0.435    4.332
  389.310   78.931    0.211    0.443    4.337
  389.560   77.291    0.203    0.449    4.308
  389.810   81.029    0.192    0.442    4.230
  390.060  108.111    0.184    0.437    4.073
  390.310  114.340    0.177    0.436    3.865
  390.560  115.651    0.192    0.451    3.512
  390.810  116.435    0.218    0.465    3.197
  391.060  113.882    0.234    0.481    2.835
  391.310  111.123    0.235    0.494    2.412
  391.560  112.278    0.229    0.506    2.119
  391.810  116.696    0.267    0.509    1.886
  392.060  113.319    0.278    0.552    1.705
  392.310  109.572    0.268    0.597    1.616
  392.560  107.198    0.250    0.573    1.695
  392.810  105.487    0.236    0.549    1.847
  393.060  105.122    0.224    0.556    2.153
  393.310  105.963    0.210    0.548    2.353
  393.560  106.951    0.200    0.521    2.561
  393.810  108.001    0.211    0.501    2.769
  394.060  106.700    0.205    0.479    2.944
  394.310  105.062    0.238    0.479    3.110
  394.560  104.099    0.259    0.484    3.207
  394.810  100.971    0.277    0.470    3.277
  395.060   96.422    0.273    0.462    3.313
  395.310   90.156    0.241    0.472    3.295
  395.560   84.084    0.213    0.480    3.249
  395.810   77.839    0.197    0.471    3.222
  396.060   73.068    0.184    0.463    3.154
  396.310   73.496    0.214    0.458    3.029
  396.560   73.845    0.238    0.459    2.829
  396.810   73.543    0.246    0.462    2.588
  397.060   69.681    0.235    0.465    2.295
  397.310   62.887    0.226    0.466    2.096
  397.560   67.732    0.213    0.463    1.896
  397.810   69.760    0.243    0.455    1.788
  398.060   71.457    0.266    0.448    1.723
  398.310   73.698    0.279    0.450    1.693
  398.560   76.951    0.289    0.443    1.705
  398.810   78.359    0.305    0.435    1.716
  399.060   79.938    0.317    0.430    1.721
  399.310   79.368    0.322    0.432    1.695
  399.560   75.956    0.254    0.446    1.644
  399.810   73.722    0.265    0.457    1.573
  400.060   71.979    0.291    0.458    1.562
  400.310   71.059    0.282    0.452    1.583
  400.560   71.857    0.275    0.448    1.622
  400.810   74.524    0.283    0.448    1.701
  401.060   76.572    0.274    0.446    1.767
  401.310   78.111    0.288    0.450    1.903
  401.560   77.394    0.296    0.458    2.023
  401.810   75.264    0.298    0.464    2.062
  402.060   74.853    0.300    0.458    2.088
  402.310   76.053    0.300    0.453    2.073
  402.560   76.527    0.310    0.451    2.018
  402.810   76.307    0.294    0.450    1.950
  403.060   75.101    0.282    0.452    1.867
  403.310   74.211    0.306    0.451    1.827
  403.560   69.675    0.328    0.455    1.861
  403.810   67.198    0.297    0.457    1.991
  404.060   66.390    0.283    0.453    2.221
  404.310   71.120    0.218    0.448    2.495
  404.560   75.510    0.159    0.437    3.147
  404.810   79.160    0.113    0.324    4.306
  405.060   83.662    0.085    0.248    5.814
  405.310   87.731    0.066    0.220    7.192
  405.560   92.580    0.106    0.223    8.763
  405.810   96.279    0.256    0.281    6.464
  406.060   99.963    0.280    0.333    4.528
  406.310  102.627    0.295    0.381    3.737
  406.560   88.961    0.278    0.412    3.145
  406.810   75.953    0.234    0.411    3.291
  407.060   68.693    0.184    0.345    4.445
  407.310   64.479    0.069    0.299    5.390
  407.560   61.463    0.012    0.199    6.300
  407.810   65.296    0.055    0.182    7.310
  408.060   68.606    0.095    0.218    7.002
  408.310   69.797    0.147    0.239    5.806
  408.560   70.101    0.178    0.260    4.739
  408.810   71.774    0.169    0.276    3.844
  409.060   73.679    0.178    0.296    3.231
  409.310   74.946    0.218    0.315    2.685
  409.560   75.181    0.266    0.344    2.387
  409.810   73.482    0.288    0.399    2.161
  410.060   72.627    0.305    0.428    2.036
  410.310   72.867    0.317    0.433    2.012
  410.560   73.073    0.316    0.440    1.982
  410.810   72.758    0.309    0.445    1.998
  411.060   71.189    0.322    0.443    2.012
  411.310   72.059    0.322    0.450    2.023
  411.560   78.335    0.315    0.464    2.039
  411.810   85.704    0.325    0.466    2.054
  412.060   93.855    0.319    0.461    2.057
  412.310  103.152    0.302    0.476    2.097
  412.560  111.214    0.288    0.493    2.139
  412.810  108.730    0.297    0.508    2.219
  413.060  108.470    0.287    0.507    2.315
  413.310  103.239    0.277    0.490    2.451
  413.560   96.666    0.274    0.476    2.644
  413.810   91.803    0.279    0.467    2.916
  414.060   87.632    0.256    0.461    2.966
  414.310   86.832    0.238    0.453    3.155
  414.560   91.695    0.223    0.446    3.331
  414.810   96.113    0.205    0.432    3.500
  415.060   99.968    0.210    0.451    3.668
  415.310  100.393    0.216    0.458    3.798
  415.560  101.702    0.211    0.454    3.889
  415.810  103.671    0.202    0.451    3.927
  416.060  104.608    0.195    0.455    3.824
  416.310  105.044    0.191    0.460    3.573
  416.560  107.716    0.216    0.464    3.373
  416.810  106.883    0.209    0.454    3.074
  417.060  109.696    0.195    0.458    2.796
  417.310  108.666    0.226    0.490    2.601
  417.560  109.084    0.242    0.505    2.453
  417.810  111.175    0.249    0.520    2.388
  418.060  113.849    0.233    0.533    2.354
  418.310  117.189    0.232    0.521    2.325
  418.560  119.531    0.246    0.510    2.303
  418.810  121.057    0.266    0.501    2.303
  419.060  122.548    0.262    0.505    2.280
  419.310  123.285    0.246    0.521    2.199
  419.560  118.291    0.239    0.527    2.170
  419.810  112.777    0.257    0.545    2.194
