~VERSION INFORMATION
 VERS.                 2.0:   CWLS LOG ASCII STANDARD -VERSION 2.0
 WRAP.                  NO:   ONE LINE PER DEPTH STEP
~WELL INFORMATION BLOCK
#MNEM.UNIT           DATA                    DESCRIPTION OF MNEMONIC
#---------    -------------------            -------------------------------
# Generated from Intellog Unique Number	CS_73_76/WELL/4865
WELL.         ANDERSON EXPLORATION LTD.      : Well_name    - WELL
LOC .         00/14-33-076-03W4/0            : Location     - LOCATION
UWI .         00/14-33-076-03W4/0            : Uwi          - UNIQUE WELL ID
ENTR.         JO                             : Entered      - ENTERED BY
SRVC.         COMPUTALOG                     : Scn          - SERVICE COMPANY
DATE.         05/25/92                       : Date         - LOG DATE
STRT.M        200                            : top_depth    - START DEPTH
STOP.M        465                            : bot_depth    - STOP DEPTH
STEP.M        0.25                           : increment    - STEP LENGTH
 NULL. -999.2500:NULL Value
~CURVE INFORMATION BLOCK
#MNEM UNIT       ERCB CURVE CODE    CURVE DESCRIPTION
#-----------   ------------------   ----------------------------------
DEPT.M        00 001 00 00         : DEPTH        - DEPTH
ILD .OHMM     00 120 00 00         : RESD         - DEEP RESISTIVITY (DIL)
DPHI.V/V      00 890 00 00         : PHID         - DENSITY POROSITY (SANDSTONE)
NPHI.V/V      00 330 00 00         : PHIN         - NEUTRON POROSITY (SANDSTONE)
GR  .API      00 310 00 00         : GR           - GAMMA RAY
~PARAMETER INFORMATION
#MNEM.UNIT           DATA             DESCRIPTION OF MNEMONIC
#---------         -----------     ------------------------------
GL  .M        584.6                : gl           - GROUND LEVEL ELEVATION
EREF.M        588.2                : kb           - ELEVATION OF DEPTH REFERENCE
DATM.M        588.2                : datum        - DATUM ELEVATION
TDD .M        471.2                : tdd          - TOTAL DEPTH DRILLER
RUN .         ONE                  : Run          - RUN NUMBER
ENG .         BILL                 : Engineer     - RECORDING ENGINEER
WIT .         JIM                  : Witness      - WITNESSED BY
MUD .         GEL                  : Mud_type     - MUD TYPE
MATR.         SANDSTONE            : Logunit      - NEUTRON MATRIX
TMAX.C        20                   : BHT          - MAXIMUM RECORDED TEMPERATURE
BHTD.M        471.2                : BHTDEP       - MAXIMUM RECORDED TEMPERATURE
MATR.         1                    : LOGUNIT      - NEUTRON MATRIX
RMT .C        16                   : MDTP         - TEMPERATURE OF MUD
NEUT.         1                    : NEUTRON      - NEUTRON TYPE
RESI.         0                    : RESIST       - RESISTIVITY TYPE
RMC .OHMM     2.7                  : RMC          - RESISTIVITY OF MUD CAKE
RMF .OHMM     3.4                  : RMF          - RESISTIVITY OF MUD FILTRATE
SUFT.C        15                   : SUFT         - SURFACE TEMPERATURE
~A  DEPTH     RESD     PHID     PHIN       GR
# ...
  374.000   11.718    0.185    0.396   86.573
  374.250   12.396    0.185    0.395   86.578
  374.500   12.396    0.185    0.378   89.532
  374.750   12.631    0.189    0.368   94.257
  375.000   12.396    0.203    0.340   90.133
  375.250   12.396    0.202    0.335   82.474
  375.500   12.166    0.198    0.340   80.712
  375.750   11.940    0.203    0.347   81.307
  376.000   11.500    0.211    0.356   78.363
  376.250   11.286    0.212    0.351   76.599
  376.500   11.286    0.208    0.344   77.784
  376.750   11.077    0.205    0.334   79.559
  377.000   10.871    0.212    0.331   84.873
  377.250   10.276    0.226    0.334   83.699
  377.500    9.714    0.236    0.336   77.807
  377.750    9.012    0.234    0.330   74.278
  378.000    8.518    0.227    0.329   73.691
  378.250    8.360    0.223    0.326   74.286
  378.500    8.360    0.212    0.326   73.112
  378.750    8.360    0.208    0.332   70.761
  379.000    8.518    0.207    0.342   75.483
  379.250    8.680    0.206    0.340   83.744
  379.500    8.844    0.212    0.337   84.340
  379.750    8.844    0.228    0.341   79.039
  380.000    8.844    0.234    0.343   76.095
  380.250    8.518    0.230    0.336   72.562
  380.500    8.205    0.223    0.364   69.030
  380.750    7.903    0.212    0.383   70.805
  381.000    7.612    0.222    0.394   76.119
  381.250    7.195    0.219    0.385   80.253
  381.500    7.061    0.212    0.356   82.029
  381.750    6.930    0.223    0.381   79.676
  382.000    6.930    0.245    0.390   76.732
  382.250    6.930    0.239    0.394   70.251
  382.500    6.930    0.228    0.382   66.718
  382.750    6.930    0.207    0.369   67.903
  383.000    7.061    0.210    0.382   70.268
  383.250    7.195    0.210    0.398   76.171
  383.500    7.470    0.198    0.403   80.304
  383.750    7.903    0.188    0.393   85.618
  384.000    8.205    0.187    0.384   89.751
  384.250    8.205    0.198    0.399   95.654
  384.500    9.182    0.205    0.410   92.711
  384.750    8.680    0.203    0.400   87.999
  385.000    8.680    0.197    0.389   79.159
  385.250    8.844    0.190    0.377   78.575
  385.500    8.844    0.184    0.365   80.350
  385.750    9.012    0.183    0.355   80.945
  386.000    9.012    0.188    0.347   80.954
  386.250    9.012    0.182    0.353   83.317
  386.500    9.012    0.177    0.390   87.451
  386.750    8.844    0.177    0.408   90.406
  387.000    8.518    0.194    0.391   87.462
  387.250    8.052    0.230    0.355   75.674
  387.500    7.470    0.244    0.345   68.013
  387.750    7.061    0.229    0.347   63.301
  388.000    7.061    0.218    0.348   66.255
  388.250    7.061    0.215    0.332   71.568
  388.500    6.429    0.221    0.324   73.344
  388.750    5.854    0.333    0.334   66.862
  389.000    4.944    0.361    0.354   52.714
  389.250    4.587    0.369    0.359   43.876
  389.500    4.762    0.355    0.354   42.112
  389.750    4.944    0.323    0.335   44.477
  390.000    5.638    0.281    0.330   48.020
  390.250    5.854    0.250    0.335   59.819
  390.500    6.192    0.219    0.363   71.030
  390.750    6.077    0.244    0.369   74.575
  391.000    5.430    0.260    0.380   68.682
  391.250    4.944    0.282    0.379   56.894
  391.500    4.674    0.312    0.376   47.464
  391.750    4.674    0.309    0.370   43.931
  392.000    4.944    0.260    0.359   45.708
  392.250    5.133    0.260    0.353   48.075
  392.500    5.638    0.260    0.358   49.848
  392.750    6.192    0.224    0.349   52.803
  393.000    6.429    0.186    0.386   55.756
  393.250    6.675    0.170    0.417   62.248
  393.500    6.429    0.171    0.428   75.228
  393.750    5.745    0.216    0.446   84.669
  394.000    5.231    0.259    0.443   97.648
  394.250    4.674    0.289    0.412   77.014
  394.500    4.099    0.298    0.370   51.072
  394.750    3.802    0.308    0.341   29.848
  395.000    3.662    0.313    0.305   30.443
  395.250    3.662    0.321    0.304   33.401
  395.500    3.594    0.321    0.302   33.993
  395.750    3.594    0.318    0.300   33.999
  396.000    3.594    0.315    0.302   32.825
  396.250    3.594    0.313    0.310   31.651
  396.500    3.594    0.313    0.314   31.658
  396.750    3.594    0.321    0.311   32.255
  397.000    3.594    0.318    0.316   32.849
  397.250    3.594    0.310    0.328   34.034
  397.500    3.594    0.308    0.321   34.630
  397.750    3.594    0.308    0.316   32.869
  398.000    3.594    0.311    0.318   32.284
  398.250    3.594    0.320    0.318   31.698
  398.500    3.594    0.323    0.311   30.524
  398.750    3.594    0.310    0.303   30.532
  399.000    3.594    0.303    0.296   29.949
  399.250    3.594    0.299    0.294   29.364
  399.500    3.594    0.298    0.293   29.368
  399.750    3.594    0.298    0.296   29.375
  400.000    3.662    0.298    0.299   29.379
  400.250    3.732    0.295    0.293   29.976
  400.500    3.802    0.288    0.289   30.570
  400.750    3.874    0.280    0.286   31.166
  401.000    3.874    0.281    0.281   31.173
  401.250    3.874    0.283    0.279   31.177
  401.500    3.874    0.280    0.273   31.184
  401.750    3.874    0.274    0.273   30.600
  402.000    3.874    0.274    0.279   28.837
  402.250    3.874    0.276    0.275   27.073
  402.500    3.948    0.276    0.274   27.669
  402.750    3.948    0.278    0.269   28.262
  403.000    3.948    0.278    0.266   29.449
  403.250    4.022    0.278    0.260   30.044
  403.500    4.022    0.275    0.258   30.643
  403.750    4.022    0.271    0.263   31.235
  404.000    3.948    0.269    0.271   30.654
  404.250    3.948    0.269    0.269   30.657
  404.500    3.874    0.271    0.264   30.664
  404.750    3.802    0.273    0.260   30.079
  405.000    3.802    0.276    0.264   30.084
  405.250    3.732    0.276    0.274   29.502
  405.500    3.662    0.279    0.275   29.506
  405.750    3.662    0.280    0.272   28.923
  406.000    3.662    0.280    0.270   29.519
  406.250    3.662    0.279    0.275   29.524
  406.500    3.662    0.277    0.276   27.762
  406.750    3.662    0.275    0.276   27.176
  407.000    3.662    0.272    0.274   26.593
  407.250    3.662    0.270    0.272   26.008
  407.500    3.662    0.267    0.269   25.425
  407.750    3.662    0.267    0.267   25.429
  408.000    3.662    0.270    0.274   25.436
  408.250    3.662    0.275    0.270   26.033
  408.500    3.662    0.280    0.266   26.627
  408.750    3.662    0.285    0.264   27.814
  409.000    3.594    0.287    0.265   29.589
  409.250    3.594    0.285    0.272   30.774
  409.500    3.594    0.282    0.276   29.009
  409.750    3.527    0.277    0.280   24.297
  410.000    3.527    0.275    0.280   21.355
  410.250    3.462    0.271    0.281   24.310
  410.500    3.462    0.272    0.281   26.083
  410.750    3.462    0.281    0.282   27.270
  411.000    3.462    0.286    0.282   27.274
  411.250    3.462    0.285    0.280   26.693
  411.500    3.662    0.282    0.275   26.697
  411.750    3.732    0.282    0.277   27.291
  412.000    3.662    0.283    0.309   29.655
  412.250    3.594    0.287    0.340   39.097
  412.500    3.594    0.288    0.378   49.717
  412.750    3.594    0.303    0.385   59.158
  413.000    3.662    0.314    0.405   69.192
  413.250    3.732    0.312    0.411   68.607
  413.500    3.802    0.271    0.419   58.587
  413.750    3.802    0.263    0.416   60.362
  414.000    3.732    0.289    0.411   87.495
  414.250    3.527    0.302    0.406   92.808
  414.500    3.398    0.308    0.400   91.634
  414.750    3.334    0.306    0.397   87.512
  415.000    3.272    0.303    0.390   82.210
  415.250    3.093    0.305    0.386   82.805
  415.500    3.036    0.312    0.385   76.914
  415.750    2.924    0.318    0.384   71.024
  416.000    2.816    0.330    0.381   67.490
  416.250    2.816    0.338    0.375   61.599
  416.500    2.816    0.335    0.372   56.297
  416.750    2.816    0.344    0.367   57.482
  417.000    2.816    0.359    0.366   54.540
  417.250    2.816    0.362    0.374   50.417
