~VERSION INFORMATION
 VERS.                 2.0:   CWLS LOG ASCII STANDARD -VERSION 2.0
 WRAP.                  NO:   ONE LINE PER DEPTH STEP
~WELL INFORMATION BLOCK
#MNEM.UNIT           DATA                    DESCRIPTION OF MNEMONIC
#---------    -------------------            -------------------------------
# Generated from Intellog Unique Number	CX_WELLS/WELL/3883
WELL.         SUNCOD                         : Well_name    - WELL
LOC .         00/11-21-087-17W4/0            : Location     - LOCATION
UWI .         00/11-21-087-17W400            : Uwi          - UNIQUE WELL ID
ENTR.         TIM                            : Entered      - ENTERED BY
SRVC.         SCHLUMBERGER                   : Scn          - SERVICE COMPANY
STRT.M        50                             : top_depth    - START DEPTH
STOP.M        220                            : bot_depth    - STOP DEPTH
STEP.M        0.25                           : increment    - STEP LENGTH
 NULL. -999.2500:NULL Value
~CURVE INFORMATION BLOCK
#MNEM UNIT       ERCB CURVE CODE    CURVE DESCRIPTION
#-----------   ------------------   ----------------------------------
DEPT.M        00 001 00 00         : DEPTH        - DEPTH
GR  .API      00 310 00 00         : GR           - GAMMA RAY
NPHI.V/V      00 330 00 00         : PHIN         - NEUTRON POROSITY (SANDSTONE)
DPHI.V/V      00 890 00 00         : PHID         - DENSITY POROSITY (SANDSTONE)
ILD .OHMM     00 120 00 00         : RESD         - DEEP RESISTIVITY (DIL)
~PARAMETER INFORMATION
#MNEM.UNIT           DATA             DESCRIPTION OF MNEMONIC
#---------         -----------     ------------------------------
GL  .M        511                  : gl           - GROUND LEVEL ELEVATION
EREF.M        514.5                : kb           - ELEVATION OF DEPTH REFERENCE
DATM.M        514.5                : datum        - DATUM ELEVATION
TDD .M        220                  : tdd          - TOTAL DEPTH DRILLER
RUN .         ONE                  : Run          - RUN NUMBER
ENG .         BILL                 : Engineer     - RECORDING ENGINEER
WIT .         JIM                  : Witness      - WITNESSED BY
MUD .         GEL                  : Mud_type     - MUD TYPE
MATR.         SANDSTONE            : Logunit      - NEUTRON MATRIX
TMAX.C        20                   : BHT          - MAXIMUM RECORDED TEMPERATURE
BHTD.M        220                  : BHTDEP       - MAXIMUM RECORDED TEMPERATURE
MATR.         1                    : LOGUNIT      - NEUTRON MATRIX
RMT .C        20                   : MDTP         - TEMPERATURE OF MUD
NEUT.         1                    : NEUTRON      - NEUTRON TYPE
RESI.         7                    : RESIST       - RESISTIVITY TYPE
RMC .OHMM     7                    : RMC          - RESISTIVITY OF MUD CAKE
RMF .OHMM     7                    : RMF          - RESISTIVITY OF MUD FILTRATE
SUFT.C        4                    : SUFT         - SURFACE TEMPERATURE
~A  DEPTH       GR     PHIN     PHID     RESD
   50.000   52.169    0.510    0.297    4.711
   50.250   53.500    0.514    0.299    4.980
   50.500   54.169    0.519    0.305    5.362
   50.750   55.504    0.526    0.312    6.102
   51.000   54.806    0.499    0.315    7.205
   51.250   52.761    0.477    0.315    8.992
   51.500   51.394    0.444    0.322   13.748
   51.750   48.664    0.449    0.330   19.522
   52.000   45.252    0.451    0.339   24.364
   52.250   43.207    0.454    0.344   27.728
   52.500   41.162    0.455    0.340   28.248
   52.750   39.787    0.452    0.334   29.315
   53.000   39.771    0.447    0.324   30.422
   53.250   40.428    0.451    0.319   30.425
   53.500   40.416    0.455    0.327   30.430
   53.750   41.081    0.454    0.334   30.434
   54.000   43.093    0.450    0.339   29.335
   54.250   45.110    0.451    0.340   28.804
   54.500   46.453    0.456    0.340   28.808
   54.750   45.747    0.460    0.338   28.812
   55.000   44.375    0.465    0.339   28.290
   55.250   44.363    0.480    0.335   27.777
   55.500   45.025    0.503    0.328   27.780
   55.750   47.037    0.499    0.334   27.785
   56.000   47.702    0.496    0.342   27.788
   56.250   47.682    0.490    0.347   27.287
   56.500   47.674    0.481    0.337   27.289
   56.750   49.012    0.475    0.333   27.293
   57.000   50.347    0.467    0.337   28.850
   57.250   49.657    0.464    0.344   30.496
   57.500   47.600    0.455    0.347   30.501
   57.750   46.911    0.446    0.344   28.863
   58.000   46.895    0.439    0.323   28.867
   58.250   48.233    0.435    0.269   30.515
   58.500   48.895    0.435    0.228   32.255
   58.750   48.878    0.433    0.196   34.097
   59.000   48.185    0.433    0.170   32.264
   59.250   47.491    0.431    0.154   28.359
   59.500   46.793    0.431    0.312   25.392
   59.750   47.454    0.434    0.355   23.588
   60.000   48.120    0.440    0.357   23.160
   60.250   47.422    0.465    0.355   22.741
   60.500   46.728    0.471    0.360   23.169
   60.750   46.708    0.480    0.369   23.173
   61.000   46.700    0.477    0.369   23.174
   61.250   48.712    0.475    0.362   20.750
   61.500   52.079    0.473    0.344   19.276
   61.750   54.777    0.469    0.337   17.259
   62.000   59.504    0.463    0.330   15.452
   62.250   65.585    0.449    0.231   11.718
   62.500   70.311    0.452    0.204   11.088
   62.750   75.038    0.496    0.301    9.393
   63.000   79.087    0.524    0.345    7.529
   63.250   82.458    0.527    0.317    6.378
   63.500   83.797    0.532    0.298    5.606
   63.750   83.777    0.521    0.289    5.404
   64.000   82.405    0.510    0.288    5.306
   64.250   80.356    0.497    0.284    5.506
   64.500   78.989    0.501    0.278    5.820
   64.750   76.932    0.523    0.269    6.503
   65.000   74.892    0.534    0.258    7.265
   65.250   66.064    0.541    0.235    8.421
   65.500   60.627    0.538    0.226   13.608
   65.750   57.223    0.512    0.204   16.068
   66.000   51.783    0.483    0.256   21.991
   66.250   49.738    0.463    0.332   27.444
   66.500   47.689    0.466    0.372   28.481
   66.750   47.669    0.463    0.364   29.016
   67.000   46.297    0.458    0.352   29.019
   67.250   44.926    0.458    0.353   29.023
   67.500   44.236    0.458    0.355   28.498
   67.750   44.220    0.461    0.351   28.502
   68.000   42.841    0.468    0.350   28.507
   68.250   42.143    0.479    0.357   28.512
   68.500   42.135    0.484    0.362   28.514
   68.750   41.441    0.473    0.370   28.519
   69.000   41.425    0.458    0.372   28.522
   69.250   40.731    0.444    0.370   28.528
   69.500   42.066    0.435    0.344   28.531
   69.750   43.405    0.430    0.324   28.535
   70.000   45.421    0.434    0.310   28.541
   70.250   47.437    0.430    0.287   28.544
   70.500   48.780    0.428    0.336   28.547
   70.750   52.148    0.426    0.360   28.030
   71.000   52.135    0.435    0.357   28.034
   71.250   53.466    0.441    0.350   28.038
   71.500   54.131    0.450    0.334   27.530
   71.750   56.144    0.457    0.333   27.535
   72.000   59.515    0.466    0.330   27.035
   72.250   64.245    0.462    0.325   25.115
   72.500   72.359    0.444    0.317   21.671
   72.750   79.796    0.435    0.311   14.444
   73.000   81.808    0.468    0.301   10.556
   73.250   83.147    0.489    0.300    9.452
   73.500   83.808    0.501    0.306    8.007
   73.750   82.437    0.533    0.292    6.909
   74.000   79.037    0.536    0.271    5.852
   74.250   75.629    0.531    0.269    5.747
   74.500   79.005    0.513    0.261    5.747
   74.750   81.695    0.449    0.244    5.964
   75.000   81.678    0.451    0.221    6.305
   75.250   80.984    0.464    0.242    6.423
   75.500   79.617    0.462    0.263    6.543
   75.750   77.556    0.460    0.257    6.425
   76.000   78.218    0.469    0.262    6.308
   76.250   78.209    0.485    0.275    6.427
   76.500   78.193    0.486    0.285    6.547
   76.750   75.463    0.479    0.283    6.922
   77.000   71.377    0.477    0.280    7.051
   77.250   70.014    0.486    0.279    7.592
   77.500   66.610    0.496    0.281    7.593
   77.750   66.590    0.512    0.289    6.674
   78.000   67.933    0.512    0.296    6.087
   78.250   72.655    0.484    0.306    6.316
   78.500   76.700    0.455    0.304    7.188
   78.750   78.047    0.428    0.301    8.488
   79.000   82.765    0.420    0.298   10.399
   79.250   84.104    0.433    0.291   10.024
   79.500   84.769    0.482    0.283    8.184
   79.750   86.108    0.545    0.277    6.682
   80.000   87.447    0.564    0.275    5.660
   80.250   86.072    0.563    0.266    5.162
   80.500   85.382    0.547    0.257    5.259
   80.750   83.999    0.544    0.242    5.260
   81.000   83.990    0.543    0.230    5.261
   81.250   83.974    0.542    0.218    5.262
   81.500   85.313    0.548    0.202    5.361
   81.750   88.011    0.554    0.183    5.361
   82.000   92.733    0.524    0.186    5.564
   82.250   92.039    0.534    0.215    5.774
   82.500   89.991    0.549    0.231    5.882
   82.750   87.942    0.554    0.241    5.882
   83.000   87.925    0.517    0.242    5.884
   83.250   89.264    0.510    0.236    5.994
   83.500   88.570    0.502    0.225    6.106
   83.750   85.836    0.494    0.214    6.221
   84.000   85.150    0.485    0.219    6.456
   84.250   85.812    0.479    0.223    6.577
   84.500   89.179    0.474    0.224    6.701
   84.750   91.877    0.474    0.210    6.826
   85.000   96.599    0.479    0.203    6.827
   85.250   92.518    0.480    0.203    6.955
   85.500   88.441    0.484    0.210    6.957
   85.750   86.384    0.488    0.210    6.831
   86.000   90.428    0.489    0.206    6.706
   86.250   91.775    0.495    0.206    6.464
   86.500   95.820    0.509    0.214    6.231
   86.750   93.771    0.533    0.223    6.006
   87.000   89.690    0.554    0.239    5.789
   87.250   86.964    0.568    0.265    5.478
   87.500   82.878    0.582    0.272    4.996
   87.750   81.515    0.607    0.282    4.474
   88.000   78.111    0.586    0.293    4.156
   88.250   76.062    0.554    0.297    4.006
   88.500   76.042    0.503    0.272    4.007
   88.750   79.413    0.495    0.288    4.007
   89.000   82.785    0.511    0.296    4.008
   89.250   84.120    0.511    0.293    4.009
   89.500   80.712    0.518    0.292    4.084
   89.750   79.348    0.532    0.298    4.160
   90.000   75.267    0.541    0.301    4.238
   90.250   63.729    0.553    0.298    4.398
   90.500   61.007    0.561    0.298    4.564
   90.750   57.603    0.523    0.306    5.006
   91.000   51.489    0.514    0.311    5.803
   91.250   41.306    0.508    0.282    7.242
   91.500   35.188    0.499    0.256   11.072
   91.750   40.596    0.488    0.245   18.909
   92.000   55.481    0.471    0.227   20.740
   92.250   58.852    0.436    0.296   19.626
   92.500   62.901    0.411    0.308   19.270
   92.750   64.244    0.409    0.310   18.574
   93.000   61.518    0.417    0.313   18.239
   93.250   64.885    0.425    0.316   18.240
