~VERSION INFORMATION
 VERS.                 2.0:   CWLS LOG ASCII STANDARD -VERSION 2.0
 WRAP.                  NO:   ONE LINE PER DEPTH STEP
~WELL INFORMATION BLOCK
#MNEM.UNIT           DATA                    DESCRIPTION OF MNEMONIC
#---------    -------------------            -------------------------------
# Generated from Intellog Unique Number	CW_82_90/WELL/1031
WELL.         13-22-083-22W4                 : Well_name    - WELL
LOC .         13-22-083-22W4                 : Location     - LOCATION
UWI .         00/13-22-083-22W4/0            : Uwi          - UNIQUE WELL ID
ENTR.         JAYE                           : Entered      - ENTERED BY
SRVC.         SCHLUMBERGER                   : Scn          - SERVICE COMPANY
DATE.         16 FEB 86                      : Date         - LOG DATE
STRT.M        210                            : top_depth    - START DEPTH
STOP.M        441                            : bot_depth    - STOP DEPTH
STEP.M        0.25                           : increment    - STEP LENGTH
 NULL. -999.2500:NULL Value
~CURVE INFORMATION BLOCK
#MNEM UNIT       ERCB CURVE CODE    CURVE DESCRIPTION
#-----------   ------------------   ----------------------------------
DEPT.M        00 001 00 00         : DEPTH        - DEPTH
CALI.MM       00 280 01 00         : CAL          - CALIPER
GR  .API      00 310 00 00         : GR           - GAMMA RAY
NPHI.V/V      00 330 00 00         : PHIN         - NEUTRON POROSITY (SANDSTONE)
DPHI.V/V      00 890 00 00         : PHID         - DENSITY POROSITY (SANDSTONE)
ILD .OHMM     00 120 00 00         : RESD         - DEEP RESISTIVITY (DIL)
~PARAMETER INFORMATION
#MNEM.UNIT           DATA             DESCRIPTION OF MNEMONIC
#---------         -----------     ------------------------------
GL  .M        607.4                : gl           - GROUND LEVEL ELEVATION
EREF.M        611                  : kb           - ELEVATION OF DEPTH REFERENCE
DATM.M        607.4                : datum        - DATUM ELEVATION
TDD .M        442                  : tdd          - TOTAL DEPTH DRILLER
RUN .         ONE                  : Run          - RUN NUMBER
ENG .         NAGY                 : Engineer     - RECORDING ENGINEER
WIT .         KOSS                 : Witness      - WITNESSED BY
BASE.         S.L.                 : Branch       - HOME BASE OF LOGGING UNIT
MUD .         GEL CHEM             : Mud_type     - MUD TYPE
MATR.         SANDSTONE            : Logunit      - NEUTRON MATRIX
TMAX.C        20                   : BHT          - MAXIMUM RECORDED TEMPERATURE
BHTD.M        442                  : BHTDEP       - MAXIMUM RECORDED TEMPERATURE
RMT .C        12                   : MDTP         - TEMPERATURE OF MUD
MUDD.KG/M     1125                 : MWT          - MUD DENSITY
NEUT.         1                    : NEUTRON      - NEUTRON TYPE
RESI.         0                    : RESIST       - RESISTIVITY TYPE
RM  .OHMM     5.87                 : RM           - RESISTIVITY OF MUD
RMC .OHMM     0                    : RMC          - RESISTIVITY OF MUD CAKE
RMF .OHMM     5.23                 : RMF          - RESISTIVITY OF MUD FILTRATE
SUFT.C        0                    : SUFT         - SURFACE TEMPERATURE
~A  DEPTH      CAL       GR     PHIN     PHID     RESD
# ...
  246.500  253.181   56.028    0.441    0.351   91.261
  246.750  252.953   55.204    0.443    0.354   82.576
  247.000  252.623   54.694    0.449    0.350   74.022
  247.250  252.083   54.746    0.457    0.340   66.853
  247.500  251.650   54.546    0.443    0.323   60.825
  247.750  251.005   54.537    0.431    0.343   52.527
  248.000  250.467   54.148    0.433    0.369   46.823
  248.250  249.510   53.951    0.429    0.369   42.051
  248.500  248.240   53.377    0.446    0.369   38.908
  248.750  247.286   52.055    0.487    0.371   37.157
  249.000  245.810   51.170    0.460    0.369   36.154
  249.250  244.747   53.407    0.458    0.367   35.647
  249.500  244.313   57.395    0.474    0.365   35.599
  249.750  243.773   60.007    0.496    0.360   35.552
  250.000  243.550   61.118    0.489    0.352   35.837
  250.250  243.427   63.546    0.458    0.349   36.398
  250.500  244.033   62.473    0.436    0.348   36.488
  250.750  244.326   55.402    0.433    0.349   36.716
  251.000  243.993   54.080    0.412    0.353   37.218
  251.250  243.353   58.316    0.420    0.357   38.153
  251.500  242.814   59.490    0.437    0.338   42.063
  251.750  243.626   53.171    0.424    0.295   45.943
  252.000  244.751   48.350    0.292    0.077   48.157
  252.250  245.464   43.903    0.216    0.075   49.189
  252.500  246.070   45.391    0.271    0.197   47.860
  252.750  246.156   50.752    0.363    0.313   45.198
  253.000  245.305   56.987    0.472    0.366   42.211
  253.250  241.745   57.414    0.468    0.353   39.056
  253.500  238.708   54.154    0.446    0.349   36.475
  253.750  237.024   50.208    0.447    0.347   35.293
  254.000  238.253   49.946    0.456    0.354   37.763
  254.250  243.129   51.872    0.459    0.365   39.078
  254.500  249.980   56.046    0.475    0.367   38.881
  254.750  251.942   57.284    0.474    0.360   37.905
  255.000  251.923   55.586    0.469    0.355   36.473
  255.250  251.173   55.887    0.472    0.364   35.292
  255.500  250.530   58.063    0.487    0.366   34.594
  255.750  250.096   56.616    0.499    0.365   33.972
  256.000  249.348   50.856    0.481    0.364   33.492
  256.250  249.122   51.470    0.451    0.364   33.450
  256.500  248.479   54.145    0.439    0.365   33.658
  256.750  247.419   53.885    0.442    0.366   33.487
  257.000  247.090   53.748    0.447    0.367   32.766
  257.250  248.840   54.361    0.465    0.365   32.422
  257.500  249.964   53.414    0.481    0.363   32.081
  257.750  249.116   48.530    0.475    0.361   31.508
  258.000  244.933   51.455    0.463    0.361   31.061
  258.250  243.765   54.441    0.452    0.362   30.905
  258.500  244.165   52.369    0.459    0.362   30.692
  258.750  244.563   52.045    0.484    0.362   30.539
  259.000  244.544   54.470    0.472    0.359   30.615
  259.250  244.424   56.833    0.454    0.360   30.579
  259.500  242.530   52.887    0.457    0.361   30.764
  259.750  238.659   53.624    0.465    0.357   30.788
  260.000  235.307   55.676    0.452    0.353   30.861
  260.250  234.454   56.664    0.445    0.351   30.994
  260.500  235.375   57.153    0.457    0.351   31.302
  260.750  237.543   57.201    0.457    0.355   31.968
  261.000  240.018   57.129    0.458    0.359   32.898
  261.250  241.877   54.809    0.473    0.362   33.534
  261.500  243.734   54.108    0.491    0.349   35.749
  261.750  246.319   53.348    0.470    0.284   40.001
  262.000  248.800   50.589    0.367    0.183   48.857
  262.250  251.070   46.704    0.178    0.019   63.581
  262.500  252.196   45.194    0.156    0.007   77.659
  262.750  252.387   44.746    0.138    0.003  104.121
  263.000  251.739   43.484    0.122    0.008  116.501
  263.250  251.414   42.036    0.111    0.006  130.608
  263.500  250.976   41.338    0.106    0.003  137.173
  263.750  250.544   41.702    0.105   -0.002  138.798
  264.000  249.796   43.253    0.112   -0.004  136.312
  264.250  250.194   45.239    0.139    0.023  124.724
  264.500  251.633   46.416    0.205    0.120  110.971
  264.750  252.760   47.342    0.217    0.130   97.455
  265.000  252.843   48.019    0.246    0.129   85.268
  265.250  252.303   47.132    0.249    0.143   67.592
  265.500  250.204   47.621    0.210    0.235   58.154
  265.750  247.479   49.859    0.258    0.315   48.383
  266.000  245.480   53.159    0.312    0.366   37.575
  266.250  246.501   56.771    0.377    0.374   32.875
  266.500  246.590   58.009    0.436    0.370   29.856
  266.750  244.383   57.622    0.460    0.361   28.837
  267.000  242.904   58.050    0.471    0.365   28.691
  267.250  243.515   57.038    0.466    0.380   28.231
  267.500  245.368   57.027    0.498    0.386   27.829
  267.750  247.016   56.078    0.504    0.382   27.130
  268.000  248.039   56.318    0.483    0.378   26.794
  268.250  248.018   59.367    0.458    0.369   26.663
  268.500  247.691   61.293    0.466    0.366   26.825
  268.750  246.733   58.596    0.489    0.367   27.602
  269.000  246.193   56.399    0.490    0.378   27.981
  269.250  246.073   55.576    0.475    0.380   27.125
  269.500  245.324   57.563    0.466    0.377   25.666
  269.750  243.534   60.923    0.456    0.371   24.419
  270.000  241.851   63.288    0.474    0.369   23.497
  270.250  240.480   62.714    0.482    0.372   23.819
  270.500  239.000   61.579    0.473    0.374   24.417
  270.750  239.505   62.441    0.464    0.368   24.387
  271.000  241.986   62.182    0.463    0.357   23.203
  271.250  245.923   60.858    0.453    0.358   19.091
  271.500  247.882   60.284    0.448    0.353   16.062
  271.750  248.490   61.461    0.474    0.345   12.685
  272.000  248.154   67.134    0.495    0.329   10.206
  272.250  247.200   73.058    0.507    0.315    8.105
  272.500  246.768   78.856    0.494    0.301    7.012
  272.750  246.541   79.283    0.484    0.293    6.661
  273.000  246.623   75.897    0.473    0.300    6.827
  273.250  246.088   71.888    0.477    0.320    7.856
  273.500  244.817   69.816    0.488    0.327   10.611
  273.750  244.176   68.616    0.487    0.328   11.503
  274.000  241.552   68.170    0.480    0.323   11.575
  274.250  242.577   66.971    0.474    0.308   10.204
  274.500  242.767   71.270    0.479    0.302    7.478
  274.750  242.743   79.006    0.509    0.286    5.360
  275.000  243.353   87.616    0.538    0.277    4.823
  275.250  244.165   88.790    0.544    0.283    5.019
  275.500  244.772   77.036    0.526    0.296    5.261
  275.750  244.753   74.962    0.496    0.301    5.844
  276.000  244.733   75.763    0.496    0.303    6.418
  276.250  245.651   78.064    0.521    0.297    7.010
  276.500  246.675   79.802    0.523    0.281    7.199
  276.750  247.493   80.540    0.529    0.272    6.837
  277.000  248.929   79.281    0.518    0.268    6.291
  277.250  249.954   78.207    0.502    0.272    6.167
  277.500  249.831   77.757    0.492    0.282    6.182
  277.750  247.937   77.123    0.489    0.291    6.221
  278.000  246.775   74.301    0.505    0.297    6.341
  278.250  246.026   70.604    0.482    0.308    6.561
  278.500  245.592   67.156    0.485    0.310    7.370
  278.750  245.364   59.899    0.536    0.316    9.102
  279.000  245.758   53.140    0.523    0.327   12.619
  279.250  246.057   45.883    0.454    0.335   14.904
  279.500  246.036   49.245    0.438    0.346   17.118
  279.750  245.708   51.608    0.442    0.351   19.737
  280.000  245.169   52.719    0.448    0.353   21.275
  280.250  244.523   54.896    0.447    0.350   23.194
  280.500  243.878   55.072    0.441    0.342   24.913
  280.750  243.759   52.812    0.437    0.336   25.538
  281.000  243.947   52.737    0.447    0.338   25.082
  281.250  244.760   54.976    0.457    0.354   23.468
  281.500  245.160   55.588    0.452    0.366   19.236
  281.750  245.870   55.703    0.454    0.364   14.744
  282.000  246.992   56.817    0.470    0.356   11.134
  282.250  248.017   61.554    0.488    0.343    9.195
  282.500  248.835   67.227    0.486    0.325    8.766
  282.750  249.753   69.278    0.478    0.311    8.657
