~VERSION INFORMATION
 VERS.                 2.0:   CWLS LOG ASCII STANDARD -VERSION 2.0
 WRAP.                  NO:   ONE LINE PER DEPTH STEP
~WELL INFORMATION BLOCK
#MNEM.UNIT           DATA                    DESCRIPTION OF MNEMONIC
#---------    -------------------            -------------------------------
# Generated from Intellog Unique Number	CS_77_79/WELL/988
WELL.         HOME OIL COMPANY               : Well_name    - WELL
LOC .         00/11-06-077-07W4/0            : Location     - LOCATION
UWI .         00/11-06-077-07W4/0            : Uwi          - UNIQUE WELL ID
ENTR.         SP                             : Entered      - ENTERED BY
SRVC.         SCHLUMBERGER                   : Scn          - SERVICE COMPANY
STRT.M        145                            : top_depth    - START DEPTH
STOP.M        380                            : bot_depth    - STOP DEPTH
STEP.M        0.25                           : increment    - STEP LENGTH
 NULL. -999.2500:NULL Value
~CURVE INFORMATION BLOCK
#MNEM UNIT       ERCB CURVE CODE    CURVE DESCRIPTION
#-----------   ------------------   ----------------------------------
DEPT.M        00 001 00 00         : DEPTH        - DEPTH
ILD .OHMM     00 120 00 00         : RESD         - DEEP RESISTIVITY (DIL)
DPHI.V/V      00 890 00 00         : PHID         - DENSITY POROSITY (LIMESTONE)
NPHI.V/V      00 330 00 00         : PHIN         - NEUTRON POROSITY (LIMESTONE)
GR  .API      00 310 00 00         : GR           - GAMMA RAY
~PARAMETER INFORMATION
#MNEM.UNIT           DATA             DESCRIPTION OF MNEMONIC
#---------         -----------     ------------------------------
GL  .M        571.96               : gl           - GROUND LEVEL ELEVATION
EREF.M        575.65               : kb           - ELEVATION OF DEPTH REFERENCE
DATM.M        571.96               : datum        - DATUM ELEVATION
TDD .M        390.3                : tdd          - TOTAL DEPTH DRILLER
RUN .         ONE                  : Run          - RUN NUMBER
ENG .         BILL                 : Engineer     - RECORDING ENGINEER
WIT .         JIM                  : Witness      - WITNESSED BY
MUD .         GEL                  : Mud_type     - MUD TYPE
MATR.         LIMESTONE            : Logunit      - NEUTRON MATRIX
TMAX.C        28                   : BHT          - MAXIMUM RECORDED TEMPERATURE
BHTD.M        390.3                : BHTDEP       - MAXIMUM RECORDED TEMPERATURE
MATR.         0                    : LOGUNIT      - NEUTRON MATRIX
RMT .C        25                   : MDTP         - TEMPERATURE OF MUD
NEUT.         1                    : NEUTRON      - NEUTRON TYPE
RESI.         0                    : RESIST       - RESISTIVITY TYPE
RMC .OHMM     0.25                 : RMC          - RESISTIVITY OF MUD CAKE
RMF .OHMM     0.25                 : RMF          - RESISTIVITY OF MUD FILTRATE
SUFT.C        15                   : SUFT         - SURFACE TEMPERATURE
~A  DEPTH     RESD     PHID     PHIN       GR
  145.000    2.733    0.323    0.684  101.607
  145.250    2.734    0.321    0.712  104.021
  145.500    2.786    0.309    0.685  105.226
  145.750    2.787    0.307    0.666  104.011
  146.000    2.788    0.301    0.677  107.030
  146.250    2.789    0.299    0.701  105.211
  146.500    2.842    0.296    0.716  108.834
  146.750    2.843    0.294    0.757  110.039
  147.000    2.844    0.283    0.692  108.824
  147.250    2.898    0.190    0.638  107.005
  147.500    2.898    0.161    0.557  103.370
  147.750    2.899    0.181    0.556  103.968
  148.000    2.900    0.240    0.559  104.568
  148.250    3.011    0.287    0.582  103.354
  148.500    3.011    0.292    0.618  101.535
  148.750    3.069    0.286    0.626  102.740
  149.000    3.070    0.288    0.592  104.549
  149.250    3.128    0.290    0.558  106.962
  149.500    3.188    0.283    0.599  106.352
  149.750    3.249    0.267    0.627  106.953
  150.000    3.250    0.259    0.675  106.947
  150.250    3.312    0.247    0.666  106.338
  150.500    3.438    0.243    0.622  108.751
  150.750    3.439    0.250    0.573  111.166
  151.000    3.505    0.247    0.530  114.185
  151.250    3.571    0.247    0.556  115.388
  151.500    3.708    0.259    0.600  115.384
  151.750    3.779    0.259    0.632  112.355
  152.000    3.924    0.253    0.624  110.535
  152.250    3.998    0.249    0.603  109.925
  152.500    4.074    0.243    0.586  111.130
  152.750    4.153    0.237    0.604  117.777
  153.000    4.153    0.246    0.624  115.958
  153.250    4.155    0.243    0.580  112.929
  153.500    4.155    0.241    0.539  111.108
  153.750    4.315    0.237    0.497  109.894
  154.000    4.397    0.232    0.516  106.865
  154.250    4.480    0.233    0.497  106.860
  154.500    4.652    0.233    0.574  108.065
  154.750    4.920    0.220    0.594  100.802
  155.000    5.503    0.198    0.586   86.886
  155.250    6.041    0.141    0.427   72.365
  155.500    6.633    0.196    0.379   63.289
  155.750    6.392    0.251    0.421   73.565
  156.000    5.718    0.231    0.351   65.092
  156.250    5.211    0.220    0.397   75.369
  156.500    4.930    0.248    0.468  102.580
  156.750    4.750    0.236    0.536  108.623
  157.000    4.841    0.235    0.474  109.223
  157.250    5.217    0.234    0.510  107.402
  157.500    6.647    0.224    0.562  105.582
  157.750   10.204    0.229    0.478  105.579
  158.000   12.527    0.249    0.453  105.574
  158.250   13.499    0.267    0.439  103.149
  158.500   13.502    0.282    0.421  107.982
  158.750   13.257    0.257    0.412  112.816
  159.000   13.510    0.225    0.409  120.068
  159.250   13.767    0.224    0.430  117.643
  159.500   14.564    0.240    0.453  115.824
  159.750   15.120    0.252    0.473  114.004
  160.000   15.993    0.262    0.442  118.233
  160.250   16.296    0.257    0.419  122.462
  160.500   17.238    0.248    0.437  113.989
  160.750   17.897    0.246    0.436   95.235
  161.000   18.929    0.231    0.408   91.601
  161.250   20.782    0.208    0.400   92.200
  161.500   23.244    0.245    0.411   85.542
  161.750   29.073    0.305    0.444   72.232
  162.000   35.691    0.397    0.514   56.502
  162.250   39.920    0.496    0.575   40.167
  162.500   44.651    0.480    0.674   28.065
  162.750   48.115    0.395    0.646   20.802
  163.000   50.896    0.364    0.499   20.797
  163.250   50.911    0.358    0.462   21.396
  163.500   50.923    0.350    0.494   20.785
  163.750   51.894    0.316    0.485   20.176
  164.000   51.911    0.317    0.382   19.565
  164.250   52.897    0.327    0.385   19.561
  164.500   52.913    0.356    0.401   20.161
  164.750   52.928    0.380    0.425   22.574
  165.000   52.940    0.366    0.497   23.175
  165.250   52.957    0.335    0.454   25.589
  165.500   51.995    0.301    0.433   27.399
  165.750   52.011    0.316    0.446   32.232
  166.000   51.064    0.311    0.461   37.065
  166.250   49.214    0.310    0.463   44.318
  166.500   48.315    0.338    0.478   47.337
  166.750   47.433    0.362    0.524   48.539
  167.000   46.571    0.355    0.488   49.746
  167.250   44.880    0.329    0.390   55.788
  167.500   43.252    0.318    0.393   62.436
  167.750   41.686    0.323    0.409   64.246
  168.000   41.697    0.332    0.432   63.636
  168.250   40.938    0.359    0.544   67.864
  168.500   41.720    0.407    0.609   72.093
  168.750   41.732    0.405    0.660   76.320
  169.000   41.739    0.362    0.387   73.897
  169.250   41.753    0.322    0.381   62.400
  169.500   40.995    0.306    0.392   48.483
  169.750   40.248    0.303    0.407   43.641
  170.000   38.791    0.300    0.411   40.609
  170.250   38.082    0.316    0.403   40.604
  170.500   36.702    0.326    0.411   41.811
  170.750   36.033    0.326    0.442   45.434
  171.000   33.459    0.320    0.460   47.849
  171.250   32.847    0.318    0.434   49.658
  171.500   31.072    0.318    0.420   52.675
  171.750   29.942    0.327    0.434   55.091
  172.000   28.856    0.326    0.447   58.110
  172.250   27.297    0.336    0.425   63.548
  172.500   26.306    0.334    0.432   68.986
  172.750   25.351    0.326    0.442   70.796
  173.000   24.431    0.316    0.455   73.814
  173.250   23.109    0.312    0.466   78.648
  173.500   21.456    0.309    0.477   82.271
  173.750   17.166    0.313    0.441   79.846
  174.000   14.252    0.305    0.442   78.632
  174.250   10.783    0.298    0.410   79.232
  174.500    9.121    0.280    0.388   85.880
  174.750    7.434    0.164    0.402  106.438
  175.000    6.173    0.176    0.439  123.972
  175.250    5.222    0.204    0.464  132.434
  175.500    4.848    0.214    0.480  125.171
  175.750    4.502    0.182    0.503  120.328
  176.000    4.258    0.166    0.481  125.766
  176.250    4.028    0.202    0.515  131.809
  176.500    3.882    0.213    0.544  131.804
  176.750    4.030    0.191    0.532  129.379
  177.000    4.508    0.205    0.527  120.302
  177.250    5.638    0.230    0.511  106.992
  177.500    7.457    0.264    0.486   96.704
  177.750   10.047    0.294    0.433   85.812
  178.000   17.898    0.305    0.430   76.736
  178.250   17.905    0.316    0.433   65.239
  178.500   16.938    0.293    0.405   63.420
  178.750   16.628    0.249    0.420   67.646
  179.000   16.633    0.135    0.391   68.852
  179.250   17.269    0.130    0.338   75.499
  179.500   18.267    0.237    0.379   79.729
  179.750   18.963    0.297    0.432   77.304
  180.000   18.619    0.307    0.441   74.880
  180.250   17.942    0.304    0.437   77.294
  180.500   16.352    0.301    0.447   79.707
  180.750   14.360    0.293    0.439   81.516
  181.000   13.582    0.286    0.426   88.165
  181.250   11.925    0.274    0.442  102.674
  181.500    9.902    0.257    0.450  109.927
  181.750    8.694    0.262    0.425  118.390
  182.000    7.634    0.256    0.419  129.271
  182.250    6.829    0.237    0.434  135.920
  182.500    6.224    0.218    0.450  130.470
  182.750    6.110    0.200    0.481  131.070
  183.000    6.227    0.184    0.513  135.904
  183.250    6.465    0.196    0.525  141.342
  183.500    6.712    0.200    0.494  138.918
  183.750    7.507    0.191    0.520  137.097
  184.000    8.556    0.179    0.517  138.907
  184.250    9.219    0.159    0.492  138.902
  184.500   10.904    0.195    0.498  129.220
  184.750   12.658    0.262    0.487  122.562
  185.000   14.425    0.289    0.428  114.694
  185.250   14.428    0.307    0.434  108.641
  185.500   13.905    0.305    0.425  109.239
  185.750   13.401    0.279    0.405  111.050
  186.000   13.157    0.267    0.397  112.860
  186.250   13.160    0.251    0.416  109.226
  186.500   14.183    0.256    0.416  110.430
  186.750   15.282    0.267    0.421  113.448
  187.000   16.164    0.268    0.438  115.257
  187.250   17.099    0.257    0.460  114.648
  187.500   17.424    0.241    0.435  103.152
  187.750   17.756    0.256    0.430   87.421
  188.000   18.436    0.271    0.440   73.506
  188.250   18.789    0.293    0.443   66.848
