~VERSION INFORMATION
 VERS.                 2.0:   CWLS LOG ASCII STANDARD -VERSION 2.0
 WRAP.                  NO:   ONE LINE PER DEPTH STEP
~WELL INFORMATION BLOCK
#MNEM.UNIT           DATA                    DESCRIPTION OF MNEMONIC
#---------    -------------------            -------------------------------
# Generated from Intellog Unique Number	CS_69_70/WELL/2886
NULL.         -999.25                        : NULL_VALUE
WELL.         AEC PRIMROSE                   : Well_name    - WELL              
LOC .         00/11-30-070-04W4/0            : Location     - LOCATION          
UWI .         00/11-30-070-04W4/0            : Uwi          - UNIQUE WELL ID    
ENTR.         TIM                            : Entered      - ENTERED BY        
SRVC.         SCHLUMBERGER                   : Scn          - SERVICE COMPANY   
DATE.         02/05/92                       : Date         - LOG DATE          
STRT.M        300                            : top_depth    - START DEPTH       
STOP.M        520                            : bot_depth    - STOP DEPTH        
STEP.M        0.25                           : increment    - STEP LENGTH       
~CURVE INFORMATION BLOCK
#MNEM UNIT       ERCB CURVE CODE    CURVE DESCRIPTION
#-----------   ------------------   ----------------------------------
DEPT.M        00 001 00 00         : DEPTH        - DEPTH                       
ILD .OHMM     00 120 00 00         : RESD         - DEEP RESISTIVITY (DIL)      
DPHI.V/V      00 890 00 00         : PHID         - DENSITY POROSITY (SANDSTONE)
NPHI.V/V      00 330 00 00         : PHIN         - NEUTRON POROSITY (SANDSTONE)
GR  .API      00 310 00 00         : GR           - GAMMA RAY                   
~PARAMETER INFORMATION       
#MNEM.UNIT           DATA             DESCRIPTION OF MNEMONIC
#---------         -----------     ------------------------------
GL  .M        673                  : gl           - GROUND LEVEL ELEVATION      
EREF.M        676.8                : kb           - ELEVATION OF DEPTH REFERENCE
DATM.M        676.8                : datum        - DATUM ELEVATION             
TDD .M        531                  : tdd          - TOTAL DEPTH DRILLER         
RUN .         ONE                  : Run          - RUN NUMBER                  
ENG .         BILL                 : Engineer     - RECORDING ENGINEER          
WIT .         JIM                  : Witness      - WITNESSED BY                
MUD .         GEL                  : Mud_type     - MUD TYPE                    
MATR.         SANDSTONE            : Logunit      - NEUTRON MATRIX              
TMAX.C        27                   : BHT          - MAXIMUM RECORDED TEMPERATURE
BHTD.M        531                  : BHTDEP       - MAXIMUM RECORDED TEMPERATURE
RMT .C        14                   : MDTP         - TEMPERATURE OF MUD          
MUDD.KG/M     1130                 : MWT          - MUD DENSITY                 
NEUT.         1                    : NEUTRON      - NEUTRON TYPE                
RESI.         0                    : RESIST       - RESISTIVITY TYPE            
RM  .OHMM     6.97                 : RM           - RESISTIVITY OF MUD          
RMC .OHMM     6.97                 : RMC          - RESISTIVITY OF MUD CAKE     
RMF .OHMM     6.97                 : RMF          - RESISTIVITY OF MUD FILTRATE 
SUFT.C        4                    : SUFT         - SURFACE TEMPERATURE         
~A  DEPTH     RESD     PHID     PHIN       GR
  300.000    4.079    0.243    0.517   89.528
  300.250    4.076    0.244    0.495   92.996
  300.500    3.996    0.243    0.496   94.138
  300.750    3.995    0.243    0.506   93.537
  301.000    3.991    0.239    0.506   90.610
  301.250    4.058    0.229    0.511   84.772
  301.500    4.057    0.178    0.510   81.845
  301.750    4.053    0.147    0.469   89.963
  302.000    4.049    0.142    0.453  101.559
  302.250    3.972    0.164    0.443  100.963
  302.500    3.897    0.201    0.437  101.524
  302.750    3.822    0.227    0.452   99.179
  303.000    3.681    0.242    0.461   96.838
  303.250    3.611    0.248    0.470   96.237
  303.500    3.542    0.251    0.479   96.217
  303.750    3.539    0.251    0.488   95.029
  304.000    4.092    0.255    0.505   93.270
  304.250    5.578    0.259    0.510   90.343
  304.500    6.333    0.263    0.353   85.672
  304.750    7.325    0.268    0.317   72.277
  305.000    8.785    0.288    0.173   65.862
  305.250   36.506    0.376    0.142   62.355
  305.500   48.870    0.409    0.106   56.521
  305.750   57.553    0.427    0.094   50.688
  306.000   64.162    0.421    0.101   44.273
  306.250   54.367    0.399    0.114   44.829
  306.500   52.367    0.401    0.126   49.460
  306.750   51.371    0.410    0.133   51.184
  307.000   52.269    0.432    0.127   49.419
  307.250   56.167    0.448    0.112   45.325
  307.500   61.497    0.454    0.099   40.078
  307.750   67.318    0.400    0.092   35.408
  308.000   71.045    0.377    0.091   33.062
  308.250   72.287    0.360    0.094   46.994
  308.500   62.397    0.336    0.181   56.275
  308.750   21.993    0.315    0.265   65.555
  309.000   18.303    0.306    0.340   71.344
  309.250   15.512    0.312    0.365   71.905
  309.500   12.906    0.310    0.383   72.471
  309.750   11.553    0.294    0.396   75.934
  310.000   10.534    0.286    0.403   79.406
  310.250    9.782    0.289    0.408   82.293
  310.500    9.422    0.291    0.410   83.430
  310.750    9.243    0.294    0.411   83.997
  311.000    9.065    0.290    0.409   85.134
  311.250    8.895    0.283    0.404   86.282
  311.500    8.565    0.276    0.402   88.000
  311.750    8.252    0.266    0.402   89.148
  312.000    7.663    0.259    0.420   91.448
  312.250    7.654    0.253    0.432   92.591
  312.500    7.645    0.246    0.440   93.733
  312.750    7.783    0.246    0.448   93.132
  313.000    7.915    0.258    0.460   80.323
  313.250    7.908    0.259    0.446   71.001
  313.500    7.902    0.242    0.423   82.608
  313.750    8.038    0.231    0.387   90.726
  314.000    8.181    0.214    0.386   91.868
  314.250    8.173    0.190    0.389   91.848
  314.500    8.316    0.199    0.403   92.981
  314.750    8.460    0.225    0.416   95.872
  315.000    8.454    0.254    0.421   99.926
  315.250    8.446    0.261    0.426  107.463
  315.500    8.438    0.269    0.429  110.931
  315.750    8.275    0.266    0.436  110.911
  316.000    8.120    0.219    0.442  110.309
  316.250    7.538    0.206    0.446  110.289
  316.500    7.130    0.195    0.453  110.259
  316.750    6.869    0.195    0.462  110.249
  317.000    6.495    0.204    0.472  110.810
  317.250    5.812    0.210    0.483  111.953
  317.500    5.500    0.216    0.492  114.243
  317.750    5.015    0.219    0.499  114.233
  318.000    4.572    0.224    0.506  113.626
  318.250    3.874    0.233    0.514  113.606
  318.500    3.733    0.241    0.523  113.586
  318.750    3.530    0.240    0.529  113.566
  319.000    3.526    0.234    0.531  113.551
  319.250    4.469    0.227    0.528  109.456
  319.500    5.981    0.218    0.518  104.209
  319.750    9.967    0.226    0.447   92.563
  320.000   11.954    0.253    0.408   73.936
  320.250   26.688    0.285    0.352   58.220
  320.500   43.680    0.328    0.072   29.710
  320.750   55.342    0.439    0.055   25.621
  321.000   66.375    0.470    0.083   27.335
  321.250   66.297    0.498    0.100   28.482
  321.500   63.858    0.486    0.111   29.630
  321.750   58.214    0.462    0.118   31.935
  322.000   52.132    0.468    0.127   35.984
  322.250   42.599    0.477    0.130   40.614
  322.500   33.560    0.471    0.140   44.077
  322.750   25.960    0.430    0.157   45.225
  323.000   19.713    0.405    0.240   47.525
  323.250   16.707    0.388    0.251   49.830
  323.500   13.405    0.368    0.275   52.716
  323.750   10.951    0.352    0.296   53.859
  324.000    9.986    0.327    0.338   51.514
  324.250    9.442    0.311    0.383   50.331
  324.500    9.094    0.307    0.369   52.641
  324.750    9.088    0.290    0.352   58.434
  325.000    8.591    0.293    0.362   56.089
  325.250    8.430    0.306    0.368   48.506
  325.500    8.271    0.322    0.354   41.510
  325.750    8.110    0.349    0.359   43.229
  326.000    8.104    0.343    0.373   47.283
  326.250    8.098    0.321    0.388   52.495
  326.500    8.085    0.326    0.400   55.963
  326.750    7.933    0.319    0.400   60.593
  327.000    7.926    0.302    0.391   64.061
  327.250    7.918    0.295    0.381   65.785
  327.500    7.909    0.293    0.377   67.504
  327.750    7.905    0.292    0.376   69.804
  328.000    7.898    0.293    0.380   70.956
  328.250    7.889    0.288    0.382   73.843
  328.500    7.883    0.280    0.379   76.729
  328.750    7.883    0.269    0.376   79.616
  329.000    7.863    0.262    0.380   81.339
  329.250    7.859    0.254    0.387   82.477
  329.500    7.997    0.249    0.393   83.043
  329.750    8.138    0.245    0.404   84.762
  330.000    8.277    0.244    0.399   85.909
  330.250    8.269    0.245    0.390   87.633
  330.500    7.961    0.249    0.389   88.194
  330.750    7.670    0.254    0.386   77.706
  331.000    7.391    0.273    0.383   68.966
  331.250    7.251    0.291    0.368   59.063
  331.500    7.512    0.312    0.352   47.417
  331.750    7.645    0.341    0.354   37.514
  332.000    7.634    0.332    0.365   22.375
  332.250    7.629    0.340    0.372   22.355
  332.500    7.485    0.337    0.377   30.473
  332.750    7.341    0.327    0.381   36.847
  333.000    7.470    0.307    0.387   41.473
  333.250    7.595    0.274    0.392   37.970
  333.500    7.591    0.263    0.394   29.230
  333.750    7.584    0.258    0.300   32.116
  334.000    7.717    0.275    0.321   39.072
  334.250    7.709    0.291    0.349   44.284
  334.500    7.842    0.268    0.362   50.077
  334.750    7.983    0.253    0.375   55.870
  335.000    8.123    0.256    0.385   59.333
  335.250    8.113    0.259    0.383   59.317
  335.500    8.104    0.259    0.379   56.967
  335.750    8.100    0.261    0.378   54.621
  336.000    8.093    0.266    0.374   53.444
  336.250    7.793    0.272    0.372   51.088
  336.500    7.367    0.282    0.366   52.231
  336.750    7.228    0.287    0.363   56.866
  337.000    6.962    0.278    0.375   70.803
  337.250    6.708    0.266    0.413   87.059
  337.500    6.343    0.251    0.450   95.178
  337.750    6.223    0.240    0.471  100.390
  338.000    6.105    0.229    0.486   99.207
  338.250    6.099    0.237    0.468   96.280
  338.500    6.093    0.249    0.468   93.353
  338.750    6.199    0.250    0.470   95.653
  339.000    6.306    0.250    0.479   99.703
  339.250    6.416    0.250    0.491   99.101
  339.500    6.529    0.253    0.493   96.756
  339.750    6.644    0.257    0.441   96.731
  340.000    6.881    0.262    0.427   96.129
  340.250    6.875    0.266    0.420   92.621
  340.500    6.872    0.273    0.415   91.438
  340.750    6.989    0.276    0.413   93.743
  341.000    6.984    0.279    0.406   94.886
  341.250    7.106    0.281    0.397   91.959
  341.500    7.230    0.286    0.397   90.200
  341.750    7.230    0.289    0.394   85.529
  342.000    7.351    0.292    0.390   75.622
  342.250    7.341    0.287    0.394   82.578
  342.500    7.469    0.279    0.398   90.696
  342.750    7.464    0.265    0.408   91.257
  343.000    7.593    0.255    0.412   88.325
  343.250    7.587    0.255    0.418   85.399
