~VERSION INFORMATION
 VERS.                 2.0:   CWLS LOG ASCII STANDARD -VERSION 2.0
 WRAP.                  NO:   ONE LINE PER DEPTH STEP
~WELL INFORMATION BLOCK
#MNEM.UNIT           DATA                    DESCRIPTION OF MNEMONIC
#---------    -------------------            -------------------------------
# Generated from Intellog Unique Number	CN_91_93/WELL/3265
WELL.         PARAMOUNT RESOURCES LTD.       : Well_name    - WELL
LOC .         00/14-03-093-19W4/0            : Location     - LOCATION
UWI .         00/14-03-093-19W4/0            : Uwi          - UNIQUE WELL ID
ENTR.         JOETTE                         : Entered      - ENTERED BY
SRVC.         COMPUTALOG                     : Scn          - SERVICE COMPANY
DATE.         04/29/92                       : Date         - LOG DATE
STRT.M        95                             : top_depth    - START DEPTH
STOP.M        260                            : bot_depth    - STOP DEPTH
STEP.M        0.25                           : increment    - STEP LENGTH
 NULL. -999.2500:NULL Value
~CURVE INFORMATION BLOCK
#MNEM UNIT       ERCB CURVE CODE    CURVE DESCRIPTION
#-----------   ------------------   ----------------------------------
DEPT.M        00 001 00 00         : DEPTH        - DEPTH
CALI.MM       00 280 01 00         : CAL          - CALIPER
GR  .API      00 310 00 00         : GR           - GAMMA RAY
NPHI.V/V      00 330 00 00         : PHIN         - NEUTRON POROSITY (SANDSTONE)
DPHI.V/V      00 890 00 00         : PHID         - DENSITY POROSITY (SANDSTONE)
ILD .OHMM     00 120 00 00         : RESD         - DEEP RESISTIVITY (DIL)
~PARAMETER INFORMATION
#MNEM.UNIT           DATA             DESCRIPTION OF MNEMONIC
#---------         -----------     ------------------------------
GL  .M        519.8                : gl           - GROUND LEVEL ELEVATION
EREF.M        523.2                : kb           - ELEVATION OF DEPTH REFERENCE
DATM.M        523.2                : datum        - DATUM ELEVATION
TDD .M        260.5                : tdd          - TOTAL DEPTH DRILLER
RUN .         ONE                  : Run          - RUN NUMBER
ENG .         BILL                 : Engineer     - RECORDING ENGINEER
WIT .         JIM                  : Witness      - WITNESSED BY
MUD .         GEL                  : Mud_type     - MUD TYPE
MATR.         SANDSTONE            : Logunit      - NEUTRON MATRIX
TMAX.C        18                   : BHT          - MAXIMUM RECORDED TEMPERATURE
BHTD.M        260.5                : BHTDEP       - MAXIMUM RECORDED TEMPERATURE
RMT .C        18.9                 : MDTP         - TEMPERATURE OF MUD
MUDD.KG/M     1080                 : MWT          - MUD DENSITY
NEUT.         1                    : NEUTRON      - NEUTRON TYPE
RESI.         0                    : RESIST       - RESISTIVITY TYPE
RM  .OHMM     2.5                  : RM           - RESISTIVITY OF MUD
RMC .OHMM     2.5                  : RMC          - RESISTIVITY OF MUD CAKE
RMF .OHMM     2.5                  : RMF          - RESISTIVITY OF MUD FILTRATE
SUFT.C        4                    : SUFT         - SURFACE TEMPERATURE
~A  DEPTH      CAL       GR     PHIN     PHID     RESD
# ...
  241.000  157.151   53.022    0.366    0.274   59.288
  241.250  157.172   54.869    0.356    0.267   49.719
  241.500  157.243   54.907    0.339    0.259   40.551
  241.750  157.243   50.718    0.338    0.239   31.873
  242.000  157.846   55.875    0.341    0.225   26.227
  242.250  159.423   62.543    0.347    0.219   18.427
  242.500  160.987   66.193    0.355    0.207   12.827
  242.750  162.042   74.062    0.365    0.188   12.030
  243.000  162.099   83.140    0.366    0.182    9.815
  243.250  160.656   87.996    0.361    0.200    8.541
  243.500  160.204   77.182    0.365    0.202    6.837
  243.750  160.777   84.448    0.383    0.174    5.953
  244.000  161.330  107.995    0.410    0.172    5.231
  244.250  162.398  117.672    0.453    0.172    4.428
  244.500  161.946  124.038    0.474    0.168    4.116
  244.750  162.010  118.644    0.469    0.162    4.120
  245.000  162.074  112.049    0.462    0.153    4.363
  245.250  162.124  106.057    0.450    0.152    4.840
  245.500  162.181   99.160    0.425    0.157    7.169
  245.750  162.238   90.456    0.399    0.176    9.585
  246.000  162.303   84.464    0.373    0.172   11.892
  246.250  162.352   91.127    0.359    0.169   15.321
  246.500  162.417   81.825    0.362    0.200   16.218
  246.750  160.960   74.317    0.349    0.225   19.029
  247.000  158.506   61.394    0.328    0.242   22.325
  247.250  158.068   59.620    0.307    0.248   25.003
  247.500  157.623   59.659    0.290    0.287   31.025
  247.750  158.189   48.540    0.282    0.304   33.782
  248.000  159.739   45.259    0.288    0.300   37.477
  248.250  160.807   48.311    0.305    0.299   41.196
  248.500  160.871   50.455    0.308    0.303   42.815
  248.750  160.419   48.380    0.318    0.298   42.077
  249.000  159.472   47.204    0.332    0.282   38.739
  249.250  158.029   49.950    0.344    0.272   35.661
  249.500  157.584   55.714    0.354    0.274   33.455
  249.750  159.148   59.369    0.360    0.260   31.972
  250.000  160.202   58.800    0.359    0.260   29.716
  250.250  159.764   56.420    0.359    0.263   28.398
  250.500  159.326   54.349    0.339    0.246   28.196
  250.750  159.376   54.383    0.325    0.232   27.432
  251.000  158.429   55.627    0.319    0.263   26.950
  251.250  156.484   57.168    0.328    0.267   26.486
  251.500  154.532   58.704    0.340    0.260   26.029
  251.750  155.099   60.852    0.375    0.261   25.343
  252.000  156.153   61.184    0.384    0.268   24.906
  252.250  156.203   59.113    0.388    0.272   26.131
  252.500  156.267   56.736    0.383    0.271   29.816
  252.750  156.324   56.164    0.364    0.265   34.649
  253.000  158.907   55.298    0.345    0.261   41.043
  253.250  159.459   55.332    0.350    0.261   42.300
  253.500  159.523   61.092    0.351    0.265   43.506
  253.750  159.566   65.956    0.348    0.266   45.216
  254.000  159.637   63.872    0.343    0.262   42.419
  254.250  159.637   59.391    0.339    0.261   41.294
  254.500  159.278   59.421    0.343    0.263   41.294
  254.750  158.804   61.573    0.349    0.269   40.263
  255.000  157.849   62.210    0.357    0.273   37.773
  255.250  155.898   60.733    0.358    0.275   36.771
  255.500  154.957   61.069    0.351    0.274   36.137
  255.750  155.007   61.404    0.347    0.274   35.525
  256.000  156.076   57.526    0.359    0.281   34.583
  256.250  157.137   59.669    0.379    0.280   32.439
  256.500  159.218   64.826    0.377    0.274   30.424
  256.750  160.774   63.659    0.373    0.257   29.084
  257.000  161.326   61.287    0.371    0.224   28.573
  257.250  161.383   61.915    0.374    0.222   28.081
  257.500  161.383   61.657    0.377    0.252   27.855
  257.750  161.526   60.783    0.372    0.254   27.855
  258.000  161.562   59.917    0.365    0.244   27.687
  258.250  161.640   58.738    0.350    0.223   27.197
  258.500  161.174   58.471    0.337    0.175   26.728
  258.750  160.226   60.016    0.331    0.128   26.267
  259.000  159.781   58.242    0.338    0.076   26.060
  259.250  161.345   59.783    0.346    0.069   26.085
  259.500  162.916   61.023    0.354    0.082   26.366
  259.750  162.973   60.764    0.352    0.091   26.424
  260.000  162.535   61.091    0.347    0.089   26.938
