~VERSION INFORMATION
 VERS.                 2.0:   CWLS LOG ASCII STANDARD -VERSION 2.0
 WRAP.                  NO:   ONE LINE PER DEPTH STEP
~WELL INFORMATION BLOCK
#MNEM.UNIT           DATA                    DESCRIPTION OF MNEMONIC
#---------    -------------------            -------------------------------
# Generated from Intellog Unique Number	CS_71_72/WELL/921
WELL.         HUDSON'S BAY OIL AND GAS       : Well_name    - WELL
LOC .         00/13-15-071-12W4/0            : Location     - LOCATION
UWI .         00/13-15-071-12W4/0            : Uwi          - UNIQUE WELL ID
ENTR.         SP                             : Entered      - ENTERED BY
SRVC.         SCHLUMBERGER                   : Scn          - SERVICE COMPANY
STRT.M        260                            : top_depth    - START DEPTH
STOP.M        480                            : bot_depth    - STOP DEPTH
STEP.M        0.25                           : increment    - STEP LENGTH
 NULL. -999.2500:NULL Value
~CURVE INFORMATION BLOCK
#MNEM UNIT       ERCB CURVE CODE    CURVE DESCRIPTION
#-----------   ------------------   ----------------------------------
DEPT.M        00 001 00 00         : DEPTH        - DEPTH
ILD .OHMM     00 120 00 00         : RESD         - DEEP RESISTIVITY (DIL)
DPHI.V/V      00 890 00 00         : PHID         - DENSITY POROSITY (LIMESTONE)
NPHI.V/V      00 330 00 00         : PHIN         - NEUTRON POROSITY (LIMESTONE)
GR  .API      00 310 00 00         : GR           - GAMMA RAY
~PARAMETER INFORMATION
#MNEM.UNIT           DATA             DESCRIPTION OF MNEMONIC
#---------         -----------     ------------------------------
GL  .M        597.56               : gl           - GROUND LEVEL ELEVATION
EREF.M        601.56               : kb           - ELEVATION OF DEPTH REFERENCE
DATM.M        597.96               : datum        - DATUM ELEVATION
TDD .M        484                  : tdd          - TOTAL DEPTH DRILLER
RUN .         ONE                  : Run          - RUN NUMBER
ENG .         BILL                 : Engineer     - RECORDING ENGINEER
WIT .         JIM                  : Witness      - WITNESSED BY
MUD .         GEL                  : Mud_type     - MUD TYPE
MATR.         LIMESTONE            : Logunit      - NEUTRON MATRIX
TMAX.C        22                   : BHT          - MAXIMUM RECORDED TEMPERATURE
BHTD.M        484                  : BHTDEP       - MAXIMUM RECORDED TEMPERATURE
MATR.         1                    : LOGUNIT      - NEUTRON MATRIX
RMT .C        25                   : MDTP         - TEMPERATURE OF MUD
NEUT.         1                    : NEUTRON      - NEUTRON TYPE
RESI.         0                    : RESIST       - RESISTIVITY TYPE
RMC .OHMM     0.25                 : RMC          - RESISTIVITY OF MUD CAKE
RMF .OHMM     0.25                 : RMF          - RESISTIVITY OF MUD FILTRATE
SUFT.C        15                   : SUFT         - SURFACE TEMPERATURE
~A  DEPTH     RESD     PHID     PHIN       GR
# ...
  434.000    6.845    0.209    0.356   64.143
  434.250    7.391    0.225    0.352   62.173
  434.500    7.832    0.226    0.364   63.923
  434.750    8.584    0.216    0.385   64.087
  435.000    9.643    0.158    0.403   61.448
  435.250   11.767    0.069    0.374   56.859
  435.500   13.217    0.030    0.263   53.611
  435.750   14.190   -0.000    0.257   53.896
  436.000   14.756    0.035    0.267   57.290
  436.250   15.116    0.112    0.281   62.574
  436.500   15.337    0.199    0.297   66.579
  436.750   15.273    0.236    0.291   64.852
  437.000   14.900    0.263    0.301   61.969
  437.250   13.480    0.273    0.321   59.758
  437.500   10.630    0.245    0.335   64.737
  437.750    7.732    0.225    0.328   73.859
  438.000    6.391    0.208    0.334   82.495
  438.250    5.590    0.198    0.343   91.008
  438.500    4.852    0.189    0.351   99.035
  438.750    4.566    0.183    0.363  100.845
  439.000    4.582    0.176    0.374  100.278
  439.250    4.640    0.172    0.368  103.185
  439.500    4.674    0.166    0.362  110.662
  439.750    4.824    0.163    0.366  115.763
  440.000    5.025    0.179    0.377  107.882
  440.250    5.285    0.188    0.387  100.550
  440.500    5.558    0.195    0.391   93.462
  440.750    5.802    0.187    0.377   95.452
  441.000    6.033    0.106    0.383  101.165
  441.250    6.215    0.011    0.406   93.589
  441.500    6.389   -0.001    0.389   90.829
  441.750    6.472    0.030    0.371   97.330
  442.000    6.629    0.124    0.373  102.555
  442.250    6.690    0.188    0.372   92.968
  442.500    6.763    0.221    0.357   82.406
  442.750    6.786    0.232    0.355   70.930
  443.000    6.695    0.229    0.364   66.340
  443.250    6.729    0.221    0.362   72.169
  443.500    7.104    0.215    0.371   74.714
  443.750    7.387    0.205    0.369   76.583
  444.000    7.711    0.196    0.352   78.209
  444.250    7.958    0.190    0.351   70.514
  444.500    8.106    0.192    0.366   61.781
  444.750    8.193    0.196    0.345   57.678
  445.000    8.176    0.197    0.322   63.996
  445.250    8.080    0.189    0.310   69.099
  445.500    8.169    0.174    0.309   72.005
  445.750    8.400    0.161    0.320   71.500
  446.000    8.785    0.175    0.340   67.946
  446.250    8.997    0.192    0.357   65.977
  446.500    8.877    0.185    0.364   65.655
  446.750    8.561    0.186    0.352   66.725
  447.000    8.134    0.185    0.342   67.993
  447.250    7.584    0.177    0.334   70.353
  447.500    7.454    0.184    0.326   69.053
  447.750    7.592    0.207    0.331   63.306
  448.000    7.776    0.225    0.359   57.802
  448.250    8.042    0.239    0.377   52.662
  448.500    8.682    0.256    0.379   50.393
  448.750    9.131    0.254    0.376   51.776
  449.000    9.658    0.242    0.375   56.934
  449.250   10.006    0.232    0.377   58.808
  449.500    9.104    0.225    0.371   58.972
  449.750    7.275    0.203    0.361   74.983
  450.000    5.923    0.148    0.344  101.962
  450.250    4.868    0.130    0.316  114.803
  450.500    4.438    0.119    0.371  120.329
  450.750    4.248    0.107    0.406  122.321
  451.000    4.215    0.093    0.429  120.170
  451.250    4.342    0.075    0.460  114.910
  451.500    4.914    0.004    0.475  114.649
  451.750    5.646    0.018    0.470  123.650
  452.000    6.450    0.076    0.468  118.085
  452.250    7.191    0.163    0.480  103.075
  452.500    7.808    0.223    0.468   90.014
  452.750    7.790    0.263    0.319   71.957
  453.000    5.138    0.295    0.288   61.090
  453.250    3.844    0.313    0.278   57.597
  453.500    3.387    0.315    0.276   56.300
  453.750    3.030    0.288    0.313   56.281
  454.000    2.922    0.271    0.332   56.994
  454.250    2.954    0.260    0.346   58.373
  454.500    3.038    0.245    0.352   59.576
  454.750    3.117    0.230    0.356   61.323
  455.000    3.175    0.221    0.358   63.925
  455.250    3.247    0.220    0.353   66.833
  455.500    3.319    0.232    0.347   69.861
  455.750    3.394    0.226    0.341   71.795
  456.000    3.569    0.221    0.336   70.859
  456.250    3.719    0.222    0.341   71.026
  456.500    4.216    0.213    0.350   72.715
  456.750    4.771    0.198    0.345   77.265
  457.000    5.191    0.184    0.342   83.160
  457.250    5.491    0.175    0.351   89.845
  457.500    5.731    0.166    0.354   95.495
  457.750    5.948    0.159    0.347   96.695
  458.000    6.117    0.153    0.342   97.894
  458.250    6.641    0.144    0.351  103.482
  458.500    6.933    0.143    0.370  108.340
  458.750    7.458    0.151    0.383  110.882
  459.000    7.872    0.171    0.382   99.100
  459.250    8.079    0.192    0.373   87.014
  459.500    8.121    0.210    0.365   74.686
  459.750    8.119    0.210    0.352   71.011
  460.000    8.175    0.184    0.335   77.026
  460.250    8.567    0.164    0.320   81.640
  460.500    9.408    0.167    0.317   76.988
  460.750   10.007    0.181    0.334   72.338
  461.000   10.346    0.176    0.340   69.883
  461.250   10.421    0.164    0.338   70.230
  461.500   10.127    0.176    0.336   79.778
  461.750    9.916    0.188    0.335   95.178
  462.000   10.253    0.168    0.330  101.987
  462.250   10.842    0.151    0.332   95.630
  462.500   11.233    0.183    0.375   85.007
  462.750   11.638    0.217    0.407   70.362
  463.000   12.194    0.250    0.389   79.486
  463.250   12.728    0.212    0.375   85.562
  463.500   14.054    0.198    0.365   80.724
  463.750   14.508    0.256    0.384   76.139
  464.000   15.201    0.273    0.401   70.391
  464.250   15.252    0.264    0.406   61.841
  464.500   13.772    0.257    0.379   58.651
  464.750   11.298    0.262    0.362   63.205
  465.000    9.463    0.254    0.368   68.182
  465.250    8.433    0.244    0.371   71.760
  465.500    7.558    0.234    0.370   70.889
  465.750    7.127    0.225    0.361   67.275
  466.000    7.426    0.229    0.371   63.113
  466.250    7.883    0.256    0.375   67.543
  466.500    8.260    0.225    0.344   70.267
  466.750    8.604    0.198    0.336   65.007
  467.000    8.618    0.235    0.354   62.490
  467.250    7.738    0.253    0.370   62.532
  467.500    6.604    0.265    0.377   63.244
  467.750    5.975    0.249    0.384   69.321
  468.000    5.186    0.231    0.362   69.058
  468.250    4.443    0.217    0.339   60.873
  468.500    4.035    0.238    0.326   52.019
  468.750    3.727    0.252    0.336   44.322
  469.000    3.488    0.260    0.346   50.945
  469.250    3.320    0.268    0.355   57.449
  469.500    3.232    0.274    0.361   58.587
  469.750    3.189    0.278    0.366   55.400
  470.000    3.266    0.281    0.367   56.966
  470.250    3.547    0.285    0.363   63.041
  470.500    3.991    0.277    0.367   70.944
  470.750    4.334    0.267    0.372   75.864
  471.000    4.751    0.254    0.362   81.818
  471.250    5.337    0.237    0.349   90.637
  471.500    6.132    0.225    0.348  114.751
  471.750    6.257    0.165    0.347  129.725
  472.000    6.255    0.125    0.341  133.608
  472.250    6.205    0.112    0.332  134.625
  472.500    6.133    0.109    0.324  133.205
  472.750    5.926    0.119    0.332  128.372
  473.000    5.759    0.153    0.356  123.416
  473.250    5.649    0.188    0.376  116.085
  473.500    5.584    0.174    0.388  105.645
  473.750    5.508    0.115    0.310  102.214
  474.000    5.383    0.104    0.324  116.091
  474.250    5.134    0.146    0.347  113.633
  474.500    4.850    0.175    0.365  102.524
  474.750    4.573    0.182    0.375   90.010
  475.000    4.304    0.186    0.360   79.755
  475.250    4.074    0.196    0.350   64.622
  475.500    3.900    0.208    0.379   49.428
  475.750    3.769    0.242    0.378   43.194
  476.000    3.587    0.253    0.359   62.555
  476.250    3.326    0.240    0.356   72.409
  476.500    3.020    0.261    0.368   72.330
  476.750    2.748    0.285    0.376   69.935
  477.000    2.408    0.300    0.382   72.780
  477.250    2.249    0.309    0.383   76.172
