~VERSION INFORMATION
 VERS.                 2.0:   CWLS LOG ASCII STANDARD -VERSION 2.0
 WRAP.                  NO:   ONE LINE PER DEPTH STEP
~WELL INFORMATION BLOCK
#MNEM.UNIT           DATA                    DESCRIPTION OF MNEMONIC
#---------    -------------------            -------------------------------
# Generated from Intellog Unique Number	CW_82_90/WELL/3083
WELL.         UNION ET AL MCLEAN             : Well_name    - WELL
LOC .         00/14-22-087-19W4/0            : Location     - LOCATION
UWI .         00/14-22-087-19W4/0            : Uwi          - UNIQUE WELL ID
ENTR.         MAX                            : Entered      - ENTERED BY
SRVC.         SCHLUMBERGER                   : Scn          - SERVICE COMPANY
STRT.M        50                             : top_depth    - START DEPTH
STOP.M        237                            : bot_depth    - STOP DEPTH
STEP.M        0.25                           : increment    - STEP LENGTH
 NULL. -999.2500:NULL Value
~CURVE INFORMATION BLOCK
#MNEM UNIT       ERCB CURVE CODE    CURVE DESCRIPTION
#-----------   ------------------   ----------------------------------
DEPT.M        00 001 00 00         : DEPTH        - DEPTH
GR  .API      00 310 00 00         : GR           - GAMMA RAY
CALI.MM       00 280 01 00         : CAL          - CALIPER
DPHI.V/V      00 890 00 00         : PHID         - DENSITY POROSITY (SANDSTONE)
NPHI.V/V      00 330 00 00         : PHIN         - NEUTRON POROSITY (SANDSTONE)
ILD .OHMM     00 120 00 00         : RESD         - DEEP RESISTIVITY (DIL)
~PARAMETER INFORMATION
#MNEM.UNIT           DATA             DESCRIPTION OF MNEMONIC
#---------         -----------     ------------------------------
GL  .M        515                  : gl           - GROUND LEVEL ELEVATION
EREF.M        518.6                : kb           - ELEVATION OF DEPTH REFERENCE
DATM.M        515                  : datum        - DATUM ELEVATION
TDD .M        238                  : tdd          - TOTAL DEPTH DRILLER
RUN .         ONE                  : Run          - RUN NUMBER
ENG .         BILL                 : Engineer     - RECORDING ENGINEER
WIT .         JIM                  : Witness      - WITNESSED BY
MUD .         GEL                  : Mud_type     - MUD TYPE
MATR.         SANDSTONE            : Logunit      - NEUTRON MATRIX
TMAX.C        21.4                 : BHT          - MAXIMUM RECORDED TEMPERATURE
BHTD.M        238                  : BHTDEP       - MAXIMUM RECORDED TEMPERATURE
MATR.         1                    : LOGUNIT      - NEUTRON MATRIX
RMT .C        18.8                 : MDTP         - TEMPERATURE OF MUD
NEUT.         1                    : NEUTRON      - NEUTRON TYPE
RESI.         0                    : RESIST       - RESISTIVITY TYPE
RMC .OHMM     6.85                 : RMC          - RESISTIVITY OF MUD CAKE
RMF .OHMM     7.06                 : RMF          - RESISTIVITY OF MUD FILTRATE
SUFT.C        -15                  : SUFT         - SURFACE TEMPERATURE
~A  DEPTH       GR      CAL     PHID     PHIN     RESD
   50.000   53.096  326.351    0.297    0.419   17.059
   50.250   56.367  321.359    0.292    0.415   16.463
   50.500   59.934  318.856    0.298    0.404   14.752
   50.750   59.924  318.840    0.311    0.416   12.976
   51.000   59.020  319.817    0.307    0.424   12.877
   51.250   59.605  320.791    0.296    0.416   13.625
   51.500   63.472  322.762    0.284    0.414   14.962
   51.750   56.899  325.724    0.270    0.396   14.175
   52.000   52.712  326.206    0.242    0.384   12.585
   52.250   48.524  329.670    0.208    0.393   12.485
   52.500   54.181  343.573    0.338    0.414   14.095
   52.750   60.136  339.076    0.347    0.433   24.567
   53.000   63.406  335.081    0.326    0.446   15.935
   53.250   62.800  336.555    0.356    0.461   11.980
   53.500   63.982  335.545    0.385    0.498   11.885
   53.750   70.236  324.092    0.401    0.520   13.055
   54.000   73.803  313.634    0.342    0.511   10.664
   54.250   74.687  311.628    0.299    0.494    9.212
   54.500   75.274  311.608    0.289    0.460    8.807
   54.750   74.964  313.079    0.285    0.469    9.405
   55.000   73.463  314.058    0.283    0.480   10.718
   55.250   74.944  317.021    0.281    0.467    9.967
   55.500   77.021  318.994    0.277    0.453    9.186
   55.750   74.921  323.446    0.276    0.453    9.282
   56.000   72.524  326.415    0.271    0.466    9.641
   56.250   69.827  326.393    0.268    0.481   10.589
   56.500   67.730  325.882    0.276    0.477   11.001
   56.750   65.332  324.868    0.286    0.448   12.081
   57.000   64.425  324.852    0.301    0.446   12.785
   57.250   62.925  325.329    0.307    0.461   12.223
   57.500   58.738  326.805    0.294    0.449   10.755
   57.750   54.253  332.753    0.298    0.444   10.868
   58.000   53.944  337.210    0.306    0.437   13.209
   58.250   56.914  338.684    0.302    0.417   17.132
   58.500   61.379  334.686    0.297    0.397   18.816
   58.750   68.229  332.182    0.291    0.397   13.887
   59.000   71.201  330.174    0.285    0.453   11.035
   59.250   69.102  327.175    0.283    0.479   10.359
   59.500   68.197  322.184    0.276    0.475   10.372
   59.750   72.064  320.175    0.212    0.510   10.006
   60.000   75.633  317.673    0.203    0.552    9.391
   60.250   79.200  314.673    0.257    0.570    8.733
   60.500   81.277  312.169    0.314    0.555    7.543
   60.750   81.564  309.661    0.313    0.564    6.336
   61.000   82.151  309.150    0.303    0.567    6.707
   61.250   82.737  309.130    0.296    0.553    7.031
   61.500   84.516  309.115    0.294    0.557    7.239
   61.750   84.506  310.588    0.291    0.576    7.315
   62.000   81.811  314.048    0.284    0.572    7.743
   62.250   82.396  314.525    0.260    0.540    7.897
   62.500   84.771  312.026    0.286    0.521    7.762
   62.750   85.654  310.517    0.298    0.514    7.352
   63.000   82.659  312.488    0.286    0.521    7.780
   63.250   81.458  313.961    0.290    0.552    8.159
   63.500   83.237  314.438    0.267    0.544    7.947
   63.750   85.314  313.923    0.253    0.521    8.333
   64.000   85.004  313.404    0.279    0.525    8.900
   64.250   84.696  312.889    0.309    0.533    9.162
   64.500   84.387  312.376    0.313    0.530    8.758
   64.750   84.376  311.857    0.313    0.522    8.145
   65.000   84.664  312.342    0.308    0.518    8.307
   65.250   84.352  313.816    0.297    0.534    8.709
   65.500   83.448  316.282    0.299    0.532    9.925
   65.750   81.946  318.752    0.297    0.509    9.938
   66.000   80.742  321.717    0.286    0.521    9.327
   66.250   77.748  324.185    0.284    0.512    8.594
   66.500   74.158  326.653    0.280    0.485    7.993
   66.750   69.970  329.119    0.274    0.468    8.001
   67.000   66.381  331.584    0.273    0.450    9.033
   67.250   63.683  334.055    0.276    0.437   10.294
   67.500   66.059  336.522    0.285    0.434   11.841
   67.750   63.066  339.982    0.294    0.449   12.302
   68.000   60.070  343.447    0.307    0.464   12.780
   68.250   60.359  347.899    0.318    0.458   13.523
   68.500   59.155  351.366    0.321    0.438   15.132
   68.750   57.654  355.822    0.325    0.478   14.465
   69.000   54.661  360.774    0.335    0.501    9.124
   69.250   48.982  364.735    0.330    0.503    8.723
   69.500   42.408  370.681    0.311    0.463   10.506
   69.750   41.799  376.632    0.322    0.440   15.943
   70.000   43.280  384.071    0.346    0.427   23.750
   70.250   42.674  393.996    0.346    0.420   31.962
   70.500   37.592  403.922    0.318    0.405   36.420
   70.750   34.599  412.853    0.238    0.342   38.549
   71.000   31.605  427.749    0.186    0.313   38.955
   71.250   28.910  444.635    0.176    0.314   43.174
   71.500   26.211  455.055    0.194    0.319   62.549
   71.750   26.499  457.028    0.225    0.328   82.636
   72.000   27.085  476.897    0.224    0.347   83.506
   72.250   26.777  512.177    0.217    0.357   87.561
   72.500   28.556  536.023    0.201    0.330   99.788
   72.750   31.229  554.899    0.200    0.401  114.759
   73.000   29.130  576.259    0.243    0.474  123.732
   73.250   27.031  581.708    0.279    0.522  114.003
   73.500   27.320  568.764    0.323    0.564   88.117
   73.750   28.501  533.945    0.350    0.549   78.243
   74.000   29.685  510.561    0.343    0.533   82.043
   74.250   31.165  494.631    0.377    0.516   95.227
   74.500   31.452  508.532    0.419    0.515  110.565
   74.750   30.246  535.862    0.383    0.514  113.812
   75.000   29.044  562.691    0.331    0.508  142.211
   75.250   29.031  564.164    0.286    0.530  177.752
   75.500   29.320  555.198    0.321    0.542  210.229
   75.750   31.399  535.786    0.437    0.535  200.926
   76.000   34.669  519.861    0.455    0.539  185.155
   76.250   34.954  490.014    0.439    0.542  175.389
   76.500   33.753  453.702    0.461    0.537  178.853
   76.750   32.251  387.562    0.424    0.526  192.807
   77.000   32.538  368.152    0.379    0.501  217.709
   77.250   32.825  357.692    0.340    0.460  200.590
   77.500   33.111  354.196    0.333    0.420  174.852
   77.750   35.188  353.679    0.336    0.403  122.093
   78.000   35.177  353.164    0.342    0.422   97.952
   78.250   33.675  353.148    0.350    0.436   86.976
   78.500   34.559  354.125    0.354    0.437   78.670
   78.750   37.532  355.101    0.353    0.434   73.145
   79.000   40.504  357.070    0.350    0.432   66.160
   79.250   41.688  359.536    0.354    0.420   55.068
   79.500   40.781  363.497    0.362    0.406   48.002
   79.750   38.683  367.954    0.360    0.407   45.885
   80.000   38.076  372.908    0.362    0.427   46.368
   80.250   38.362  381.341    0.360    0.452   47.291
   80.500   38.948  390.767    0.356    0.462   47.804
   80.750   37.146  394.727    0.353    0.477   46.112
   81.000   35.346  403.163    0.354    0.489   43.279
   81.250   34.439  407.122    0.352    0.487   42.940
   81.500   34.431  412.573    0.349    0.498   43.000
   81.750   33.824  419.513    0.347    0.492   43.466
   82.000   31.127  425.961    0.347    0.483   43.506
   82.250   31.714  436.383    0.353    0.472   43.964
   82.500   32.895  441.337    0.359    0.483   44.012
   82.750   33.183  447.780    0.363    0.530   44.080
   83.000   33.472  456.216    0.361    0.524   43.728
   83.250   33.161  465.633    0.366    0.501   43.769
   83.500   32.852  466.616    0.370    0.479   43.420
   83.750   33.437  470.080    0.373    0.474   43.081
   84.000   34.024  474.539    0.376    0.490   42.737
   84.250   34.310  484.462    0.375    0.516   42.013
   84.500   33.405  494.390    0.372    0.541   41.678
   84.750   33.097  501.829    0.377    0.583   40.972
   85.000   34.278  512.252    0.378    0.594   40.266
   85.250   35.760  524.166    0.375    0.579   38.502
   85.500   38.135  553.480    0.385    0.577   37.484
   85.750   38.423  589.753    0.403    0.578   34.862
   86.000   36.325  586.252    0.407    0.583   32.419
   86.250   34.821  578.284    0.406    0.595   29.865
