~VERSION INFORMATION
 VERS.                 2.0:   CWLS LOG ASCII STANDARD -VERSION 2.0
 WRAP.                  NO:   ONE LINE PER DEPTH STEP
~WELL INFORMATION BLOCK
#MNEM.UNIT           DATA                    DESCRIPTION OF MNEMONIC
#---------    -------------------            -------------------------------
# Generated from Intellog Unique Number	CN_91_93/WELL/2803
WELL.         PARAMOUNT RESOURCES LTD.       : Well_name    - WELL
LOC .         00/16-33-093-21W4/0            : Location     - LOCATION
UWI .         00/16-33-093-21W4/0            : Uwi          - UNIQUE WELL ID
ENTR.         JOETTE                         : Entered      - ENTERED BY
SRVC.         COMPUTALOG                     : Scn          - SERVICE COMPANY
DATE.         03/24/92                       : Date         - LOG DATE
STRT.M        190                            : top_depth    - START DEPTH
STOP.M        360                            : bot_depth    - STOP DEPTH
STEP.M        0.25                           : increment    - STEP LENGTH
 NULL. -999.2500:NULL Value
~CURVE INFORMATION BLOCK
#MNEM UNIT       ERCB CURVE CODE    CURVE DESCRIPTION
#-----------   ------------------   ----------------------------------
DEPT.M        00 001 00 00         : DEPTH        - DEPTH
CALI.MM       00 280 01 00         : CAL          - CALIPER
GR  .API      00 310 00 00         : GR           - GAMMA RAY
NPHI.V/V      00 330 00 00         : PHIN         - NEUTRON POROSITY (SANDSTONE)
DPHI.V/V      00 890 00 00         : PHID         - DENSITY POROSITY (SANDSTONE)
ILD .OHMM     00 120 00 00         : RESD         - DEEP RESISTIVITY (DIL)
~PARAMETER INFORMATION
#MNEM.UNIT           DATA             DESCRIPTION OF MNEMONIC
#---------         -----------     ------------------------------
GL  .M        445.9                : gl           - GROUND LEVEL ELEVATION
EREF.M        449.3                : kb           - ELEVATION OF DEPTH REFERENCE
DATM.M        449.3                : datum        - DATUM ELEVATION
TDD .M        359.4                : tdd          - TOTAL DEPTH DRILLER
RUN .         ONE                  : Run          - RUN NUMBER
ENG .         BILL                 : Engineer     - RECORDING ENGINEER
WIT .         JIM                  : Witness      - WITNESSED BY
MUD .         GEL                  : Mud_type     - MUD TYPE
MATR.         SANDSTONE            : Logunit      - NEUTRON MATRIX
TMAX.C        29                   : BHT          - MAXIMUM RECORDED TEMPERATURE
BHTD.M        359.4                : BHTDEP       - MAXIMUM RECORDED TEMPERATURE
RMT .C        11                   : MDTP         - TEMPERATURE OF MUD
MUDD.KG/M     1110                 : MWT          - MUD DENSITY
NEUT.         1                    : NEUTRON      - NEUTRON TYPE
RESI.         0                    : RESIST       - RESISTIVITY TYPE
RM  .OHMM     3.2                  : RM           - RESISTIVITY OF MUD
RMC .OHMM     3.2                  : RMC          - RESISTIVITY OF MUD CAKE
RMF .OHMM     3.2                  : RMF          - RESISTIVITY OF MUD FILTRATE
SUFT.C        4                    : SUFT         - SURFACE TEMPERATURE
~A  DEPTH      CAL       GR     PHIN     PHID     RESD
# ...
  263.000  168.972  121.685    0.486    0.210    4.568
  263.250  167.841  121.620    0.482    0.209    4.464
  263.500  168.731  120.941    0.480    0.209    4.455
  263.750  169.621  120.262    0.490    0.209    4.442
  264.000  170.591  122.058    0.500    0.211    4.344
  264.250  169.433  124.451    0.510    0.213    4.332
  264.500  167.250  122.527    0.518    0.205    4.316
  264.750  166.145  120.005    0.508    0.195    4.307
  265.000  165.014  119.310    0.489    0.201    4.295
  265.250  163.909  120.490    0.491    0.214    4.194
  265.500  163.775  120.426    0.491    0.229    4.188
  265.750  167.737  117.289    0.487    0.239    4.176
  266.000  168.681  113.553    0.491    0.239    4.322
  266.250  168.600  106.114    0.472    0.239    4.400
  266.500  167.496   99.905    0.453    0.241    4.741
  266.750  166.310   94.924    0.438    0.245    5.010
  267.000  167.281   90.525    0.429    0.245    4.896
  267.250  171.217   93.566    0.427    0.245    4.610
  267.500  172.160  110.094    0.461    0.254    3.856
  267.750  171.055  113.717    0.494    0.254    3.699
  268.000  169.924  112.439    0.501    0.252    3.618
  268.250  167.741  106.844    0.466    0.238    3.747
  268.500  166.610  103.076    0.453    0.245    3.890
  268.750  165.478  100.554    0.448    0.261    4.438
  269.000  165.371  100.489    0.442    0.272    4.606
  269.250  164.239  102.252    0.437    0.240    5.259
  269.500  164.132  102.819    0.432    0.213    5.777
  269.750  164.024  103.385    0.425    0.189    5.987
  270.000  162.892  103.320    0.424    0.173    5.739
  270.250  161.734  102.641    0.429    0.137    5.195
  270.500  162.678  105.650    0.430    0.161    4.794
  270.750  163.621  114.189    0.428    0.197    4.692
  271.000  164.511  117.197    0.433    0.226    4.412
  271.250  164.431  114.674    0.443    0.225    4.312
  271.500  163.326  115.855    0.449    0.228    4.303
  271.750  162.168  117.020    0.455    0.227    4.368
  272.000  162.060  115.112    0.445    0.219    4.361
  272.250  161.953  111.958    0.438    0.203    4.434
  272.500  161.845  110.665    0.442    0.207    4.592
  272.750  161.711  112.444    0.452    0.212    4.767
  273.000  161.657  116.067    0.471    0.216    4.937
  273.250  161.523  116.002    0.464    0.217    5.117
  273.500  161.416  113.480    0.453    0.221    5.300
  273.750  161.335  110.957    0.437    0.232    5.396
  274.000  161.228  107.206    0.423    0.234    5.809
  274.250  162.145  101.626    0.415    0.215    6.385
  274.500  163.061   94.188    0.409    0.178    7.726
  274.750  163.951   86.102    0.402    0.184    8.158
  275.000  164.922   89.142    0.398    0.207    7.524
  275.250  166.863   95.838    0.401    0.226    7.222
  275.500  163.683  101.919    0.415    0.230    6.933
  275.750  160.476  103.083    0.430    0.235    6.147
  276.000  160.342  101.143    0.434    0.240    5.905
  276.250  161.285   99.866    0.433    0.240    5.552
  276.500  161.205   98.572    0.425    0.237    5.124
  276.750  162.041   99.155    0.422    0.234    4.821
  277.000  162.014  104.006    0.424    0.234    4.618
  277.250  161.880  113.160    0.429    0.234    4.520
  277.500  162.824  109.408    0.451    0.229    4.335
  277.750  163.767  103.182    0.460    0.223    4.240
  278.000  164.684  105.592    0.456    0.211    4.147
  278.250  166.572  101.841    0.451    0.161    4.059
  278.500  167.515  103.620    0.463    0.188    3.891
  278.750  167.435  114.633    0.494    0.201    3.591
  279.000  167.327  123.172    0.501    0.211    3.444
  279.250  165.145  116.962    0.487    0.215    3.502
  279.500  163.016  118.742    0.474    0.213    3.772
  279.750  161.884  118.677    0.471    0.212    4.067
  280.000  158.677  115.540    0.483    0.213    4.640
  280.250  157.545  109.929    0.495    0.222    4.907
  280.500  157.438  106.177    0.496    0.232    5.082
  280.750  157.358  107.342    0.481    0.232    5.072
  281.000  157.223  112.210    0.470    0.241    4.768
  281.250  158.140  115.218    0.459    0.249    4.313
  281.500  158.060  117.013    0.460    0.244    4.140
  281.750  157.952  116.302    0.459    0.240    4.049
  282.000  158.896  115.024    0.453    0.239    4.035
  282.250  158.762  111.887    0.449    0.240    4.029
  282.500  158.654  109.381    0.447    0.237    4.017
  282.750  158.547  111.160    0.465    0.231    4.003
  283.000  159.464  114.783    0.471    0.223    3.915
  283.250  160.354  115.317    0.466    0.218    3.684
  283.500  160.300  117.711    0.464    0.222    3.463
  283.750  160.193  120.735    0.484    0.226    3.453
  284.000  160.085  124.374    0.476    0.232    3.513
  284.250  161.002  124.924    0.463    0.229    3.710
  284.500  160.895  121.771    0.452    0.226    3.848
  284.750  160.787  116.175    0.458    0.224    4.146
  285.000  161.650  112.408    0.476    0.223    4.554
  285.250  163.618  114.187    0.476    0.224    4.910
  285.500  165.586  117.826    0.473    0.226    5.290
  285.750  169.576  120.219    0.466    0.222    5.699
  286.000  171.544  117.697    0.460    0.227    5.907
  286.250  170.412  114.560    0.449    0.230    5.890
  286.500  166.181  108.964    0.447    0.223    5.431
  286.750  163.001  106.442    0.449    0.220    4.822
  287.000  161.842  110.695    0.440    0.219    4.278
  287.250  160.737  116.776    0.436    0.223    4.181
  287.500  160.630  121.628    0.445    0.225    4.095
  287.750  160.523  121.564    0.456    0.227    4.080
  288.000  160.415  121.499    0.459    0.227    4.072
  288.250  160.281  123.278    0.455    0.232    4.060
  288.500  161.251  125.057    0.456    0.229    4.202
  288.750  161.117  125.624    0.472    0.199    4.358
  289.000  161.037  124.330    0.457    0.178    4.791
  289.250  161.980  108.272    0.447    0.206    5.165
  289.500  161.873   99.604    0.437    0.225    5.784
  289.750  161.739  101.981    0.426    0.243    6.478
  290.000  162.682  105.620    0.414    0.251    5.859
  290.250  161.551  104.941    0.406    0.253    5.198
  290.500  159.368   99.944    0.423    0.198    5.088
  290.750  158.263  101.125    0.441    0.134    4.979
  291.000  157.078  106.608    0.467    0.115    4.678
  291.250  156.997  113.918    0.466    0.139    4.572
  291.500  156.890  121.228    0.458    0.162    4.478
  291.750  156.783  123.637    0.464    0.153    4.296
  292.000  156.675  126.630    0.470    0.166    4.195
  292.250  157.592  127.180    0.473    0.193    4.186
  292.500  158.509  127.115    0.468    0.201    4.177
  292.750  159.479  125.822    0.463    0.186    4.162
  293.000  160.369  126.372    0.457    0.175    4.231
  293.250  160.235  128.151    0.464    0.175    4.302
  293.500  160.181  126.243    0.488    0.170    4.455
  293.750  159.023  124.335    0.477    0.160    4.711
  294.000  157.918  126.114    0.480    0.140    5.080
  294.250  156.787  127.925    0.486    0.168    6.641
  294.500  155.601  129.074    0.471    0.193    7.155
  294.750  154.523  125.953    0.454    0.215    8.018
  295.000  153.365  108.665    0.442    0.237    9.155
  295.250  152.206   99.383    0.426    0.256   10.260
  295.500  152.126   96.230    0.415    0.268   11.489
  295.750  150.967   98.639    0.401    0.269   12.141
  296.000  150.914   98.559    0.389    0.267   12.106
  296.250  150.806   96.651    0.376    0.273   12.290
  296.500  151.696   95.357    0.369    0.283   12.512
  296.750  152.613  100.225    0.364    0.286   12.710
  297.000  152.559  100.145    0.357    0.277   12.922
  297.250  154.447   93.951    0.358    0.276   13.911
  297.500  154.393   84.669    0.353    0.265   14.440
  297.750  155.310   83.375    0.372    0.239   14.398
  298.000  156.200   92.529    0.370    0.239   14.082
  298.250  157.117   90.605    0.357    0.256   13.752
  298.500  157.036   89.942    0.343    0.273   13.732
  298.750  157.926   96.637    0.340    0.245   13.173
  299.000  158.843  108.265    0.376    0.208    9.631
  299.250  159.733  118.664    0.403    0.215    6.649
