~VERSION INFORMATION
VERS.                2.00:   CWLS LOG ASCII STANDARD -VERSION 2.0
WRAP.                  NO:
~WELL INFORMATION BLOCK
#MNEM.UNIT           DATA                    DESCRIPTION OF MNEMONIC
#---------    -------------------            -------------------------------
# Generated from Intellog Unique Number	CC_80_83/WELL/2471
LOC .         00/10-22-083-08W4/0            : Location     - LOCATION
UWI .         00/10-22-083-08W4/0            : Uwi          - UNIQUE WELL ID
ENTR.         DW                             : Entered      - ENTERED BY
STRT.M             259.08:
STOP.M             511.83:
STEP.M               0.25:
NULL.             -999.25:
COMP.  :COMPANY
WELL.  ARC0 ET AL SURMONT:WELL
FLD.   :FIELD
LOC.   :LOCATION
CTRY.  :COUNTRY
PROV.  :PROVINCE
SRVC.  SCHLUMBERGER:SERVICE COMPANY
DATE.  :LOG DATE
UWI.   :UNIQUE WELL ID
~PARAMETER INFORMATION
#MNEM.UNIT           DATA             DESCRIPTION OF MNEMONIC
#---------         -----------     ------------------------------
GL  .M        732.13               : gl           - GROUND LEVEL ELEVATION
EREF.M        735.178              : kb           - ELEVATION OF DEPTH REFERENCE
DATM.M        735.178              : datum        - DATUM ELEVATION
TDD .M        515.722              : tdd          - TOTAL DEPTH DRILLER
RUN .         ONE                  : Run          - RUN NUMBER
ENG .         BILL                 : Engineer     - RECORDING ENGINEER
WIT .         JIM                  : Witness      - WITNESSED BY
MUD .         GEL                  : Mud_type     - MUD TYPE
MATR.         SANDSTONE            : Logunit      - NEUTRON MATRIX
TMAX.C        20                   : BHT          - MAXIMUM RECORDED TEMPERATURE
BHTD.M        515.722              : BHTDEP       - MAXIMUM RECORDED TEMPERATURE
MATR.         1                    : LOGUNIT      - NEUTRON MATRIX
RMT .C        25                   : MDTP         - TEMPERATURE OF MUD
NEUT.         1                    : NEUTRON      - NEUTRON TYPE
RESI.         0                    : RESIST       - RESISTIVITY TYPE
RMC .OHMM     0.25                 : RMC          - RESISTIVITY OF MUD CAKE
RMF .OHMM     0.25                 : RMF          - RESISTIVITY OF MUD FILTRATE
SUFT.C        15                   : SUFT         - SURFACE TEMPERATURE
~Curve Information Block
#MNEM UNIT       ERCB CURVE CODE    CURVE DESCRIPTION
#MNEM.UNIT         API CODE    Curve Description
#----------    ------------    --------------------
DEPT.M                     :   DEPTH
DPHI.V/V                   :   DPHI
DT  .us/m                  :   DT
GR  .API       00 310 00 00:   GR
ILD .Ohmm      00 120 00 00:   ILD
NPHI.V/V       00 330 00 00:   NPHI
RHOB.gm/c3                 :   RHOB
~A  Depth           DPHI          DT          GR         ILD        NPHI        RHOB
# ...
401.58              0.27     -999.25       81.27        4.67        0.32     -999.25
401.83              0.27     -999.25       77.57        4.58        0.33     -999.25
402.08              0.28     -999.25       70.96        4.21        0.33     -999.25
402.33              0.29     -999.25       69.34        3.64        0.35     -999.25
402.58              0.30     -999.25       73.31        3.19        0.37     -999.25
402.83              0.30     -999.25       84.20        2.99        0.36     -999.25
403.08              0.29     -999.25       91.72        3.06        0.36     -999.25
403.33              0.27     -999.25       89.56        3.33        0.38     -999.25
403.58              0.26     -999.25       83.85        3.72        0.41     -999.25
403.83              0.25     -999.25       80.09        4.13        0.40     -999.25
404.08              0.27     -999.25       71.84        4.86        0.39     -999.25
404.33              0.30     -999.25       65.09        5.38        0.36     -999.25
404.58              0.31     -999.25       62.30        5.86        0.33     -999.25
404.83              0.32     -999.25       61.35        6.35        0.33     -999.25
405.08              0.32     -999.25       63.77        6.30        0.32     -999.25
405.33              0.31     -999.25       71.14        6.11        0.33     -999.25
405.58              0.30     -999.25       74.22        5.87        0.36     -999.25
405.83              0.31     -999.25       77.14        5.48        0.37     -999.25
406.08              0.32     -999.25       80.47        4.89        0.35     -999.25
406.33              0.33     -999.25       79.76        4.23        0.35     -999.25
406.58              0.33     -999.25       80.10        3.68        0.38     -999.25
406.83              0.33     -999.25       86.26        3.19        0.35     -999.25
407.08              0.33     -999.25       88.37        2.84        0.35     -999.25
407.33              0.34     -999.25       86.73        2.67        0.37     -999.25
407.58              0.33     -999.25       86.93        2.52        0.38     -999.25
407.83              0.33     -999.25       88.58        2.29        0.40     -999.25
408.08              0.32     -999.25       90.19        2.22        0.40     -999.25
408.33              0.30     -999.25       90.90        2.16        0.41     -999.25
408.58              0.28     -999.25       91.25        2.22        0.41     -999.25
408.83              0.27     -999.25       91.94        2.30        0.38     -999.25
409.08              0.27     -999.25       90.49        2.42        0.39     -999.25
409.33              0.27     -999.25       84.68        2.94        0.42     -999.25
409.58              0.28     -999.25       81.94        3.65        0.38     -999.25
409.83              0.27     -999.25       81.98        4.57        0.35     -999.25
410.08              0.27     -999.25       82.87        5.27        0.34     -999.25
410.33              0.28     -999.25       82.77        5.57        0.34     -999.25
410.58              0.28     -999.25       81.13        5.73        0.36     -999.25
410.83              0.28     -999.25       80.20        5.80        0.35     -999.25
411.08              0.27     -999.25       78.23        6.12        0.35     -999.25
411.33              0.27     -999.25       77.01        6.56        0.36     -999.25
411.58              0.28     -999.25       76.73        6.90        0.36     -999.25
411.83              0.29     -999.25       77.09        7.28        0.36     -999.25
412.08              0.31     -999.25       79.76        7.89        0.33     -999.25
412.33              0.33     -999.25       83.45        8.06        0.31     -999.25
412.58              0.33     -999.25       85.68        8.12        0.28     -999.25
412.83              0.33     -999.25       86.35        8.41        0.28     -999.25
413.08              0.31     -999.25       85.85        9.13        0.29     -999.25
413.33              0.32     -999.25       82.72        9.98        0.29     -999.25
413.58              0.32     -999.25       78.09       10.30        0.27     -999.25
413.83              0.32     -999.25       82.79       10.51        0.28     -999.25
414.08              0.32     -999.25       85.40       10.40        0.29     -999.25
414.33              0.33     -999.25       80.71        9.93        0.30     -999.25
414.58              0.33     -999.25       77.58        9.52        0.29     -999.25
414.83              0.33     -999.25       81.11        9.07        0.29     -999.25
415.08              0.34     -999.25       82.00        7.97        0.31     -999.25
415.33              0.35     -999.25       76.92        7.60        0.31     -999.25
415.58              0.36     -999.25       73.43        7.02        0.32     -999.25
415.83              0.36     -999.25       76.73        6.07        0.34     -999.25
416.08              0.37     -999.25       82.95        5.70        0.34     -999.25
416.33              0.35     -999.25       87.35        5.43        0.34     -999.25
416.58              0.36     -999.25       92.50        5.40        0.33     -999.25
416.83              0.29     -999.25       87.00        5.41        0.31     -999.25
417.08              0.26     -999.25       77.00        6.06        0.28     -999.25
417.33              0.24     -999.25       72.54        7.99        0.26     -999.25
417.58              0.22     -999.25       71.37       10.52        0.27     -999.25
417.83              0.23     -999.25       73.84       12.15        0.26     -999.25
418.08              0.25     -999.25       75.86       11.97        0.26     -999.25
418.33              0.25     -999.25       76.76       11.17        0.27     -999.25
418.58              0.24     -999.25       76.84       10.51        0.30     -999.25
418.83              0.23     -999.25       77.10        9.64        0.32     -999.25
419.08              0.21     -999.25       79.71        8.37        0.32     -999.25
419.33              0.22     -999.25       82.58        6.99        0.32     -999.25
419.58              0.22     -999.25       83.24        6.32        0.32     -999.25
419.83              0.22     -999.25       81.46        6.02        0.33     -999.25
420.08              0.22     -999.25       78.79        5.65        0.34     -999.25
420.33              0.23     -999.25       77.58        5.52        0.34     -999.25
420.58              0.23     -999.25       79.55        5.70        0.34     -999.25
420.83              0.23     -999.25       81.36        5.74        0.35     -999.25
421.08              0.23     -999.25       80.08        5.75        0.35     -999.25
421.33              0.23     -999.25       77.29        5.93        0.34     -999.25
421.58              0.23     -999.25       76.40        6.39        0.32     -999.25
421.83              0.23     -999.25       77.53        7.03        0.32     -999.25
422.08              0.24     -999.25       76.80        7.32        0.32     -999.25
422.33              0.25     -999.25       71.45        7.35        0.33     -999.25
422.58              0.25     -999.25       64.60        7.81        0.32     -999.25
422.83              0.26     -999.25       63.47        8.53        0.31     -999.25
423.08              0.25     -999.25       68.53        8.90        0.30     -999.25
423.33              0.23     -999.25       69.73        9.12        0.31     -999.25
423.58              0.23     -999.25       68.74        8.09        0.31     -999.25
423.83              0.24     -999.25       70.71        6.59        0.33     -999.25
424.08              0.25     -999.25       73.32        5.15        0.35     -999.25
424.33              0.26     -999.25       75.99        3.90        0.36     -999.25
424.58              0.26     -999.25       82.32        3.37        0.37     -999.25
424.83              0.27     -999.25       84.40        3.29        0.38     -999.25
425.08              0.29     -999.25       83.80        3.40        0.38     -999.25
