~VERSION INFORMATION
 VERS.                 2.0:   CWLS LOG ASCII STANDARD -VERSION 2.0
 WRAP.                  NO:   ONE LINE PER DEPTH STEP
~WELL INFORMATION BLOCK
#MNEM.UNIT           DATA                    DESCRIPTION OF MNEMONIC
#---------    -------------------            -------------------------------
# Generated from Intellog Unique Number	CW_76_78/WELL/2808
WELL.         PAN AM S-1 MARTEN HILLS 10-22  : Well_name    - WELL
LOC .         00/10-22-076-24W4/0            : Location     - LOCATION
UWI .         00/10-22-076-24W4/0            : Uwi          - UNIQUE WELL ID
ENTR.         JJ                             : Entered      - ENTERED BY
SRVC.         SCHLUMBERGER                   : Scn          - SERVICE COMPANY
DATE.         18 JAN 66                      : Date         - LOG DATE
STRT.M        701.04                         : top_depth    - START DEPTH
STOP.M        862.54                         : bot_depth    - STOP DEPTH
STEP.M        0.25                           : increment    - STEP LENGTH
 NULL. -999.2500:NULL Value
~CURVE INFORMATION BLOCK
#MNEM UNIT       ERCB CURVE CODE    CURVE DESCRIPTION
#-----------   ------------------   ----------------------------------
DEPT.M        00 001 00 00         : DEPTH        - DEPTH
DELT.US/F     00 520 00 00         : DELT         - SONIC TRAVEL TIME
CALI.MM       00 280 01 00         : CAL          - CALIPER
GR  .API      00 310 00 00         : GR           - GAMMA RAY
ILD .OHMM     00 120 00 00         : RESD         - DEEP RESISTIVITY (DIL)
~PARAMETER INFORMATION
#MNEM.UNIT           DATA             DESCRIPTION OF MNEMONIC
#---------         -----------     ------------------------------
GL  .M        921.38               : gl           - GROUND LEVEL ELEVATION
EREF.M        924.885              : kb           - ELEVATION OF DEPTH REFERENCE
DATM.M        924.885              : datum        - DATUM ELEVATION
TDD .M        865.937              : tdd          - TOTAL DEPTH DRILLER
RUN .         ONE & TWO            : Run          - RUN NUMBER
ENG .         BERRY                : Engineer     - RECORDING ENGINEER
WIT .         SANDERSON            : Witness      - WITNESSED BY
BASE.         EDMONTON             : Branch       - HOME BASE OF LOGGING UNIT
MUD .         GEL CHEM             : Mud_type     - MUD TYPE
MATR.         SANDSTONE            : Logunit      - NEUTRON MATRIX
TMAX.C        25                   : BHT          - MAXIMUM RECORDED TEMPERATURE
BHTD.M        864.108              : BHTDEP       - MAXIMUM RECORDED TEMPERATURE
RMT .C        6.11111              : MDTP         - TEMPERATURE OF MUD
MUDD.KG/M     1056                 : MWT          - MUD DENSITY
NEUT.         1                    : NEUTRON      - NEUTRON TYPE
RESI.         0                    : RESIST       - RESISTIVITY TYPE
RM  .OHMM     5.05                 : RM           - RESISTIVITY OF MUD
RMC .OHMM     0                    : RMC          - RESISTIVITY OF MUD CAKE
RMF .OHMM     0                    : RMF          - RESISTIVITY OF MUD FILTRATE
SUFT.C        5                    : SUFT         - SURFACE TEMPERATURE
~A  DEPTH     DELT      CAL       GR     RESD
  701.040  310.206  237.459   61.550    6.217
  701.290  352.970  230.666   59.693    6.005
  701.540  373.683  226.310   57.936    5.773
  701.790  379.673  223.439   56.329    6.076
  702.040  384.990  222.476   55.324    6.645
  702.290  346.811  224.058   53.917    7.255
  702.540  257.405  232.635   52.360    7.829
  702.790  277.244  242.804   51.104    7.697
  703.040  300.915  237.387   53.905    7.300
  703.290  347.779  232.291   59.259    6.736
  703.540  358.812  234.508   64.163    5.642
  703.790  362.247  231.743   71.872    5.059
  704.040  362.658  237.988   77.627    4.788
  704.290  359.235  242.432   71.763    4.715
  704.540  358.502  243.482   66.650    4.668
  704.790  362.408  245.807   66.446    4.601
  705.040  363.154  238.908   70.799    4.595
  705.290  362.354  234.234   69.392    4.508
  705.540  365.385  245.779   69.038    4.459
  705.790  368.619  245.664   72.740    4.392
  706.040  368.491  244.912   74.689    4.920
  706.290  374.549  245.009   76.537    5.408
  706.540  382.152  245.638   78.536    6.039
  706.790  376.983  245.736   80.736    6.692
  707.040  373.762  245.196   74.822    6.686
  707.290  372.693  241.796   74.067    5.446
  707.540  372.834  247.299   75.014    4.349
  707.790  374.521  249.834   74.609    3.579
  708.040  375.066  244.101   74.555    3.903
  708.290  371.913  236.672   74.250    3.898
  708.540  370.306  237.193   73.545    3.067
  708.790  363.522  241.743   72.940    2.134
  709.040  384.639  241.416   75.490    1.594
  709.290  384.578  239.817   77.088    2.288
  709.540  381.358  237.052   77.635    3.146
  709.790  379.013  234.498   77.731    4.065
  710.040  377.204  239.896   77.476    3.709
  710.290  374.857  240.206   74.768    3.353
  710.540  371.703  240.515   75.415    5.157
  710.790  372.920  240.929   72.806   11.203
  711.040  376.020  241.345   74.204   12.267
  711.290  364.530  242.608   72.948   10.573
  711.540  379.596  239.525   73.745    8.488
  711.790  382.157  233.473   73.841    7.000
  712.040  377.861  230.390   70.131    5.842
  712.290  374.104  229.428   66.020    5.464
  712.540  372.025  230.054   62.009    5.272
  712.790  365.981  230.893   59.251    5.351
  713.040  372.039  231.626   59.898    5.445
  713.290  367.474  231.513   61.396    5.686
  713.540  324.858  233.412   58.136    5.846
  713.790  301.940  239.869   56.429    5.962
  714.040  312.501  244.313   59.380    6.079
  714.290  336.441  233.597   62.381    6.196
  714.540  350.701  231.256   67.585    6.869
  714.790  351.245  230.929   72.188    7.769
  715.040  353.537  230.815   72.885    7.762
  715.290  352.401  228.262   68.574    7.328
  715.540  352.878  221.892   63.762    7.056
  715.790  354.835  213.297   60.001    6.817
  716.040  354.841  209.790   62.352    6.524
  716.290  352.158  209.357   64.851    6.312
  716.540  349.140  206.168   62.042    5.999
  716.790  350.289  200.963   57.680    5.789
  717.040  356.683  197.775   57.727    5.615
  717.290  359.177  195.646   60.828    5.467
  717.540  354.141  193.729   63.378    5.437
  717.790  345.543  199.339   59.918    5.472
  718.040  346.155  204.313   57.911    5.506
  718.290  352.414  207.799   58.908    5.541
  718.540  357.059  210.442   58.403    5.702
  718.790  336.426  215.205   59.852    5.757
  719.040  351.761  219.861   60.749    5.832
  719.290  344.507  222.819   56.287    5.846
  719.540  346.262  224.506   53.328    5.759
  719.790  351.916  224.922   54.125    5.671
  720.040  352.191  225.124   60.632    5.642
  720.290  348.769  225.223   59.576    5.574
  720.540  350.255  225.850   56.065    5.447
  720.790  352.883  225.840   54.059    5.399
  721.040  352.016  225.089   55.807    5.310
  721.290  328.560  224.127   61.913    5.220
  721.540  342.281  221.043   65.064    5.133
  721.790  333.616  218.173   62.055    5.064
  722.040  333.891  215.090   61.649    5.058
  722.290  346.402  213.279   65.202    5.093
  722.540  358.174  214.012   70.957    5.168
  722.790  362.415  219.834   77.063    5.413
  723.040  365.985  228.517   70.798    5.775
  723.290  358.798  233.490   67.689    6.573
  723.540  310.064  233.588   66.232    7.554
  723.790  309.802  242.166   65.076    8.640
  724.040  294.279  237.811   62.718    9.395
  724.290  297.715  228.685   59.860   10.250
  724.540  243.266  234.401   54.496   11.396
  724.790  216.920  231.423   50.386   12.749
  725.040  239.919  229.824   48.027   14.081
  725.290  279.254  233.844   53.432   13.806
  725.540  297.076  240.830   59.137   11.334
  725.790  301.520  244.214   63.390    9.760
  726.040  283.038  246.433   62.585    8.479
  726.290  286.071  243.878   57.021    7.280
  726.540  297.103  239.312   56.516    6.510
  726.790  306.320  230.929   60.469    5.867
  727.040  318.292  225.514   63.269    5.550
  727.290  342.837  230.062   63.415    5.362
  727.540  343.113  237.899   66.616    5.193
  727.790  339.288  244.357   70.569    5.103
  728.040  349.311  243.605   71.416    4.930
  728.290  358.259  242.537   71.111    4.784
  728.540  356.517  244.118   74.312    4.793
  728.790  337.633  246.440   71.303    4.748
  729.040  343.825  246.856   68.844    4.802
  729.290  342.219  246.740   67.838    4.816
  729.540  340.746  245.991   67.283    4.729
  729.790  337.257  243.330   67.129    4.665
  730.040  350.373  240.248   67.126    4.654
  730.290  360.530  236.422   67.923    4.689
  730.540  366.723  235.672   72.977    4.683
  730.790  370.360  235.345   77.230    4.698
  731.040  373.727  234.594   73.519    4.652
  731.290  357.330  233.843   72.313    4.665
  731.540  369.303  233.728   73.060    4.680
  731.790  371.797  234.144   74.458    4.693
  732.040  372.073  234.877   74.704    4.768
  732.290  371.474  234.657   74.250    4.844
  732.540  369.330  230.301   76.299    4.923
  732.790  366.782  217.996   76.194    4.894
  733.040  371.294  238.658   74.036    4.786
  733.290  374.124  241.826   74.734    4.716
  733.540  376.617  242.775   75.130    4.566
  733.790  352.691  243.720   74.525    4.439
  734.040  370.512  238.093   72.417    4.371
  734.290  371.999  231.511   69.758    4.383
  734.540  369.585  231.926   67.551    4.440
  734.790  369.726  234.249   67.948    4.536
  735.040  367.313  240.283   74.004    4.613
  735.290  369.068  246.847   74.901    4.750
  735.540  372.368  234.542   75.547    4.908
  735.790  376.946  229.549   76.194    5.129
  736.040  381.053  228.693   75.639    5.392
  736.290  382.876  229.426   74.533    5.609
  736.540  370.175  234.506   72.726    5.953
  736.790  343.627  241.070   70.268    6.276
  737.040  294.625  244.982   63.503    6.516
  737.290  314.800  238.508   57.789    6.576
  737.540  330.672  227.898   55.532    6.508
  737.790  350.914  215.274   61.787    6.519
  738.040  347.762  212.403   65.439    6.350
  738.290  342.458  211.227   64.584    6.197
  738.540  346.296  212.279   65.231    6.007
  738.790  350.135  215.663   65.327    5.880
  739.040  352.495  222.121   63.218    5.706
  739.290  353.375  225.822   61.812    5.537
  739.540  352.575  232.386   62.509    5.425
  739.790  347.002  245.415   65.410    5.296
  740.040  339.613  246.467   68.010    5.168
  740.290  357.973  239.144   68.607    5.019
  740.540  371.089  228.004   65.748    4.847
  740.790  382.322  221.635   68.047    4.697
  741.040  366.463  228.834   69.947    4.545
  741.290  341.730  237.200   67.838    4.501
  741.540  355.048  245.672   70.239    4.474
  741.790  339.458  243.225   72.588    4.386
  742.040  337.045  245.760   70.180    4.400
  742.290  336.513  246.917   67.622    4.416
  742.540  337.461  247.436   65.765    4.469
  742.790  339.618  247.535   65.460    4.566
  743.040  337.274  247.527   69.713    4.642
  743.290  319.262  245.715   70.259    4.778
  743.540  309.924  245.813   67.951    5.081
  743.790  320.485  247.499   69.249    5.755
  744.040  315.113  247.067   72.300    6.262
  744.290  262.884  244.725   70.092    6.605
