~VERSION INFORMATION
 VERS.                 2.0:   CWLS LOG ASCII STANDARD -VERSION 2.0
 WRAP.                  NO:   ONE LINE PER DEPTH STEP
~WELL INFORMATION BLOCK
#MNEM.UNIT           DATA                    DESCRIPTION OF MNEMONIC
#---------    -------------------            -------------------------------
# Generated from Intellog Unique Number	CS_71_72/WELL/866
WELL.         PEX PHILLIPS AEC GRIST         : Well_name    - WELL
LOC .         00/10-23-071-07W4/0            : Location     - LOCATION
UWI .         00/10-23-071-07W4/0            : Uwi          - UNIQUE WELL ID
ENTR.         SP                             : Entered      - ENTERED BY
SRVC.         SCHLUMBERGER                   : Scn          - SERVICE COMPANY
STRT.M        300                            : top_depth    - START DEPTH
STOP.M        520                            : bot_depth    - STOP DEPTH
STEP.M        0.25                           : increment    - STEP LENGTH
 NULL. -999.2500:NULL Value
~CURVE INFORMATION BLOCK
#MNEM UNIT       ERCB CURVE CODE    CURVE DESCRIPTION
#-----------   ------------------   ----------------------------------
DEPT.M        00 001 00 00         : DEPTH        - DEPTH
ILD .OHMM     00 120 00 00         : RESD         - DEEP RESISTIVITY (DIL)
DPHI.V/V      00 890 00 00         : PHID         - DENSITY POROSITY (LIMESTONE)
NPHI.V/V      00 330 00 00         : PHIN         - NEUTRON POROSITY (LIMESTONE)
GR  .API      00 310 00 00         : GR           - GAMMA RAY
~PARAMETER INFORMATION
#MNEM.UNIT           DATA             DESCRIPTION OF MNEMONIC
#---------         -----------     ------------------------------
GL  .M        662.4                : gl           - GROUND LEVEL ELEVATION
EREF.M        666.2                : kb           - ELEVATION OF DEPTH REFERENCE
DATM.M        662.4                : datum        - DATUM ELEVATION
TDD .M        529                  : tdd          - TOTAL DEPTH DRILLER
RUN .         ONE                  : Run          - RUN NUMBER
ENG .         BILL                 : Engineer     - RECORDING ENGINEER
WIT .         JIM                  : Witness      - WITNESSED BY
MUD .         GEL                  : Mud_type     - MUD TYPE
MATR.         LIMESTONE            : Logunit      - NEUTRON MATRIX
TMAX.C        24                   : BHT          - MAXIMUM RECORDED TEMPERATURE
BHTD.M        529                  : BHTDEP       - MAXIMUM RECORDED TEMPERATURE
MATR.         1                    : LOGUNIT      - NEUTRON MATRIX
RMT .C        25                   : MDTP         - TEMPERATURE OF MUD
NEUT.         1                    : NEUTRON      - NEUTRON TYPE
RESI.         0                    : RESIST       - RESISTIVITY TYPE
RMC .OHMM     0.25                 : RMC          - RESISTIVITY OF MUD CAKE
RMF .OHMM     0.25                 : RMF          - RESISTIVITY OF MUD FILTRATE
SUFT.C        15                   : SUFT         - SURFACE TEMPERATURE
~A  DEPTH     RESD     PHID     PHIN       GR
  300.000    2.894    0.281    0.519   90.453
  300.250    2.949    0.297    0.526   89.846
  300.500    2.956    0.309    0.536   89.423
  300.750    3.099    0.292    0.545   92.237
  301.000    3.275    0.287    0.524   94.012
  301.250    3.382    0.295    0.512   90.474
  301.500    3.500    0.259    0.547   90.112
  301.750    3.588    0.255    0.514   90.666
  302.000    3.555    0.259    0.490   87.189
  302.250    3.450    0.257    0.486   84.201
  302.500    3.293    0.250    0.495   87.442
  302.750    3.178    0.246    0.506   87.813
  303.000    3.044    0.249    0.520   86.107
  303.250    2.927    0.251    0.536   88.371
  303.500    2.879    0.247    0.547   89.658
  303.750    2.831    0.239    0.553   87.402
  304.000    2.816    0.234    0.544   87.162
  304.250    2.860    0.235    0.534   88.510
  304.500    2.982    0.238    0.523   87.537
  304.750    3.085    0.231    0.512   85.038
  305.000    3.199    0.218    0.503   82.904
  305.250    3.322    0.229    0.494   80.954
  305.500    3.380    0.248    0.488   82.730
  305.750    3.337    0.266    0.508   84.139
  306.000    3.414    0.281    0.513   90.556
  306.250    3.513    0.236    0.512   93.430
  306.500    3.574    0.240    0.514   86.350
  306.750    3.582    0.305    0.523   83.484
  307.000    3.419    0.391    0.542   84.221
  307.250    3.293    0.449    0.568   81.538
  307.500    3.190    0.494    0.581   79.527
  307.750    3.377    0.416    0.581   88.937
  308.000    3.719    0.396    0.583   97.797
  308.250    4.236    0.403    0.594   89.923
  308.500    5.125    0.503    0.616   76.124
  308.750    6.295    0.604    0.626   62.264
  309.000    8.773    0.525    0.608   56.222
  309.250   12.887    0.369    0.348   52.073
  309.500   17.724    0.354    0.289   47.802
  309.750   26.683    0.365    0.211   43.287
  310.000   40.017    0.374    0.191   40.543
  310.250   55.243    0.385    0.179   41.158
  310.500   53.621    0.393    0.188   44.399
  310.750   50.214    0.371    0.196   41.778
  311.000   48.646    0.369    0.191   37.324
  311.250   52.173    0.382    0.184   35.190
  311.500   57.887    0.389    0.173   32.202
  311.750   62.435    0.378    0.161   28.542
  312.000   66.210    0.362    0.168   26.103
  312.250   70.346    0.348    0.182   27.450
  312.500   67.893    0.336    0.194   28.127
  312.750   56.467    0.327    0.205   28.436
  313.000   41.627    0.326    0.223   35.892
  313.250   28.194    0.316    0.272   45.118
  313.500   18.459    0.263    0.335   53.123
  313.750   12.740    0.204    0.380   62.594
  314.000    9.357    0.194    0.386   76.341
  314.250    7.915    0.214    0.395   83.246
  314.500    7.315    0.261    0.425   85.144
  314.750    7.127    0.312    0.434   81.667
  315.000    7.210    0.314    0.429   76.969
  315.250    7.420    0.295    0.424   75.386
  315.500    7.634    0.278    0.421   75.268
  315.750    7.945    0.283    0.417   78.875
  316.000    8.052    0.287    0.412   82.666
  316.250    8.193    0.287    0.409   82.242
  316.500    8.462    0.279    0.407   79.437
  316.750    8.512    0.273    0.402   81.518
  317.000    8.388    0.288    0.390   85.309
  317.250    8.172    0.275    0.372   84.825
  317.500    7.947    0.225    0.360   86.845
  317.750    7.904    0.239    0.418   87.948
  318.000    7.862    0.270    0.425   84.899
  318.250    7.879    0.297    0.430   86.125
  318.500    8.002    0.270    0.426   93.030
  318.750    8.110    0.265    0.410  100.669
  319.000    8.345    0.272    0.395   86.382
  319.250    8.587    0.276    0.385   67.636
  319.500    8.654    0.276    0.391   52.860
  319.750    8.657    0.275    0.382   43.642
  320.000    8.594    0.284    0.370   38.883
  320.250    8.485    0.292    0.359   37.665
  320.500    8.361    0.299    0.358   37.120
  320.750    8.146    0.305    0.350   37.979
  321.000    7.981    0.278    0.337   40.671
  321.250    7.673    0.177    0.392   50.325
  321.500    7.267    0.081    0.432   74.699
  321.750    6.717    0.059    0.454   85.269
  322.000    6.278    0.046    0.460   94.556
  322.250    5.814    0.105    0.465   95.904
  322.500    5.495    0.176    0.470  107.391
  322.750    4.900    0.229    0.484  112.464
  323.000    4.478    0.250    0.495  109.720
  323.250    4.084    0.220    0.503  107.282
  323.500    3.732    0.207    0.485  107.653
  323.750    3.456    0.218    0.475  109.672
  324.000    3.236    0.231    0.509  111.570
  324.250    3.003    0.245    0.534  108.948
  324.500    2.898    0.244    0.541  108.219
  324.750    2.899    0.242    0.557  107.857
  325.000    3.192    0.251    0.575  103.159
  325.250    3.790    0.264    0.575   95.284
  325.500    4.458    0.276    0.528   84.356
  325.750    5.185    0.279    0.490   77.642
  326.000    5.807    0.262    0.437   74.287
  326.250    6.112    0.255    0.442   73.192
  326.500    6.022    0.303    0.453   75.090
  326.750    5.867    0.350    0.454   76.499
  327.000    5.631    0.341    0.458   76.320
  327.250    5.569    0.309    0.459   78.462
  327.500    5.623    0.285    0.462   80.849
  327.750    5.754    0.259    0.444   80.913
  328.000    5.712    0.251    0.434   80.551
  328.250    5.565    0.247    0.446   81.533
  328.500    5.536    0.240    0.455   80.865
  328.750    5.707    0.231    0.416   77.816
  329.000    5.839    0.222    0.421   77.148
  329.250    5.797    0.225    0.416   73.977
  329.500    5.637    0.251    0.403   72.210
  329.750    5.492    0.275    0.400   72.519
  330.000    5.442    0.294    0.426   69.836
  330.250    5.495    0.314    0.461   66.298
  330.500    5.549    0.322    0.476   65.631
  330.750    5.657    0.310    0.448   67.162
  331.000    5.809    0.286    0.435   69.548
  331.250    5.933    0.277    0.448   72.179
  331.500    6.186    0.291    0.460   74.137
  331.750    6.462    0.302    0.456   74.508
  332.000    6.840    0.306    0.441   74.696
  332.250    7.117    0.307    0.436   74.212
  332.500    7.351    0.316    0.436   72.261
  332.750    7.522    0.324    0.436   70.372
  333.000    7.567    0.330    0.429   69.522
  333.250    7.612    0.335    0.422   70.992
  333.500    7.557    0.334    0.422   72.828
  333.750    7.489    0.323    0.420   74.115
  334.000    7.490    0.321    0.415   75.097
  334.250    7.493    0.326    0.410   73.696
  334.500    7.523    0.328    0.427   71.746
  334.750    7.540    0.324    0.439   73.338
  335.000    7.542    0.323    0.449   76.580
  335.250    7.587    0.329    0.461   77.989
  335.500    7.647    0.336    0.473   76.038
  335.750    7.692    0.340    0.469   72.746
  336.000    7.709    0.342    0.443   70.306
  336.250    7.770    0.333    0.430   67.562
  336.500    7.921    0.333    0.442   66.039
  336.750    8.258    0.330    0.451   70.624
  337.000    9.162    0.326    0.436   75.087
  337.250   10.516    0.314    0.421   76.069
  337.500   14.435    0.285    0.388   73.324
  337.750   18.726    0.203    0.252   67.588
  338.000   22.658   -0.016    0.197   62.217
  338.250   24.346   -0.014    0.175   56.725
  338.500   21.628   -0.007    0.164   54.286
  338.750   16.035    0.013    0.166   53.557
  339.000   11.601    0.066    0.226   61.563
  339.250    9.291    0.239    0.373   68.469
  339.500    8.039    0.294    0.435   73.176
  339.750    7.319    0.318    0.450   78.982
  340.000    7.064    0.329    0.444   83.995
  340.250    6.987    0.323    0.451   86.381
  340.500    6.820    0.307    0.462   86.080
  340.750    6.682    0.294    0.451   84.618
  341.000    6.534    0.290    0.453   88.226
  341.250    6.343    0.293    0.468   88.963
  341.500    6.145    0.278    0.479   87.563
  341.750    6.043    0.278    0.455   89.521
  342.000    5.977    0.262    0.431   92.519
  342.250    5.901    0.247    0.434   94.173
  342.500    5.847    0.273    0.451   95.092
  342.750    5.783    0.275    0.445   95.463
  343.000    5.687    0.260    0.449   93.452
  343.250    5.614    0.248    0.469   91.868
