~VERSION INFORMATION
 VERS.                 2.0:   CWLS LOG ASCII STANDARD -VERSION 2.0
 WRAP.                  NO:   ONE LINE PER DEPTH STEP
~WELL INFORMATION BLOCK
#MNEM.UNIT           DATA                    DESCRIPTION OF MNEMONIC
#---------    -------------------            -------------------------------
# Generated from Intellog Unique Number	CW_70_72/WELL/1049
NULL.         -999.25                        : NULL_VALUE
WELL.         HOME CDN SUP MITSUE 10-34      : Well_name    - WELL              
LOC .         10-34-071-03W5                 : Location     - LOCATION          
UWI .         00/10-34-071-03W5/0            : Uwi          - UNIQUE WELL ID    
ENTR.         JAYE                           : Entered      - ENTERED BY        
SRVC.         COMPUTALOG                     : Scn          - SERVICE COMPANY   
DATE.         7 SEPT 84                      : Date         - LOG DATE          
STRT.M        420                            : top_depth    - START DEPTH       
STOP.M        625                            : bot_depth    - STOP DEPTH        
STEP.M        0.25                           : increment    - STEP LENGTH       
~CURVE INFORMATION BLOCK
#MNEM UNIT       ERCB CURVE CODE    CURVE DESCRIPTION
#-----------   ------------------   ----------------------------------
DEPT.M        00 001 00 00         : DEPTH        - DEPTH                       
DPHI.V/V      00 890 00 00         : PHID         - DENSITY POROSITY (SANDSTONE)
NPHI.V/V      00 330 00 00         : PHIN         - NEUTRON POROSITY (SANDSTONE)
GR  .API      00 310 00 00         : GR           - GAMMA RAY                   
CALI.MM       00 280 01 00         : CAL          - CALIPER                     
ILD .OHMM     00 120 00 00         : RESD         - DEEP RESISTIVITY (DIL)      
~PARAMETER INFORMATION       
#MNEM.UNIT           DATA             DESCRIPTION OF MNEMONIC
#---------         -----------     ------------------------------
GL  .M        625.4                : gl           - GROUND LEVEL ELEVATION      
EREF.M        628.3                : kb           - ELEVATION OF DEPTH REFERENCE
DATM.M        625.4                : datum        - DATUM ELEVATION             
TDD .M        643                  : tdd          - TOTAL DEPTH DRILLER         
RUN .         ONE                  : Run          - RUN NUMBER                  
ENG .         MACLEAN              : Engineer     - RECORDING ENGINEER          
WIT .         COOK/YARDLEY         : Witness      - WITNESSED BY                
BASE.         EDM                  : Branch       - HOME BASE OF LOGGING UNIT   
MUD .         GEL CHEM             : Mud_type     - MUD TYPE                    
MATR.         SANDSTONE            : Logunit      - NEUTRON MATRIX              
TMAX.C        22                   : BHT          - MAXIMUM RECORDED TEMPERATURE
BHTD.M        632.5                : BHTDEP       - MAXIMUM RECORDED TEMPERATURE
RMT .C        17                   : MDTP         - TEMPERATURE OF MUD          
MUDD.KG/M     1120                 : MWT          - MUD DENSITY                 
NEUT.         1                    : NEUTRON      - NEUTRON TYPE                
RESI.         0                    : RESIST       - RESISTIVITY TYPE            
RM  .OHMM     4                    : RM           - RESISTIVITY OF MUD          
RMC .OHMM     3.2                  : RMC          - RESISTIVITY OF MUD CAKE     
RMF .OHMM     3.8                  : RMF          - RESISTIVITY OF MUD FILTRATE 
SUFT.C        0                    : SUFT         - SURFACE TEMPERATURE         
~A  DEPTH     PHID     PHIN       GR      CAL     RESD
# ...
  456.500    0.257    0.393   35.175  195.895    2.998
  456.750    0.265    0.420   37.494  196.330    3.053
  457.000    0.255    0.437   40.501  196.871    3.092
  457.250    0.238    0.416   45.380  196.890    3.091
  457.500    0.237    0.397   45.203  196.597    3.000
  457.750    0.251    0.385   40.410  196.200    2.873
  458.000    0.277    0.389   33.745  195.491    2.793
  458.250    0.302    0.395   33.008  194.885    2.736
  458.500    0.312    0.394   35.140  194.490    2.679
  458.750    0.315    0.391   34.715  194.302    2.663
  459.000    0.316    0.388   33.167  194.004    2.678
  459.250    0.311    0.393   31.867  193.922    2.681
  459.500    0.306    0.408   30.881  193.940    2.731
  459.750    0.301    0.408   31.267  194.170    2.750
  460.000    0.298    0.395   33.274  194.289    2.679
  460.250    0.295    0.382   34.784  194.414    2.575
  460.500    0.288    0.373   33.547  194.537    2.485
  460.750    0.288    0.364   29.689  194.556    2.323
  461.000    0.333    0.358   23.461  194.366    2.213
  461.250    0.345    0.364   20.540  194.384    2.092
  461.500    0.352    0.371   20.551  194.406    2.034
  461.750    0.355    0.369   21.499  194.631    2.060
  462.000    0.354    0.373   22.760  194.649    2.090
  462.250    0.351    0.396   23.955  194.776    2.144
  462.500    0.338    0.435   26.025  194.481    2.116
  462.750    0.340    0.433   28.034  194.397    2.084
  463.000    0.347    0.423   28.107  194.727    2.041
  463.250    0.355    0.401   24.687  195.059    1.992
  463.500    0.358    0.388   25.635  195.285    1.972
  463.750    0.358    0.391   27.830  195.515    1.976
  464.000    0.354    0.401   26.094  195.321    2.004
  464.250    0.357    0.406   24.796  195.237    2.037
  464.500    0.375    0.406   26.804  194.842    2.060
  464.750    0.379    0.405   28.374  194.547    2.055
  465.000    0.375    0.402   29.073  194.150    2.039
  465.250    0.370    0.399   28.336  193.752    1.990
  465.500    0.362    0.396   25.414  193.670    1.952
  465.750    0.355    0.388   23.803  193.686    1.902
  466.000    0.358    0.385   23.066  193.605    1.832
  466.250    0.363    0.386   23.513  193.104    1.807
  466.500    0.367    0.382   22.277  192.914    1.797
  466.750    0.367    0.379   21.102  192.827    1.796
  467.000    0.365    0.378   21.739  192.747    1.802
  467.250    0.362    0.375   23.559  192.762    1.818
  467.500    0.360    0.372   21.200  192.575    1.828
  467.750    0.360    0.372   20.462  192.382    1.817
  468.000    0.359    0.372   21.909  192.822    1.803
  468.250    0.362    0.378   24.167  193.252    1.802
  468.500    0.368    0.386   22.180  193.792    1.795
  468.750    0.366    0.390   20.072  194.127    1.788
  469.000    0.362    0.392   21.206  194.144    1.787
  469.250    0.355    0.399   23.775  194.060    1.800
  469.500    0.348    0.398   24.038  194.184    1.802
  469.750    0.348    0.397   22.737  194.304    1.805
  470.000    0.353    0.404   21.875  194.637    1.821
  470.250    0.361    0.415   21.700  194.971    1.855
  470.500    0.363    0.430   22.147  195.194    1.903
  470.750    0.360    0.444   22.783  195.316    1.986
  471.000    0.358    0.450   23.294  195.333    2.110
  471.250    0.368    0.425   24.304  195.355    2.181
  471.500    0.379    0.411   25.127  195.581    2.177
  471.750    0.368    0.415   25.948  195.704    2.164
  472.000    0.353    0.409   26.896  195.828    2.151
  472.250    0.341    0.401   27.282  196.157    2.150
  472.500    0.328    0.398   28.604  196.175    2.149
  472.750    0.321    0.395   30.674  196.094    2.157
  473.000    0.323    0.403   31.996  195.903    2.148
  473.250    0.323    0.419   32.569  195.713    2.151
  473.500    0.322    0.409   29.148  195.944    2.139
  473.750    0.323    0.389   27.225  195.958    2.114
  474.000    0.322    0.391   26.924  195.146    2.086
  474.250    0.317    0.415   27.935  193.189    2.062
  474.500    0.312    0.411   30.630  191.649    2.046
  474.750    0.306    0.403   32.637  190.732    2.068
  475.000    0.306    0.389   29.966  190.961    2.110
  475.250    0.304    0.422   28.853  191.706    2.177
  475.500    0.295    0.440   30.363  193.076    2.314
  475.750    0.313    0.455   33.057  194.969    2.548
  476.000    0.311    0.445   34.567  196.444    2.724
  476.250    0.285    0.425   36.574  197.710    2.988
  476.500    0.255    0.411   39.643  198.768    3.218
  476.750    0.243    0.430   41.963  199.932    3.414
  477.000    0.251    0.416   42.849  201.406    3.476
  477.250    0.245    0.394   45.668  202.672    3.399
  477.500    0.233    0.386   44.931  199.989    3.255
  477.750    0.246    0.395   41.886  196.474    3.176
  478.000    0.265    0.406   39.898  193.474    3.094
  478.250    0.270    0.423   37.664  190.582    3.036
  478.500    0.279    0.421   36.553  189.354    3.018
  478.750    0.290    0.417   35.441  189.164    3.000
  479.000    0.299    0.407   34.079  189.285    2.966
  479.250    0.302    0.389   30.846  189.619    2.915
  479.500    0.303    0.382   30.359  189.950    2.887
  479.750    0.303    0.387   32.429  190.177    2.849
  480.000    0.304    0.394   33.564  190.611    2.837
  480.250    0.307    0.406   32.952  191.149    2.810
  480.500    0.306    0.413   33.149  191.272    2.778
  480.750    0.306    0.415   36.405  191.604    2.772
  481.000    0.313    0.425   33.921  191.625    2.792
  481.250    0.317    0.411   30.313  191.746    2.886
  481.500    0.310    0.395   30.637  191.766    3.022
  481.750    0.303    0.364   31.272  191.783    3.212
  482.000    0.293    0.340   30.285  192.013    3.376
  482.250    0.286    0.312   29.299  192.031    3.451
  482.500    0.302    0.376   29.871  192.152    3.361
  482.750    0.311    0.390   33.002  192.275    3.143
  483.000    0.313    0.385   34.075  192.191    2.905
  483.250    0.307    0.374   30.717  192.418    2.716
  483.500    0.301    0.374   26.297  192.543    2.631
  483.750    0.294    0.388   26.309  192.559    2.650
  484.000    0.282    0.407   27.195  192.371    2.749
  484.250    0.270    0.406   27.704  192.598    2.922
  484.500    0.249    0.331   28.777  193.968    3.358
  484.750    0.215    0.259   32.781  195.755    3.774
  485.000    0.164    0.222   31.483  197.959    4.305
  485.250    0.117    0.171   28.312  195.482    5.163
  485.500    0.092    0.151   26.513  193.525    6.548
  485.750    0.066    0.138   24.340  193.129   14.102
  486.000    0.037    0.129   23.541  192.733   15.104
  486.250    0.015    0.122   24.052  192.754   18.766
  486.500    0.031    0.119   24.811  192.354   20.779
  486.750    0.056    0.142   25.634  191.644   17.442
  487.000    0.076    0.175   25.584  191.040   12.594
  487.250    0.110    0.245   25.597  190.435    7.481
  487.500    0.157    0.300   25.793  189.932    4.587
  487.750    0.229    0.356   26.305  188.915    3.324
  488.000    0.323    0.405   27.127  188.101    2.674
  488.250    0.348    0.402   27.263  187.287    2.299
  488.500    0.351    0.412   24.592  186.994    2.075
  488.750    0.344    0.434   21.920  187.324    1.976
  489.000    0.337    0.423   20.308  187.865    1.939
  489.250    0.332    0.401   19.447  188.089    1.931
  489.500    0.330    0.384   19.646  188.424    1.952
  489.750    0.327    0.385   20.342  188.443    1.970
  490.000    0.332    0.398   21.852  188.671    1.999
  490.250    0.330    0.405   24.360  188.689    2.020
  490.500    0.330    0.406   27.490  188.914    2.035
  490.750    0.335    0.409   31.433  189.561    2.065
  491.000    0.332    0.415   30.196  189.889    2.071
  491.250    0.328    0.420   28.210  190.011    2.063
  491.500    0.325    0.413   28.222  189.925    2.051
  491.750    0.330    0.396   28.920  189.840    2.039
  492.000    0.341    0.386   29.806  189.755    2.046
  492.250    0.349    0.393   30.253  189.878    2.079
  492.500    0.348    0.390   30.390  189.692    2.165
  492.750    0.342    0.385   29.840  189.605    2.263
