~VERSION INFORMATION
 VERS.                 2.0:   CWLS LOG ASCII STANDARD -VERSION 2.0
 WRAP.                  NO:   ONE LINE PER DEPTH STEP
~WELL INFORMATION BLOCK
#MNEM.UNIT           DATA                    DESCRIPTION OF MNEMONIC
#---------    -------------------            -------------------------------
# Generated from Intellog Unique Number	CW_82_90/WELL/3439
WELL.         COSEKA LIEGE                   : Well_name    - WELL
LOC .         00/10-15-090-20W4/0            : Location     - LOCATION
UWI .         00/10-15-090-20W4/0            : Uwi          - UNIQUE WELL ID
ENTR.         MAX                            : Entered      - ENTERED BY
SRVC.         SCHLUMBERGER                   : Scn          - SERVICE COMPANY
STRT.M        160                            : top_depth    - START DEPTH
STOP.M        246                            : bot_depth    - STOP DEPTH
STEP.M        0.25                           : increment    - STEP LENGTH
 NULL. -999.2500:NULL Value
~CURVE INFORMATION BLOCK
#MNEM UNIT       ERCB CURVE CODE    CURVE DESCRIPTION
#-----------   ------------------   ----------------------------------
DEPT.M        00 001 00 00         : DEPTH        - DEPTH
ILD .OHMM     00 120 00 00         : RESD         - DEEP RESISTIVITY (DIL)
NPHI.V/V      00 330 00 00         : PHIN         - NEUTRON POROSITY (SANDSTONE)
DPHI.V/V      00 890 00 00         : PHID         - DENSITY POROSITY (SANDSTONE)
CALI.MM       00 280 01 00         : CAL          - CALIPER
GR  .API      00 310 00 00         : GR           - GAMMA RAY
~PARAMETER INFORMATION
#MNEM.UNIT           DATA             DESCRIPTION OF MNEMONIC
#---------         -----------     ------------------------------
GL  .M        520.3                : gl           - GROUND LEVEL ELEVATION
EREF.M        523.5                : kb           - ELEVATION OF DEPTH REFERENCE
DATM.M        520.3                : datum        - DATUM ELEVATION
TDD .M        246                  : tdd          - TOTAL DEPTH DRILLER
RUN .         ONE                  : Run          - RUN NUMBER
ENG .         BILL                 : Engineer     - RECORDING ENGINEER
WIT .         JIM                  : Witness      - WITNESSED BY
MUD .         GEL                  : Mud_type     - MUD TYPE
MATR.         SANDSTONE            : Logunit      - NEUTRON MATRIX
TMAX.C        17.2                 : BHT          - MAXIMUM RECORDED TEMPERATURE
BHTD.M        246                  : BHTDEP       - MAXIMUM RECORDED TEMPERATURE
MATR.         1                    : LOGUNIT      - NEUTRON MATRIX
RMT .C        17.2                 : MDTP         - TEMPERATURE OF MUD
NEUT.         1                    : NEUTRON      - NEUTRON TYPE
RESI.         0                    : RESIST       - RESISTIVITY TYPE
RMC .OHMM     5.828                : RMC          - RESISTIVITY OF MUD CAKE
RMF .OHMM     5.1                  : RMF          - RESISTIVITY OF MUD FILTRATE
SUFT.C        1                    : SUFT         - SURFACE TEMPERATURE
~A  DEPTH     RESD     PHIN     PHID      CAL       GR
# ...
  196.500   11.757    0.440    0.197  179.978  107.512
  196.750   11.435    0.458    0.201  179.927  110.159
  197.000   12.308    0.468    0.195  176.384  108.932
  197.250   16.992    0.447    0.191  173.346  103.831
  197.500   21.003    0.398    0.210  173.295   85.315
  197.750   21.990    0.355    0.235  174.230   80.503
  198.000   22.397    0.315    0.274  171.688   90.907
  198.250   20.611    0.329    0.189  167.656   98.620
  198.500   20.046    0.357    0.173  167.087  102.162
  198.750   19.678    0.388    0.187  167.029   98.550
  199.000   18.963    0.390    0.214  165.480  101.496
  199.250   18.106    0.383    0.220  164.429  102.052
  199.500   17.773    0.391    0.218  163.384   95.465
  199.750   18.609    0.405    0.230  163.319   84.400
  200.000   20.783    0.404    0.237  163.750   78.106
  200.250   22.998    0.393    0.210  163.699   71.809
  200.500   26.649    0.372    0.184  163.648   67.899
  200.750   31.167    0.354    0.170  164.086   65.480
  201.000   33.240    0.332    0.149  164.524   63.653
  201.250   32.931    0.323    0.148  164.466   62.422
  201.500   30.026    0.307    0.164  165.394   64.473
  201.750   27.889    0.304    0.215  165.832   68.619
  202.000   29.200    0.402    0.264  166.760   73.054
  202.250   31.430    0.442    0.250  167.191   70.337
  202.500   31.717    0.405    0.190  167.644   72.383
  202.750   32.008    0.300    0.118  168.068   74.737
  203.000   32.598    0.367    0.168  168.024   76.192
  203.250   30.000    0.351    0.136  168.441   77.051
  203.500   28.910    0.327    0.137  168.894   78.506
  203.750   28.641    0.376    0.179  169.340   80.259
  204.000   31.114    0.399    0.172  170.275   78.730
  204.250   30.542    0.369    0.122  170.706   72.730
  204.500   29.705    0.328    0.091  171.144   75.382
  204.750   28.364    0.297    0.108  171.582   83.989
  205.000   23.804    0.374    0.202  172.510   89.919
  205.250   21.905    0.413    0.200  173.453   83.919
  205.500   21.109    0.423    0.105  174.884   81.798
  205.750   21.107    0.383    0.036  176.316   86.233
  206.000   20.340    0.311    0.077  177.741   99.017
  206.250   19.243    0.379    0.156  178.676  104.347
  206.500   18.544    0.410    0.184  179.611  103.418
  206.750   17.383    0.412    0.187  180.553  104.272
  207.000   16.906    0.403    0.188  182.978  103.641
  207.250   17.061    0.392    0.174  185.389  100.030
  207.500   17.538    0.389    0.146  186.339  100.293
  207.750   17.535    0.376    0.133  188.260  104.132
  208.000   16.898    0.380    0.152  190.685  101.713
  208.250   16.135    0.420    0.199  190.627  101.674
  208.500   16.433    0.420    0.205  188.574  101.643
  208.750   16.737    0.426    0.197  188.027   97.730
  209.000   16.735    0.402    0.138  187.968   96.209
  209.250   16.732    0.377    0.149  189.407  101.240
  209.500   16.885    0.420    0.175  190.832  104.186
  209.750   16.728    0.448    0.193  189.787  104.449
  210.000   16.120    0.436    0.198  187.231  106.202
  210.250   15.392    0.426    0.193  186.180  107.955
  210.500   14.697    0.433    0.151  182.104  104.940
  210.750   14.695    0.421    0.098  179.613  100.728
  211.000   15.386    0.406    0.097  177.071  103.073
  211.250   16.715    0.407    0.154  175.523  106.614
  211.500   17.024    0.413    0.189  172.981  110.462
  211.750   16.105    0.412    0.203  172.419  110.418
  212.000   16.253    0.429    0.203  172.361  107.403
  212.250   15.954    0.455    0.199  171.806  103.200
  212.500   15.233    0.457    0.179  171.740   96.311
  212.750   15.950    0.428    0.120  171.682   83.755
  213.000   17.327    0.385    0.028  172.120   91.767
  213.250   17.647    0.357    0.074  172.069  103.955
  213.500   17.163    0.391    0.108  172.011  108.981
  213.750   15.795    0.410    0.184  172.449  111.331
  214.000   14.139    0.410    0.190  172.391  113.982
  214.250   13.012    0.409    0.187  173.326  113.649
  214.500   12.655    0.434    0.186  173.268  110.038
  214.750   12.538    0.463    0.179  172.698   99.866
  215.000   13.127    0.424    0.077  172.647  105.195
  215.250   14.393    0.389    0.120  172.589  110.525
  215.500   14.259    0.398    0.165  172.531  112.576
  215.750   13.868    0.401    0.187  172.465  112.537
  216.000   13.242    0.404    0.185  172.911  113.102
  216.250   12.299    0.408    0.180  173.342  115.149
  216.500   11.636    0.403    0.178  173.780  118.098
  216.750   12.876    0.398    0.171  174.211  115.977
  217.000   14.920    0.387    0.158  174.168  108.785
  217.250   16.209    0.382    0.164  174.606  109.947
  217.500   16.971    0.381    0.189  174.548  115.872
  217.750   17.933    0.395    0.195  172.992  117.621
  218.000   19.127    0.381    0.182  172.934  108.348
  218.250   21.360    0.354    0.154  172.372   98.478
  218.500   22.992    0.299    0.006  171.817   92.478
  218.750   23.418    0.262    0.007  171.766  102.878
  219.000   21.951    0.345    0.113  171.211  112.976
  219.250   17.920    0.367    0.157  171.145  119.199
  219.500   15.039    0.388    0.189  172.080  120.352
  219.750   14.097    0.404    0.187  174.513  124.200
  220.000   14.095    0.410    0.183  175.440  128.933
  220.250   14.094    0.404    0.177  174.878  123.827
  220.500   13.333    0.393    0.165  175.820  117.534
  220.750   12.384    0.374    0.151  177.252  119.581
  221.000   11.502    0.361    0.146  179.670  122.829
  221.250   10.585    0.397    0.159  180.620  126.072
  221.500    9.831    0.430    0.180  181.548  126.926
  221.750    8.964    0.443    0.183  181.489  127.189
  222.000    8.481    0.499    0.176  180.430  127.159
  222.250    8.718    0.505    0.110  178.882  123.543
  222.500   10.009    0.475    0.087  177.830  125.897
  222.750   11.076    0.370    0.144  178.765  132.716
  223.000   11.490    0.364    0.162  179.708  134.469
  223.250   11.279    0.400    0.190  180.146  133.834
  223.500   10.380    0.443    0.201  182.075  135.885
  223.750    9.640    0.437    0.202  182.995  140.027
  224.000    9.463    0.417    0.183  183.441  147.740
  224.250    9.204    0.430    0.156  184.376  147.999
  224.500    8.788    0.435    0.166  185.311  146.180
  224.750    8.469    0.429    0.176  185.253  137.801
  225.000    8.313    0.423    0.175  185.194  133.883
  225.250    8.160    0.410    0.166  185.640  133.848
  225.500    8.465    0.404    0.168  186.561  135.903
  225.750    9.112    0.408    0.178  187.496  138.550
  226.000    9.629    0.414    0.173  187.941  142.385
  226.250   10.364    0.417    0.174  186.890  142.648
  226.500   10.953    0.420    0.176  185.334  135.167
  226.750   12.120    0.426    0.158  182.792  118.141
  227.000   13.167    0.419    0.002  181.741  112.146
  227.250   14.570    0.360    0.004  184.166  121.945
  227.500   14.976    0.292    0.026  187.095  130.553
  227.750   14.975    0.348    0.122  189.023  147.807
  228.000   14.973    0.403    0.142  188.958  147.768
  228.250   15.109    0.389    0.132  188.892  147.737
  228.500   15.531    0.404    0.147  188.841  141.146
  228.750   16.112    0.414    0.173  188.776  137.526
  229.000   16.715    0.406    0.187  188.725  136.303
  229.250   17.341    0.394    0.187  189.156  133.884
  229.500   17.990    0.382    0.183  189.594  129.081
  229.750   19.364    0.364    0.178  189.529  112.949
  230.000   22.439    0.373    0.165  189.485   83.104
  230.250   26.730    0.396    0.166  187.936   70.552
  230.500   34.597    0.396    0.191  186.388   59.486
  230.750   46.035    0.402    0.222  185.833   55.871
  231.000   61.821    0.408    0.263  185.271   50.169
  231.250   80.015    0.415    0.279  184.716   47.754
  231.500  103.564    0.433    0.288  184.643   45.931
  231.750  117.815    0.455    0.292  184.095   46.492
  232.000  121.103    0.450    0.285  183.533   49.131
  232.250  119.975    0.451    0.282  182.496   49.994
  232.500  121.072    0.452    0.285  182.438   48.465
  232.750  124.449    0.443    0.284  181.386   46.344
