~VERSION INFORMATION
 VERS.                 2.0:   CWLS LOG ASCII STANDARD -VERSION 2.0
 WRAP.                  NO:   ONE LINE PER DEPTH STEP
~WELL INFORMATION BLOCK
#MNEM.UNIT           DATA                    DESCRIPTION OF MNEMONIC
#---------    -------------------            -------------------------------
# Generated from Intellog Unique Number	CS_77_79/WELL/1013
WELL.         CWWE LEISMER                   : Well_name    - WELL
LOC .         00/12-14-079-08W4/0            : Location     - LOCATION
UWI .         00/12-14-079-08W4/0            : Uwi          - UNIQUE WELL ID
ENTR.         JHS                            : Entered      - ENTERED BY
SRVC.         SCHLUMBERGER                   : Scn          - SERVICE COMPANY
STRT.M        155                            : top_depth    - START DEPTH
STOP.M        380                            : bot_depth    - STOP DEPTH
STEP.M        0.25                           : increment    - STEP LENGTH
 NULL. -999.2500:NULL Value
~CURVE INFORMATION BLOCK
#MNEM UNIT       ERCB CURVE CODE    CURVE DESCRIPTION
#-----------   ------------------   ----------------------------------
DEPT.M        00 001 00 00         : DEPTH        - DEPTH
DPHI.V/V      00 890 00 00         : PHID         - DENSITY POROSITY (LIMESTONE)
NPHI.V/V      00 330 00 00         : PHIN         - NEUTRON POROSITY (LIMESTONE)
GR  .API      00 310 00 00         : GR           - GAMMA RAY
ILD .OHMM     00 120 00 00         : RESD         - DEEP RESISTIVITY (DIL)
RHOB.KG/M3    00 350 00 00         : DENS         - BULK DENSITY
~PARAMETER INFORMATION
#MNEM.UNIT           DATA             DESCRIPTION OF MNEMONIC
#---------         -----------     ------------------------------
GL  .M        591.18               : gl           - GROUND LEVEL ELEVATION
EREF.M        595.43               : kb           - ELEVATION OF DEPTH REFERENCE
DATM.M        595.43               : datum        - DATUM ELEVATION
TDD .M        381.3                : tdd          - TOTAL DEPTH DRILLER
RUN .         ONE                  : Run          - RUN NUMBER
ENG .         BILL                 : Engineer     - RECORDING ENGINEER
WIT .         JIM                  : Witness      - WITNESSED BY
MUD .         GEL                  : Mud_type     - MUD TYPE
MATR.         LIMESTONE            : Logunit      - NEUTRON MATRIX
TMAX.C        20                   : BHT          - MAXIMUM RECORDED TEMPERATURE
BHTD.M        381.3                : BHTDEP       - MAXIMUM RECORDED TEMPERATURE
MATR.         1                    : LOGUNIT      - NEUTRON MATRIX
RMT .C        25                   : MDTP         - TEMPERATURE OF MUD
NEUT.         1                    : NEUTRON      - NEUTRON TYPE
RESI.         0                    : RESIST       - RESISTIVITY TYPE
RMC .OHMM     0.25                 : RMC          - RESISTIVITY OF MUD CAKE
RMF .OHMM     0.25                 : RMF          - RESISTIVITY OF MUD FILTRATE
SUFT.C        15                   : SUFT         - SURFACE TEMPERATURE
~A  DEPTH     PHID     PHIN       GR     RESD     DENS
# ...
  301.000    0.308    0.400   85.441    7.200 2182.680
  301.250    0.302    0.425   88.481    7.481 2193.130
  301.500    0.299    0.439   86.074    8.375 2199.410
  301.750    0.273    0.372   81.860    9.554 2243.160
  302.000    0.230    0.331   79.453   10.301 2316.050
  302.250    0.199    0.292   76.441   11.115 2370.210
  302.500    0.273    0.329   81.298   10.522 2243.310
  302.750    0.283    0.413   86.154    9.595 2226.710
  303.000    0.289    0.424   89.189    7.975 2216.350
  303.250    0.283    0.410   89.209    6.879 2226.820
  303.500    0.273    0.401   92.243    6.277 2243.510
  303.750    0.256    0.402   96.490    6.165 2272.690
  304.000    0.247    0.422   98.927    5.947 2287.320
  304.250    0.247    0.441   97.734    5.736 2287.370
  304.500    0.252    0.441   98.956    5.330 2279.090
  304.750    0.260    0.439  103.807    4.685 2264.560
  305.000    0.278    0.455  105.638    4.870 2235.480
  305.250    0.288    0.459  104.443    4.964 2216.790
  305.500    0.296    0.443  103.853    5.560 2204.370
  305.750    0.287    0.425  106.289    5.775 2218.970
  306.000    0.266    0.410  108.115    6.113 2254.400
  306.250    0.253    0.421  108.739    6.353 2277.340
  306.500    0.252    0.450  106.938    6.241 2279.460
  306.750    0.276    0.422  108.769    6.611 2237.890
  307.000    0.265    0.392  112.409    6.866 2256.680
  307.250    0.246    0.379  115.447    7.271 2290.020
  307.500    0.236    0.388  117.887    7.554 2306.720
  307.750    0.243    0.405  119.111    7.702 2294.280
  308.000    0.239    0.395  119.119    7.573 2300.570
  308.250    0.230    0.389  116.720    6.905 2317.270
  308.500    0.224    0.387  114.311    5.956 2327.730
  308.750    0.237    0.394  110.091    5.332 2304.880
  309.000    0.260    0.411  105.872    4.432 2265.380
  309.250    0.275    0.421  102.867    3.752 2240.470
  309.500    0.300    0.429  104.087    3.004 2196.800
  309.750    0.328    0.478  107.126    2.544 2148.980
  310.000    0.335    0.505  104.725    2.409 2136.540
  310.250    0.321    0.503   99.295    2.281 2161.570
  310.500    0.317    0.481   97.494    2.282 2167.860
  310.750    0.326    0.468   97.510    2.244 2153.340
  311.000    0.319    0.482   95.103    2.288 2163.790
  311.250    0.300    0.481   91.490    2.378 2197.160
  311.500    0.294    0.489   95.738    2.424 2207.590
  311.750    0.290    0.516   99.987    2.664 2213.890
  312.000    0.300    0.552  102.422    2.982 2197.290
  312.250    0.286    0.536   98.204    3.277 2220.230
  312.500    0.271    0.497   96.401    3.668 2247.330
  312.750    0.263    0.454  100.045    4.105 2259.870
  313.000    0.256    0.424  101.874    4.682 2272.410
  313.250    0.247    0.430  100.075    5.341 2287.020
  313.500    0.239    0.444  101.909    5.758 2301.640
  313.750    0.233    0.399  103.129    6.328 2312.090
  314.000    0.218    0.365   97.701    6.699 2337.120
  314.250    0.206    0.369   88.642    6.462 2357.970
  314.500    0.239    0.418   95.915    5.784 2301.830
  314.750    0.264    0.422  103.189    4.899 2258.170
  315.000    0.269    0.410  108.647    4.469 2249.900
  315.250    0.258    0.415  106.852    4.076 2268.690
  315.500    0.257    0.421  108.680    3.931 2270.820
  315.750    0.259    0.438  109.900    3.864 2266.690
  316.000    0.264    0.470  111.129    3.867 2258.420
  316.250    0.270    0.436  109.937    3.872 2248.070
  316.500    0.275    0.413  108.136    3.803 2239.810
  316.750    0.274    0.416  106.935    3.669 2241.910
  317.000    0.263    0.439  105.138    3.605 2260.690
  317.250    0.257    0.473  105.150    3.678 2271.150
  317.500    0.266    0.509  105.771    3.893 2254.550
  317.750    0.265    0.484  106.389    4.200 2256.680
  318.000    0.260    0.449  107.618    4.446 2265.080
  318.250    0.263    0.427  110.049    4.618 2260.940
  318.500    0.277    0.438  105.830    4.982 2236.010
  318.750    0.283    0.451  102.218    5.273 2225.650
  319.000    0.272    0.407  104.048    5.793 2244.430
  319.250    0.250    0.367  104.060    6.132 2281.940
  319.500    0.233    0.351  101.656    6.615 2311.120
  319.750    0.228    0.368  102.277    7.004 2319.500
  320.000    0.238    0.421  104.711    7.553 2302.900
  320.250    0.230    0.449  106.538    8.456 2317.510
  320.500    0.194    0.405  106.552    9.120 2377.910
  320.750    0.145    0.338   85.397   10.024 2461.210
  321.000    0.206    0.323   79.364   10.409 2357.200
  321.250    0.243    0.323   74.538   11.658 2294.810
  321.500    0.315    0.328   73.347   12.107 2172.080
  321.750    0.307    0.330   74.569   12.351 2184.610
  322.000    0.295    0.323   75.192   12.364 2205.470
  322.250    0.279    0.322   76.414   12.149 2232.580
  322.500    0.262    0.336   80.664   11.724 2261.760
  322.750    0.250    0.356   83.701   11.306    0.000
  323.000    0.240    0.381   87.347   10.903 2299.320
  323.250    0.235    0.373   87.964   10.913 2307.700
  323.500    0.284    0.350   78.302   11.133 2224.490
  323.750    0.325    0.312   74.081   11.143 2153.780
  324.000    0.368    0.278   63.815   10.952 2080.990
  324.250    0.342    0.277   57.780   10.765 2124.750
  324.500    0.318    0.332   63.846   10.580 2166.410
  324.750    0.311    0.348   57.207   10.199 2178.950
  325.000    0.315    0.346   49.961   10.021 2170.670
  325.250    0.315    0.342   60.258   10.418 2170.730
  325.500    0.310    0.341   66.927   10.623 2179.090
  325.750    0.310    0.338   69.362   11.456 2179.140
  326.000    0.317    0.338   66.355   13.312 2168.780
  326.250    0.321    0.354   63.950   16.052 2160.510
  326.500    0.323    0.368   61.544   19.724 2158.500
  326.750    0.321    0.380   59.138   22.489 2160.610
  327.000    0.316    0.386   57.943   26.130 2168.980
  327.250    0.315    0.364   64.008   28.181 2171.120
  327.500    0.318    0.358   69.466   30.979 2167.000
  327.750    0.321    0.374   73.111   32.802 2160.820
  328.000    0.325    0.378   71.310   32.825 2154.630
  328.250    0.326    0.366   69.511   33.475 2152.570
  328.500    0.326    0.359   68.919   34.149 2152.630
  328.750    0.316    0.356   71.353   32.321 2169.330
  329.000    0.308    0.350   76.207   30.602 2183.930
  329.250    0.304    0.336   85.296   29.512 2190.250
  329.500    0.305    0.356   90.147   30.106 2188.190
  329.750    0.308    0.374   93.186   29.582 2184.080
  330.000    0.304    0.362   89.574   28.011 2190.380
  330.250    0.304    0.353   85.962   26.026 2190.420
  330.500    0.300    0.346   82.952   23.737 2196.710
  330.750    0.284    0.354   85.383   20.860 2223.820
  331.000    0.259    0.372   99.309   16.396 2267.580
  331.250    0.247    0.365  116.259   13.625 2288.430
  331.500    0.231    0.361  124.743    9.576 2315.530
  331.750    0.214    0.394  130.805   10.141 2344.720
  332.000    0.222    0.424  135.660   11.782 2330.210
  332.250    0.188    0.392  133.859   13.433 2388.520
  332.500    0.158    0.333  110.285   16.504 2440.590
  332.750    0.175    0.318   95.783   20.662 2411.510
  333.000    0.259    0.366   91.567   23.125 2267.960
  333.250    0.296    0.386   91.578   24.950 2203.490
  333.500    0.291    0.364   88.569   24.974 2211.860
  333.750    0.267    0.347   79.511   23.644 2253.540
  334.000    0.250    0.335   83.761   21.166 2282.730
  334.250    0.240    0.351   88.008   17.926 2299.410
  334.500    0.229    0.337   93.467   16.661 2318.200
  334.750    0.224    0.322   92.272   16.061 2326.570
  335.000    0.224    0.306   85.029   15.783 2326.620
  335.250    0.241    0.296   88.067   16.099 2297.530
  335.500    0.264    0.346   91.713   16.727 2258.040
  335.750    0.291    0.382   94.149   18.041 2212.310
  336.000    0.309    0.397   94.768   20.206 2181.130
  336.250    0.325    0.375   77.239   20.599 2154.120
  336.500    0.319    0.359   65.159   20.622 2164.590
  336.750    0.304    0.341   66.987   18.463 2189.600
  337.000    0.281    0.335   80.917   15.345 2229.190
  337.250    0.259    0.379   93.629   12.996 2266.700
