~VERSION INFORMATION
 VERS.                 2.0:   CWLS LOG ASCII STANDARD -VERSION 2.0
 WRAP.                  NO:   ONE LINE PER DEPTH STEP
~WELL INFORMATION BLOCK
#MNEM.UNIT           DATA                    DESCRIPTION OF MNEMONIC
#---------    -------------------            -------------------------------
# Generated from Intellog Unique Number	CW_76_78/WELL/2581
WELL.         10-34-078-23W4                 : Well_name    - WELL
LOC .         00/10-34-078-23W4/0            : Location     - LOCATION
UWI .         00/10-34-078-23W4/0            : Uwi          - UNIQUE WELL ID
ENTR.         MAX                            : Entered      - ENTERED BY
SRVC.         SCHLUMBERGER                   : Scn          - SERVICE COMPANY
STRT.M        240.792                        : top_depth    - START DEPTH
STOP.M        488.792                        : bot_depth    - STOP DEPTH
STEP.M        0.25                           : increment    - STEP LENGTH
 NULL. -999.2500:NULL Value
~CURVE INFORMATION BLOCK
#MNEM UNIT       ERCB CURVE CODE    CURVE DESCRIPTION
#-----------   ------------------   ----------------------------------
DEPT.M        00 001 00 00         : DEPTH        - DEPTH
ILD .OHMM     00 120 00 00         : RESD         - DEEP RESISTIVITY (DIL)
NPHI.V/V      00 330 00 00         : PHIN         - NEUTRON POROSITY (SANDSTONE)
DPHI.V/V      00 890 00 00         : PHID         - DENSITY POROSITY (SANDSTONE)
CALI.MM       00 280 01 00         : CAL          - CALIPER
GR  .API      00 310 00 00         : GR           - GAMMA RAY
~PARAMETER INFORMATION
#MNEM.UNIT           DATA             DESCRIPTION OF MNEMONIC
#---------         -----------     ------------------------------
GL  .M        571.683              : gl           - GROUND LEVEL ELEVATION
EREF.M        574.731              : kb           - ELEVATION OF DEPTH REFERENCE
DATM.M        574.731              : datum        - DATUM ELEVATION
TDD .M        494.995              : tdd          - TOTAL DEPTH DRILLER
RUN .         ONE                  : Run          - RUN NUMBER
ENG .         BILL                 : Engineer     - RECORDING ENGINEER
WIT .         JIM                  : Witness      - WITNESSED BY
MUD .         GEL                  : Mud_type     - MUD TYPE
MATR.         SANDSTONE            : Logunit      - NEUTRON MATRIX
TMAX.F        79                   : BHT          - MAXIMUM RECORDED TEMPERATURE
BHTD.F        1624                 : BHTDEP       - MAXIMUM RECORDED TEMPERATURE
RMT .F        69                   : MDTP         - TEMPERATURE OF MUD
MUDD.LB/G     9.9                  : MWT          - MUD DENSITY
NEUT.         1                    : NEUTRON      - NEUTRON TYPE
RESI.         0                    : RESIST       - RESISTIVITY TYPE
RM  .OHMM     3.5                  : RM           - RESISTIVITY OF MUD
RMC .OHMM     4.1                  : RMC          - RESISTIVITY OF MUD CAKE
RMF .OHMM     2.85                 : RMF          - RESISTIVITY OF MUD FILTRATE
SUFT.F        25                   : SUFT         - SURFACE TEMPERATURE
~A  DEPTH     RESD     PHIN     PHID      CAL       GR
# ...
  386.792   13.170    0.452    0.172  198.371  105.016
  387.042   13.025    0.453    0.176  198.353  104.115
  387.292   12.650    0.455    0.180  198.335  103.808
  387.542   12.287    0.452    0.179  198.315  104.387
  387.792   11.820    0.458    0.185  198.294  104.972
  388.042   11.584    0.462    0.188  198.274  106.147
  388.292   11.456    0.457    0.193  198.258  108.805
  388.542   12.064    0.449    0.202  198.238  112.943
  388.792   12.832    0.456    0.198  198.222  114.713
  389.042   13.760    0.450    0.190  198.204  112.330
  389.292   14.367    0.430    0.188  197.677  112.910
  389.542   14.862    0.419    0.183  197.663  112.011
  389.792   14.966    0.409    0.175  197.136  107.849
  390.042   14.539    0.418    0.166  196.616  108.132
  390.292   12.666    0.421    0.176  196.598  107.232
  390.542   10.733    0.424    0.184  196.582  105.441
  390.792   10.524    0.434    0.167  197.062  106.913
  391.042   10.592    0.445    0.159  197.550  109.866
  391.292   10.859    0.449    0.160  199.539  115.492
  391.542   11.137    0.453    0.157  201.527  120.521
  391.792   11.521    0.458    0.187  203.017  125.255
  392.042   12.029    0.444    0.185  203.501  120.796
  392.292   12.560    0.419    0.174  201.972  116.336
  392.542   13.346    0.400    0.154  198.939  110.691
  392.792   14.069    0.398    0.139  196.913  110.088
  393.042   15.364    0.427    0.147  195.390  110.076
  393.292   16.788    0.415    0.152  195.368  104.727
  393.542   18.844    0.407    0.166  195.352  102.637
  393.792   21.537    0.410    0.167  195.831  101.443
  394.042   23.310    0.414    0.176  195.813   94.315
  394.292   23.256    0.392    0.159  195.795   89.262
  394.542   22.389    0.367    0.151  195.275   85.395
  394.792   20.773    0.364    0.120  194.755   84.790
  395.042   19.459    0.378    0.144  194.235   86.263
  395.292   18.720    0.360    0.124  193.208   89.513
  395.542   18.513    0.386    0.129  192.688   92.469
  395.792   18.648    0.412    0.164  192.672   98.091
  396.042   19.470    0.418    0.171  192.651  101.639
  396.292   20.878    0.420    0.180  193.138  103.408
  396.542   22.607    0.431    0.167  194.122   90.941
  396.792   26.310    0.434    0.182  195.605   86.186
  397.042   33.215    0.444    0.153  196.094   85.876
  397.292   38.645    0.417    0.164  196.576   85.272
  397.542   40.350    0.387    0.170  197.057   80.518
  397.792   39.915    0.355    0.135  197.042   68.050
  398.042   37.710    0.337    0.114  197.021   66.855
  398.292   37.710    0.302    0.104  197.003   63.582
  398.542   35.216    0.265    0.094  196.985   61.195
  398.792   32.716    0.243    0.085  196.967   63.856
  399.042   29.291    0.319    0.088  196.942   71.852
  399.292   25.983    0.332    0.081  196.924   75.102
  399.542   24.989    0.377    0.091  196.906   75.978
  399.792   24.707    0.393    0.151  196.906   76.857
  400.042   24.656    0.399    0.175  196.859   78.330
  400.292   24.618    0.403    0.187  196.854   79.504
  400.542   24.555    0.408    0.193  196.331   80.383
  400.792   24.721    0.427    0.204  195.809   82.743
  401.042   24.907    0.448    0.214  195.789   83.029
  401.292   24.818    0.460    0.226  195.771   81.240
  401.542   25.461    0.447    0.229  195.752   80.339
  401.792   26.352    0.448    0.226  196.239   79.439
  402.042   28.023    0.443    0.217  196.216   78.241
  402.292   31.171    0.423    0.209  196.198   77.340
  402.542   34.664    0.408    0.206  195.676   75.846
  402.792   31.602    0.389    0.181  195.655   73.761
  403.042   26.552    0.391    0.159  195.655   70.190
  403.292   22.511    0.387    0.151  195.624   68.398
  403.542   19.615    0.387    0.145  196.103   68.387
  403.792   17.243    0.366    0.130  196.587   70.453
  404.042   15.157    0.372    0.121  197.071   76.077
  404.292   13.940    0.362    0.157  197.053   79.327
  404.542   13.293    0.362    0.161  196.533   81.687
  404.792   13.143    0.411    0.149  196.501   84.940
  405.042   12.998    0.440    0.182  196.492   92.935
  405.292   13.086    0.445    0.215  196.476  102.117
  405.542   13.181    0.449    0.222  197.458  106.850
  405.792   13.516    0.460    0.208  197.940  108.024
  406.042   13.856    0.467    0.201  197.940  107.716
  406.292   13.949    0.478    0.196  197.906  107.410
  406.542   14.047    0.477    0.201  197.886  107.399
  406.792   14.047    0.461    0.213  197.865  108.572
  407.042   14.106    0.456    0.216  197.849  109.453
  407.292   14.077    0.457    0.201  197.829  109.735
  407.542   14.077    0.451    0.195  197.829  109.428
  407.792   14.012    0.450    0.180  197.791  107.343
  408.042   13.994    0.457    0.157  197.273  106.443
  408.292   13.829    0.462    0.138  196.750  107.320
  408.542   13.804    0.456    0.141  196.216  109.090
  408.792   13.804    0.441    0.160  196.212  112.636
  409.042   13.617    0.440    0.184  196.191  110.254
  409.292   13.229    0.450    0.192  196.673  107.574
  409.542   12.965    0.454    0.189  197.155  107.264
  409.792   12.585    0.446    0.179  197.644  107.846
  410.042   12.585    0.429    0.177  197.623  108.430
  410.292   12.293    0.441    0.176  197.605  110.788
  410.542   11.952    0.442    0.174  197.587  113.149
  410.792   11.711    0.437    0.170  197.564  114.031
  411.042   11.690    0.439    0.167  198.049  110.757
  411.292   11.666    0.436    0.161  199.035  106.890
  411.542   11.636    0.446    0.155  199.521  110.143
  411.792   11.612    0.455    0.176  200.003  112.205
  412.042   11.484    0.459    0.183  199.985  111.603
  412.292   11.357    0.456    0.189  199.967  111.887
  412.542   11.331    0.455    0.188  200.444  110.394
  412.792   11.411    0.458    0.179  200.430  108.900
  413.042   11.911    0.455    0.198  200.412  108.297
  413.292   12.436    0.462    0.207  200.392  107.985
  413.542   12.985    0.466    0.188  197.863  107.087
  413.792   13.927    0.471    0.165  194.830  104.704
  414.042   14.937    0.473    0.141  195.314  105.879
  414.292   15.455    0.455    0.158  196.298  107.943
  414.542   15.428    0.420    0.181  195.780  105.560
  414.792   15.116    0.412    0.173  193.747  102.286
  415.042   14.285    0.424    0.198  192.724   98.124
  415.292   13.020    0.432    0.209  192.190   97.222
  415.542   12.418    0.433    0.208  192.186   95.429
  415.792   12.278    0.437    0.196  193.172   92.754
  416.042   12.480    0.435    0.182  193.656   87.699
  416.292   13.261    0.413    0.157  194.642   89.171
  416.542   14.360    0.395    0.150  195.628   96.872
  416.792   16.412    0.418    0.179  197.619  104.868
  417.042   19.274    0.456    0.191  199.605  111.083
  417.292   20.486    0.458    0.201  199.087  113.148
  417.542   18.332    0.471    0.189  199.569  110.765
  417.792   16.562    0.420    0.163  200.555  105.416
  418.042   14.967    0.371    0.136  200.537   93.840
  418.292   13.887    0.347    0.088  199.012   86.708
  418.542   13.730    0.266    0.039  197.983   88.183
  418.792   14.734    0.298    0.064  197.965  100.923
  419.042   16.684    0.320    0.104  198.451  106.842
  419.292   18.391    0.382    0.144  199.940  110.686
  419.542   19.382    0.380    0.157  200.924  113.343
  419.792   20.054    0.393    0.159  201.410  116.299
  420.042   20.358    0.408    0.174  202.896  115.991
  420.292   20.326    0.425    0.180  205.386  117.463
  420.542   20.279    0.438    0.203  206.372  117.747
  420.792   19.875    0.450    0.202  203.339  114.771
  421.042   19.299    0.411    0.208  200.311  107.347
  421.292   18.570    0.408    0.194  199.288   95.177
  421.542   18.204    0.407    0.186  199.288   90.718
  421.792   18.204    0.397    0.181  199.250   91.597
  422.042   17.627    0.389    0.174  199.729  100.185
  422.292   17.124    0.398    0.179  199.209  104.326
  422.542   16.778    0.403    0.189  198.185  105.796
  422.792   16.597    0.408    0.208  197.669  104.897
  423.042   16.559    0.413    0.210  197.669  103.106
