~VERSION INFORMATION
 VERS.                 2.0:   CWLS LOG ASCII STANDARD -VERSION 2.0
 WRAP.                  NO:   ONE LINE PER DEPTH STEP
~WELL INFORMATION BLOCK
#MNEM.UNIT           DATA                    DESCRIPTION OF MNEMONIC
#---------    -------------------            -------------------------------
# Generated from Intellog Unique Number	CW_70_72/WELL/2909
NULL.         -999.25                        : NULL_VALUE
WELL.         NOVALTA RICHMOND               : Well_name    - WELL              
LOC .         16-04-070-19W4                 : Location     - LOCATION          
UWI .         00/16-04-070-19W4/0            : Uwi          - UNIQUE WELL ID    
ENTR.         MAX                            : Entered      - ENTERED BY        
SRVC.         COMPUTALOG                     : Scn          - SERVICE COMPANY   
DATE.         21 DEC 84                      : Date         - LOG DATE
STRT.M        300                            : top_depth    - START DEPTH       
STOP.M        470                            : bot_depth    - STOP DEPTH        
STEP.M        0.25                           : increment    - STEP LENGTH       
~CURVE INFORMATION BLOCK
#MNEM UNIT       ERCB CURVE CODE    CURVE DESCRIPTION
#-----------   ------------------   ----------------------------------
DEPT.M        00 001 00 00         : DEPTH        - DEPTH                       
ILD .OHMM     00 120 00 00         : RESD         - DEEP RESISTIVITY (DIL)      
NPHI.V/V      00 330 00 00         : PHIN         - NEUTRON POROSITY (SANDSTONE)
DPHI.V/V      00 890 00 00         : PHID         - DENSITY POROSITY (SANDSTONE)
CALI.MM       00 280 01 00         : CAL          - CALIPER                     
GR  .API      00 310 00 00         : GR           - GAMMA RAY                   
~PARAMETER INFORMATION       
#MNEM.UNIT           DATA             DESCRIPTION OF MNEMONIC
#---------         -----------     ------------------------------
GL  .M        555.94               : gl           - GROUND LEVEL ELEVATION      
EREF.M        558.89               : kb           - ELEVATION OF DEPTH REFERENCE
DATM.M        555.94               : datum        - DATUM ELEVATION             
TDD .M        546.1                : tdd          - TOTAL DEPTH DRILLER         
RUN .         ONE                  : Run          - RUN NUMBER                  
ENG .         BILL                 : Engineer     - RECORDING ENGINEER          
WIT .         JIM                  : Witness      - WITNESSED BY                
MUD .         GEL                  : Mud_type     - MUD TYPE                    
MATR.         SANDSTONE            : Logunit      - NEUTRON MATRIX              
TMAX.C        24                   : BHT          - MAXIMUM RECORDED TEMPERATURE
BHTD.M        546.1                : BHTDEP       - MAXIMUM RECORDED TEMPERATURE
RMT .C        13.8                 : MDTP         - TEMPERATURE OF MUD          
MUDD.KG/M     1080                 : MWT          - MUD DENSITY                 
NEUT.         1                    : NEUTRON      - NEUTRON TYPE                
RESI.         0                    : RESIST       - RESISTIVITY TYPE            
RM  .OHMM     6                    : RM           - RESISTIVITY OF MUD          
RMC .OHMM     4.5                  : RMC          - RESISTIVITY OF MUD CAKE     
RMF .OHMM     7                    : RMF          - RESISTIVITY OF MUD FILTRATE 
SUFT.C        -10                  : SUFT         - SURFACE TEMPERATURE         
~A  DEPTH     RESD     PHIN     PHID      CAL       GR
# ...
  446.000    5.926    0.388    0.165  157.086   81.142
  446.250    4.918    0.399    0.177  157.581   82.336
  446.500    4.780    0.396    0.177  159.073   82.334
  446.750    4.477    0.409    0.200  162.557   91.002
  447.000    3.579    0.439    0.235  166.041   98.175
  447.250    3.170    0.458    0.264  170.523   99.668
  447.500    2.997    0.454    0.238  173.011   91.594
  447.750    3.024    0.432    0.204  173.008   84.117
  448.000    3.167    0.419    0.168  170.014   74.846
  448.250    3.779    0.394    0.123  163.034   72.153
  448.500    4.680    0.370    0.107  157.549   71.852
  448.750    4.902    0.345    0.107  155.552   72.448
  449.000    5.531    0.334    0.105  158.040   73.940
  449.250    6.299    0.370    0.113  159.532   76.031
  449.500    6.123    0.399    0.138  158.530   82.607
  449.750    5.423    0.416    0.169  159.026   83.501
  450.000    4.893    0.419    0.178  161.015   84.396
  450.250    4.757    0.402    0.182  165.497   86.487
  450.500    4.756    0.395    0.190  167.985   88.279
  450.750    4.935    0.399    0.189  166.486   88.575
  451.000    5.364    0.408    0.183  162.994   84.388
  451.250    5.777    0.409    0.150  160.001   71.828
  451.500    6.107    0.374    0.130  159.997   70.928
  451.750    6.337    0.338    0.143  161.488   74.515
  452.000    6.394    0.319    0.169  160.986   82.286
  452.250    5.988    0.347    0.187  159.488   81.387
  452.500    5.505    0.360    0.194  156.992   81.385
  452.750    4.967    0.367    0.173  156.989   85.867
  453.000    4.567    0.377    0.173  158.481   90.051
  453.250    4.358    0.377    0.173  161.965   93.038
  453.500    4.479    0.375    0.158  164.452   92.737
  453.750    4.869    0.377    0.136  163.951   89.447
  454.000    5.100    0.385    0.121  164.445   84.960
  454.250    5.146    0.409    0.112  165.438   86.751
  454.500    5.241    0.421    0.135  166.432   90.935
  454.750    5.289    0.432    0.154  167.923   93.324
  455.000    5.141    0.432    0.161  169.913   93.323
  455.250    4.860    0.427    0.172  170.407   93.320
  455.500    4.385    0.415    0.182  169.906   93.318
  455.750    4.263    0.408    0.178  166.912   93.017
  456.000    4.222    0.411    0.175  163.420   95.108
  456.250    4.261    0.423    0.172  162.420   96.003
  456.500    4.299    0.420    0.155  162.914   93.609
  456.750    4.258    0.418    0.141  163.410   91.513
  457.000    4.217    0.425    0.139  163.406   91.212
  457.250    4.176    0.429    0.150  163.901   92.107
  457.500    4.175    0.436    0.177  164.395   95.393
  457.750    4.213    0.440    0.188  164.392   95.990
  458.000    4.331    0.434    0.195  164.887   92.997
  458.250    4.452    0.441    0.195  165.879   93.294
  458.500    4.577    0.440    0.192  163.881   90.601
  458.750    4.793    0.426    0.170  163.879   72.062
  459.000    5.210    0.397    0.126  162.381   69.966
  459.250    5.407    0.396    0.056  158.889   77.739
  459.500    5.256    0.413    0.134  157.389   89.098
  459.750    4.969    0.428    0.194  158.383   95.673
  460.000    4.360    0.445    0.199  160.871   99.259
  460.250    4.045    0.448    0.200  163.857  101.648
  460.500    4.007    0.449    0.197  164.851  102.842
  460.750    4.007    0.441    0.190  164.349  100.149
  461.000    3.967    0.440    0.188  162.849   93.869
  461.250    4.155    0.443    0.188  163.345   91.175
  461.500    4.475    0.425    0.115  163.839   89.678
  461.750    4.687    0.416    0.080  162.839   87.882
  462.000    4.641    0.419    0.134  162.835   92.664
  462.250    4.429    0.438    0.182  164.327   97.745
  462.500    4.266    0.448    0.196  166.316   97.144
  462.750    4.070    0.452    0.192  165.316   97.740
  463.000    4.145    0.468    0.179  163.319  100.728
  463.250    4.341    0.455    0.164  162.318  100.725
  463.500    4.676    0.440    0.159  164.309   96.837
  463.750    5.036    0.400    0.141  165.800   89.360
  464.000    5.682    0.334    0.025  165.298   78.295
  464.250    6.293    0.308    0.006  163.800   69.921
  464.500    6.841    0.297    0.002  162.800   60.950
  464.750    7.032    0.307    0.037  161.799   73.206
  465.000    6.900    0.303    0.179  162.792   83.967
  465.250    6.708    0.302    0.201  162.289   80.975
  465.500    6.224    0.301    0.191  160.293   83.664
  465.750    6.051    0.286    0.196  157.798   74.991
  466.000    6.220    0.258    0.256  158.293   63.030
  466.250    6.575    0.246    0.313  157.293   54.357
  466.500    7.016    0.231    0.339  155.296   49.870
  466.750    7.699    0.207    0.366  152.301   46.280
  467.000    8.447    0.183    0.388  150.305   54.948
  467.250    9.183    0.171    0.364  148.807   61.225
  467.500    9.266    0.177    0.330  148.305   78.564
  467.750    8.678    0.238    0.301  149.298   94.408
  468.000    8.204    0.307    0.245  149.294   92.313
  468.250    8.355    0.307    0.144  148.294   72.577
  468.500    8.833    0.283    0.108  147.294   68.091
  468.750   10.939    0.266    0.077  146.791   69.584
  469.000   12.116    0.263    0.080  144.795   69.581
  469.250   13.928    0.269    0.074  142.798   66.888
  469.500   14.724    0.273    0.077  142.794   67.783
  469.750   14.313    0.273    0.085  147.276   72.565
  470.000   13.915    0.273    0.129  148.269   69.573
