~VERSION INFORMATION
 VERS.                 2.0:   CWLS LOG ASCII STANDARD -VERSION 2.0
 WRAP.                  NO:   ONE LINE PER DEPTH STEP
~WELL INFORMATION BLOCK
#MNEM.UNIT           DATA                    DESCRIPTION OF MNEMONIC
#---------    -------------------            -------------------------------
# Generated from Intellog Unique Number	CS_77_79/WELL/961
WELL.         PCI PCEJ CHARD                 : Well_name    - WELL
LOC .         00/10-25-079-07W4/0            : Location     - LOCATION
UWI .         00/10-25-079-07W4/0            : Uwi          - UNIQUE WELL ID
ENTR.         JHS                            : Entered      - ENTERED BY
SRVC.         SCHLUMBERGER                   : Scn          - SERVICE COMPANY
STRT.M        125                            : top_depth    - START DEPTH
STOP.M        365                            : bot_depth    - STOP DEPTH
STEP.M        0.25                           : increment    - STEP LENGTH
 NULL. -999.2500:NULL Value
~CURVE INFORMATION BLOCK
#MNEM UNIT       ERCB CURVE CODE    CURVE DESCRIPTION
#-----------   ------------------   ----------------------------------
DEPT.M        00 001 00 00         : DEPTH        - DEPTH
DPHI.V/V      00 890 00 00         : PHID         - DENSITY POROSITY (LIMESTONE)
NPHI.V/V      00 330 00 00         : PHIN         - NEUTRON POROSITY (LIMESTONE)
GR  .API      00 310 00 00         : GR           - GAMMA RAY
ILD .OHMM     00 120 00 00         : RESD         - DEEP RESISTIVITY (DIL)
RHOB.KG/M3    00 350 00 00         : DENS         - BULK DENSITY
~PARAMETER INFORMATION
#MNEM.UNIT           DATA             DESCRIPTION OF MNEMONIC
#---------         -----------     ------------------------------
GL  .M        565.7                : gl           - GROUND LEVEL ELEVATION
EREF.M        569.4                : kb           - ELEVATION OF DEPTH REFERENCE
DATM.M        569.4                : datum        - DATUM ELEVATION
TDD .M        391                  : tdd          - TOTAL DEPTH DRILLER
RUN .         ONE                  : Run          - RUN NUMBER
ENG .         BILL                 : Engineer     - RECORDING ENGINEER
WIT .         JIM                  : Witness      - WITNESSED BY
MUD .         GEL                  : Mud_type     - MUD TYPE
MATR.         LIMESTONE            : Logunit      - NEUTRON MATRIX
TMAX.C        19                   : BHT          - MAXIMUM RECORDED TEMPERATURE
BHTD.M        391                  : BHTDEP       - MAXIMUM RECORDED TEMPERATURE
MATR.         1                    : LOGUNIT      - NEUTRON MATRIX
RMT .C        25                   : MDTP         - TEMPERATURE OF MUD
NEUT.         1                    : NEUTRON      - NEUTRON TYPE
RESI.         0                    : RESIST       - RESISTIVITY TYPE
RMC .OHMM     0.25                 : RMC          - RESISTIVITY OF MUD CAKE
RMF .OHMM     0.25                 : RMF          - RESISTIVITY OF MUD FILTRATE
SUFT.C        15                   : SUFT         - SURFACE TEMPERATURE
~A  DEPTH     PHID     PHIN       GR     RESD     DENS
  125.000    0.347    0.550   92.648    2.942    0.000
  125.250    0.328    0.551   90.760    2.889    0.000
  125.500    0.326    0.539   87.611    2.892    0.000
  125.750    0.328    0.514   83.202    2.841    0.000
  126.000    0.327    0.519   81.944    2.790    0.000
  126.250    0.351    0.561   85.728    2.689    0.000
  126.500    0.359    0.575   89.513    2.641    0.000
  126.750    0.351    0.536   93.297    2.644    0.000
  127.000    0.343    0.516   95.191    2.597    0.000
  127.250    0.337    0.526   86.369    2.650    0.000
  127.500    0.346    0.545   80.700    2.652    0.000
  127.750    0.358    0.529   82.594    2.655    0.000
  128.000    0.348    0.527   87.008    2.709    0.000
  128.250    0.337    0.527   87.011    2.762    0.000
  128.500    0.341    0.508   84.493    2.819    0.000
  128.750    0.348    0.515   82.605    2.875    0.000
  129.000    0.346    0.533   78.826    2.932    0.000
  129.250    0.258    0.521   76.307    2.992    0.000
  129.500    0.258    0.567   86.394    3.051    0.000
  129.750    0.314    0.592   90.178    3.055    0.000
  130.000    0.341    0.557   89.551    3.058    0.000
  130.250    0.346    0.525   88.293    3.120    0.000
  130.500    0.332    0.500   87.035    3.122    0.000
  130.750    0.326    0.510   82.626    3.185    0.000
  131.000    0.332    0.543   86.410    3.249    0.000
  131.250    0.323    0.546   87.043    3.443    0.000
  131.500    0.320    0.525   85.785    3.512    0.000
  131.750    0.323    0.553   88.309    3.582    0.000
  132.000    0.312    0.530   92.723    3.725    0.000
  132.250    0.300    0.505   94.617    3.873    0.000
  132.500    0.302    0.507   90.208    3.950    0.000
  132.750    0.292    0.533   86.429    4.106    0.000
  133.000    0.290    0.491   87.692    4.111    0.000
  133.250    0.298    0.476   84.544    3.962    0.000
  133.500    0.302    0.553   85.177    3.891    0.000
  133.750    0.302    0.575   90.222    3.680    0.000
  134.000    0.288    0.572   91.485    3.616    0.000
  134.250    0.275    0.556   90.857    3.619    0.000
  134.500    0.275    0.532   85.817    3.693    0.000
  134.750    0.285    0.512   80.148    3.838    0.000
  135.000    0.293    0.507   84.563    3.915    0.000
  135.250    0.282    0.491   88.977    4.070    0.000
  135.500    0.261    0.469   92.131    4.151    0.000
  135.750    0.239    0.486   86.461    4.398    0.000
  136.000    0.213    0.446   70.077    4.660    0.000
  136.250    0.213    0.421   71.971    4.845    0.000
  136.500    0.235    0.448   78.276    4.943    0.000
  136.750    0.260    0.478   77.018    5.237    0.000
  137.000    0.292    0.457   78.912    5.341    0.000
  137.250    0.310    0.454   83.957    5.347    0.000
  137.500    0.291    0.483   87.741    5.252    0.000
  137.750    0.261    0.492   90.894    5.061    0.000
  138.000    0.244    0.503   88.376    4.972    0.000
  138.250    0.258    0.506   82.707    4.977    0.000
  138.500    0.234    0.446   80.188    5.175    0.000
  138.750    0.209    0.410   85.233    5.481    0.000
  139.000    0.216    0.390   88.387    6.631    0.000
  139.250    0.241    0.387   86.499    7.576    0.000
  139.500    0.265    0.402   83.981    9.338    0.000
  139.750    0.246    0.417   82.092   11.511    0.000
  140.000    0.239    0.402   79.574   13.407    0.000
  140.250    0.256    0.398   85.249   14.203    0.000
  140.500    0.255    0.409   90.294   14.490    0.000
  140.750    0.253    0.412   90.927   14.235    0.000
  141.000    0.264    0.410   85.257   13.981    0.000
  141.250    0.256    0.414   84.000   13.993    0.000
  141.500    0.245    0.405   85.263   13.745    0.000
  141.750    0.236    0.382   80.223   13.502    0.000
  142.000    0.230    0.395   79.596   13.515    0.000
  142.250    0.219    0.423   82.750   13.528    0.000
  142.500    0.211    0.419   86.534   13.800    0.000
  142.750    0.210    0.409   90.318   14.081    0.000
  143.000    0.217    0.398   92.212   14.091    0.000
  143.250    0.241    0.387   91.584   14.376    0.000
  143.500    0.210    0.388   88.436   14.122    0.000
  143.750    0.189    0.390   86.547   14.134    0.000
  144.000    0.219    0.387   87.811   13.884    0.000
  144.250    0.273    0.409   95.376   13.382    0.000
  144.500    0.262    0.425   95.379   13.146    0.000
  144.750    0.251    0.394   80.256   13.159    0.000
  145.000    0.249    0.383   76.477   13.425    0.000
  145.250    0.252    0.379   80.891   13.435    0.000
  145.500    0.246    0.378   87.827   13.703    0.000
  145.750    0.229    0.394   92.241   13.461    0.000
  146.000    0.224    0.404   88.463   12.977    0.000
  146.250    0.227    0.405   82.793   12.743    0.000
  146.500    0.224    0.404   80.905   12.757    0.000
  146.750    0.227    0.400   83.429   13.015    0.000
  147.000    0.234    0.395   84.061   13.276    0.000
  147.250    0.235    0.391   82.174   13.547    0.000
  147.500    0.239    0.389   82.176   13.817    0.000
  147.750    0.244    0.389   82.179   14.092    0.000
  148.000    0.230    0.398   84.072   14.380    0.000
  148.250    0.232    0.416   87.227   14.121    0.000
  148.500    0.222    0.420   87.229   13.871    0.000
  148.750    0.205    0.421   84.080   13.371    0.000
  149.000    0.205    0.410   84.084   13.133    0.000
  149.250    0.255    0.388   78.414   13.399    0.000
  149.500    0.294    0.379   68.332   13.408    0.000
  149.750    0.301    0.403   66.444   13.942    0.000
  150.000    0.245    0.403   80.943   14.220    0.000
  150.250    0.217    0.394   87.248   14.236    0.000
  150.500    0.226    0.383   85.360   14.248    0.000
  150.750    0.276    0.385   81.581   13.732    0.000
  151.000    0.277    0.399   80.323   13.239    0.000
  151.250    0.254    0.408   74.653   13.002    0.000
  151.500    0.247    0.441   66.463   13.778    0.000
  151.750    0.261    0.420   58.903   14.051    0.000
  152.000    0.243    0.395   76.552   14.334    0.000
  152.250    0.231    0.390   84.118   14.623    0.000
  152.500    0.230    0.400   82.230   14.639    0.000
  152.750    0.246    0.389   75.930   14.658    0.000
  153.000    0.256    0.376   74.042   14.123    0.000
  153.250    0.232    0.367   77.826   13.612    0.000
  153.500    0.215    0.374   80.350   12.873    0.000
  153.750    0.200    0.401   87.916   12.648    0.000
  154.000    0.191    0.416   90.440   12.661    0.000
  154.250    0.218    0.400   86.031   12.437    0.000
  154.500    0.238    0.399   91.706   12.215    0.000
  154.750    0.223    0.409   92.338   12.227    0.000
  155.000    0.211    0.410   80.997   12.473    0.000
  155.250    0.212    0.397   73.436   12.723    0.000
  155.500    0.220    0.384   69.028   12.980    0.000
  155.750    0.233    0.379   67.139   13.494    0.000
  156.000    0.248    0.426   75.966   14.026    0.000
  156.250    0.231    0.445   79.750   14.583    0.000
  156.500    0.227    0.430   81.644   15.157    0.000
  156.750    0.232    0.407   85.427   15.463    0.000
  157.000    0.225    0.402   92.363   15.187    0.000
  157.250    0.220    0.395   96.147   14.638    0.000
  157.500    0.228    0.386   92.368   14.113    0.000
  157.750    0.231    0.379   82.917   13.601    0.000
  158.000    0.231    0.384   79.768   13.110    0.000
  158.250    0.247    0.389   93.007   12.875    0.000
  158.500    0.237    0.395   98.681   12.645    0.000
  158.750    0.222    0.417   92.382   12.188    0.000
  159.000    0.226    0.435   83.561   11.526    0.000
  159.250    0.266    0.439   81.043   10.498    0.000
  159.500    0.265    0.436   89.239   10.119    0.000
  159.750    0.247    0.415   94.283    9.938    0.000
  160.000    0.239    0.422   89.244   10.138    0.000
  160.250    0.246    0.429   74.120   10.341    0.000
  160.500    0.243    0.402   56.476   10.957    0.000
  160.750    0.272    0.412   48.285   11.830    0.000
  161.000    0.331    0.484   68.456   13.017    0.000
  161.250    0.297    0.474   84.215   14.323    0.000
