~VERSION INFORMATION
 VERS.                 2.0:   CWLS LOG ASCII STANDARD -VERSION 2.0
 WRAP.                  NO:   ONE LINE PER DEPTH STEP
~WELL INFORMATION BLOCK
#MNEM.UNIT           DATA                    DESCRIPTION OF MNEMONIC
#---------    -------------------            -------------------------------
# Generated from Intellog Unique Number	CS_71_72/WELL/875
WELL.         PEX PHILLIPS AEC GRIST         : Well_name    - WELL
LOC .         00/10-31-071-07W4/0            : Location     - LOCATION
UWI .         00/10-31-071-07W4/0            : Uwi          - UNIQUE WELL ID
ENTR.         SP                             : Entered      - ENTERED BY
SRVC.         SCHLUMBERGER                   : Scn          - SERVICE COMPANY
STRT.M        300                            : top_depth    - START DEPTH
STOP.M        520                            : bot_depth    - STOP DEPTH
STEP.M        0.25                           : increment    - STEP LENGTH
 NULL. -999.2500:NULL Value
~CURVE INFORMATION BLOCK
#MNEM UNIT       ERCB CURVE CODE    CURVE DESCRIPTION
#-----------   ------------------   ----------------------------------
DEPT.M        00 001 00 00         : DEPTH        - DEPTH
ILD .OHMM     00 120 00 00         : RESD         - DEEP RESISTIVITY (DIL)
DPHI.V/V      00 890 00 00         : PHID         - DENSITY POROSITY (LIMESTONE)
NPHI.V/V      00 330 00 00         : PHIN         - NEUTRON POROSITY (LIMESTONE)
GR  .API      00 310 00 00         : GR           - GAMMA RAY
~PARAMETER INFORMATION
#MNEM.UNIT           DATA             DESCRIPTION OF MNEMONIC
#---------         -----------     ------------------------------
GL  .M        660.2                : gl           - GROUND LEVEL ELEVATION
EREF.M        664                  : kb           - ELEVATION OF DEPTH REFERENCE
DATM.M        660.2                : datum        - DATUM ELEVATION
TDD .M        532                  : tdd          - TOTAL DEPTH DRILLER
RUN .         ONE                  : Run          - RUN NUMBER
ENG .         BILL                 : Engineer     - RECORDING ENGINEER
WIT .         JIM                  : Witness      - WITNESSED BY
MUD .         GEL                  : Mud_type     - MUD TYPE
MATR.         LIMESTONE            : Logunit      - NEUTRON MATRIX
TMAX.C        22                   : BHT          - MAXIMUM RECORDED TEMPERATURE
BHTD.M        532                  : BHTDEP       - MAXIMUM RECORDED TEMPERATURE
MATR.         1                    : LOGUNIT      - NEUTRON MATRIX
RMT .C        25                   : MDTP         - TEMPERATURE OF MUD
NEUT.         1                    : NEUTRON      - NEUTRON TYPE
RESI.         0                    : RESIST       - RESISTIVITY TYPE
RMC .OHMM     0.25                 : RMC          - RESISTIVITY OF MUD CAKE
RMF .OHMM     0.25                 : RMF          - RESISTIVITY OF MUD FILTRATE
SUFT.C        15                   : SUFT         - SURFACE TEMPERATURE
~A  DEPTH     RESD     PHID     PHIN       GR
# ...
  343.500    8.869    0.237    0.440   99.216
  343.750    8.031    0.221    0.474  106.368
  344.000    7.369    0.209    0.484  108.177
  344.250    6.851    0.215    0.494  102.394
  344.500    6.406    0.224    0.500   97.522
  344.750    6.195    0.228    0.509   94.413
  345.000    6.234    0.215    0.510   92.155
  345.250    6.726    0.218    0.517   90.381
  345.500    7.367    0.236    0.507   85.872
  345.750    8.116    0.251    0.468   82.338
  346.000    8.772    0.267    0.452   80.688
  346.250    9.271    0.266    0.449   83.468
  346.500    9.506    0.254    0.448   81.511
  346.750    9.657    0.247    0.467   83.623
  347.000    9.772    0.252    0.481   87.072
  347.250    9.796    0.259    0.465   87.606
  347.500    9.786    0.270    0.448   89.047
  347.750    9.790    0.273    0.434   90.857
  348.000    9.795    0.261    0.423   91.818
  348.250    9.691    0.255    0.405   92.290
  348.500    9.552    0.247    0.391   91.549
  348.750    9.327    0.232    0.395   90.200
  349.000    9.193    0.221    0.429   86.544
  349.250    9.303    0.228    0.455   85.983
  349.500    9.379    0.246    0.480   83.418
  349.750    9.420    0.251    0.472   79.157
  350.000    9.408    0.235    0.447   73.255
  350.250    9.255    0.215    0.442   79.009
  350.500    8.867    0.197    0.454   84.098
  350.750    8.152    0.206    0.462   88.578
  351.000    7.451    0.226    0.467   91.237
  351.250    6.914    0.251    0.459   90.312
  351.500    6.538    0.240    0.454   94.308
  351.750    6.300    0.219    0.463   99.210
  352.000    6.163    0.205    0.488  101.144
  352.250    6.225    0.229    0.513  103.317
  352.500    6.780    0.244    0.486   95.289
  352.750    7.625    0.255    0.461   84.832
  353.000    8.415    0.267    0.465   79.718
  353.250    9.217    0.281    0.491   75.272
  353.500   10.211    0.298    0.496   65.301
  353.750   11.057    0.317    0.465   58.365
  354.000   11.908    0.337    0.442   57.624
  354.250   12.256    0.328    0.425   58.946
  354.500   12.218    0.323    0.426   61.237
  354.750   11.952    0.323    0.431   62.867
  355.000   11.473    0.316    0.435   65.405
  355.250   10.973    0.305    0.445   68.913
  355.500   10.613    0.290    0.452   71.936
  355.750   10.285    0.280    0.453   73.867
  356.000   10.252    0.272    0.450   74.340
  356.250   10.336    0.270    0.449   74.873
  356.500   10.480    0.271    0.451   76.683
  356.750   10.767    0.278    0.470   76.063
  357.000   11.018    0.295    0.468   72.953
  357.250   11.320    0.306    0.441   69.417
  357.500   11.608    0.317    0.434   65.458
  357.750   11.791    0.328    0.428   61.923
  358.000   11.959    0.323    0.415   64.035
  358.250   11.962    0.309    0.403   67.544
  358.500   11.969    0.297    0.400   71.356
  358.750   11.931    0.278    0.415   74.743
  359.000   11.916    0.262    0.432   76.614
  359.250   11.878    0.251    0.433   77.815
  359.500   11.796    0.253    0.424   75.616
  359.750   11.715    0.260    0.425   70.259
  360.000   11.612    0.267    0.436   66.179
  360.250   11.401    0.267    0.433   63.130
  360.500   11.132    0.275    0.426   63.238
  360.750   10.688    0.272    0.410   68.627
  361.000   10.106    0.254    0.400   74.445
  361.250    9.774    0.243    0.405   79.411
  361.500    9.260    0.233    0.425   89.297
  361.750    9.024    0.224    0.439   93.413
  362.000    9.289    0.264    0.453   78.948
  362.250    9.597    0.286    0.453   66.973
  362.500    9.953    0.303    0.441   60.523
  362.750   10.091    0.296    0.431   56.017
  363.000   10.154    0.307    0.428   52.907
  363.250   10.142    0.318    0.462   52.894
  363.500   10.247    0.324    0.475   53.486
  363.750   10.288    0.313    0.446   52.381
  364.000   10.294    0.310    0.424   50.002
  364.250    9.976    0.315    0.440   49.503
  364.500    9.649    0.318    0.459   52.586
  364.750    9.405    0.318    0.459   56.277
  365.000    9.338    0.298    0.446   60.576
  365.250    9.327    0.279    0.431   66.510
  365.500    9.621    0.254    0.420   72.268
  365.750    9.232    0.228    0.419   77.479
  366.000    8.913    0.212    0.415   83.113
  366.250    8.508    0.204    0.427   87.716
  366.500    8.152    0.220    0.436   91.040
  366.750    7.991    0.232    0.439   92.607
  367.000    7.994    0.223    0.449   92.473
  367.250    8.030    0.211    0.451   90.698
  367.500    8.126    0.204    0.442   89.715
  367.750    8.332    0.201    0.433   86.240
  368.000    9.043    0.230    0.423   80.155
  368.250    9.464    0.254    0.415   73.524
  368.500   10.386    0.284    0.426   65.252
  368.750   11.486    0.308    0.413   56.253
  369.000   12.091    0.328    0.397   49.985
  369.250   12.609    0.329    0.404   45.661
  369.500   12.881    0.341    0.400   43.645
  369.750   12.914    0.351    0.396   43.267
  370.000   12.824    0.351    0.401   44.043
  370.250   12.735    0.349    0.417   44.513
  370.500   12.743    0.346    0.436   44.740
  370.750   12.799    0.342    0.442   44.549
  371.000   12.855    0.338    0.436   43.385
  371.250   12.936    0.338    0.423   42.704
  371.500   13.016    0.344    0.418   45.301
  371.750   13.074    0.346    0.412   43.526
  372.000   13.106    0.341    0.404   43.150
  372.250   13.090    0.336    0.417   45.382
  372.500   13.146    0.348    0.435   46.525
  372.750   13.155    0.352    0.424   47.421
  373.000   13.187    0.351    0.431   47.288
  373.250   13.171    0.349    0.454   49.703
  373.500   13.178    0.345    0.474   53.882
  373.750   12.988    0.342    0.482   57.084
  374.000   12.851    0.339    0.481   57.621
  374.250   12.762    0.344    0.463   54.874
  374.500   12.721    0.352    0.452   51.036
  374.750   12.705    0.355    0.455   50.538
  375.000   12.713    0.358    0.455   51.618
  375.250   12.625    0.359    0.447   51.909
  375.500   12.656    0.361    0.464   51.410
  375.750   12.639    0.360    0.467   49.513
  376.000   12.623    0.358    0.447   48.468
  376.250   12.585    0.352    0.435   48.092
  376.500   12.592    0.350    0.439   49.654
  376.750   12.599    0.359    0.441   51.708
  377.000   12.582    0.358    0.441   53.276
  377.250   12.590    0.352    0.441   54.963
  377.500   12.503    0.345    0.445   55.678
  377.750   12.370    0.345    0.459   51.839
  378.000   12.261    0.355    0.445   52.008
  378.250   12.154    0.351    0.438   53.210
  378.500   12.092    0.347    0.450   53.682
  378.750   12.009    0.346    0.451   53.852
  379.000   11.926    0.350    0.453   53.536
  379.250   11.887    0.352    0.449   52.669
  379.500   11.872    0.352    0.449   52.174
  379.750   11.857    0.348    0.454   52.038
  380.000   11.864    0.346    0.459   53.301
  380.250   11.938    0.343    0.464   55.476
  380.500   12.059    0.344    0.462   57.588
  380.750   12.273    0.348    0.440   56.724
  381.000   12.513    0.350    0.433   53.068
  381.250   12.687    0.342    0.441   51.901
  381.500   12.743    0.322    0.445   52.920
  381.750   12.750    0.296    0.432   52.058
  382.000   12.638    0.331    0.413   51.194
  382.250   11.883    0.357    0.427   53.122
  382.500   11.174    0.362    0.445   54.446
  382.750   10.586    0.355    0.463   55.952
  383.000    9.879    0.344    0.480   58.181
  383.250    9.377    0.335    0.498   59.205
  383.500    8.883    0.325    0.502   62.102
  383.750    8.432    0.321    0.494   63.489
  384.000    7.973    0.336    0.487   64.571
  384.250    7.683    0.345    0.479   64.316
  384.500    7.558    0.350    0.474   62.542
  384.750    7.352    0.345    0.486   62.650
  385.000    6.582    0.330    0.476   66.522
  385.250    5.214    0.307    0.470   70.397
  385.500    4.099    0.276    0.473   74.694
  385.750    3.228    0.258    0.496   77.960
  386.000    2.701    0.274    0.535   80.982
  386.250    2.272    0.289    0.567   82.490
  386.500    2.253    0.295    0.589   83.327
  386.750    2.500    0.294    0.579   85.925
