~VERSION INFORMATION
 VERS.                 2.0:   CWLS LOG ASCII STANDARD -VERSION 2.0
 WRAP.                  NO:   ONE LINE PER DEPTH STEP
~WELL INFORMATION BLOCK
#MNEM.UNIT           DATA                    DESCRIPTION OF MNEMONIC
#---------    -------------------            -------------------------------
# Generated from Intellog Unique Number	CW_73_75/WELL/195
WELL.         10-12-074-26W4                 : Well_name    - WELL
LOC .         00/10-12-074-26W4/0            : Location     - LOCATION
UWI .         00/10-12-074-26W4/0            : Uwi          - UNIQUE WELL ID
ENTR.         JJ                             : Entered      - ENTERED BY
SRVC.         SCHLUMBERGER                   : Scn          - SERVICE COMPANY
DATE.         10 FEB 67                      : Date         - LOG DATE
STRT.M        475.488                        : top_depth    - START DEPTH
STOP.M        603.488                        : bot_depth    - STOP DEPTH
STEP.M        0.25                           : increment    - STEP LENGTH
 NULL. -999.2500:NULL Value
~CURVE INFORMATION BLOCK
#MNEM UNIT       ERCB CURVE CODE    CURVE DESCRIPTION
#-----------   ------------------   ----------------------------------
DEPT.M        00 001 00 00         : DEPTH        - DEPTH
DELT.US/F     00 520 00 00         : DELT         - SONIC TRAVEL TIME
GR  .API      00 310 00 00         : GR           - GAMMA RAY
CALI.MM       00 280 01 00         : CAL          - CALIPER
ILD .OHMM     00 120 00 00         : RESD         - DEEP RESISTIVITY (DIL)
~PARAMETER INFORMATION
#MNEM.UNIT           DATA             DESCRIPTION OF MNEMONIC
#---------         -----------     ------------------------------
GL  .M        677.479              : gl           - GROUND LEVEL ELEVATION
EREF.M        680.923              : kb           - ELEVATION OF DEPTH REFERENCE
DATM.M        677.479              : datum        - DATUM ELEVATION
TDD .M        606.552              : tdd          - TOTAL DEPTH DRILLER
RUN .         ONE                  : Run          - RUN NUMBER
ENG .         MCORE                : Engineer     - RECORDING ENGINEER
WIT .         RANSOM               : Witness      - WITNESSED BY
BASE.         S.L.                 : Branch       - HOME BASE OF LOGGING UNIT
MUD .         GEL                  : Mud_type     - MUD TYPE
MATR.         SANDSTONE            : Logunit      - NEUTRON MATRIX
TMAX.C        30                   : BHT          - MAXIMUM RECORDED TEMPERATURE
BHTD.M        605.638              : BHTDEP       - MAXIMUM RECORDED TEMPERATURE
RMT .C        14.4444              : MDTP         - TEMPERATURE OF MUD
MUDD.KG/M     1104                 : MWT          - MUD DENSITY
NEUT.         1                    : NEUTRON      - NEUTRON TYPE
RESI.         0                    : RESIST       - RESISTIVITY TYPE
RM  .OHMM     3.9                  : RM           - RESISTIVITY OF MUD
RMC .OHMM     3.6                  : RMC          - RESISTIVITY OF MUD CAKE
RMF .OHMM     4.8                  : RMF          - RESISTIVITY OF MUD FILTRATE
SUFT.C        5                    : SUFT         - SURFACE TEMPERATURE
~A  DEPTH     DELT       GR      CAL     RESD
# ...
  562.488  333.478   54.623  224.295   11.620
  562.738  366.095   57.956  222.398   11.030
  562.988  381.093   56.910  222.713   10.691
  563.238  375.716   53.726  225.029   10.701
  563.488  365.364   55.516  225.764   11.187
  563.738  362.140   58.650  224.605   11.792
  563.988  357.032   55.365  224.814   12.793
  564.238  325.968   52.977  225.866   13.814
  564.488  298.200   50.240  227.445   14.915
  564.738  295.513   47.255  227.022   16.264
  564.988  295.113   49.343  226.178   15.142
  565.238  291.283   52.627  224.597   13.421
  565.488  299.893   57.551  223.227   11.743
  565.738  347.908   57.153  222.805   10.229
  565.988  358.804   53.471  222.382    9.929
  566.238  367.414   52.624  222.486   10.062
  566.488  360.559   53.768  222.274   10.505
  566.738  357.132   55.111  222.063   11.363
  566.988  352.159   57.299  222.167   12.382
  567.238  342.748   58.194  223.324   13.544
  567.488  323.251   57.696  225.113   15.450
  567.738  305.031   57.397  225.849   18.530
  567.988  290.980   56.998  226.269   21.383
  568.238  309.138   55.555  226.267   24.094
  568.488  317.480   50.579  226.161   25.381
  568.738  220.719   42.768  226.265   25.040
  568.988  208.888   41.424  226.475   14.028
  569.238  253.876   47.045  226.895   11.196
  569.488  278.356   56.696  227.420    9.004
  569.738  299.272   63.661  228.682    8.248
  569.988  316.825   70.675  229.208    8.035
  570.238  321.603   74.754  228.048    8.373
  570.488  322.345   69.082  229.205    8.797
  570.738  328.333   60.723  218.568    8.827
  570.988  303.792   60.374  219.409    8.736
  571.238  291.826   64.603  222.356    8.579
  571.488  305.278   73.906  224.567    8.241
  571.738  320.343   80.820  226.250    8.126
  571.988  324.314   82.760  227.618    7.931
  572.238  332.923   79.327  228.670    7.776
  572.488  323.849   73.654  229.932    7.641
  572.738  321.902   75.793  230.563    7.550
  572.988  326.074   79.922  231.088    7.582
  573.238  333.810   78.379  231.298    7.715
  573.488  333.611   77.781  231.191    8.135
  573.738  316.938   78.626  230.242    8.990
  573.988  321.043   80.367  233.400   10.360
  574.238  343.303   81.312  232.978   12.596
  574.488  315.535   76.436  230.028   14.894
  574.738  302.694   69.271  226.446   17.110
  574.988  302.226   61.061  221.601   17.634
  575.238  324.218   56.733  218.546   17.396
  575.488  310.234   57.926  224.547   15.903
  575.738  229.680   59.269  229.179   14.203
  575.988  270.836   64.293  228.441   13.059
  576.238  305.335   69.765  230.756   12.700
  576.488  321.611   70.262  230.544   13.389
  576.738  309.981   62.948  229.174   14.575
  576.988  306.823   64.191  228.436   15.265
  577.238  293.848   64.588  226.855   15.545
  577.488  279.058   63.245  225.590   15.409
  577.738  279.195   64.040  225.694   14.554
  577.988  315.980   65.482  227.378   12.998
  578.238  326.743   68.516  228.851   11.010
  578.488  321.769   71.252  229.587    9.869
  578.738  314.981   72.346  230.112    9.547
  578.988  318.145   73.739  230.953    9.412
  579.238  327.225   77.370  231.373    9.629
  579.488  336.172   73.091  231.267   10.402
  579.738  310.084   65.677  229.370   12.370
  579.988  297.244   61.746  226.631   13.678
  580.238  306.123   62.989  226.840   14.225
  580.488  345.800   64.879  218.941   13.967
  580.738  333.631   63.635  219.572   13.338
  580.988  271.098   58.908  225.889   12.729
  581.238  268.276   63.335  222.834   12.021
  581.488  297.463   66.171  227.887   11.516
  581.738  316.900   64.379  228.939   11.072
  581.988  289.602   58.160  229.148   10.589
  582.238  268.020   59.850  229.147   10.288
  582.488  267.888   66.367  229.567    9.911
  582.738  277.978   69.053  229.671    9.793
  582.988  303.533   67.361  229.565    9.663
  583.238  308.580   64.973  229.879    9.612
  583.488  306.902   64.972  230.089    9.563
  583.738  306.905   66.265  229.561    9.507
  583.988  291.643   68.155  228.612    9.581
  584.238  293.664   71.338  228.716    9.632
  584.488  320.833   72.233  231.347    9.724
  584.738  324.400   70.491  231.557    9.836
  584.988  319.427   70.491  230.818    9.948
  585.238  314.992   71.137  230.712    9.981
  585.488  307.397   71.734  227.236    9.991
  585.738  300.810   74.917  228.392    9.937
  585.988  320.380   77.305  229.865    9.990
  586.238  329.327   71.881  230.707   10.042
  586.488  319.041   62.080  231.021   10.318
  586.738  304.789   64.268  231.336   11.008
  586.988  302.976   68.148  231.230   11.741
  587.238  312.259   67.501  230.913   11.937
  587.488  295.115   63.221  230.174   11.247
  587.738  273.869   68.146  229.120   10.701
  587.988  288.935   77.748  229.435   10.341
  588.238  305.211   79.140  230.171   10.184
  588.488  318.460   78.642  230.380   10.545
  588.738  323.574   73.218  229.431   11.113
  588.988  281.886   69.636  227.218   11.536
  589.238  258.085   64.212  226.059   11.750
  589.488  247.934   66.252  225.531   10.607
  589.738  256.746   71.475  225.319    7.239
  589.988  273.157   75.604  226.687    5.807
  590.238  289.231   80.230  228.581    4.479
  590.488  323.931   84.458  233.213    3.789
  590.738  370.602   88.040  246.691    3.448
  590.988  414.783   81.920  243.847    3.355
  591.238  419.090   77.143  241.108    3.554
  591.488  385.202   77.341  238.158    3.726
  591.738  376.598   80.326  235.629    3.963
  591.988  377.946   79.380  238.577    4.511
  592.238  374.722   77.240  234.152    4.848
  592.488  361.074   73.110  232.151    5.333
  592.738  321.605   76.592  230.148    5.550
  592.988  329.072   79.825  233.096    5.600
  593.238  338.691   75.248  233.200    5.467
  593.488  333.315   70.421  232.777    5.250
  593.738  319.734   70.669  226.458    4.912
  593.988  293.916   73.803  228.668    4.858
  594.238  309.923   76.539  232.036    4.892
  594.488  329.897   74.648  232.246    5.045
  594.738  321.427   70.617  228.559    5.303
  594.988  319.279   73.353  223.503    5.560
  595.238  330.646   77.183  227.819    5.816
  595.488  333.002   80.864  228.555    6.095
  595.738  325.474   57.680  228.449    6.291
  595.988  320.837   45.988  227.921    6.550
  596.238  320.100   43.848  228.341    6.870
  596.488  327.568   41.956  228.761    7.292
  596.738  325.285   40.762  225.074    7.939
  596.988  325.758   39.518  228.232    9.022
  597.238  360.190   38.273  219.596    9.793
  597.488  399.799   37.377  218.015   10.627
  597.738  407.939   36.630  217.381   11.877
  597.988  410.228   36.281  217.696   11.885
  598.238  360.403   36.281  218.116   10.661
  598.488  347.429   36.280  217.904   10.074
  598.738  342.792   36.727  217.903    9.735
  598.988  340.912   36.279  217.796    9.517
  599.238  341.184   35.781  217.584    9.445
  599.488  342.533   34.736  217.584    9.518
  599.738  343.141   33.889  217.477    9.671
  599.988  343.278   33.640  217.370    9.928
  600.238  342.138   33.839  217.685   10.021
  600.488  340.056   34.037  217.894    9.845
  600.738  339.723   34.235  218.104    9.483
  600.988  339.726   34.434  218.313    9.042
  601.238  351.833   34.682  218.522    8.703
  601.488  358.089   36.174  218.943    8.403
  601.738  157.908   37.765  219.152    8.022
  601.988  141.907   39.804  219.466    7.703
  602.238  338.329   42.590  219.466    7.425
  602.488  340.081   45.525  219.359    7.331
  602.738  339.210   48.410  219.463    8.494
  602.988  338.608   50.499  219.251    9.165
  603.238  338.812   51.941  219.250    9.154
  603.488  340.294   53.184  219.249    9.020
