~VERSION INFORMATION
 VERS.                 2.0:   CWLS LOG ASCII STANDARD -VERSION 2.0
 WRAP.                  NO:   ONE LINE PER DEPTH STEP
~WELL INFORMATION BLOCK
#MNEM.UNIT           DATA                    DESCRIPTION OF MNEMONIC
#---------    -------------------            -------------------------------
# Generated from Intellog Unique Number	CS_73_76/WELL/3272
WELL.         TOTAL PETROLEUM (N.A.) LTD     : Well_name    - WELL
LOC .         00/12-14-075-08W4/0            : Location     - LOCATION
UWI .         00/12-14-075-08W4/0            : Uwi          - UNIQUE WELL ID
ENTR.         SP                             : Entered      - ENTERED BY
SRVC.         SCHLUMBERGER                   : Scn          - SERVICE COMPANY
STRT.M        250                            : top_depth    - START DEPTH
STOP.M        495                            : bot_depth    - STOP DEPTH
STEP.M        0.25                           : increment    - STEP LENGTH
 NULL. -999.2500:NULL Value
~CURVE INFORMATION BLOCK
#MNEM UNIT       ERCB CURVE CODE    CURVE DESCRIPTION
#-----------   ------------------   ----------------------------------
DEPT.M        00 001 00 00         : DEPTH        - DEPTH
ILD .OHMM     00 120 00 00         : RESD         - DEEP RESISTIVITY (DIL)
DPHI.V/V      00 890 00 00         : PHID         - DENSITY POROSITY (LIMESTONE)
NPHI.V/V      00 330 00 00         : PHIN         - NEUTRON POROSITY (LIMESTONE)
GR  .API      00 310 00 00         : GR           - GAMMA RAY
~PARAMETER INFORMATION
#MNEM.UNIT           DATA             DESCRIPTION OF MNEMONIC
#---------         -----------     ------------------------------
GL  .M        668.17               : gl           - GROUND LEVEL ELEVATION
EREF.M        671.17               : kb           - ELEVATION OF DEPTH REFERENCE
DATM.M        668.17               : datum        - DATUM ELEVATION
TDD .M        504                  : tdd          - TOTAL DEPTH DRILLER
RUN .         ONE                  : Run          - RUN NUMBER
ENG .         BILL                 : Engineer     - RECORDING ENGINEER
WIT .         JIM                  : Witness      - WITNESSED BY
MUD .         GEL                  : Mud_type     - MUD TYPE
MATR.         LIMESTONE            : Logunit      - NEUTRON MATRIX
TMAX.C        23.5                 : BHT          - MAXIMUM RECORDED TEMPERATURE
BHTD.M        504                  : BHTDEP       - MAXIMUM RECORDED TEMPERATURE
MATR.         1                    : LOGUNIT      - NEUTRON MATRIX
RMT .C        25                   : MDTP         - TEMPERATURE OF MUD
NEUT.         1                    : NEUTRON      - NEUTRON TYPE
RESI.         0                    : RESIST       - RESISTIVITY TYPE
RMC .OHMM     0.25                 : RMC          - RESISTIVITY OF MUD CAKE
RMF .OHMM     0.25                 : RMF          - RESISTIVITY OF MUD FILTRATE
SUFT.C        15                   : SUFT         - SURFACE TEMPERATURE
~A  DEPTH     RESD     PHID     PHIN       GR
# ...
  467.500   11.126    0.180    0.354  145.008
  467.750   11.337    0.185    0.366  148.050
  468.000   12.223    0.193    0.378  149.271
  468.250   12.934    0.207    0.387  152.921
  468.500   13.685    0.214    0.398  145.033
  468.750   14.480    0.225    0.407  134.717
  469.000   14.755    0.239    0.399  123.184
  469.250   14.755    0.235    0.372  132.908
  469.500   14.755    0.212    0.354  140.809
  469.750   14.755    0.212    0.376  129.885
  470.000   14.755    0.233    0.393  121.996
  470.250   14.480    0.207    0.384  150.546
  470.500   16.211    0.191    0.376  153.589
  470.750   17.811    0.198    0.373  149.344
  471.000   19.203    0.208    0.376  142.065
  471.250   23.180    0.217    0.387  138.426
  471.500   25.468    0.238    0.399  128.716
  471.750   30.169    0.258    0.349  115.969
  472.000   33.146    0.273    0.345  128.730
  472.250   37.109    0.271    0.368  111.733
  472.500   38.533    0.283    0.398   97.771
  472.750   38.533    0.273    0.379   91.704
  473.000   43.959    0.263    0.371   86.853
  473.250   45.646    0.287    0.380   77.752
  473.500   41.546    0.295    0.380   76.543
  473.750   30.169    0.287    0.385  104.485
  474.000   22.748    0.280    0.373  149.431
  474.250   18.845    0.246    0.361  151.868
  474.500   18.845    0.217    0.363  147.017
  474.750   22.748    0.229    0.374  116.657
  475.000   26.445    0.245    0.378  102.697
  475.250   33.146    0.262    0.389   94.809
  475.500   40.011    0.287    0.405   83.883
  475.750   50.150    0.304    0.402   81.462
  476.000   58.300    0.291    0.393   76.609
  476.250   69.062    0.277    0.417   62.648
  476.500   81.810    0.304    0.421   48.687
  476.750   91.591    0.312    0.406   38.976
  477.000  102.541    0.323    0.402   38.376
  477.250  112.660    0.333    0.401   38.990
  477.500  116.982    0.332    0.420   42.033
  477.750  116.982    0.326    0.426   45.683
  478.000  114.801    0.322    0.410   55.407
  478.250  106.475    0.326    0.399   56.021
  478.500   98.753    0.334    0.398   50.562
  478.750   89.883    0.332    0.393   68.181
  479.000   74.462    0.324    0.401   82.762
  479.250   62.859    0.318    0.412   77.305
  479.500   49.215    0.311    0.407   69.416
  479.750   38.533    0.310    0.407   60.919
  480.000   25.468    0.309    0.390   57.282
  480.250   18.149    0.207    0.361   76.116
  480.500   13.430    0.190    0.349   86.446
  480.750   11.126    0.187    0.356   77.953
  481.000    9.752    0.191    0.365   73.707
  481.250    9.045    0.192    0.370   76.142
  481.500    8.711    0.207    0.362   76.757
  481.750    8.389    0.209    0.338   80.408
  482.000    8.232    0.164    0.318   86.486
  482.250    8.079    0.146    0.348   93.782
  482.500    7.781    0.160    0.365   96.218
  482.750    7.493    0.168    0.370   96.224
  483.000    7.353    0.173    0.355   93.198
  483.250    7.493    0.180    0.362   91.380
  483.500    7.635    0.190    0.367   87.133
  483.750    7.493    0.198    0.372   80.462
  484.000    7.353    0.204    0.378   77.430
  484.250    7.353    0.209    0.380   88.977
  484.500    7.216    0.198    0.366   93.234
  484.750    7.082    0.178    0.360   96.277
  485.000    7.082    0.163    0.371   95.069
  485.250    6.950    0.173    0.372   93.861
  485.500    6.950    0.181    0.367   92.653
  485.750    6.693    0.187    0.362   98.734
  486.000    6.693    0.182    0.376  105.420
  486.250    6.568    0.168    0.390  115.752
  486.500    6.325    0.151    0.379  122.438
  486.750    6.207    0.121    0.372  129.734
  487.000    5.867    0.120    0.405  132.776
  487.250    5.757    0.130    0.435  131.568
  487.500    5.650    0.133    0.439  129.145
  487.750    5.867    0.131    0.429  126.723
  488.000    5.978    0.131    0.438  128.551
  488.250    6.092    0.135    0.450  131.594
  488.500    6.446    0.132    0.454  130.388
  488.750    6.568    0.131    0.451  126.752
  489.000    6.568    0.138    0.433  125.542
  489.250    6.568    0.147    0.416  122.512
  489.500    6.568    0.159    0.440  121.304
  489.750    6.568    0.154    0.463  117.667
  490.000    6.693    0.149    0.476  114.636
  490.250    6.693    0.148    0.468  117.680
  490.500    6.950    0.133    0.462  115.865
  490.750    7.082    0.131    0.449  111.621
  491.000    7.493    0.148    0.433  109.197
  491.250    8.548    0.122    0.462   96.451
  491.500    9.937    0.062    0.411   61.234
  491.750   10.714    0.000    0.276   37.556
  492.000   12.692    0.000    0.213   27.239
  492.250   15.909    0.000    0.207   31.498
  492.500   23.621    0.000    0.167   27.859
  492.750   29.607    0.000    0.134   22.400
  493.000   39.265    0.000    0.120   21.799
  493.250   43.140    0.000    0.117   30.309
  493.500   43.959    0.001    0.140   33.961
  493.750   47.397    0.012    0.165   33.358
  494.000   57.213    0.009    0.165   27.293
  494.250   67.774    0.000    0.122   24.262
  494.500   81.810    0.000    0.101   21.233
  494.750   88.207    0.000    0.093   20.024
  495.000   86.562    0.000    0.087   19.424
