~VERSION INFORMATION
 VERS.                 2.0:   CWLS LOG ASCII STANDARD -VERSION 2.0
 WRAP.                  NO:   ONE LINE PER DEPTH STEP
~WELL INFORMATION BLOCK
#MNEM.UNIT           DATA                    DESCRIPTION OF MNEMONIC
#---------    -------------------            -------------------------------
# Generated from Intellog Unique Number	CX_WELLS/WELL/3315
WELL.         PCL SURMONT                    : Well_name    - WELL
LOC .         00/11-24-084-06W4/0            : Location     - LOCATION
UWI .         00/11-24-084-06W4/0            : Uwi          - UNIQUE WELL ID
ENTR.         T                              : Entered      - ENTERED BY
SRVC.         SCHLUMBERGER                   : Scn          - SERVICE COMPANY
STRT.M        75                             : top_depth    - START DEPTH
STOP.M        260                            : bot_depth    - STOP DEPTH
STEP.M        0.25                           : increment    - STEP LENGTH
 NULL. -999.2500:NULL Value
~CURVE INFORMATION BLOCK
#MNEM UNIT       ERCB CURVE CODE    CURVE DESCRIPTION
#-----------   ------------------   ----------------------------------
DEPT.M        00 001 00 00         : DEPTH        - DEPTH
GR  .API      00 310 00 00         : GR           - GAMMA RAY
NPHI.V/V      00 330 00 00         : PHIN         - NEUTRON POROSITY (SANDSTONE)
DPHI.V/V      00 890 00 00         : PHID         - DENSITY POROSITY (SANDSTONE)
ILD .OHMM     00 120 00 00         : RESD         - DEEP RESISTIVITY (DIL)
~PARAMETER INFORMATION
#MNEM.UNIT           DATA             DESCRIPTION OF MNEMONIC
#---------         -----------     ------------------------------
GL  .M        465                  : gl           - GROUND LEVEL ELEVATION
EREF.M        469                  : kb           - ELEVATION OF DEPTH REFERENCE
DATM.M        469                  : datum        - DATUM ELEVATION
TDD .M        276                  : tdd          - TOTAL DEPTH DRILLER
RUN .         ONE                  : Run          - RUN NUMBER
ENG .         BILL                 : Engineer     - RECORDING ENGINEER
WIT .         JIM                  : Witness      - WITNESSED BY
MUD .         GEL                  : Mud_type     - MUD TYPE
MATR.         SANDSTONE            : Logunit      - NEUTRON MATRIX
TMAX.C        12                   : BHT          - MAXIMUM RECORDED TEMPERATURE
BHTD.M        276                  : BHTDEP       - MAXIMUM RECORDED TEMPERATURE
MATR.         1                    : LOGUNIT      - NEUTRON MATRIX
RMT .C        12                   : MDTP         - TEMPERATURE OF MUD
NEUT.         1                    : NEUTRON      - NEUTRON TYPE
RESI.         5                    : RESIST       - RESISTIVITY TYPE
RMC .OHMM     1.8                  : RMC          - RESISTIVITY OF MUD CAKE
RMF .OHMM     4.5                  : RMF          - RESISTIVITY OF MUD FILTRATE
SUFT.C        4                    : SUFT         - SURFACE TEMPERATURE
~A  DEPTH       GR     PHIN     PHID     RESD
# ...
  205.500   72.677    0.348    0.309    1.060
  205.750   65.877    0.341    0.315    1.044
  206.000   52.277    0.335    0.315    0.992
  206.250   44.252    0.332    0.315    0.978
  206.500   36.245    0.334    0.312    0.964
  206.750   52.490    0.340    0.311    0.951
  207.000   38.251    0.340    0.312    0.954
  207.250   30.262    0.339    0.315    0.941
  207.500   27.830    0.330    0.320    0.964
  207.750   25.415    0.324    0.326    0.987
  208.000   24.865    0.329    0.329    1.009
  208.250   25.576    0.336    0.330    1.012
  208.500   25.026    0.341    0.327    1.018
  208.750   24.457    0.338    0.324    1.023
  209.000   28.257    0.334    0.323    1.025
  209.250   32.696    0.333    0.319    1.032
  209.500   35.253    0.338    0.314    1.017
  209.750   35.946    0.346    0.318    0.985
  210.000   33.532    0.346    0.327    0.969
  210.250   34.863    0.342    0.321    0.956
  210.500   38.024    0.337    0.315    0.997
  210.750   42.445    0.338    0.316    1.020
  211.000   46.263    0.343    0.328    1.044
  211.250   43.209    0.348    0.334    1.089
  211.500   42.055    0.348    0.328    1.113
  211.750   37.759    0.340    0.319    1.138
  212.000   29.752    0.334    0.319    1.143
  212.250   23.005    0.341    0.322    1.129
  212.500   26.166    0.347    0.324    1.094
  212.750   29.965    0.348    0.326    1.076
  213.000   30.055    0.343    0.327    1.024
  213.250   27.640    0.334    0.327    0.973
  213.500   25.847    0.327    0.325    0.960
  213.750   22.172    0.325    0.325    0.965
  214.000   22.243    0.325    0.325    0.985
  214.250   23.575    0.326    0.325    0.989
  214.500   24.268    0.327    0.325    1.112
  214.750   24.943    0.328    0.325    1.158
  215.000   25.050    0.333    0.326    1.208
  215.250   25.103    0.338    0.326    1.213
  215.500   25.192    0.343    0.328    1.198
  215.750   25.281    0.345    0.329    1.178
  216.000   25.335    0.348    0.332    1.164
  216.250   25.388    0.350    0.335    1.168
  216.500   25.459    0.347    0.342    1.172
  216.750   26.188    0.343    0.342    1.179
  217.000   26.223    0.343    0.341    1.208
  217.250   26.330    0.347    0.339    1.214
  217.500   26.366    0.344    0.336    1.216
  217.750   26.437    0.342    0.334    1.244
  218.000   26.509    0.338    0.337    1.250
  218.250   27.823    0.334    0.334    1.255
  218.500   34.765    0.335    0.329    1.262
  218.750   29.847    0.339    0.325    1.268
  219.000   24.965    0.340    0.326    1.249
  219.250   28.143    0.336    0.317    1.233
  219.500   30.061    0.333    0.312    1.214
  219.750   33.239    0.341    0.316    1.198
  220.000   35.175    0.349    0.321    1.180
  220.250   27.807    0.353    0.325    1.164
  220.500   26.618    0.350    0.330    1.127
  220.750   28.589    0.346    0.328    1.112
  221.000   29.867    0.341    0.316    1.077
  221.250   32.424    0.336    0.305    1.080
  221.500   37.484    0.342    0.304    1.066
  221.750   41.924    0.345    0.306    1.052
  222.000   40.113    0.354    0.308    1.057
  222.250   32.727    0.360    0.312    1.061
  222.500   29.709    0.353    0.312    1.047
  222.750   29.762    0.339    0.312    1.031
  223.000   29.852    0.333    0.313    1.018
  223.250   28.680    0.333    0.318    0.950
  223.500   26.887    0.334    0.325    0.936
  223.750   26.337    0.337    0.333    0.889
  224.000   25.787    0.342    0.337    0.877
  224.250   24.615    0.346    0.336    0.849
  224.500   24.047    0.344    0.334    0.854
  224.750   23.497    0.343    0.333    0.855
  225.000   23.586    0.340    0.329    0.843
  225.250   23.640    0.340    0.325    0.849
  225.500   24.332    0.337    0.325    0.853
  225.750   25.646    0.339    0.329    0.856
  226.000   25.718    0.345    0.337    0.860
  226.250   25.789    0.354    0.343    0.879
  226.500   25.860    0.363    0.351    0.885
  226.750   25.310    0.363    0.353    0.888
  227.000   24.813    0.361    0.348    0.892
  227.250   24.227    0.356    0.348    0.897
  227.500   24.334    0.355    0.344    0.900
  227.750   24.388    0.355    0.337    0.904
  228.000   24.459    0.355    0.330    0.909
  228.250   24.512    0.353    0.329    0.911
  228.500   23.980    0.349    0.332    0.917
  228.750   24.034    0.347    0.336    0.922
  229.000   24.744    0.343    0.336    0.925
  229.250   26.697    0.343    0.335    0.928
  229.500   29.858    0.343    0.332    0.933
  229.750   30.533    0.338    0.329    0.936
  230.000   31.261    0.336    0.328    0.941
  230.250   28.847    0.341    0.330    0.944
  230.500   28.297    0.348    0.335    0.932
  230.750   27.764    0.357    0.341    0.936
  231.000   27.800    0.367    0.348    0.924
  231.250   27.250    0.379    0.355    0.927
  231.500   26.700    0.390    0.364    0.932
  231.750   26.167    0.397    0.369    0.935
  232.000   27.481    0.400    0.362    0.921
  232.250   28.778    0.382    0.347    0.926
  232.500   30.092    0.360    0.339    0.931
  232.750   32.027    0.353    0.333    0.936
  233.000   33.981    0.352    0.327    0.939
  233.250   36.555    0.349    0.313    0.961
  233.500   39.716    0.344    0.293    1.000
  233.750   43.533    0.339    0.277    1.044
  234.000   46.073    0.334    0.261    1.067
  234.250   47.387    0.331    0.248    1.133
  234.500   48.701    0.329    0.242    1.160
  234.750   47.529    0.327    0.239    1.165
  235.000   43.872    0.329    0.242    1.089
  235.250   37.729    0.335    0.278    1.072
  235.500   32.208    0.346    0.315    0.966
  235.750   28.550    0.359    0.336    0.933
  236.000   28.639    0.363    0.348    0.887
  236.250   29.314    0.365    0.348    0.874
  236.500   30.025    0.359    0.348    0.879
  236.750   30.096    0.352    0.347    0.882
  237.000   30.185    0.353    0.342    0.885
  237.250   30.221    0.355    0.332    0.892
  237.500   32.156    0.347    0.323    0.894
  237.750   37.217    0.351    0.312    0.897
  238.000   42.259    0.359    0.322    0.901
  238.250   37.998    0.365    0.335    0.889
  238.500   34.963    0.360    0.345    0.876
  238.750   31.927    0.349    0.345    0.882
  239.000   30.737    0.349    0.344    0.885
  239.250   29.566    0.348    0.340    0.888
  239.500   29.034    0.350    0.337    0.876
  239.750   29.708    0.352    0.336    0.864
  240.000   31.022    0.354    0.333    0.852
  240.250   31.715    0.357    0.340    0.855
  240.500   31.786    0.358    0.344    0.859
  240.750   31.236    0.356    0.349    0.864
  241.000   30.704    0.356    0.348    0.867
  241.250   31.414    0.356    0.347    0.855
  241.500   31.486    0.356    0.347    0.844
  241.750   32.160    0.356    0.348    0.832
  242.000   32.871    0.356    0.345    0.820
  242.250   32.942    0.355    0.339    0.823
  242.500   32.392    0.353    0.339    0.829
  242.750   32.446    0.352    0.340    0.832
  243.000   33.778    0.350    0.339    0.834
  243.250   34.470    0.351    0.339    0.838
  243.500   34.541    0.352    0.340    0.842
  243.750   32.127    0.353    0.341    0.846
  244.000   30.334    0.353    0.347    0.866
  244.250   28.541    0.351    0.344    0.871
  244.500   26.748    0.351    0.343    0.873
  244.750   26.802    0.352    0.344    0.878
  245.000   28.755    0.351    0.345    0.881
  245.250   30.069    0.350    0.343    0.886
  245.500   30.762    0.350    0.340    0.889
  245.750   30.212    0.352    0.340    0.877
  246.000   30.283    0.363    0.344    0.881
  246.250   30.975    0.367    0.346    0.868
  246.500   31.668    0.359    0.349    0.858
  246.750   32.361    0.348    0.351    0.860
  247.000   36.782    0.343    0.345    0.849
  247.250   43.067    0.343    0.328    0.853
  247.500   50.631    0.346    0.311    0.872
  247.750   37.635    0.350    0.295    0.876
  248.000   33.960    0.354    0.304    0.881
  248.250   27.196    0.355    0.310    0.868
  248.500   23.556    0.356    0.325    0.871
  248.750   24.249    0.356    0.332    0.860
