~VERSION INFORMATION
 VERS.                 2.0:   CWLS LOG ASCII STANDARD -VERSION 2.0
 WRAP.                  NO:   ONE LINE PER DEPTH STEP
~WELL INFORMATION BLOCK
#MNEM.UNIT           DATA                    DESCRIPTION OF MNEMONIC
#---------    -------------------            -------------------------------
# Generated from Intellog Unique Number	CW_82_90/WELL/3449
WELL.         CHEVRON FINA TROUT             : Well_name    - WELL
LOC .         00/11-18-088-02W5/0            : Location     - LOCATION
UWI .         00/11-18-088-02W5/0            : Uwi          - UNIQUE WELL ID
ENTR.         MAX                            : Entered      - ENTERED BY
SRVC.         SCHLUMBERGER                   : Scn          - SERVICE COMPANY
STRT.M        381                            : top_depth    - START DEPTH
STOP.M        551.75                         : bot_depth    - STOP DEPTH
STEP.M        0.25                           : increment    - STEP LENGTH
 NULL. -999.2500:NULL Value
~CURVE INFORMATION BLOCK
#MNEM UNIT       ERCB CURVE CODE    CURVE DESCRIPTION
#-----------   ------------------   ----------------------------------
DEPT.M        00 001 00 00         : DEPTH        - DEPTH
ILD .OHMM     00 120 00 00         : RESD         - DEEP RESISTIVITY (DIL)
NPHI.V/V      00 330 00 00         : PHIN         - NEUTRON POROSITY (SANDSTONE)
DPHI.V/V      00 890 00 00         : PHID         - DENSITY POROSITY (SANDSTONE)
CALI.MM       00 280 01 00         : CAL          - CALIPER
GR  .API      00 310 00 00         : GR           - GAMMA RAY
~PARAMETER INFORMATION
#MNEM.UNIT           DATA             DESCRIPTION OF MNEMONIC
#---------         -----------     ------------------------------
GL  .M        738.896              : gl           - GROUND LEVEL ELEVATION
EREF.M        742.493              : kb           - ELEVATION OF DEPTH REFERENCE
DATM.M        738.896              : datum        - DATUM ELEVATION
TDD .M        555.041              : tdd          - TOTAL DEPTH DRILLER
RUN .         ONE                  : Run          - RUN NUMBER
ENG .         BILL                 : Engineer     - RECORDING ENGINEER
WIT .         JIM                  : Witness      - WITNESSED BY
MUD .         GEL                  : Mud_type     - MUD TYPE
MATR.         SANDSTONE            : Logunit      - NEUTRON MATRIX
TMAX.C        23.3333              : BHT          - MAXIMUM RECORDED TEMPERATURE
BHTD.M        555.041              : BHTDEP       - MAXIMUM RECORDED TEMPERATURE
MATR.         1                    : LOGUNIT      - NEUTRON MATRIX
RMT .C        17.2222              : MDTP         - TEMPERATURE OF MUD
NEUT.         1                    : NEUTRON      - NEUTRON TYPE
RESI.         0                    : RESIST       - RESISTIVITY TYPE
RMC .OHMM     5.05                 : RMC          - RESISTIVITY OF MUD CAKE
RMF .OHMM     8.05                 : RMF          - RESISTIVITY OF MUD FILTRATE
SUFT.C        -23.3333             : SUFT         - SURFACE TEMPERATURE
~A  DEPTH     RESD     PHIN     PHID      CAL       GR
# ...
  490.500    5.593    0.537    0.199  209.356   84.607
  490.750    5.451    0.521    0.197  209.900   84.640
  491.000    5.362    0.513    0.206  208.966   83.211
  491.250    5.228    0.512    0.193  208.548   83.536
  491.500    5.142    0.508    0.183  208.590   82.989
  491.750    5.103    0.492    0.187  210.138   82.725
  492.000    5.065    0.486    0.203  211.191   83.644
  492.250    5.075    0.493    0.203  211.247   83.961
  492.500    5.080    0.477    0.213  208.326   80.494
  492.750    5.277    0.470    0.204  205.418   77.311
  493.000    5.782    0.433    0.164  205.474   72.661
  493.250    6.813    0.359    0.139  204.059   66.847
  493.500    8.097    0.264    0.065  204.101   60.155
  493.750    9.979    0.238    0.041  204.164   54.929
  494.000   12.409    0.258    0.070  204.220   56.713
  494.250   14.751    0.318    0.106  203.780   62.013
  494.500   13.140    0.358    0.155  200.873   67.309
  494.750   10.505    0.406    0.206  199.939   74.948
  495.000    8.473    0.436    0.175  200.001   79.367
  495.250    6.774    0.451    0.209  202.038   84.959
  495.500    5.874    0.469    0.195  203.084   85.869
  495.750    5.624    0.484    0.192  203.628   83.567
  496.000    5.633    0.468    0.199  203.691   83.893
  496.250    5.590    0.454    0.202  203.747   86.265
  496.500    5.403    0.460    0.205  204.312   86.010
  496.750    5.265    0.490    0.210  203.873   85.750
  497.000    5.132    0.495    0.221  203.922   85.199
  497.250    5.004    0.487    0.229  203.483   83.185
  497.500    4.922    0.490    0.224  202.060   81.756
  497.750    4.840    0.491    0.217  200.645   80.035
  498.000    4.848    0.477    0.220  199.704   78.029
  498.250    4.946    0.470    0.225  197.779   74.550
  498.500    5.180    0.467    0.236  196.845   72.244
  498.750    5.729    0.474    0.252  195.911   69.061
  499.000    6.688    0.458    0.227  194.496   68.221
  499.250    8.023    0.416    0.213  194.050   67.961
  499.500    9.365    0.365    0.102  194.112   66.240
  499.750   11.751    0.286    0.061  194.154   63.353
  500.000   15.286    0.266    0.054  196.693   61.340
  500.250   20.615    0.274    0.068  201.714   60.492
  500.500   19.918    0.319    0.083  203.750   60.236
  500.750   14.418    0.306    0.056  203.806   60.566
  501.000   11.631    0.294    0.034  203.360   62.057
  501.250    8.421    0.364    0.094  202.433   67.353
  501.500    5.934    0.410    0.160  202.001   73.826
  501.750    4.917    0.473    0.210  201.060   71.813
  502.000    4.421    0.510    0.220  199.630   70.384
  502.250    4.388    0.487    0.240  196.723   73.637
  502.500    4.436    0.473    0.244  196.283   77.760
  502.750    4.564    0.457    0.225  196.339   83.060
  503.000    4.780    0.456    0.212  201.841   85.728
  503.250    5.100    0.457    0.214  204.875   84.588
  503.500    5.490    0.457    0.215  202.951   82.871
  503.750    5.807    0.455    0.212  200.538   82.912
  504.000    6.026    0.459    0.203  199.102   83.530
  504.250    6.374    0.495    0.197  200.657   83.855
  504.500    6.439    0.496    0.199  202.205   83.592
  504.750    6.567    0.470    0.191  200.281   81.286
  505.000    6.697    0.452    0.177  200.323   79.857
  505.250    6.830    0.446    0.168  200.393   79.890
  505.500    6.600    0.432    0.173  200.449   82.563
  505.750    6.492    0.438    0.176  200.498   83.473
  506.000    6.384    0.461    0.175  201.558   83.798
  506.250    6.168    0.457    0.188  206.070   86.175
  506.500    6.014    0.447    0.201  208.113   88.835
  506.750    5.913    0.461    0.198  208.664   91.215
  507.000    5.819    0.497    0.176  208.713   92.121
  507.250    5.722    0.484    0.176  208.776   94.209
  507.500    5.628    0.477    0.196  209.320   95.416
  507.750    5.587    0.505    0.203  210.380   95.148
  508.000    5.545    0.541    0.213  210.436   93.724
  508.250    5.554    0.552    0.214  209.990   93.753
  508.500    5.614    0.516    0.209  207.578   93.205
  508.750    5.724    0.453    0.209  204.175   90.022
  509.000    5.785    0.440    0.217  198.283   86.839
  509.250    5.899    0.437    0.228  195.863   85.118
  509.500    6.072    0.431    0.220  194.929   85.443
  509.750    6.135    0.426    0.213  194.490   85.772
  510.000    6.199    0.416    0.209  194.553   86.394
  510.250    6.266    0.411    0.215  195.104   87.593
  510.500    6.332    0.424    0.209  195.160   89.973
  510.750    6.400    0.442    0.212  195.230   92.053
  511.000    6.410    0.445    0.209  195.774   93.256
  511.250    6.477    0.441    0.205  195.837   91.534
  511.500    6.547    0.429    0.203  195.886   88.355
  511.750    6.617    0.420    0.201  195.956   86.630
  512.000    6.628    0.417    0.178  196.012   86.371
  512.250    6.638    0.415    0.197  196.068   89.039
  512.500    6.472    0.407    0.211  197.114   92.004
  512.750    6.423    0.402    0.209  199.157   92.906
  513.000    6.318    0.406    0.201  200.203   91.185
  513.250    6.157    0.426    0.197  200.754   88.883
  513.500    5.896    0.451    0.211  200.810   87.755
  513.750    5.594    0.464    0.201  201.361   88.661
  514.000    5.406    0.478    0.200  203.900   91.618
  514.250    5.463    0.463    0.201  204.953   92.240
  514.500    5.774    0.431    0.192  205.002   88.760
  514.750    6.052    0.404    0.176  201.606   86.162
  515.000    6.114    0.415    0.161  199.675   86.199
  515.250    5.698    0.448    0.204  198.252   89.164
  515.500    5.167    0.496    0.209  198.308   90.947
  515.750    4.480    0.540    0.219  198.364   92.735
  516.000    3.780    0.566    0.241  198.427   93.649
  516.250    3.249    0.594    0.239  197.981   93.097
  516.500    3.225    0.591    0.234  198.037   90.787
  516.750    3.379    0.575    0.225  198.093   86.731
  517.000    3.605    0.567    0.225  198.156   85.306
  517.250    3.879    0.549    0.222  198.714   83.293
  517.500    4.252    0.540    0.215  199.258   80.987
  517.750    4.620    0.537    0.189  200.304   78.969
  518.000    4.928    0.528    0.162  201.853   77.837
  518.250    5.210    0.501    0.149  205.877   78.454
  518.500    5.409    0.476    0.160  206.916   79.665
  518.750    5.466    0.501    0.173  206.484   80.275
  519.000    5.377    0.526    0.181  205.054   81.477
  519.250    5.386    0.539    0.197  203.632   82.684
  519.500    5.494    0.542    0.205  204.183   82.429
  519.750    5.602    0.514    0.201  204.734   82.750
  520.000    5.712    0.520    0.197  205.285   83.376
  520.250    5.773    0.534    0.200  204.853   82.532
  520.500    5.995    0.517    0.201  203.919   82.858
  520.750    6.059    0.523    0.178  202.991   84.361
  521.000    6.178    0.530    0.170  203.047   85.263
  521.250    6.302    0.515    0.187  202.601   85.296
  521.500    6.369    0.503    0.192  202.664   84.163
  521.750    6.377    0.494    0.202  202.720   85.959
  522.000    6.386    0.485    0.203  203.285   88.908
  522.250    6.455    0.467    0.193  204.324   92.161
  522.500    7.013    0.463    0.176  205.378   93.656
  522.750    7.546    0.464    0.149  209.401   94.274
  523.000    8.125    0.437    0.180  210.929   91.387
  523.250    8.287    0.401    0.174  207.526   89.666
  523.500    8.450    0.352    0.141  204.611   91.453
  523.750    8.696    0.329    0.108  204.179   94.703
  524.000    9.027    0.353    0.181  203.238   92.397
  524.250    9.372    0.390    0.194  201.809   88.925
  524.500    9.913    0.357    0.151  200.393   84.280
  524.750   10.668    0.331    0.124  201.446   79.343
  525.000   12.012    0.317    0.085  201.984   76.168
  525.250   13.286    0.304    0.036  203.037   75.612
  525.500   13.068    0.318    0.079  203.093   77.696
  525.750   11.538    0.340    0.117  202.667   80.941
  526.000   10.558    0.368    0.170  202.214   85.067
  526.250    9.322    0.414    0.155  202.284   92.126
  526.500    8.766    0.433    0.137  202.333   88.939
  526.750    8.623    0.376    0.096  201.901   82.832
