~VERSION INFORMATION
 VERS.                 2.0:   CWLS LOG ASCII STANDARD -VERSION 2.0
 WRAP.                  NO:   ONE LINE PER DEPTH STEP
~WELL INFORMATION BLOCK
#MNEM.UNIT           DATA                    DESCRIPTION OF MNEMONIC
#---------    -------------------            -------------------------------
# Generated from Intellog Unique Number	CW_79_81/WELL/2483
WELL.         TEXEX WABASCA                  : Well_name    - WELL
LOC .         00/11-10-081-25W4/0            : Location     - LOCATION
UWI .         00/11-10-081-25W4/0            : Uwi          - UNIQUE WELL ID
ENTR.         MAX                            : Entered      - ENTERED BY
SRVC.         WESTERN ATLAS                  : Scn          - SERVICE COMPANY
STRT.M        213.36                         : top_depth    - START DEPTH
STOP.M        469.11                         : bot_depth    - STOP DEPTH
STEP.M        0.25                           : increment    - STEP LENGTH
 NULL. -999.2500:NULL Value
~CURVE INFORMATION BLOCK
#MNEM UNIT       ERCB CURVE CODE    CURVE DESCRIPTION
#-----------   ------------------   ----------------------------------
DEPT.M        00 001 00 00         : DEPTH        - DEPTH
ILD .OHMM     00 120 00 00         : RESD         - DEEP RESISTIVITY (DIL)
NPHI.V/V      00 330 00 00         : PHIN         - NEUTRON POROSITY (SANDSTONE)
DPHI.V/V      00 890 00 00         : PHID         - DENSITY POROSITY (SANDSTONE)
GR  .API      00 310 00 00         : GR           - GAMMA RAY
CALI.MM       00 280 01 00         : CAL          - CALIPER
~PARAMETER INFORMATION
#MNEM.UNIT           DATA             DESCRIPTION OF MNEMONIC
#---------         -----------     ------------------------------
GL  .M        595.884              : gl           - GROUND LEVEL ELEVATION
EREF.M        599.542              : kb           - ELEVATION OF DEPTH REFERENCE
DATM.M        595.884              : datum        - DATUM ELEVATION
TDD .M        466.039              : tdd          - TOTAL DEPTH DRILLER
RUN .         ONE                  : Run          - RUN NUMBER
ENG .         BILL                 : Engineer     - RECORDING ENGINEER
WIT .         JIM                  : Witness      - WITNESSED BY
MUD .         GEL                  : Mud_type     - MUD TYPE
MATR.         SANDSTONE            : Logunit      - NEUTRON MATRIX
TMAX.C        27.2222              : BHT          - MAXIMUM RECORDED TEMPERATURE
BHTD.M        466.039              : BHTDEP       - MAXIMUM RECORDED TEMPERATURE
MATR.         1                    : LOGUNIT      - NEUTRON MATRIX
RMT .C        12.2222              : MDTP         - TEMPERATURE OF MUD
NEUT.         1                    : NEUTRON      - NEUTRON TYPE
RESI.         0                    : RESIST       - RESISTIVITY TYPE
RMC .OHMM     10                   : RMC          - RESISTIVITY OF MUD CAKE
RMF .OHMM     10                   : RMF          - RESISTIVITY OF MUD FILTRATE
SUFT.C        -20.5556             : SUFT         - SURFACE TEMPERATURE
~A  DEPTH     RESD     PHIN     PHID       GR      CAL
# ...
  359.360   10.302    0.402    0.314   49.580  200.473
  359.610   10.483    0.398    0.318   48.510  202.256
  359.860   11.079    0.389    0.312   48.147  202.940
  360.110   11.925    0.374    0.292   48.020  203.322
  360.360   12.014    0.361    0.281   50.960  203.307
  360.610   11.841    0.370    0.242   52.602  203.691
  360.860   11.608    0.381    0.218   50.707  204.075
  361.110   11.153    0.381    0.223   48.930  204.261
  361.360   10.573    0.371    0.247   49.157  204.246
  361.610    9.990    0.355    0.257   52.045  204.146
  361.860    9.344    0.337    0.257   54.738  203.716
  362.110    8.629    0.323    0.260   56.382  203.701
  362.360    8.061    0.309    0.262   59.440  203.985
  362.610    7.585    0.295    0.265   61.673  204.171
  362.860    7.270    0.282    0.270   61.665  204.256
  363.110    7.354    0.262    0.279   58.726  204.555
  363.360    7.808    0.240    0.288   58.225  204.124
  363.610    8.265    0.226    0.291   56.802  203.711
  363.860    8.795    0.214    0.280   54.316  203.297
  364.110    9.380    0.203    0.211   51.595  203.083
  364.360   10.090    0.195    0.113   48.992  203.069
  364.610   11.281    0.208    0.082   46.141  203.133
  364.860   11.888    0.275    0.053   44.903  203.535
  365.110   11.717    0.327    0.111   45.838  203.122
  365.360   11.177    0.343    0.179   49.958  202.709
  365.610   10.197    0.343    0.238   54.903  201.695
  365.860    9.178    0.341    0.273   58.019  200.080
  366.110    8.569    0.342    0.270   56.505  198.216
  366.360    8.379    0.347    0.268   57.233  196.956
  366.610    8.621    0.347    0.265   61.707  196.142
  366.860    8.590    0.347    0.259   60.697  195.927
  367.110    8.345    0.345    0.253   58.211  196.113
  367.360    7.964    0.342    0.248   56.728  196.898
  367.610    7.534    0.340    0.248   57.091  199.460
  367.860    7.589    0.341    0.247   56.590  202.356
  368.110    8.320    0.343    0.234   55.168  203.543
  368.360    9.220    0.341    0.217   53.921  203.828
  368.610    9.924    0.341    0.197   50.846  203.814
  368.860   10.046    0.345    0.179   47.063  203.400
  369.110    9.314    0.355    0.182   47.898  201.451
  369.360    8.522    0.367    0.223   53.295  199.772
  369.610    7.927    0.365    0.235   55.644  198.960
  369.860    7.749    0.356    0.238   56.049  198.146
  370.110    7.665    0.347    0.238   56.041  197.732
  370.360    7.542    0.343    0.239   56.268  197.618
  370.610    7.348    0.346    0.239   56.542  197.199
  370.860    7.185    0.344    0.237   56.779  197.185
  371.110    7.082    0.336    0.228   54.649  196.372
  371.360    7.056    0.327    0.229   51.633  195.859
  371.610    7.056    0.323    0.230   52.096  195.446
  371.860    7.055    0.326    0.228   55.566  195.132
  372.110    7.044    0.335    0.227   56.980  195.614
  372.360    6.991    0.345    0.226   58.200  198.095
  372.610    6.940    0.346    0.221   57.013  200.078
  372.860    6.890    0.345    0.217   56.886  201.160
  373.110    6.865    0.341    0.207   56.877  201.744
  373.360    6.864    0.337    0.198   56.515  202.231
  373.610    6.854    0.331    0.205   55.797  203.095
  373.860    6.802    0.326    0.238   55.787  203.497
  374.110    6.753    0.322    0.252   56.488  203.881
  374.360    6.632    0.322    0.254   57.187  203.967
  374.610    6.538    0.326    0.250   56.824  203.953
  374.860    6.514    0.332    0.241   56.521  203.938
  375.110    6.627    0.336    0.221   59.971  203.920
  375.360    6.984    0.337    0.215   61.926  203.905
  375.610    7.982    0.336    0.207   59.088  203.090
  375.860    9.364    0.334    0.215   58.725  201.678
  376.110   10.981    0.331    0.242   57.420  200.266
  376.360   12.589    0.327    0.277   55.053  198.855
  376.610   14.118    0.320    0.293   54.806  196.674
  376.860   14.546    0.313    0.302   54.797  195.828
  377.110   14.133    0.302    0.301   55.732  195.814
  377.360   13.657    0.292    0.290   56.314  197.595
  377.610   14.220    0.284    0.208   54.420  199.778
  377.860   15.759    0.284    0.098   50.283  201.461
  378.110   16.161    0.300    0.112   46.793  202.241
  378.360   15.341    0.314    0.127   48.258  202.229
  378.610   13.657    0.333    0.108   49.430  202.211
  378.860   11.217    0.342    0.177   50.424  201.898
  379.110    9.195    0.344    0.232   53.127  201.485
  379.360    7.975    0.343    0.241   56.775  201.271
  379.610    7.707    0.339    0.250   57.550  201.737
  379.860    7.764    0.333    0.250   55.577  202.138
  380.110    8.276    0.323    0.248   54.860  201.325
  380.360    9.472    0.311    0.232   54.143  200.511
  380.610   11.027    0.304    0.210   52.838  199.898
  380.860   12.529    0.307    0.192   51.415  199.384
  381.110   13.682    0.326    0.199   51.797  198.483
  381.360   13.280    0.344    0.215   53.754  198.055
  381.610   11.735    0.364    0.208   53.982  197.639
  381.860   10.616    0.374    0.203   52.971  197.824
  382.110    9.893    0.376    0.205   52.489  198.010
  382.360    9.497    0.370    0.211   53.128  197.997
  382.610    9.318    0.360    0.220   54.593  197.896
  382.860    9.112    0.356    0.224   56.060  197.465
  383.110    8.601    0.357    0.221   56.995  197.449
  383.360    8.299    0.360    0.213   55.984  197.733
  383.610    8.153    0.363    0.207   54.559  197.918
  383.860    8.123    0.362    0.204   54.019  197.905
  384.110    8.205    0.352    0.203   55.621  197.970
  384.360    8.327    0.341    0.214   56.593  198.374
  384.610    8.327    0.338    0.214   58.473  198.757
  384.860    8.237    0.338    0.213   58.938  199.441
  385.110    8.119    0.340    0.217   58.929  200.425
  385.360    8.032    0.343    0.223   59.333  201.408
  385.610    8.031    0.346    0.226   60.924  201.708
  385.860    8.030    0.347    0.228   60.671  201.277
  386.110    7.972    0.350    0.230   57.832  200.464
  386.360    7.872    0.354    0.232   58.177  200.549
  386.610    7.759    0.357    0.231   59.112  201.334
  386.860    7.649    0.359    0.227   59.281  202.617
  387.110    7.528    0.354    0.223   58.660  204.446
  387.360    7.471    0.340    0.223   59.141  205.682
  387.610    7.311    0.327    0.226   58.897  205.668
  387.860    7.350    0.315    0.223   58.831  205.054
  388.110    7.587    0.307    0.222   58.352  203.842
  388.360    8.005    0.304    0.226   57.164  202.329
  388.610    8.759    0.303    0.238   54.824  200.946
  388.860   10.035    0.302    0.255   52.603  200.101
  389.110   11.549    0.301    0.281   51.652  199.287
  389.360   12.782    0.299    0.287   51.761  199.072
  389.610   13.504    0.296    0.282   51.753  199.456
  389.860   13.497    0.289    0.268   51.449  200.440
  390.110   12.564    0.277    0.240   51.527  202.270
  390.360   12.104    0.259    0.265   50.781  203.503
  390.610   12.104    0.245    0.274   49.358  203.490
  390.860   12.560    0.222    0.251   49.172  203.475
  391.110   13.611    0.186    0.219   48.692  203.461
  391.360   15.177    0.145    0.189   47.504  203.448
  391.610   16.816    0.126    0.159   46.265  203.430
  391.860   18.265    0.122    0.126   46.012  203.415
  392.110   19.884    0.119    0.083   46.001  203.000
  392.360   21.213    0.116    0.059   45.286  202.587
  392.610   22.308    0.113    0.049   44.688  201.974
  392.860   23.168    0.109    0.044   44.325  201.259
  393.110   23.670    0.104    0.037   43.559  200.676
  393.360   23.668    0.099    0.031   43.305  199.830
  393.610   24.351    0.092    0.027   42.824  199.815
  393.860   25.322    0.086    0.027   42.521  200.100
  394.110   26.064    0.087    0.033   42.395  200.485
  394.360   26.297    0.094    0.041   42.385  201.067
  394.610   25.869    0.141    0.046   42.473  202.498
  394.860   24.739    0.302    0.039   42.957  203.732
  395.110   21.541    0.330    0.062   44.363  204.917
  395.360   18.561    0.345    0.148   47.008  206.399
  395.610   15.198    0.351    0.201   50.536  207.383
