~VERSION INFORMATION
 VERS.                 2.0:   CWLS LOG ASCII STANDARD -VERSION 2.0
 WRAP.                  NO:   ONE LINE PER DEPTH STEP
~WELL INFORMATION BLOCK
#MNEM.UNIT           DATA                    DESCRIPTION OF MNEMONIC
#---------    -------------------            -------------------------------
# Generated from Intellog Unique Number	CN_91_93/WELL/2707
WELL.         10-14-091-20W4                 : Well_name    - WELL
LOC .         00/10-14-091-20W4/0            : Location     - LOCATION
UWI .         00/10-14-091-20W4/0            : Uwi          - UNIQUE WELL ID
ENTR.         JOETTE                         : Entered      - ENTERED BY
SRVC.         SCHLUMBERGER                   : Scn          - SERVICE COMPANY
DATE.         02/09/92                       : Date         - LOG DATE
STRT.F        230                            : top_depth    - START DEPTH
STOP.F        759.856                        : bot_depth    - STOP DEPTH
STEP.F        0.82                           : increment    - STEP LENGTH
 NULL. -999.2500:NULL Value
~CURVE INFORMATION BLOCK
#MNEM UNIT       ERCB CURVE CODE    CURVE DESCRIPTION
#-----------   ------------------   ----------------------------------
DEPT.F        00 001 00 00         : DEPTH        - DEPTH
GR  .API      00 310 00 00         : GR           - GAMMA RAY
CALI.IN       00 280 01 00         : CAL          - CALIPER
NPHI.V/V      00 330 00 00         : PHIN         - NEUTRON POROSITY (SANDSTONE)
DPHI.V/V      00 890 00 00         : PHID         - DENSITY POROSITY (SANDSTONE)
ILD .OHMM     00 120 00 00         : RESD         - DEEP RESISTIVITY (DIL)
~PARAMETER INFORMATION
#MNEM.UNIT           DATA             DESCRIPTION OF MNEMONIC
#---------         -----------     ------------------------------
GL  .M        508.102              : gl           - GROUND LEVEL ELEVATION
EREF.M        508.559              : kb           - ELEVATION OF DEPTH REFERENCE
DATM.M        508.559              : datum        - DATUM ELEVATION
TDD .M        234.696              : tdd          - TOTAL DEPTH DRILLER
RUN .         ONE                  : Run          - RUN NUMBER
ENG .         BILL                 : Engineer     - RECORDING ENGINEER
WIT .         JIM                  : Witness      - WITNESSED BY
MUD .         GEL                  : Mud_type     - MUD TYPE
MATR.         SANDSTONE            : Logunit      - NEUTRON MATRIX
TMAX.F        60                   : BHT          - MAXIMUM RECORDED TEMPERATURE
BHTD.F        770                  : BHTDEP       - MAXIMUM RECORDED TEMPERATURE
RMT .F        77                   : MDTP         - TEMPERATURE OF MUD
MUDD.LB/G     9.66666              : MWT          - MUD DENSITY
NEUT.         1                    : NEUTRON      - NEUTRON TYPE
RESI.         0                    : RESIST       - RESISTIVITY TYPE
RM  .OHMM     4.5                  : RM           - RESISTIVITY OF MUD
RMC .OHMM     4.5                  : RMC          - RESISTIVITY OF MUD CAKE
RMF .OHMM     4.5                  : RMF          - RESISTIVITY OF MUD FILTRATE
SUFT.F        39.2                 : SUFT         - SURFACE TEMPERATURE
~A  DEPTH       GR      CAL     PHIN     PHID     RESD
# ...
  349.751  102.140    8.781    0.540    0.242    5.438
  350.571   99.035    8.781    0.512    0.243    5.341
  351.391   97.797    8.740    0.504    0.233    5.062
  352.211   97.803    8.637    0.511    0.249    4.628
  353.031  104.967    8.575    0.538    0.257    4.193
  353.852  109.019    8.534    0.532    0.257    3.903
  354.672  106.536    8.535    0.533    0.274    3.869
  355.492  118.057    8.556    0.543    0.295    4.082
  356.312  108.418    8.556    0.551    0.295    4.505
  357.133  100.334    8.578    0.516    0.308    5.738
  357.953   89.451    8.599    0.502    0.317    8.664
  358.773   78.567    8.599    0.498    0.336   10.365
  359.593   70.795    8.620    0.503    0.362   12.399
  360.413   60.533    8.600    0.497    0.368   11.963
  361.234   61.785    8.580    0.464    0.319    7.993
  362.054   72.371    8.539    0.452    0.297    6.988
  362.874   90.737    8.456    0.501    0.277    6.220
  363.694   98.834    8.457    0.518    0.271    5.738
  364.514  102.264    8.623    0.524    0.273    5.389
  365.335   94.181    8.769    0.513    0.247    5.536
  366.155   98.855    8.811    0.511    0.246    5.738
  366.975   99.489    8.811    0.504    0.259    5.738
  367.795  101.358    8.749    0.463    0.263    5.389
  368.615   96.698    8.688    0.483    0.249    5.199
  369.436  109.462    8.626    0.533    0.259    5.107
  370.256  104.802    8.626    0.573    0.253    5.293
  371.076  108.232    8.710    0.529    0.244    6.926
  371.896  105.438    8.876    0.535    0.262    8.065
  372.717  101.089    8.980    0.516    0.285    8.587
  373.537   93.627    8.898    0.506    0.290    8.664
  374.357   69.676    8.691    0.457    0.298    8.742
  375.177   63.459    8.505    0.438    0.298    9.225
  375.997   70.934    8.443    0.477    0.263   11.235
  376.818   76.231    8.423    0.529    0.193   12.737
  377.638   77.171    8.444    0.499    0.118   15.236
  378.458   67.532    8.465    0.333    0.121   17.118
  379.278   48.869    8.465    0.336    0.164   18.723
  380.098   46.388    8.466    0.420    0.323   18.723
  380.919   48.261    8.383    0.494    0.312   16.966
  381.739   54.491    8.363    0.468    0.307   15.792
  382.559   60.100    8.447    0.448    0.304   14.832
  383.379   58.550    8.468    0.445    0.313   14.439
  384.199   54.824    8.427    0.459    0.290   14.569
  385.020   57.009    8.427    0.454    0.261   14.966
  385.840   60.749    8.428    0.438    0.245   15.373
  386.660   63.556    8.428    0.446    0.212   15.651
  387.480   63.563    8.429    0.448    0.237   15.651
  388.301   62.015    8.450    0.464    0.331   14.182
  389.121   65.446    8.471    0.483    0.296   12.179
  389.941   64.828    8.492    0.495    0.261   10.272
  390.761   62.657    8.534    0.482    0.237    9.143
  391.581   65.465    8.618    0.521    0.229    9.061
  392.402   73.873    8.680    0.565    0.248    9.911
  393.222   84.148    8.660    0.535    0.193    9.911
  394.042   76.687    8.598    0.488    0.173    7.851
  394.862   70.472    8.495    0.450    0.156    7.243
  395.682   81.992    8.392    0.403    0.192    4.927
  396.503   90.400    8.330    0.486    0.238    4.754
  397.323  100.674    8.372    0.540    0.240    4.386
  398.143  110.016    8.704    0.568    0.242    4.082
  398.963  112.513    8.891    0.568    0.249    3.974
  399.783  108.476    8.913    0.574    0.223    3.938
  400.604  106.303    8.872    0.546    0.215    3.903
  401.424  114.400    8.810    0.529    0.237    3.974
  402.244  123.119    8.810    0.532    0.246    3.974
  403.064  122.504    8.811    0.541    0.246    4.156
  403.885  119.399    8.832    0.543    0.242    4.465
  404.705  119.406    8.874    0.522    0.218    4.797
  405.525  118.169    8.875    0.509    0.217    4.972
  406.345  114.442    8.896    0.499    0.233    5.016
  407.165  105.736    8.896    0.499    0.246    4.972
  407.986  105.432    8.897    0.526    0.241    4.927
  408.806  112.907    8.876    0.537    0.240    4.927
  409.626  117.582    8.876    0.544    0.237    5.016
  410.446  108.564    8.836    0.536    0.238    5.246
  411.266  100.482    8.774    0.533    0.243    5.586
  412.087  108.268    8.754    0.549    0.225    7.178
  412.907  110.452    8.775    0.557    0.221    9.822
  413.727   99.569    8.817    0.534    0.227    9.822
  414.547   92.418    8.838    0.510    0.213   11.438
  415.367   84.025    8.797    0.514    0.202   12.399
  416.188   76.875    8.652    0.446    0.177   14.056
  417.008   73.148    8.424    0.426    0.161   13.440
  417.828   68.798    8.342    0.374    0.149   12.511
  418.648   70.984    8.363    0.443    0.202   10.458
  419.469   78.148    8.467    0.486    0.251    9.392
  420.289   86.245    8.571    0.493    0.227    8.511
  421.109   90.607    8.676    0.494    0.169    8.981
  421.929   83.458    8.697    0.520    0.124    8.981
  422.749   70.707    8.635    0.500    0.102    9.392
  423.570   64.179    8.656    0.373    0.072    9.562
  424.390   76.944    8.656    0.345    0.083    6.276
  425.210   94.376    8.699    0.409    0.112    5.487
  426.030  101.539    8.699    0.568    0.203    4.797
  426.850  122.082    8.762    0.585    0.185    4.546
  427.671  127.070    8.783    0.540    0.146    4.465
  428.491  126.141    8.783    0.500    0.127    4.546
  429.311  118.371    8.784    0.520    0.143    4.308
  430.131  119.932    8.784    0.534    0.162    4.082
  430.951  121.495    8.785    0.569    0.189    3.699
  431.772  121.190    8.806    0.592    0.205    3.505
  432.592  120.265    8.806    0.593    0.215    3.205
  433.412  116.848    8.807    0.579    0.219    3.010
  434.232  112.187    8.807    0.562    0.233    2.904
  435.052  113.129    8.850    0.558    0.255    2.853
  435.873  111.579    8.871    0.555    0.257    3.263
  436.693  119.366    8.871    0.579    0.262    3.800
  437.513  120.306    8.913    0.584    0.259    4.797
  438.333  115.334    8.934    0.558    0.231    5.947
  439.154  110.673    8.914    0.476    0.230    7.114
  439.974  109.437    8.894    0.448    0.204    8.664
  440.794  107.265    8.832    0.465    0.203   10.647
  441.614  102.915    8.770    0.470    0.189   11.235
  442.434   94.521    8.708    0.452    0.166   11.963
  443.255   89.239    8.667    0.435    0.175   12.288
  444.075   87.378    8.689    0.424    0.140   10.365
  444.895   87.698    8.731    0.407    0.131   10.000
  445.715   86.770    8.793    0.406    0.143    9.822
  446.535   85.844    8.814    0.416    0.160   10.552
  447.356   93.631    8.732    0.415    0.177   11.135
  448.176   94.881    8.608    0.429    0.182   11.336
  448.996   94.266    8.712    0.460    0.207   10.365
  449.816   88.983    8.650    0.401    0.204    9.225
  450.636   85.255    8.547    0.382    0.177    8.138
  451.457   88.374    8.734    0.407    0.175    7.507
  452.277   94.293    8.942    0.422    0.207    7.308
  453.097   97.100    8.943    0.438    0.208    8.138
  453.917  100.219    8.902    0.455    0.216    9.735
  454.738  104.273    8.902    0.458    0.215   10.365
  455.558  103.034    8.903    0.471    0.219   13.931
  456.378   88.105    8.841    0.479    0.219   14.439
  457.198   79.399    8.634    0.505    0.213   15.651
  458.018   72.560    8.572    0.414    0.198   16.966
  458.839   65.099    8.531    0.395    0.252   17.585
  459.659   63.241    8.490    0.401    0.245   18.390
  460.479   68.536    8.470    0.428    0.219   22.802
  461.299   68.543    8.449    0.406    0.242   24.497
  462.119   63.883    8.450    0.385    0.259   24.717
  462.940   59.223    8.492    0.383    0.190   18.556
  463.760   59.540    8.513    0.364    0.158   11.541
  464.580   67.327    8.534    0.292    0.163    8.981
  465.400   68.889    8.555    0.301    0.154    7.440
  466.220   86.010    8.618    0.328    0.189    6.055
  467.041   96.907    8.681    0.361    0.207    5.438
  467.861  102.205    8.723    0.507    0.195    5.790
  468.681   99.410    8.744    0.525    0.150    6.563
