~VERSION INFORMATION
 VERS.                 2.0:   CWLS LOG ASCII STANDARD -VERSION 2.0
 WRAP.                  NO:   ONE LINE PER DEPTH STEP
~WELL INFORMATION BLOCK
#MNEM.UNIT           DATA                    DESCRIPTION OF MNEMONIC
#---------    -------------------            -------------------------------
# Generated from Intellog Unique Number	CS_77_79/WELL/986
WELL.         PCI PCEJ LEISMER               : Well_name    - WELL
LOC .         00/11-03-079-07W4/0            : Location     - LOCATION
UWI .         00/11-03-079-07W4/0            : Uwi          - UNIQUE WELL ID
ENTR.         JHS                            : Entered      - ENTERED BY
SRVC.         SCHLUMBERGER                   : Scn          - SERVICE COMPANY
STRT.M        125                            : top_depth    - START DEPTH
STOP.M        355                            : bot_depth    - STOP DEPTH
STEP.M        0.25                           : increment    - STEP LENGTH
 NULL. -999.2500:NULL Value
~CURVE INFORMATION BLOCK
#MNEM UNIT       ERCB CURVE CODE    CURVE DESCRIPTION
#-----------   ------------------   ----------------------------------
DEPT.M        00 001 00 00         : DEPTH        - DEPTH
DPHI.V/V      00 890 00 00         : PHID         - DENSITY POROSITY (LIMESTONE)
NPHI.V/V      00 330 00 00         : PHIN         - NEUTRON POROSITY (LIMESTONE)
GR  .API      00 310 00 00         : GR           - GAMMA RAY
ILD .OHMM     00 120 00 00         : RESD         - DEEP RESISTIVITY (DIL)
RHOB.KG/M3    00 350 00 00         : DENS         - BULK DENSITY
~PARAMETER INFORMATION
#MNEM.UNIT           DATA             DESCRIPTION OF MNEMONIC
#---------         -----------     ------------------------------
GL  .M        554.2                : gl           - GROUND LEVEL ELEVATION
EREF.M        557.3                : kb           - ELEVATION OF DEPTH REFERENCE
DATM.M        557.3                : datum        - DATUM ELEVATION
TDD .M        361                  : tdd          - TOTAL DEPTH DRILLER
RUN .         ONE                  : Run          - RUN NUMBER
ENG .         BILL                 : Engineer     - RECORDING ENGINEER
WIT .         JIM                  : Witness      - WITNESSED BY
MUD .         GEL                  : Mud_type     - MUD TYPE
MATR.         LIMESTONE            : Logunit      - NEUTRON MATRIX
TMAX.C        24                   : BHT          - MAXIMUM RECORDED TEMPERATURE
BHTD.M        361                  : BHTDEP       - MAXIMUM RECORDED TEMPERATURE
MATR.         1                    : LOGUNIT      - NEUTRON MATRIX
RMT .C        25                   : MDTP         - TEMPERATURE OF MUD
NEUT.         1                    : NEUTRON      - NEUTRON TYPE
RESI.         0                    : RESIST       - RESISTIVITY TYPE
RMC .OHMM     0.25                 : RMC          - RESISTIVITY OF MUD CAKE
RMF .OHMM     0.25                 : RMF          - RESISTIVITY OF MUD FILTRATE
SUFT.C        15                   : SUFT         - SURFACE TEMPERATURE
~A  DEPTH     PHID     PHIN       GR     RESD     DENS
# ...
  307.500    0.327    0.405   53.875   29.726 2151.120
  307.750    0.328    0.411   55.754   35.224 2149.140
  308.000    0.332    0.419   63.167   37.979 2142.950
  308.250    0.332    0.406   68.731   33.907 2143.050
  308.500    0.338    0.424   55.852   29.707 2132.680
  308.750    0.351    0.442   44.822   25.062 2109.700
  309.000    0.351    0.423   43.624   23.235 2109.840
  309.250    0.334    0.416   54.107   25.052 2139.310
  309.500    0.315    0.416   55.372   31.415 2170.890
  309.750    0.319    0.437   36.346   40.145 2164.700
  310.000    0.349    0.475   32.074   56.377 2112.380
  310.250    0.356    0.476   30.265   64.328 2102.010
  310.500    0.357    0.444   33.379   60.776 2100.030
  310.750    0.359    0.411   38.941   50.315 2095.940
  311.000    0.361    0.413   45.117   40.110 2091.880
  311.250    0.357    0.436   51.300   36.492 2100.350
  311.500    0.339    0.448   56.870   36.485 2129.860
  311.750    0.328    0.426   61.818   37.881 2148.850
  312.000    0.322    0.431   66.769   42.417 2159.450
  312.250    0.339    0.429   46.516   48.402 2130.190
  312.500    0.360    0.425   39.173   56.281 2094.630
  312.750    0.370    0.435   33.061   61.838 2077.960
  313.000    0.371    0.452   33.706   56.260 2076.010
  313.250    0.376    0.458   36.196   44.852 2067.710
  313.500    0.363    0.438   42.379   33.156 2088.800
  313.750    0.330    0.410   56.556   24.052 2145.550
  314.000    0.312    0.429   62.120   18.814 2177.140
  314.250    0.307    0.450   64.616   18.812 2185.660
  314.500    0.289    0.421   72.639   21.465 2215.150
  314.750    0.294    0.434   72.059   26.916 2206.880
  315.000    0.314    0.451   54.260   35.719 2173.420
  315.250    0.339    0.452   40.771   48.302 2129.470
  315.500    0.354    0.460   36.503   50.152 2104.400
  315.750    0.365    0.458   37.767   30.124 2085.680
  316.000    0.366    0.429   45.792   23.125 2083.660
  316.250    0.353    0.408   58.114   19.144 2106.830
  316.500    0.301    0.418   73.520   18.087 2195.060
  316.750    0.290    0.507   76.626   18.084 2214.060
  317.000    0.322    0.500   53.911   19.135 2159.630
  317.250    0.344    0.458   47.798   21.425 2122.000
  317.500    0.332    0.443   48.444   24.913 2143.090
  317.750    0.319    0.457   58.934   26.861 2164.180
  318.000    0.325    0.464   64.495   25.379 2153.820
  318.250    0.335    0.443   61.465   22.658 2137.120
  318.500    0.371    0.412   58.422   19.115 2076.400
  318.750    0.389    0.397   59.062   16.747 2045.040
  319.000    0.345    0.435   66.477   14.951 2120.680
  319.250    0.288    0.457   73.889   13.348 2217.300
  319.500    0.260    0.435   79.454   13.600 2265.680
  319.750    0.282    0.467   70.263   15.814 2228.020
  320.000    0.328    0.488   48.789   18.739 2148.410
  320.250    0.338    0.462   48.196   21.382 2131.750
  320.500    0.337    0.455   53.766   23.493 2133.960
  320.750    0.320    0.446   62.408   21.782 2163.450
  321.000    0.279    0.425   71.046   19.446 2232.790
  321.250    0.264    0.425   77.839   20.575 2258.080
  321.500    0.283    0.446   76.038   22.186 2226.720
  321.750    0.351    0.454   63.153   25.797 2109.350
  322.000    0.355    0.428   51.512   30.567 2103.180
  322.250    0.349    0.414   48.464   36.219 2113.790
  322.500    0.355    0.430   47.885   39.798 2103.400
  322.750    0.369    0.476   43.611   46.277 2078.380
  323.000    0.371    0.476   38.113   55.879 2076.390
  323.250    0.368    0.449   38.759   70.070 2080.670
  323.500    0.364    0.433   49.865   89.538 2087.080
  323.750    0.363    0.421   58.503  106.100 2089.290
  324.000    0.370    0.432   60.996  125.719 2076.810
  324.250    0.381    0.450   53.651  143.447 2058.070
  324.500    0.381    0.450   44.468  163.684 2058.160
  324.750    0.368    0.444   46.348  186.770 2081.390
  325.000    0.365    0.446   50.075  209.128 2085.670
  325.250    0.365    0.448   51.941  225.493 2085.780
  325.500    0.354    0.448   51.980  213.045 2104.790
  325.750    0.349    0.432   51.390  160.490 2113.310
  326.000    0.350    0.421   50.818   98.235 2111.300
  326.250    0.345    0.430   55.763   67.338 2119.800
  326.500    0.324    0.431   65.016   49.779 2155.580
  326.750    0.312    0.424   68.132   44.442 2176.670
  327.000    0.308    0.432   65.701   47.919 2183.100
  327.250    0.319    0.470   54.048   61.233 2164.310
  327.500    0.378    0.490   43.630   82.805 2063.730
  327.750    0.375    0.460   30.761  111.974 2068.080
  328.000    0.370    0.422   32.633  137.788 2076.560
  328.250    0.362    0.418   32.664  154.284 2091.340
  328.500    0.363    0.457   30.854  140.364 2089.370
  328.750    0.375    0.470   29.667  137.711 2068.520
  329.000    0.381    0.462   30.309  145.705 2058.120
  329.250    0.386    0.450   32.798  151.296 2049.860
  329.500    0.385    0.455   36.521  169.400 2052.050
  329.750    0.374    0.453   34.096  179.238 2071.060
  330.000    0.378    0.435   27.981  172.572 2062.770
  330.250    0.367    0.446   20.642  151.193 2081.770
  330.500    0.350    0.454   22.523  129.977 2111.260
  330.750    0.356    0.462   25.620  122.806 2100.870
  331.000    0.377    0.436   27.503  109.638 2065.330
  331.250    0.383    0.432   27.532   99.749 2054.960
  331.500    0.385    0.438   28.189   87.388 2050.880
  331.750    0.409    0.430   29.442   82.564 2011.130
  332.000    0.423    0.448   30.712   87.359 1986.070
  332.250    0.412    0.499   30.128   90.703 2005.070
  332.500    0.394    0.498   27.711   88.995 2036.640
  332.750    0.385    0.469   28.363   84.081 2051.470
  333.000    0.397    0.448   29.612   76.496 2030.580
  333.250    0.425    0.433   32.722   70.922 1982.430
  333.500    0.430    0.542   33.376   67.006 1974.160
  333.750    0.408    0.525   32.787   64.512 2012.040
  334.000    0.375    0.447   32.202   64.502 2068.790
  334.250    0.356    0.407   31.004   63.285 2100.390
  334.500    0.358    0.415   30.427   58.673 2098.410
  334.750    0.349    0.442   32.917   49.500 2113.200
  335.000    0.318    0.381   40.328   30.876 2165.760
  335.250    0.229    0.329   61.265   14.239 2319.030
  335.500    0.189    0.346   80.358    9.947 2386.290
  335.750    0.171    0.422   92.078    8.880 2417.870
  336.000    0.168    0.411   92.102    8.550 2422.180
  336.250    0.182    0.380   85.373    8.232 2399.240
  336.500    0.196    0.377   82.332    8.387 2374.160
  336.750    0.216    0.413   88.520    9.043 2340.690
  337.000    0.247    0.448   87.319    9.937 2288.360
  337.250    0.293    0.469   54.154   12.697 2208.750
  337.500    0.320    0.433   38.816   22.790 2162.720
  337.750    0.331    0.408   24.713   40.903 2143.940
  338.000    0.341    0.389   23.514   73.414 2127.270
  338.250    0.348    0.382   24.164  103.096 2114.800
  338.500    0.353    0.395   24.205  113.278 2106.520
  338.750    0.318    0.411   23.614   97.385 2165.370
  339.000    0.306    0.396   25.494   76.185 2186.470
  339.250    0.310    0.397   30.442   53.219 2180.330
  339.500    0.317    0.421   35.403   46.625 2167.820
  339.750    0.334    0.400   34.812   44.051 2138.560
  340.000    0.350    0.400   27.472   44.881 2111.400
  340.250    0.322    0.409   23.826   49.314 2159.770
  340.500    0.312    0.384   25.086   53.173 2176.680
  340.750    0.329    0.371   26.962   55.210 2147.410
  341.000    0.357    0.385   28.838   52.161 2099.270
  341.250    0.368    0.479   30.095   47.456 2080.500
  341.500    0.356    0.447   30.128   47.449 2101.600
  341.750    0.350    0.422   28.332   49.263 2112.210
  342.000    0.348    0.419   26.517   51.150 2114.420
  342.250    0.342    0.426   25.328   53.110 2125.050
  342.500    0.344    0.412   24.729   54.112 2120.950
  342.750    0.344    0.402   24.763   54.104 2121.060
  343.000    0.342    0.404   23.580   54.092 2125.380
  343.250    0.331    0.406   22.989   53.072 2144.380
  343.500    0.323    0.403   23.633   51.099 2157.100
  343.750    0.326    0.388   26.745   48.276 2152.990
