~VERSION INFORMATION
 VERS.                 2.0:   CWLS LOG ASCII STANDARD -VERSION 2.0
 WRAP.                  NO:   ONE LINE PER DEPTH STEP
~WELL INFORMATION BLOCK
#MNEM.UNIT           DATA                    DESCRIPTION OF MNEMONIC
#---------    -------------------            -------------------------------
# Generated from Intellog Unique Number	CW_79_81/WELL/2466
WELL.         10-15-080-23W4                 : Well_name    - WELL
LOC .         00/10-15-080-23W4/0            : Location     - LOCATION
UWI .         00/10-15-080-23W4/0            : Uwi          - UNIQUE WELL ID
ENTR.         MAX                            : Entered      - ENTERED BY
SRVC.         SCHLUMBERGER                   : Scn          - SERVICE COMPANY
STRT.M        220                            : top_depth    - START DEPTH
STOP.M        464.75                         : bot_depth    - STOP DEPTH
STEP.M        0.25                           : increment    - STEP LENGTH
 NULL. -999.2500:NULL Value
~CURVE INFORMATION BLOCK
#MNEM UNIT       ERCB CURVE CODE    CURVE DESCRIPTION
#-----------   ------------------   ----------------------------------
DEPT.M        00 001 00 00         : DEPTH        - DEPTH
ILD .OHMM     00 120 00 00         : RESD         - DEEP RESISTIVITY (DIL)
NPHI.V/V      00 330 00 00         : PHIN         - NEUTRON POROSITY (SANDSTONE)
DPHI.V/V      00 890 00 00         : PHID         - DENSITY POROSITY (SANDSTONE)
GR  .API      00 310 00 00         : GR           - GAMMA RAY
CALI.MM       00 280 01 00         : CAL          - CALIPER
~PARAMETER INFORMATION
#MNEM.UNIT           DATA             DESCRIPTION OF MNEMONIC
#---------         -----------     ------------------------------
GL  .M        586.4                : gl           - GROUND LEVEL ELEVATION
EREF.M        590                  : kb           - ELEVATION OF DEPTH REFERENCE
DATM.M        586.4                : datum        - DATUM ELEVATION
TDD .M        469                  : tdd          - TOTAL DEPTH DRILLER
RUN .         ONE                  : Run          - RUN NUMBER
ENG .         BILL                 : Engineer     - RECORDING ENGINEER
WIT .         JIM                  : Witness      - WITNESSED BY
MUD .         GEL                  : Mud_type     - MUD TYPE
MATR.         SANDSTONE            : Logunit      - NEUTRON MATRIX
TMAX.C        23                   : BHT          - MAXIMUM RECORDED TEMPERATURE
BHTD.M        469                  : BHTDEP       - MAXIMUM RECORDED TEMPERATURE
MATR.         1                    : LOGUNIT      - NEUTRON MATRIX
RMT .C        17                   : MDTP         - TEMPERATURE OF MUD
NEUT.         1                    : NEUTRON      - NEUTRON TYPE
RESI.         0                    : RESIST       - RESISTIVITY TYPE
RMC .OHMM     6.73                 : RMC          - RESISTIVITY OF MUD CAKE
RMF .OHMM     6.46                 : RMF          - RESISTIVITY OF MUD FILTRATE
SUFT.C        -25                  : SUFT         - SURFACE TEMPERATURE
~A  DEPTH     RESD     PHIN     PHID       GR      CAL
# ...
  402.500   19.370    0.380    0.240   65.491  216.018
  402.750   20.269    0.385    0.260   64.362  216.059
  403.000   22.814    0.422    0.273   63.379  216.105
  403.250   27.557    0.438    0.249   61.004  216.153
  403.500   31.216    0.401    0.218   58.809  216.496
  403.750   32.243    0.353    0.178   58.233  216.738
  404.000   28.095    0.331    0.141   59.458  216.983
  404.250   18.992    0.374    0.140   61.914  218.088
  404.500   15.854    0.386    0.178   64.447  219.382
  404.750   14.952    0.376    0.213   69.760  219.826
  405.000   14.591    0.390    0.220   74.175  220.275
  405.250   14.501    0.410    0.216   77.567  221.319
  405.500   14.517    0.423    0.209   80.597  223.061
  405.750   14.535    0.424    0.202   83.515  225.122
  406.000   14.550    0.409    0.195   77.531  225.163
  406.250   14.568    0.394    0.197   72.025  225.207
  406.500   14.572    0.394    0.203   70.307  225.252
  406.750   14.640    0.401    0.200   70.094  225.294
  407.000   14.801    0.404    0.186   69.942  225.234
  407.250   14.998    0.386    0.167   69.303  224.720
  407.500   14.785    0.361    0.154   69.578  223.931
  407.750   14.689    0.384    0.183   70.564  222.769
  408.000   14.596    0.410    0.202   70.830  221.910
  408.250   14.557    0.418    0.204   69.533  221.153
  408.500   14.706    0.405    0.199   67.635  220.296
  408.750   15.514    0.385    0.215   67.758  218.813
  409.000   16.787    0.389    0.230   67.029  217.189
  409.250   18.616    0.370    0.201   62.247  215.622
  409.500   22.195    0.338    0.178   57.101  214.959
  409.750   26.831    0.310    0.154   52.320  214.602
  410.000   31.161    0.295    0.133   48.983  214.348
  410.250   33.596    0.295    0.124   49.029  214.480
  410.500   31.154    0.308    0.127   51.559  214.939
  410.750   25.019    0.326    0.168   55.432  216.590
  411.000   19.893    0.363    0.186   59.489  217.033
  411.250   16.915    0.389    0.191   62.401  217.073
  411.500   15.437    0.396    0.196   63.869  217.116
  411.750   14.697    0.394    0.212   65.575  217.178
  412.000   14.268    0.402    0.213   70.357  217.219
  412.250   13.865    0.384    0.213   68.700  216.858
  412.500   13.549    0.390    0.216   69.029  216.200
  412.750   13.315    0.396    0.219   71.101  215.641
  413.000   13.159    0.393    0.220   73.350  215.284
  413.250   13.080    0.393    0.217   72.646  215.027
  413.500   13.092    0.393    0.211   71.424  215.481
  413.750   13.011    0.392    0.201   71.211  216.322
  414.000   12.856    0.387    0.190   70.816  216.870
  414.250   12.681    0.381    0.178   70.480  217.515
  414.500   12.508    0.376    0.167   70.443  218.457
  414.750   12.302    0.379    0.160   71.158  219.710
  415.000   12.126    0.394    0.134   72.185  219.765
  415.250   12.050    0.402    0.119   74.135  218.193
  415.500   11.981    0.406    0.145   77.706  216.331
  415.750   11.906    0.410    0.172   83.383  215.979
  416.000   11.843    0.415    0.182   89.240  216.929
  416.250   11.812    0.418    0.184   90.404  216.974
  416.500   11.658    0.419    0.178   87.673  217.020
  416.750   11.496    0.422    0.179   81.449  216.663
  417.000   11.277    0.419    0.176   80.094  216.310
  417.250   11.082    0.416    0.164   80.361  216.154
  417.500   10.970    0.415    0.153   79.844  216.092
  417.750   10.983    0.409    0.156   77.138  215.656
  418.000   10.996    0.404    0.143   77.914  215.298
  418.250   11.256    0.403    0.139   76.260  214.928
  418.500   11.523    0.392    0.150   75.688  214.866
  418.750   11.750    0.379    0.166   77.397  215.309
  419.000   11.937    0.366    0.178   80.424  216.055
  419.250   12.188    0.357    0.182   81.105  216.346
  419.500   12.489    0.355    0.184   78.380  215.553
  419.750   12.502    0.361    0.180   76.724  214.791
  420.000   12.032    0.375    0.177   76.869  213.729
  420.250   11.214    0.394    0.181   80.982  212.571
  420.500   10.338    0.409    0.187   87.920  211.817
  420.750    9.673    0.401    0.184   93.741  212.354
  421.000    9.609    0.403    0.177   96.273  212.812
  421.250   10.353    0.383    0.165   88.366  212.852
  421.500   10.800    0.368    0.163   84.963  212.899
  421.750   11.137    0.369    0.166   85.950  213.143
  422.000   11.424    0.379    0.171   90.304  213.784
  422.250   11.594    0.372    0.176   96.108  215.037
  422.500   11.974    0.374    0.179   96.135  215.087
  422.750   12.618    0.380    0.178   91.591  214.326
  423.000   14.612    0.378    0.166   80.374  213.567
  423.250   17.610    0.362    0.115   71.745  212.808
  423.500   21.551    0.327    0.053   68.589  212.248
  423.750   28.314    0.282    0.072   67.666  212.300
  424.000   30.165    0.323    0.115   68.946  212.342
  424.250   26.368    0.340    0.151   71.855  212.386
  424.500   22.663    0.354    0.175   75.486  212.731
  424.750   19.978    0.362    0.187   78.517  212.975
  425.000   18.407    0.363    0.188   79.625  213.119
  425.250   17.848    0.365    0.181   77.241  213.569
  425.500   17.577    0.363    0.172   76.022  213.615
  425.750   16.953    0.368    0.169   76.527  213.655
  426.000   17.382    0.372    0.177   77.032  213.704
  426.250   18.772    0.369    0.196   72.846  213.348
  426.500   21.387    0.361    0.224   63.312  212.484
  426.750   26.980    0.359    0.263   50.498  211.335
  427.000   32.621    0.368    0.280   44.011  211.381
  427.250   37.493    0.355    0.286   38.024  211.425
  427.500   40.293    0.343    0.290   32.759  210.565
  427.750   41.108    0.334    0.291   28.698  209.402
  428.000   40.613    0.329    0.290   26.560  208.343
  428.250   39.048    0.332    0.282   27.614  207.603
  428.500   37.047    0.342    0.271   29.145  207.645
  428.750   34.934    0.353    0.276   29.409  207.680
  429.000   32.198    0.352    0.281   29.675  207.425
  429.250   28.080    0.347    0.283   29.821  207.271
  429.500   24.227    0.340    0.282   29.906  207.314
  429.750   21.758    0.333    0.282   30.378  207.281
  430.000   19.137    0.332    0.283   31.405  206.914
  430.250   18.046    0.337    0.282   33.841  206.958
  430.500   17.023    0.332    0.280   34.829  206.996
  430.750   16.185    0.328    0.281   34.371  207.234
  431.000   15.498    0.329    0.283   33.251  207.575
  431.250   14.730    0.337    0.283   33.443  207.629
  431.500   14.192    0.342    0.276   35.475  207.675
  431.750   13.999    0.349    0.267   37.906  207.715
  432.000   14.039    0.357    0.268   40.157  207.461
  432.250   14.262    0.365    0.275   42.108  207.106
  432.500   14.676    0.372    0.284   43.458  206.848
  432.750   15.439    0.375    0.285   44.127  206.811
  433.000   15.820    0.380    0.279   46.161  206.449
  433.250   15.953    0.368    0.269   50.993  206.484
  433.500   15.910    0.368    0.268   55.107  206.523
  433.750   15.632    0.379    0.265   57.659  206.364
  434.000   15.193    0.389    0.257   58.406  206.110
  434.250   14.678    0.377    0.245   57.965  206.253
  434.500   14.248    0.372    0.234   59.248  206.703
  434.750   13.845    0.362    0.170   61.917  207.954
  435.000   13.379    0.354    0.107   65.307  208.003
  435.250   12.610    0.344    0.090   68.099  207.844
  435.500   11.732    0.338    0.124   70.231  208.081
  435.750   11.087    0.350    0.169   72.307  209.099
  436.000   10.762    0.350    0.184   69.326  209.980
  436.250   10.458    0.354    0.191   67.429  209.632
  436.500   10.917    0.380    0.199   70.579  209.268
  436.750   12.249    0.399    0.229   70.124  209.105
  437.000   14.935    0.401    0.270   62.696  209.150
  437.250   21.452    0.387    0.265   50.222  209.203
  437.500   29.748    0.376    0.256   50.252  209.249
  437.750   32.991    0.370    0.243   52.440  208.087
  438.000   25.410    0.351    0.187   54.989  208.437
  438.250   20.225    0.328    0.142   59.343  209.283
  438.500   17.456    0.315    0.133   65.320  210.022
  438.750   14.560    0.334    0.162   72.475  210.392
