~VERSION INFORMATION
 VERS.                 2.0:   CWLS LOG ASCII STANDARD -VERSION 2.0
 WRAP.                  NO:   ONE LINE PER DEPTH STEP
~WELL INFORMATION BLOCK
#MNEM.UNIT           DATA                    DESCRIPTION OF MNEMONIC
#---------    -------------------            -------------------------------
# Generated from Intellog Unique Number	CW_73_75/WELL/3021
WELL.         SUNLITE CAEL MCMILLAN LK 11-02 : Well_name    - WELL
LOC .         00/11-02-074-19W4/0            : Location     - LOCATION
UWI .         00/11-02-074-19W4/0            : Uwi          - UNIQUE WELL ID
ENTR.         JJ                             : Entered      - ENTERED BY
SRVC.         SCHLUMBERGER                   : Scn          - SERVICE COMPANY
DATE.         16 FEB 72                      : Date         - LOG DATE
STRT.M        411.48                         : top_depth    - START DEPTH
STOP.M        539.48                         : bot_depth    - STOP DEPTH
STEP.M        0.25                           : increment    - STEP LENGTH
 NULL. -999.2500:NULL Value
~CURVE INFORMATION BLOCK
#MNEM UNIT       ERCB CURVE CODE    CURVE DESCRIPTION
#-----------   ------------------   ----------------------------------
DEPT.M        00 001 00 00         : DEPTH        - DEPTH
DELT.US/F     00 520 00 00         : DELT         - SONIC TRAVEL TIME
GR  .API      00 310 00 00         : GR           - GAMMA RAY
ILD .OHMM     00 120 00 00         : RESD         - DEEP RESISTIVITY (DIL)
~PARAMETER INFORMATION
#MNEM.UNIT           DATA             DESCRIPTION OF MNEMONIC
#---------         -----------     ------------------------------
GL  .M        619.658              : gl           - GROUND LEVEL ELEVATION
EREF.M        622.097              : kb           - ELEVATION OF DEPTH REFERENCE
DATM.M        619.658              : datum        - DATUM ELEVATION
TDD .M        548.64               : tdd          - TOTAL DEPTH DRILLER
RUN .         ONE                  : Run          - RUN NUMBER
ENG .         ANDERSON             : Engineer     - RECORDING ENGINEER
WIT .         THOMPSON             : Witness      - WITNESSED BY
BASE.         EDM                  : Branch       - HOME BASE OF LOGGING UNIT
MUD .         GEL                  : Mud_type     - MUD TYPE
MATR.         SANDSTONE            : Logunit      - NEUTRON MATRIX
TMAX.C        22.2222              : BHT          - MAXIMUM RECORDED TEMPERATURE
BHTD.M        548.03               : BHTDEP       - MAXIMUM RECORDED TEMPERATURE
RMT .C        15.5556              : MDTP         - TEMPERATURE OF MUD
MUDD.KG/M     1128                 : MWT          - MUD DENSITY
NEUT.         1                    : NEUTRON      - NEUTRON TYPE
RESI.         0                    : RESIST       - RESISTIVITY TYPE
RM  .OHMM     2.2                  : RM           - RESISTIVITY OF MUD
RMC .OHMM     0                    : RMC          - RESISTIVITY OF MUD CAKE
RMF .OHMM     1.9                  : RMF          - RESISTIVITY OF MUD FILTRATE
SUFT.C        5                    : SUFT         - SURFACE TEMPERATURE
~A  DEPTH     DELT       GR     RESD
# ...
  465.730  374.207  100.160    5.035
  465.980  386.712   98.094    4.838
  466.230  390.180   95.541    4.701
  466.480  384.215   94.996    4.618
  466.730  377.791   96.458    4.740
  466.980  373.530  100.657    4.855
  467.230  367.369  107.715    5.001
  467.480  360.029  111.732    5.086
  467.730  358.584   98.656    5.173
  467.980  369.190   88.074    5.242
  468.230  364.535   74.330    5.272
  468.480  357.391   72.386    5.313
  468.730  350.509   76.402    5.334
  468.980  368.780   81.027    5.307
  469.230  377.421   84.375    5.290
  469.480  369.753   85.593    5.351
  469.730  367.981   83.223    5.461
  469.980  368.303   76.900    5.697
  470.230  358.933   79.639    6.278
  470.480  344.585   84.142    6.525
  470.730  313.010   80.434    6.685
  470.980  344.052   83.295    6.436
  471.230  355.248   87.251    5.932
  471.480  359.043   92.667    5.827
  471.730  364.933   91.148    6.001
  471.980  353.204   91.028    6.388
  472.230  335.319   93.038    6.664
  472.480  348.611   89.390    6.753
  472.730  364.653   85.074    6.634
  472.980  366.156   85.563    6.410
  473.230  352.724   88.484    6.240
  473.480  352.785   88.730    6.209
  473.730  359.724   92.260    6.223
  473.980  364.500   98.588    6.248
  474.230  364.561  105.585    6.285
  474.480  366.260  111.062    6.322
  474.730  367.828  114.349    6.371
  474.980  369.526  114.716    6.443
  475.230  371.552  116.239    6.481
  475.480  371.745  110.523    6.483
  475.730  368.531  104.382    6.593
  475.980  362.960  103.593    6.693
  476.230  363.152  107.366    6.794
  476.480  371.793  100.069    6.986
  476.730  372.444  104.938    7.182
  476.980  365.234  110.293    7.370
  477.230  359.990  114.188    6.981
  477.480  356.842  117.353    6.340
  477.730  354.742  107.257    5.790
  477.980  352.248   88.160    5.505
  478.230  351.720   80.924    5.467
  478.480  357.479   86.340    5.479
  478.730  359.113   93.337    5.685
  478.980  355.178   97.962    5.953
  479.230  347.314  101.735    6.154
  479.480  348.096  103.927    6.201
  479.730  360.340   96.082    5.927
  479.980  358.436   95.902    5.171
  480.230  364.064   98.763    4.126
  480.480  361.440  101.624    3.204
  480.730  368.771   97.064    2.676
  480.980  395.360   98.770    2.352
  481.230  440.941  102.057    2.022
  481.480  438.186  105.161    1.919
  481.730  436.217  107.778    1.913
  481.980  434.576  107.477    1.970
  482.230  441.842  101.214    2.082
  482.480  452.776   96.654    2.273
  482.730  458.928   96.047    2.724
  482.980  432.725   98.361    3.205
  483.230  370.955  101.891    3.557
  483.480  349.336  101.650    3.992
  483.730  334.726  101.835    4.281
  483.980  361.248  102.688    4.482
  484.230  374.147  103.238    4.693
  484.480  386.784  101.233    4.941
  484.730  388.155   98.619    5.346
  484.980  366.274   91.931    6.032
  485.230  348.847   86.033    6.869
  485.480  338.821   81.533    8.127
  485.730  308.884   80.806    9.104
  485.980  262.441   86.039    9.814
  486.230  268.201   91.880   10.854
  486.480  293.348   91.883    9.751
  486.730  316.071   93.466    8.203
  486.980  322.682   97.544    7.028
  487.230  331.455   99.006    6.000
  487.480  342.324  104.969    5.370
  487.730  347.493  108.134    4.985
  487.980  351.026  102.054    4.662
  488.230  360.192  101.934    4.465
  488.480  371.519  105.160    4.402
  488.730  384.025  103.763    4.261
  488.980  388.147  100.116    4.209
  489.230  382.836  102.368    4.218
  489.480  382.177  100.181    4.266
  489.730  384.858   97.385    4.394
  489.980  370.379   98.725    4.501
  490.230  372.929   94.774    4.611
  490.480  375.479   90.153    4.664
  490.730  368.008   87.357    4.623
  490.980  382.741   90.644    4.500
  491.230  358.633   95.391    4.294
  491.480  356.140  100.867    4.104
  491.730  373.427  110.723    3.973
  491.980  395.168  113.341    3.819
  492.230  385.994  115.289    3.710
  492.480  386.841  113.162    3.572
  492.730  391.880  104.892    3.522
  492.980  399.081  106.172    3.491
  493.230  411.849  103.741    3.531
  493.480  402.674  107.575    3.617
  493.730  399.133  108.854    3.843
  493.980  383.802  111.168    4.151
  494.230  383.798  109.102    4.252
  494.480  385.955  107.279    4.192
  494.730  361.192  111.053    4.000
  494.980  357.847  112.515    3.908
  495.230  368.388  110.206    3.721
  495.480  385.479  105.463    3.493
  495.730  398.443  102.485    3.249
  495.980  398.832  107.414    3.099
  496.230  379.440  112.404    2.995
  496.480  375.440  116.847    2.974
  496.730  399.474  115.875    3.137
  496.980  410.604  110.890    3.438
  497.230  420.424  107.729    3.781
  497.480  420.748  106.149    4.228
  497.730  399.981  100.677    4.728
  497.980  385.436  101.774    5.364
  498.230  333.032  108.954    4.872
  498.480  326.871  117.107    4.892
  498.730  324.312  121.853    5.178
  498.980  402.382  113.887    5.654
  499.230  412.988  104.339    6.107
  499.480  396.871   94.427    6.500
  499.730  376.956   89.016    6.843
  499.980  358.743   94.431    7.087
  500.230  343.804   96.015    7.064
  500.480  339.084   96.017    6.582
  500.730  336.722   96.749    6.178
  500.980  335.473   97.420    6.135
  501.230  340.316  101.315    6.354
  501.480  359.634  105.393    6.788
  501.730  353.145   98.096    7.147
  501.980  353.728   99.315    7.308
  502.230  350.909  105.947    7.231
  502.480  321.496  111.119    7.091
  502.730  300.270  115.258    7.003
  502.980  332.491  123.654    6.830
  503.230  350.892  111.612    6.708
  503.480  355.079   98.354    6.460
  503.730  345.053  101.580    6.323
  503.980  338.107  106.691    6.244
  504.230  353.363   98.604    6.225
  504.480  356.110   98.180    6.318
  504.730  354.337  107.915    6.579
  504.980  349.944  116.919    7.093
  505.230  345.682  120.145    7.361
  505.480  341.945  122.094    7.417
  505.730  338.076  124.346    7.515
  505.980  332.701  115.590    7.532
  506.230  323.919  114.497    7.507
  506.480  340.879  117.723    7.374
  506.730  346.115  117.968    6.661
  506.980  338.316  112.070    5.513
  507.230  337.460  106.294    4.351
  507.480  334.770  104.714    3.916
  507.730  343.805  114.996    4.122
  507.980  381.790  120.230    4.477
  508.230  392.855  122.482    5.033
  508.480  383.156  129.236    6.054
  508.730  370.446  135.686    6.806
  508.980  346.731  132.038    7.204
  509.230  348.364  123.160    7.314
  509.480  359.363  118.235    7.425
  509.730  356.215  108.140    7.537
  509.980  345.797   97.193    7.637
  510.230  330.465   83.631    7.780
  510.480  321.226   76.273    7.940
  510.730  324.234   80.776    8.344
  510.980  334.579   91.424    8.753
  511.230  340.207   96.961    9.200
  511.480  334.831  104.019    9.458
  511.730  327.557   96.600    9.688
  511.980  318.318   77.198    9.907
  512.230  306.589   61.264    9.732
  512.480  296.302   54.210    9.234
  512.730  285.293   55.916    8.387
  512.980  281.817   64.434    7.758
  513.230  317.248   81.467    7.415
  513.480  338.138   90.289    7.391
  513.730  327.129  127.639    7.669
  513.980  317.759  136.217    7.971
  514.230  310.288  138.896    8.454
  514.480  321.549  120.224    8.885
  514.730  332.024  108.061    9.035
  514.980  327.566   95.837    9.022
  515.230  319.637   85.134    8.654
  515.480  311.706   76.924    7.890
  515.730  305.938   85.624    7.652
  515.980  310.323   97.549    7.557
  516.230  321.977  107.162    7.658
  516.480  318.108  100.594    8.106
  516.730  300.812   96.947    8.550
  516.980  290.590  101.086    8.600
  517.230  303.096  107.596    7.698
  517.480  309.314  113.864    7.332
  517.730  301.385  119.157    7.202
  517.980  330.658  125.850    7.244
  518.230  347.290  130.354    7.503
  518.480  334.907  125.733    7.631
  518.730  326.780  104.324    7.746
  518.980  319.047  106.698    7.834
  519.230  302.799  118.987    7.937
  519.480  296.703  127.506    8.073
  519.730  339.077  129.515    8.149
