~VERSION INFORMATION
 VERS.                 2.0:   CWLS LOG ASCII STANDARD -VERSION 2.0
 WRAP.                  NO:   ONE LINE PER DEPTH STEP
~WELL INFORMATION BLOCK
#MNEM.UNIT           DATA                    DESCRIPTION OF MNEMONIC
#---------    -------------------            -------------------------------
# Generated from Intellog Unique Number	CW_70_72/WELL/1032
NULL.         -999.25                        : NULL_VALUE
WELL.         TPOC ET AL CALLW 10-03         : Well_name    - WELL              
LOC .         10-03-072-21W4                 : Location     - LOCATION          
UWI .         00/10-03-072-21W4/0            : Uwi          - UNIQUE WELL ID    
ENTR.         JAYE                           : Entered      - ENTERED BY        
SRVC.         SCHLUMBERGER                   : Scn          - SERVICE COMPANY   
DATE.         12 MAR 78                      : Date         - LOG DATE          
STRT.M        323.088                        : top_depth    - START DEPTH       
STOP.M        499.838                        : bot_depth    - STOP DEPTH        
STEP.M        0.25                           : increment    - STEP LENGTH       
~CURVE INFORMATION BLOCK
#MNEM UNIT       ERCB CURVE CODE    CURVE DESCRIPTION
#-----------   ------------------   ----------------------------------
DEPT.M        00 001 00 00         : DEPTH        - DEPTH                       
DPHI.V/V      00 890 00 00         : PHID         - DENSITY POROSITY (SANDSTONE)
NPHI.V/V      00 330 00 00         : PHIN         - NEUTRON POROSITY (SANDSTONE)
GR  .API      00 310 00 00         : GR           - GAMMA RAY                   
CALI.MM       00 280 01 00         : CAL          - CALIPER                     
ILD .OHMM     00 120 00 00         : RESD         - DEEP RESISTIVITY (DIL)      
~PARAMETER INFORMATION       
#MNEM.UNIT           DATA             DESCRIPTION OF MNEMONIC
#---------         -----------     ------------------------------
GL  .M        597.713              : gl           - GROUND LEVEL ELEVATION      
EREF.M        600.761              : kb           - ELEVATION OF DEPTH REFERENCE
DATM.M        597.713              : datum        - DATUM ELEVATION             
TDD .M        502.615              : tdd          - TOTAL DEPTH DRILLER         
RUN .         ONE                  : Run          - RUN NUMBER                  
ENG .         DEROCHIE             : Engineer     - RECORDING ENGINEER          
WIT .         MACHUK EVANS         : Witness      - WITNESSED BY                
BASE.         EDM                  : Branch       - HOME BASE OF LOGGING UNIT   
MATR.         SANDSTONE            : Logunit      - NEUTRON MATRIX              
TMAX.C        20                   : BHT          - MAXIMUM RECORDED TEMPERATURE
BHTD.M        504.444              : BHTDEP       - MAXIMUM RECORDED TEMPERATURE
RMT .C        20.5556              : MDTP         - TEMPERATURE OF MUD          
MUDD.KG/M     0                    : MWT          - MUD DENSITY                 
NEUT.         1                    : NEUTRON      - NEUTRON TYPE                
RESI.         0                    : RESIST       - RESISTIVITY TYPE            
RM  .OHMM     5.12                 : RM           - RESISTIVITY OF MUD          
RMC .OHMM     0                    : RMC          - RESISTIVITY OF MUD CAKE     
RMF .OHMM     6.13                 : RMF          - RESISTIVITY OF MUD FILTRATE 
SUFT.C        -17.7778             : SUFT         - SURFACE TEMPERATURE         
~A  DEPTH     PHID     PHIN       GR      CAL     RESD
# ...
  432.588    0.274    0.575  118.912  188.148    2.654
  432.838    0.270    0.546  117.924  176.507    2.648
  433.088    0.236    0.506  118.878  166.668    2.778
  433.338    0.207    0.488  120.900  161.283    3.315
  433.588    0.186    0.467  119.847  157.175    3.839
  433.838    0.192    0.463  115.853  157.726    4.150
  434.088    0.193    0.436  119.187  158.496    4.330
  434.338    0.182    0.438  122.458  158.311    4.492
  434.588    0.190    0.453  123.789  158.013    4.687
  434.838    0.192    0.465  120.546  157.722    4.927
  435.088    0.177    0.473  114.986  155.942    5.120
  435.338    0.160    0.468  108.487  153.209    5.342
  435.588    0.148    0.457  105.370  151.429    5.410
  435.838    0.159    0.444  110.645  150.610    5.398
  436.088    0.185    0.435  117.425  150.845    5.404
  436.338    0.197    0.426  114.746  151.399    5.413
  436.588    0.205    0.424  112.819  152.057    5.420
  436.838    0.224    0.434  110.327  153.036    5.458
  437.088    0.203    0.443  105.268  154.234    5.506
  437.338    0.201    0.445  105.784  154.894    5.670
  437.588    0.201    0.437  108.053  155.661    5.742
  437.838    0.198    0.426  106.628  155.892    5.717
  438.088    0.195    0.414  108.521  155.815    5.746
  438.338    0.195    0.427  110.916  155.733    5.874
  438.588    0.212    0.439  112.684  155.863    6.051
  438.838    0.202    0.447  112.761  156.098    6.161
  439.088    0.206    0.452  111.587  156.336    6.308
  439.338    0.187    0.447  110.973  156.258    6.508
  439.588    0.169    0.437  107.669  156.279    6.715
  439.838    0.152    0.424  102.548  156.514    6.824
  440.088    0.125    0.402   98.177  156.857    6.822
  440.338    0.130    0.372   98.254  157.416    6.780
  440.588    0.162    0.382  103.655  157.648    6.701
  440.838    0.202    0.413  109.056  158.312    6.501
  441.088    0.208    0.429  106.817  158.655    6.319
  441.338    0.206    0.420  107.332  158.995    6.119
  441.588    0.193    0.415  109.225  158.918    5.925
  441.838    0.187    0.411  106.985  159.153    5.749
  442.088    0.202    0.403  109.067  158.750    5.630
  442.338    0.212    0.399  106.890  158.140    5.554
  442.588    0.176    0.411  101.579  157.742    5.519
  442.838    0.162    0.420  103.786  157.764    5.537
  443.088    0.156    0.429  105.367  157.368    5.524
  443.338    0.164    0.439  102.750  155.056    5.419
  443.588    0.177    0.445   95.750  152.110    5.190
  443.838    0.170    0.442   90.504  150.759    4.860
  444.088    0.178    0.447   88.890  149.832    4.716
  444.338    0.191    0.437   89.154  149.425    4.703
  444.588    0.207    0.444   88.545  148.814    4.825
  444.838    0.203    0.448   84.173  148.415    5.129
  445.088    0.218    0.420   76.233  148.127    5.596
  445.338    0.241    0.403   67.981  148.039    6.197
  445.588    0.247    0.389   62.483  148.492    7.032
  445.838    0.228    0.394   59.679  148.513    7.378
  446.088    0.214    0.395   62.387  148.539    6.769
  446.338    0.277    0.456   64.656  148.567    6.314
  446.588    0.303    0.474   64.233  148.587    5.890
  446.838    0.290    0.459   63.558  149.252    5.588
  447.088    0.301    0.469   65.576  149.489    5.291
  447.338    0.315    0.493   65.842  149.828    5.057
  447.588    0.330    0.475   64.980  149.858    4.933
  447.838    0.316    0.457   65.933  149.776    4.813
  448.088    0.309    0.443   66.012  149.589    4.704
  448.338    0.313    0.430   66.090  149.934    4.606
  448.588    0.294    0.422   66.604  150.374    4.502
  448.838    0.282    0.448   66.994  150.406    4.393
  449.088    0.265    0.449   67.510  150.635    4.293
  449.338    0.267    0.445   67.963  150.558    4.220
  449.588    0.286    0.439   67.413  149.842    4.171
  449.838    0.280    0.439   65.487  149.335    4.154
  450.088    0.267    0.438   63.747  148.933    4.128
  450.338    0.284    0.436   63.510  148.643    4.104
  450.588    0.288    0.433   65.154  148.982    4.072
  450.838    0.271    0.431   65.232  149.111    4.062
  451.088    0.271    0.426   66.625  149.457    4.075
  451.338    0.278    0.419   66.074  149.693    4.080
  451.588    0.274    0.419   64.586  149.715    4.124
  451.838    0.278    0.407   66.917  150.059    4.146
  452.088    0.276    0.406   69.876  149.552    4.143
  452.338    0.282    0.402   65.944  145.974    4.118
  452.588    0.286    0.407   61.825  145.254    4.055
  452.838    0.280    0.408   61.025  145.175    3.986
  453.088    0.294    0.392   64.673  144.986    3.940
  453.338    0.298    0.396   66.754  144.694    3.937
  453.588    0.291    0.414   65.265  144.822    3.972
  453.838    0.273    0.433   63.088  144.739    3.986
  454.088    0.262    0.446   62.914  145.188    4.029
  454.338    0.268    0.428   65.497  145.640    4.049
  454.588    0.273    0.412   63.069  146.086    4.101
  454.838    0.271    0.403   63.398  146.644    4.144
  455.088    0.265    0.400   66.668  147.093    4.268
  455.338    0.262    0.421   66.745  147.220    4.445
  455.588    0.252    0.405   63.815  147.566    4.654
  455.838    0.236    0.388   61.012  147.800    5.097
  456.088    0.213    0.365   58.960  143.582    5.437
  456.338    0.233    0.346   59.287  148.803    5.475
  456.588    0.279    0.383   62.120  149.678    5.118
  456.838    0.295    0.402   65.266  149.600    4.730
  457.088    0.306    0.414   67.535  149.516    4.496
  457.338    0.293    0.423   64.607  149.962    4.265
  457.588    0.284    0.438   62.179  150.201    4.076
  457.838    0.278    0.453   62.381  150.650    3.918
  458.088    0.272    0.461   64.211  151.204    3.844
  458.338    0.284    0.458   64.352  151.552    3.827
  458.588    0.304    0.441   64.428  151.677    3.812
  458.838    0.301    0.423   64.632  151.491    3.853
  459.088    0.285    0.418   64.833  151.301    3.924
  459.338    0.268    0.415   64.973  150.902    3.995
  459.588    0.249    0.410   63.484  150.191    4.038
  459.838    0.247    0.423   62.559  150.106    4.105
  460.088    0.243    0.416   65.457  150.237    4.164
  460.338    0.235    0.394   67.161  150.472    4.248
  460.588    0.225    0.403   67.864  151.133    4.383
  460.838    0.253    0.414   67.191  151.477    4.590
  461.088    0.250    0.418   66.516  151.604    4.888
  461.338    0.232    0.426   67.470  151.311    5.166
  461.588    0.217    0.436   67.922  150.914    5.441
  461.838    0.197    0.365   66.872  150.616    5.708
  462.088    0.177    0.358   71.021  150.642    5.446
  462.338    0.221    0.387   79.929  150.773    4.689
  462.588    0.220    0.448   97.480  152.284    4.182
  462.838    0.174    0.477  111.900  156.019    3.880
  463.088    0.194    0.481  115.860  156.787    3.807
  463.338    0.188    0.455  113.307  156.601    4.039
  463.588    0.170    0.425  111.944  156.520    4.507
  463.838    0.171    0.414  108.765  156.224    4.981
  464.088    0.179    0.412  106.398  156.039    5.568
  464.338    0.181    0.401  104.158  156.379    5.941
  464.588    0.174    0.416  105.426  156.084    6.084
  464.838    0.162    0.425  108.509  155.687    6.206
  465.088    0.165    0.418  112.281  155.604    6.216
  465.338    0.157    0.409  115.053  155.204    6.177
  465.588    0.140    0.405  111.371  155.016    6.163
  465.838    0.127    0.402  107.314  154.726    6.183
  466.088    0.105    0.395  111.150  154.435    6.203
  466.338    0.146    0.422  117.427  154.137    6.273
  466.588    0.175    0.430  119.509  153.947    6.316
  466.838    0.147    0.417  123.720  153.972    6.373
  467.088    0.125    0.417  119.728  151.240    6.403
  467.338    0.108    0.406  115.357  154.021    6.412
  467.588    0.078    0.388  116.498  158.076    6.386
  467.838    0.129    0.389  114.383  156.617    6.370
  468.088    0.122    0.392  112.520  154.628    6.354
  468.338    0.110    0.400  109.526  153.379    6.351
  468.588    0.091    0.404  109.353  151.174    6.337
  468.838    0.090    0.395  115.568  153.320    6.347
