~VERSION INFORMATION
 VERS.                 2.0:   CWLS LOG ASCII STANDARD -VERSION 2.0
 WRAP.                  NO:   ONE LINE PER DEPTH STEP
~WELL INFORMATION BLOCK
#MNEM.UNIT           DATA                    DESCRIPTION OF MNEMONIC
#---------    -------------------            -------------------------------
# Generated from Intellog Unique Number	CS_77_79/WELL/947
WELL.         CDN-SUP THORNBURY              : Well_name    - WELL
LOC .         00/10-11-078-14W4/0            : Location     - LOCATION
UWI .         00/10-11-078-14W4/0            : Uwi          - UNIQUE WELL ID
ENTR.         JHS                            : Entered      - ENTERED BY
SRVC.         SCHLUMBERGER                   : Scn          - SERVICE COMPANY
STRT.M        275                            : top_depth    - START DEPTH
STOP.M        514                            : bot_depth    - STOP DEPTH
STEP.M        0.25                           : increment    - STEP LENGTH
 NULL. -999.2500:NULL Value
~CURVE INFORMATION BLOCK
#MNEM UNIT       ERCB CURVE CODE    CURVE DESCRIPTION
#-----------   ------------------   ----------------------------------
DEPT.M        00 001 00 00         : DEPTH        - DEPTH
DPHI.V/V      00 890 00 00         : PHID         - DENSITY POROSITY (LIMESTONE)
NPHI.V/V      00 330 00 00         : PHIN         - NEUTRON POROSITY (LIMESTONE)
GR  .API      00 310 00 00         : GR           - GAMMA RAY
ILD .OHMM     00 120 00 00         : RESD         - DEEP RESISTIVITY (DIL)
~PARAMETER INFORMATION
#MNEM.UNIT           DATA             DESCRIPTION OF MNEMONIC
#---------         -----------     ------------------------------
GL  .M        682.2                : gl           - GROUND LEVEL ELEVATION
EREF.M        686.7                : kb           - ELEVATION OF DEPTH REFERENCE
DATM.M        686.7                : datum        - DATUM ELEVATION
TDD .M        635                  : tdd          - TOTAL DEPTH DRILLER
RUN .         ONE                  : Run          - RUN NUMBER
ENG .         BILL                 : Engineer     - RECORDING ENGINEER
WIT .         JIM                  : Witness      - WITNESSED BY
MUD .         GEL                  : Mud_type     - MUD TYPE
MATR.         LIMESTONE            : Logunit      - NEUTRON MATRIX
TMAX.C        21                   : BHT          - MAXIMUM RECORDED TEMPERATURE
BHTD.M        635                  : BHTDEP       - MAXIMUM RECORDED TEMPERATURE
MATR.         1                    : LOGUNIT      - NEUTRON MATRIX
RMT .C        25                   : MDTP         - TEMPERATURE OF MUD
NEUT.         1                    : NEUTRON      - NEUTRON TYPE
RESI.         0                    : RESIST       - RESISTIVITY TYPE
RMC .OHMM     0.25                 : RMC          - RESISTIVITY OF MUD CAKE
RMF .OHMM     0.25                 : RMF          - RESISTIVITY OF MUD FILTRATE
SUFT.C        15                   : SUFT         - SURFACE TEMPERATURE
~A  DEPTH     PHID     PHIN       GR     RESD
  275.000    0.216    0.503   97.746    3.805
  275.250    0.213    0.492  100.821    3.805
  275.500    0.221    0.494   98.363    3.804
  275.750    0.225    0.511  101.438    3.733
  276.000    0.227    0.503  100.825    3.663
  276.250    0.240    0.491   99.597    3.594
  276.500    0.242    0.497   95.295    3.527
  276.750    0.223    0.520   93.451    3.396
  277.000    0.224    0.535   96.526    3.332
  277.250    0.227    0.508  101.446    3.209
  277.500    0.211    0.516  101.447    3.149
  277.750    0.232    0.535   98.989    3.090
  278.000    0.262    0.558   99.605    2.975
  278.250    0.258    0.547  104.524    2.919
  278.500    0.247    0.554  104.525    2.865
  278.750    0.269    0.541  101.453    2.864
  279.000    0.251    0.523  101.454    2.811
  279.250    0.253    0.509   98.996    2.810
  279.500    0.254    0.503   97.768    2.810
  279.750    0.241    0.524  101.458    2.863
  280.000    0.245    0.542  105.762    2.863
  280.250    0.242    0.520  103.919    2.917
  280.500    0.237    0.518  100.232    2.916
  280.750    0.229    0.526   99.619    2.971
  281.000    0.240    0.518   97.161    3.085
  281.250    0.243    0.535   95.318    3.085
  281.500    0.245    0.513   97.163    3.143
  281.750    0.248    0.516   97.779    3.143
  282.000    0.234    0.530   98.395    3.142
  282.250    0.226    0.531   95.323    3.083
  282.500    0.200    0.540   97.783    3.083
  282.750    0.171    0.553   99.014    3.141
  283.000    0.154    0.537   98.400    3.201
  283.250    0.204    0.510  100.860    3.386
  283.500    0.214    0.515  103.321    3.516
  283.750    0.226    0.504  105.166    3.720
  284.000    0.216    0.483  102.093    3.862
  284.250    0.194    0.484  100.251    4.009
  284.500    0.188    0.493  100.867    4.009
  284.750    0.183    0.499  103.327    3.934
  285.000    0.202    0.478  104.558    3.933
  285.250    0.218    0.471  100.255    3.860
  285.500    0.222    0.477   93.494    3.787
  285.750    0.215    0.484   91.037    3.787
  286.000    0.218    0.479   95.341    3.932
  286.250    0.215    0.477  100.875    4.082
  286.500    0.208    0.482  103.950    4.081
  286.750    0.200    0.474  103.337    4.158
  287.000    0.210    0.461   99.649    4.158
  287.250    0.210    0.451   99.036    4.237
  287.500    0.213    0.441  100.266    4.236
  287.750    0.215    0.451   95.964    4.316
  288.000    0.206    0.465   95.351    4.156
  288.250    0.195    0.472   97.811    4.156
  288.500    0.193    0.487   98.427    4.155
  288.750    0.173    0.474   99.043    4.314
  289.000    0.135    0.428   93.512    4.739
  289.250    0.091    0.396   86.751    5.720
  289.500    0.074    0.372   83.678    6.904
  289.750    0.214    0.381   94.130    8.333
  290.000    0.183    0.403   98.435    9.686
  290.250    0.195    0.428   99.050   10.057
  290.500    0.192    0.442  102.741    9.684
  290.750    0.192    0.442  105.200    8.329
  291.000    0.199    0.466  108.275    6.521
  291.250    0.183    0.492  111.965    5.401
  291.500    0.194    0.478  110.122    5.009
  291.750    0.214    0.468  105.205    4.823
  292.000    0.205    0.470  105.207    4.733
  292.250    0.192    0.500  103.979    4.558
  292.500    0.206    0.511  102.135    4.307
  292.750    0.216    0.497  101.522    4.226
  293.000    0.210    0.473  100.294    4.306
  293.250    0.204    0.472   99.065    4.387
  293.500    0.221    0.479   99.066    4.820
  293.750    0.232    0.461  101.527    5.395
  294.000    0.225    0.446   99.684    6.040
  294.250    0.225    0.425   95.996    6.635
  294.500    0.221    0.408   97.227    7.568
  294.750    0.199    0.396  102.146    8.159
  295.000    0.172    0.391  101.533    8.964
  295.250    0.184    0.406   97.231    9.663
  295.500    0.200    0.419   93.543   10.418
  295.750    0.177    0.423   91.086   10.222
  296.000    0.192    0.420   94.775    9.480
  296.250    0.206    0.429   99.695    8.958
  296.500    0.220    0.442  100.926    8.627
  296.750    0.201    0.451  101.541    8.625
  297.000    0.240    0.449   99.084    8.788
  297.250    0.244    0.428   91.708    9.125
  297.500    0.225    0.409   93.553    9.474
  297.750    0.216    0.417   98.473    9.836
  298.000    0.210    0.446  103.392    9.835
  298.250    0.233    0.469  102.163   10.211
  298.500    0.273    0.456   89.255   11.648
  298.750    0.306    0.433   77.576   13.286
  299.000    0.290    0.430   75.118   15.156
  299.250    0.285    0.421   79.422   16.966
  299.500    0.274    0.425   80.038   18.290
  299.750    0.281    0.430   75.736   18.288
  300.000    0.286    0.430   80.656   18.286
  300.250    0.285    0.415   85.575   17.943
  300.500    0.265    0.420   87.420   17.278
  300.750    0.279    0.426   91.725   16.954
  301.000    0.269    0.420   92.341   16.636
  301.250    0.274    0.410   92.957   16.020
  301.500    0.271    0.421   90.499   16.018
  301.750    0.267    0.436   85.582   16.016
  302.000    0.274    0.444   83.740   16.318
  302.250    0.294    0.436   84.970   16.316
  302.500    0.273    0.419   88.045   16.315
  302.750    0.262    0.435   88.661   16.009
  303.000    0.259    0.452   92.351   15.415
  303.250    0.226    0.462   96.655   14.844
  303.500    0.216    0.439   99.730   14.295
  303.750    0.232    0.407   98.502   13.256
  304.000    0.215    0.393   89.282   13.007
  304.250    0.199    0.382   80.062   13.006
  304.500    0.164    0.375   72.071   13.251
  304.750    0.187    0.377   70.843   13.502
  305.000    0.193    0.392   70.230   13.249
  305.250    0.200    0.385   67.157   13.756
  305.500    0.185    0.380   67.158   13.754
  305.750    0.160    0.382   74.536   13.244
  306.000    0.184    0.393   82.529   12.282
  306.250    0.130    0.413   88.064   11.390
  306.500    0.119    0.437   91.753   10.366
  306.750    0.140    0.455   96.058    8.750
  307.000    0.126    0.450  102.206    7.963
  307.250    0.164    0.441  107.126    7.112
  307.500    0.150    0.447  112.045    6.472
  307.750    0.161    0.462  116.964    6.233
  308.000    0.172    0.499  118.195    6.116
  308.250    0.173    0.509  115.737    6.001
  308.500    0.178    0.494  116.353    5.671
  308.750    0.185    0.491  120.043    5.461
  309.000    0.153    0.490  119.430    5.669
  309.250    0.162    0.479  114.513    5.777
  309.500    0.134    0.466  117.588    5.886
  309.750    0.105    0.466  113.285    6.227
  310.000    0.092    0.475  110.828    6.226
  310.250    0.167    0.480  116.362    6.226
  310.500    0.184    0.479  122.511    5.995
  310.750    0.188    0.489  123.741    5.254
  311.000    0.205    0.515  128.046    4.435
  311.250    0.209    0.530  129.277    4.036
  311.500    0.217    0.523  126.204    3.960
  311.750    0.215    0.495  123.131    4.190
  312.000    0.232    0.469  112.067    4.780
  312.250    0.250    0.443  105.921    5.769
  312.500    0.228    0.415  101.004    7.795
  312.750    0.206    0.403  102.235    9.770
  313.000    0.200    0.405  105.924   11.356
  313.250    0.190    0.409  108.999   12.014
  313.500    0.209    0.415  107.771   12.474
  313.750    0.228    0.409  104.084   12.011
  314.000    0.253    0.416   99.167   11.351
  314.250    0.201    0.451   98.553    9.948
  314.500    0.189    0.473  105.317    8.557
  314.750    0.171    0.462  109.622    7.360
  315.000    0.157    0.448  115.155    7.087
  315.250    0.193    0.475  120.690    6.954
  315.500    0.214    0.467  118.846    7.357
  315.750    0.217    0.450  112.085    8.393
  316.000    0.217    0.431  109.013    9.755
  316.250    0.223    0.430  107.785   10.920
  316.500    0.237    0.467  107.171   11.996
  316.750    0.241    0.468  104.713   12.692
  317.000    0.249    0.442   99.796   13.178
  317.250    0.230    0.427   96.724   13.427
  317.500    0.198    0.420  102.873   13.175
  317.750    0.198    0.427  107.177   12.927
  318.000    0.214    0.423  113.326   12.685
  318.250    0.218    0.420  115.172   12.215
