~VERSION INFORMATION
 VERS.                 2.0:   CWLS LOG ASCII STANDARD -VERSION 2.0
 WRAP.                  NO:   ONE LINE PER DEPTH STEP
~WELL INFORMATION BLOCK
#MNEM.UNIT           DATA                    DESCRIPTION OF MNEMONIC
#---------    -------------------            -------------------------------
# Generated from Intellog Unique Number	CN_91_93/WELL/3146
WELL.         10-25-092-18W4                 : Well_name    - WELL
LOC .         00/10-25-092-18W4/0            : Location     - LOCATION
UWI .         00/10-25-092-18W400            : Uwi          - UNIQUE WELL ID
ENTR.         JOETTE                         : Entered      - ENTERED BY
SRVC.         SCHLUMBERGER                   : Scn          - SERVICE COMPANY
DATE.         04/12/92                       : Date         - LOG DATE
STRT.M        100                            : top_depth    - START DEPTH
STOP.M        266                            : bot_depth    - STOP DEPTH
STEP.M        0.25                           : increment    - STEP LENGTH
 NULL. -999.2500:NULL Value
~CURVE INFORMATION BLOCK
#MNEM UNIT       ERCB CURVE CODE    CURVE DESCRIPTION
#-----------   ------------------   ----------------------------------
DEPT.M        00 001 00 00         : DEPTH        - DEPTH
CALI.MM       00 280 01 00         : CAL          - CALIPER
GR  .API      00 310 00 00         : GR           - GAMMA RAY
NPHI.V/V      00 330 00 00         : PHIN         - NEUTRON POROSITY (SANDSTONE)
DPHI.V/V      00 890 00 00         : PHID         - DENSITY POROSITY (SANDSTONE)
ILD .OHMM     00 120 00 00         : RESD         - DEEP RESISTIVITY (DIL)
~PARAMETER INFORMATION
#MNEM.UNIT           DATA             DESCRIPTION OF MNEMONIC
#---------         -----------     ------------------------------
GL  .M        520.54               : gl           - GROUND LEVEL ELEVATION
EREF.M        523.54               : kb           - ELEVATION OF DEPTH REFERENCE
DATM.M        523.54               : datum        - DATUM ELEVATION
TDD .M        268.5                : tdd          - TOTAL DEPTH DRILLER
RUN .         ONE                  : Run          - RUN NUMBER
ENG .         BILL                 : Engineer     - RECORDING ENGINEER
WIT .         JIM                  : Witness      - WITNESSED BY
MUD .         GEL                  : Mud_type     - MUD TYPE
MATR.         SANDSTONE            : Logunit      - NEUTRON MATRIX
TMAX.C        25                   : BHT          - MAXIMUM RECORDED TEMPERATURE
BHTD.M        268.5                : BHTDEP       - MAXIMUM RECORDED TEMPERATURE
RMT .C        17                   : MDTP         - TEMPERATURE OF MUD
MUDD.KG/M     1135                 : MWT          - MUD DENSITY
NEUT.         1                    : NEUTRON      - NEUTRON TYPE
RESI.         0                    : RESIST       - RESISTIVITY TYPE
RM  .OHMM     6.25                 : RM           - RESISTIVITY OF MUD
RMC .OHMM     6.25                 : RMC          - RESISTIVITY OF MUD CAKE
RMF .OHMM     5.21                 : RMF          - RESISTIVITY OF MUD FILTRATE
SUFT.C        4                    : SUFT         - SURFACE TEMPERATURE
~A  DEPTH      CAL       GR     PHIN     PHID     RESD
  100.000  230.699   36.060    0.537    0.277    7.978
  100.250  229.676   31.097    0.525    0.283    7.975
  100.500  229.693   24.269    0.523    0.288    7.972
  100.750  228.670   24.279    0.518    0.293    7.969
  101.000  228.688   25.533    0.505    0.300    7.966
  101.250  227.677   25.546    0.533    0.300    8.123
  101.500  227.690   24.938    0.521    0.291    8.281
  101.750  227.704   24.321    0.482    0.295    8.444
  102.000  227.721   23.093    0.472    0.327    8.956
  102.250  227.743   22.477    0.467    0.353    9.314
  102.500  227.760   22.490    0.487    0.351    9.687
  102.750  227.777   22.500    0.520    0.351   10.073
  103.000  227.795   23.757    0.533    0.358   10.476
  103.250  225.744   25.006    0.533    0.357   11.110
  103.500  225.757   27.503    0.533    0.346   11.556
  103.750  224.743   27.516    0.501    0.338   12.500
  104.000  223.720   25.039    0.466    0.342   12.746
  104.250  222.701   23.185    0.473    0.347   13.257
  104.500  220.655   21.954    0.504    0.340   13.251
  104.750  220.663   22.584    0.520    0.263   12.000
  105.000  218.609   23.221    0.529    0.211    9.842
  105.250  216.562   23.851    0.583    0.092   11.525
  105.500  215.535   23.859    0.572    0.066   15.197
  105.750  221.769   23.869    0.540    0.148   13.491
  106.000  226.976   23.882    0.533    0.201   11.977
  106.250  228.025   22.649    0.525    0.277   13.750
  106.500  228.042   20.173    0.540    0.342   12.207
  106.750  228.055   20.183    0.546    0.359    7.897
  107.000  228.073   20.813    0.555    0.366    8.212
  107.250  228.090   22.069    0.551    0.373    9.429
  107.500  228.108   22.701    0.529    0.373   11.261
  107.750  228.125   23.333    0.527    0.363   11.255
  108.000  228.147   22.100    0.494    0.341   11.033
  108.250  228.164   22.111    0.465    0.209   11.247
  108.500  227.150   22.119    0.417    0.252   12.412
  108.750  224.059   22.129    0.427    0.277   14.825
  109.000  220.968   21.518    0.491    0.276   13.966
  109.250  226.161   21.531    0.549    0.226   12.898
  109.500  222.039   22.785    0.601    0.143   13.150
  109.750  215.835   24.660    0.603    0.082   14.512
  110.000  208.599   25.295    0.609    0.011   15.395
  110.250  200.327   25.927    0.612    0.283   17.328
  110.500  193.092   27.802    0.584    0.334   21.531
  110.750  188.965   29.056    0.482    0.350   27.834
  111.000  186.910   29.686    0.415    0.359   37.433
  111.250  186.927   29.699    0.411    0.321   44.709
  111.500  186.953   29.707    0.372    0.261   46.492
  111.750  188.002   29.098    0.328    0.239   45.564
  112.000  189.052   27.865    0.306    0.261   44.655
  112.250  190.109   27.251    0.337    0.293   43.768
  112.500  192.203   29.127    0.389    0.330   40.416
  112.750  193.248   29.761    0.433    0.358   38.837
  113.000  195.342   29.150    0.445    0.337   37.321
  113.250  196.396   27.917    0.432    0.316   37.307
  113.500  196.409   29.171    0.416    0.299   41.169
  113.750  198.507   32.290    0.411    0.294   45.432
  114.000  203.710   36.655    0.408    0.317   46.309
  114.250  205.791   36.041    0.435    0.333   45.389
  114.500  207.880   33.567    0.452    0.351   43.616
  114.750  205.825   33.575    0.453    0.355   39.495
  115.000  204.811   34.210    0.442    0.349   35.762
  115.250  204.833   34.220    0.433    0.354   34.359
  115.500  204.841   34.228    0.417    0.362   34.346
  115.750  204.863   33.617    0.412    0.360   34.333
  116.000  203.844   32.384    0.427    0.357   35.009
  116.250  203.862   32.394    0.429    0.361   34.996
  116.500  205.947   32.407    0.424    0.364   34.983
  116.750  209.073   33.037    0.429    0.348   34.282
  117.000  212.199   34.912    0.438    0.350   31.662
  117.250  212.216   36.166    0.447    0.352   30.426
  117.500  213.278   35.555    0.442    0.353   27.548
  117.750  214.327   34.322    0.434    0.339   27.001
  118.000  214.340   34.332    0.434    0.338   24.938
  118.250  214.358   38.694    0.456    0.342   22.135
  118.500  213.343   43.059    0.489    0.303   20.854
  118.750  201.963   46.800    0.513    0.169   19.262
  119.000  186.439   49.919    0.460    0.124   16.113
  119.250  187.492   56.767    0.418    0.209   12.704
  119.500  191.654   79.780    0.528    0.260   10.421
  119.750  197.897   89.116    0.567    0.272    9.070
  120.000  198.942   97.208    0.534    0.261    7.439
  120.250  201.040   98.464    0.520    0.267    6.475
  120.500  202.085   95.988    0.518    0.268    5.105
  120.750  203.147   94.133    0.513    0.265    4.443
  121.000  204.196   95.387    0.514    0.261    4.441
  121.250  204.209   97.260    0.533    0.258    4.529
  121.500  204.227   99.757    0.528    0.257    4.997
  121.750  204.248   99.146    0.530    0.262    5.515
  122.000  204.266   99.783    0.534    0.267    5.735
  122.250  204.279  101.656    0.536    0.265    5.511
  122.500  204.296  101.048    0.538    0.266    4.989
  122.750  204.314   99.815    0.540    0.273    4.890
  123.000  203.295   97.963    0.549    0.278    4.888
  123.250  203.317   97.346    0.538    0.275    4.605
  123.500  202.293   96.740    0.529    0.268    4.603
  123.750  202.320   96.124    0.543    0.264    4.979
  124.000  201.301   95.512    0.550    0.264    5.078
  124.250  201.318   97.393    0.559    0.268    4.783
  124.500  201.331   98.642    0.551    0.271    4.596
  124.750  201.349  100.517    0.521    0.273    4.594
  125.000  201.375  101.771    0.515    0.283    4.593
  125.250  201.388   96.186    0.522    0.281    4.591
  125.500  201.401   90.604    0.529    0.278    4.589
  125.750  201.418   89.993    0.517    0.277    4.772
  126.000  201.436   90.625    0.492    0.279    5.062
  126.250  201.453   88.149    0.486    0.269    5.162
  126.500  201.475   86.294    0.494    0.259    5.159
  126.750  201.496   85.061    0.508    0.264    5.366
  127.000  200.473   85.069    0.497    0.263    5.922
  127.250  200.486   84.460    0.479    0.263    6.798
  127.500  198.436   82.606    0.472    0.274    7.211
  127.750  196.376   80.751    0.468    0.289    7.648
  128.000  193.290   80.140    0.473    0.300    7.798
  128.250  192.275   80.772    0.463    0.230    7.641
  128.500  192.284   82.647    0.446    0.192    7.343
  128.750  193.342   82.036    0.456    0.127    7.197
  129.000  194.400   80.184    0.498    0.148    6.389
  129.250  196.489   81.435    0.531    0.184    6.019
  129.500  198.579   88.284    0.557    0.237    5.450
  129.750  201.709   99.485    0.595    0.265    5.034
  130.000  202.754   98.255    0.613    0.266    4.468
  130.250  204.848   97.019    0.590    0.241    4.210
  130.500  205.902   94.545    0.579    0.251    3.965
  130.750  207.991   92.691    0.565    0.268    3.736
  131.000  209.045   93.945    0.566    0.283    3.519
  131.250  211.139   95.201    0.566    0.297    3.382
  131.500  211.152   95.206    0.557    0.295    3.249
  131.750  209.097   93.973    0.547    0.298    3.184
  132.000  206.010   92.121    0.559    0.303    3.183
  132.250  203.947   91.513    0.595    0.304    3.119
  132.500  201.892   92.764    0.586    0.303    3.181
  132.750  199.841   95.261    0.595    0.300    3.243
  133.000  199.863   95.274    0.590    0.302    3.241
  133.250  199.872   94.041    0.585    0.305    3.240
  133.500  198.857   94.673    0.587    0.313    2.992
  133.750  198.888   95.927    0.591    0.312    2.933
  134.000  197.856   92.207    0.598    0.303    2.874
  134.250  197.873   89.728    0.596    0.300    2.931
  134.500  197.899   92.847    0.572    0.293    3.047
  134.750  197.912   93.482    0.546    0.284    3.170
  135.000  196.898   88.516    0.517    0.280    3.568
  135.250  195.870   82.932    0.503    0.288    4.612
  135.500  191.743   76.106    0.479    0.293    6.326
  135.750  189.693   71.762    0.436    0.288    6.845
  136.000  190.746   68.664    0.439    0.271    7.859
  136.250  189.723   64.323    0.458    0.222    9.765
