~VERSION INFORMATION
 VERS.                 2.0:   CWLS LOG ASCII STANDARD -VERSION 2.0
 WRAP.                  NO:   ONE LINE PER DEPTH STEP
~WELL INFORMATION BLOCK
#MNEM.UNIT           DATA                    DESCRIPTION OF MNEMONIC
#---------    -------------------            -------------------------------
# Generated from Intellog Unique Number	CN_91_93/WELL/3146
WELL.         10-25-092-18W4                 : Well_name    - WELL
LOC .         00/10-25-092-18W4/0            : Location     - LOCATION
UWI .         00/10-25-092-18W400            : Uwi          - UNIQUE WELL ID
ENTR.         JOETTE                         : Entered      - ENTERED BY
SRVC.         SCHLUMBERGER                   : Scn          - SERVICE COMPANY
DATE.         04/12/92                       : Date         - LOG DATE
STRT.M        100                            : top_depth    - START DEPTH
STOP.M        266                            : bot_depth    - STOP DEPTH
STEP.M        0.25                           : increment    - STEP LENGTH
 NULL. -999.2500:NULL Value
~CURVE INFORMATION BLOCK
#MNEM UNIT       ERCB CURVE CODE    CURVE DESCRIPTION
#-----------   ------------------   ----------------------------------
DEPT.M        00 001 00 00         : DEPTH        - DEPTH
CALI.MM       00 280 01 00         : CAL          - CALIPER
GR  .API      00 310 00 00         : GR           - GAMMA RAY
NPHI.V/V      00 330 00 00         : PHIN         - NEUTRON POROSITY (SANDSTONE)
DPHI.V/V      00 890 00 00         : PHID         - DENSITY POROSITY (SANDSTONE)
ILD .OHMM     00 120 00 00         : RESD         - DEEP RESISTIVITY (DIL)
~PARAMETER INFORMATION
#MNEM.UNIT           DATA             DESCRIPTION OF MNEMONIC
#---------         -----------     ------------------------------
GL  .M        520.54               : gl           - GROUND LEVEL ELEVATION
EREF.M        523.54               : kb           - ELEVATION OF DEPTH REFERENCE
DATM.M        523.54               : datum        - DATUM ELEVATION
TDD .M        268.5                : tdd          - TOTAL DEPTH DRILLER
RUN .         ONE                  : Run          - RUN NUMBER
ENG .         BILL                 : Engineer     - RECORDING ENGINEER
WIT .         JIM                  : Witness      - WITNESSED BY
MUD .         GEL                  : Mud_type     - MUD TYPE
MATR.         SANDSTONE            : Logunit      - NEUTRON MATRIX
TMAX.C        25                   : BHT          - MAXIMUM RECORDED TEMPERATURE
BHTD.M        268.5                : BHTDEP       - MAXIMUM RECORDED TEMPERATURE
RMT .C        17                   : MDTP         - TEMPERATURE OF MUD
MUDD.KG/M     1135                 : MWT          - MUD DENSITY
NEUT.         1                    : NEUTRON      - NEUTRON TYPE
RESI.         0                    : RESIST       - RESISTIVITY TYPE
RM  .OHMM     6.25                 : RM           - RESISTIVITY OF MUD
RMC .OHMM     6.25                 : RMC          - RESISTIVITY OF MUD CAKE
RMF .OHMM     5.21                 : RMF          - RESISTIVITY OF MUD FILTRATE
SUFT.C        4                    : SUFT         - SURFACE TEMPERATURE
~A  DEPTH      CAL       GR     PHIN     PHID     RESD
# ...
  173.000  213.031   79.554    0.404    0.263   17.048
  173.250  210.976   76.458    0.396    0.261   15.437
  173.500  208.922   78.334    0.406    0.257   14.259
  173.750  207.903   80.828    0.425    0.248   12.909
  174.000  206.888   80.841    0.440    0.238   12.653
  174.250  204.838   80.230    0.429    0.233   12.154
  174.500  204.851   81.484    0.421    0.239   12.152
  174.750  202.796   83.981    0.425    0.248   12.389
  175.000  200.741   84.611    0.419    0.253   13.141
  175.250  198.691   83.378    0.402    0.257   13.401
  175.500  196.636   79.036    0.416    0.249   13.935
  175.750  196.653   75.317    0.425    0.220   14.209
  176.000  200.815   74.705    0.415    0.206   14.776
  176.250  204.977   79.068    0.377    0.208   14.770
  176.500  210.175   82.808    0.380    0.201   13.914
  176.750  210.192   86.551    0.406    0.204   12.852
  177.000  207.101   84.694    0.454    0.207   11.409
  177.250  205.042   80.974    0.448    0.181   12.343
  177.500  201.964   77.255    0.431    0.190   12.838
  177.750  201.973   82.241    0.391    0.231   13.088
  178.000  200.958   79.765    0.420    0.243   12.827
  178.250  202.003   74.180    0.430    0.226   11.847
  178.500  202.025   67.974    0.441    0.182   12.080
  178.750  201.002   64.876    0.406    0.112   13.868
  179.000  198.956   66.751    0.326    0.111   14.711
  179.250  197.937   72.359    0.301    0.201   13.584
  179.500  196.914   77.962    0.376    0.240   12.060
  179.750  195.899   85.433    0.540    0.258    9.323
  180.000  194.876   91.660    0.511    0.248    7.065
  180.250  195.938   92.914    0.475    0.250    5.147
  180.500  195.951   91.059    0.451    0.251    5.679
  180.750  197.005   87.340    0.434    0.240    6.919
  181.000  197.018   84.864    0.422    0.198    8.101
  181.250  196.008   84.255    0.418    0.159    9.119
  181.500  194.989   84.268    0.413    0.160   10.063
  181.750  193.962   84.276    0.416    0.192   10.887
  182.000  192.947   85.527    0.426    0.217   10.670
  182.250  192.960   87.402    0.435    0.234   10.051
  182.500  194.014   88.659    0.452    0.225   10.049
  182.750  198.180   89.915    0.474    0.212   10.044
  183.000  201.306   89.926    0.465    0.212   10.241
  183.250  200.287   87.447    0.445    0.198   11.079
  183.500  192.015   78.756    0.408    0.125   12.472
  183.750  186.857   73.169    0.360    0.062   14.319
  184.000  184.797   67.587    0.325    0.084   16.117
  184.250  184.810   74.433    0.288    0.208   18.871
  184.500  184.836   82.525    0.323    0.239   19.239
  184.750  184.849   82.536    0.393    0.240   18.858
  185.000  184.867   86.276    0.388    0.241   16.737
  185.250  184.893   88.773    0.385    0.238   16.406
  185.500  184.902   84.435    0.394    0.225   16.400
  185.750  183.891   82.578    0.400    0.216   16.721
  186.000  183.900   81.969    0.402    0.223   16.715
  186.250  183.922   81.979    0.407    0.232   17.041
  186.500  183.935   82.614    0.417    0.230   16.372
  186.750  183.961   82.619    0.410    0.221   16.049
  187.000  183.974   83.251    0.405    0.217   16.043
  187.250  182.951   84.505    0.408    0.218   15.723
  187.500  182.973   86.381    0.409    0.218   15.715
  187.750  181.954   86.396    0.410    0.210   16.022
  188.000  180.940   80.809    0.419    0.185   16.339
  188.250  180.948   74.603    0.420    0.112   18.758
  188.500  178.893   72.126    0.296    0.094   23.774
  188.750  177.875   75.245    0.285    0.128   28.962
  189.000  175.820   78.988    0.299    0.143   33.250
  189.250  174.801   79.620    0.318    0.228   33.902
  189.500  173.782   75.276    0.336    0.262   31.308
  189.750  172.768   67.827    0.344    0.241   28.919
  190.000  171.749   68.459    0.334    0.220   26.704
  190.250  170.735   74.067    0.334    0.231   26.699
  190.500  170.752   75.940    0.366    0.242   23.232
  190.750  170.765   72.842    0.373    0.222   22.770
  191.000  170.782   67.879    0.358    0.048   22.318
  191.250  170.804   59.807    0.262    0.015   27.732
  191.500  170.817   57.953    0.238    0.008   35.148
  191.750  170.835   57.966    0.199    0.026   48.213
  192.000  170.852   62.325    0.214    0.058   56.452
  192.250  171.910   72.904    0.247    0.172   52.144
  192.500  172.963   80.380    0.275    0.241   38.743
  192.750  174.021   77.899    0.299    0.251   28.222
  193.000  174.034   71.695    0.353    0.219   23.611
  193.250  175.092   66.729    0.438    0.177   20.148
  193.500  175.101   61.766    0.363    0.058   20.954
  193.750  176.163   66.131    0.314    0.090   22.668
  194.000  177.208   72.358    0.258    0.124   23.112
  194.250  178.261   79.829    0.314    0.116   21.770
  194.500  179.315   76.109    0.397    0.076   20.922
  194.750  181.413   71.768    0.388    0.043   19.323
  195.000  183.498   82.347    0.368    0.137   15.234
  195.250  186.624   87.953    0.405    0.220   14.068
  195.500  190.786   83.611    0.419    0.214   13.786
  195.750  198.061   80.513    0.412    0.204   13.783
  196.000  202.223   83.632    0.430    0.199   13.508
  196.250  204.308   86.132    0.445    0.199   13.504
  196.500  206.398   86.142    0.445    0.200   13.497
  196.750  207.456   84.287    0.443    0.200   13.494
  197.000  207.473   78.703    0.458    0.195   13.487
  197.250  205.418   74.359    0.463    0.176   13.483
  197.500  204.399   78.099    0.446    0.063   14.878
  197.750  205.457   91.168    0.434    0.120   15.473
  198.000  206.502   91.181    0.432    0.206   15.164
  198.250  211.709   88.083    0.446    0.200   14.005
  198.500  212.754   86.228    0.464    0.208   12.681
  198.750  218.992   85.620    0.474    0.213   11.947
  199.000  223.158   86.246    0.464    0.206   11.479
  199.250  224.212   86.879    0.451    0.197   11.031
  199.500  224.229   87.513    0.450    0.196   11.025
  199.750  222.179   90.010    0.452    0.198   11.020
  200.000  220.120   93.129    0.450    0.205   11.017
  200.250  218.060   95.624    0.445    0.213   11.013
  200.500  214.974   95.637    0.437    0.235   11.006
  200.750  210.842   93.782    0.435    0.229   11.004
  201.000  204.647   90.063    0.438    0.207   11.000
  201.250  202.588   86.962    0.431    0.180   11.439
  201.500  198.465   80.134    0.422    0.134   12.625
  201.750  200.555   82.631    0.393    0.040   14.494
  202.000  204.717   88.237    0.344    0.089   15.374
  202.250  208.874   88.247    0.370    0.183   15.066
  202.500  207.860   87.014    0.400    0.198   14.191
  202.750  206.837   93.866    0.423    0.193   13.638
  203.000  205.818  100.093    0.426    0.198   12.595
  203.250  205.835  100.106    0.431    0.206   12.101
  203.500  209.997   97.008    0.450    0.190   11.628
  203.750  218.304   93.907    0.486    0.192   10.954
  204.000  214.181   91.431    0.483    0.180   10.118
  204.250  196.588   92.063    0.474    0.133    9.531
  204.500  195.569   93.939    0.462    0.135    9.527
  204.750  199.731   95.195    0.456    0.156    9.908
  205.000  202.857   95.206    0.458    0.175    9.904
  205.250  204.947   94.594    0.452    0.189    9.147
  205.500  205.996   97.710    0.443    0.180    8.281
  205.750  207.054  100.208    0.442    0.171    8.118
  206.000  206.035   98.977    0.451    0.162    7.647
  206.250  202.940   93.390    0.463    0.167    7.348
  206.500  194.668   85.940    0.473    0.218    7.794
  206.750  186.401   56.732    0.460    0.266    9.495
  207.000  182.269   33.118    0.389    0.299   14.958
  207.250  173.997   26.914    0.325    0.329   17.174
  207.500  169.870   25.681    0.287    0.344   35.688
  207.750  167.820   25.070    0.255    0.351   69.889
  208.000  165.769   23.835    0.256    0.347  114.548
  208.250  164.746   23.226    0.252    0.349  142.335
  208.500  164.763   20.752    0.232    0.346  150.980
  208.750  162.709   18.895    0.214    0.333  150.909
  209.000  161.685   17.038    0.228    0.329  136.661
  209.250  161.707   19.538    0.238    0.335  114.334
