~VERSION INFORMATION
 VERS.                 2.0:   CWLS LOG ASCII STANDARD -VERSION 2.0
 WRAP.                  NO:   ONE LINE PER DEPTH STEP
~WELL INFORMATION BLOCK
#MNEM.UNIT           DATA                    DESCRIPTION OF MNEMONIC
#---------    -------------------            -------------------------------
# Generated from Intellog Unique Number	CW_76_78/WELL/901
WELL.         PCP MARTEN HILLS 10-22         : Well_name    - WELL
LOC .         00/10-22-076-04W5/0            : Location     - LOCATION
UWI .         00/10-22-076-04W5/0            : Uwi          - UNIQUE WELL ID
ENTR.         JAYE                           : Entered      - ENTERED BY
SRVC.         SCHLUMBERGER                   : Scn          - SERVICE COMPANY
DATE.         24 MAR 74                      : Date         - LOG DATE
STRT.M        524.256                        : top_depth    - START DEPTH
STOP.M        777.256                        : bot_depth    - STOP DEPTH
STEP.M        0.25                           : increment    - STEP LENGTH
 NULL. -999.2500:NULL Value
~CURVE INFORMATION BLOCK
#MNEM UNIT       ERCB CURVE CODE    CURVE DESCRIPTION
#-----------   ------------------   ----------------------------------
DEPT.M        00 001 00 00         : DEPTH        - DEPTH
ILD .OHMM     00 120 00 00         : RESD         - DEEP RESISTIVITY (DIL)
NPHI.V/V      00 330 00 00         : PHIN         - NEUTRON POROSITY (SANDSTONE)
DPHI.V/V      00 890 00 00         : PHID         - DENSITY POROSITY (SANDSTONE)
GR  .API      00 310 00 00         : GR           - GAMMA RAY
CALI.MM       00 280 01 00         : CAL          - CALIPER
~PARAMETER INFORMATION
#MNEM.UNIT           DATA             DESCRIPTION OF MNEMONIC
#---------         -----------     ------------------------------
GL  .M        833.476              : gl           - GROUND LEVEL ELEVATION
EREF.M        837.133              : kb           - ELEVATION OF DEPTH REFERENCE
DATM.M        833.476              : datum        - DATUM ELEVATION
TDD .M        790.346              : tdd          - TOTAL DEPTH DRILLER
RUN .         ONE                  : Run          - RUN NUMBER
ENG .         WILLIGER             : Engineer     - RECORDING ENGINEER
WIT .         BOND                 : Witness      - WITNESSED BY
BASE.         RD                   : Branch       - HOME BASE OF LOGGING UNIT
MUD .         CHEM GEL             : Mud_type     - MUD TYPE
MATR.         SANDSTONE            : Logunit      - NEUTRON MATRIX
TMAX.C        27.7778              : BHT          - MAXIMUM RECORDED TEMPERATURE
BHTD.M        790.651              : BHTDEP       - MAXIMUM RECORDED TEMPERATURE
RMT .C        9.44444              : MDTP         - TEMPERATURE OF MUD
MUDD.KG/M     1164                 : MWT          - MUD DENSITY
NEUT.         1                    : NEUTRON      - NEUTRON TYPE
RESI.         0                    : RESIST       - RESISTIVITY TYPE
RM  .OHMM     4.84                 : RM           - RESISTIVITY OF MUD
RMC .OHMM     0                    : RMC          - RESISTIVITY OF MUD CAKE
RMF .OHMM     5.54                 : RMF          - RESISTIVITY OF MUD FILTRATE
SUFT.C        -17.7778             : SUFT         - SURFACE TEMPERATURE
~A  DEPTH     RESD     PHIN     PHID       GR      CAL
# ...
  706.756    4.975    0.408    0.184   83.189  193.758
  707.006    4.829    0.397    0.193   83.194  194.490
  707.256    4.696    0.414    0.189   84.667  198.537
  707.506    4.532    0.425    0.185   84.489  204.342
  707.756    4.431    0.416    0.181   84.433  209.009
  708.006    4.349    0.410    0.188   86.028  211.191
  708.256    4.275    0.416    0.178   88.295  212.339
  708.506    4.242    0.418    0.172   85.366  212.763
  708.756    4.288    0.419    0.162   86.106  213.393
  709.006    4.350    0.422    0.150   88.311  212.575
  709.256    4.445    0.412    0.171   89.111  209.996
  709.506    4.584    0.397    0.184   90.339  206.693
  709.756    4.702    0.379    0.200   87.289  206.391
  710.006    4.886    0.384    0.185   85.583  208.368
  710.256    5.076    0.390    0.173   84.671  209.515
  710.506    5.236    0.408    0.182   83.821  210.042
  710.756    5.380    0.406    0.172   81.626  209.741
  711.006    5.279    0.389    0.162   80.653  209.336
  711.256    5.049    0.390    0.170   81.820  209.035
  711.506    4.820    0.393    0.162   83.048  208.837
  711.756    4.618    0.393    0.164   85.620  208.742
  712.006    4.532    0.390    0.178   87.338  208.337
  712.256    4.986    0.385    0.192   83.615  207.104
  712.506    6.239    0.377    0.208   79.341  203.594
  712.756    8.769    0.367    0.213   74.945  201.740
  713.006   10.854    0.352    0.191   70.733  201.956
  713.256   12.924    0.324    0.150   67.071  204.037
  713.506   14.616    0.263    0.113   61.331  205.391
  713.756   16.498    0.240    0.088   56.141  206.228
  714.006   14.049    0.264    0.141   53.211  205.822
  714.256   12.322    0.314    0.168   53.278  203.141
  714.506   10.114    0.367    0.196   58.418  202.322
  714.756    7.697    0.393    0.222   62.091  203.056
  715.006    6.329    0.404    0.248   64.297  204.308
  715.256    6.188    0.411    0.251   64.913  204.939
  715.506    6.394    0.421    0.247   64.308  205.256
  715.756    6.571    0.415    0.246   64.252  205.887
  716.006    6.342    0.385    0.241   65.847  206.103
  716.256    6.020    0.379    0.240   67.564  206.216
  716.506    5.875    0.385    0.233   68.058  206.225
  716.756    5.830    0.375    0.231   68.124  206.441
  717.006    5.860    0.372    0.230   67.825  206.347
  717.256    5.999    0.374    0.223   68.014  206.046
  717.506    6.222    0.367    0.213   68.141  205.847
  717.756    6.371    0.364    0.201   67.841  206.169
  718.006    6.594    0.366    0.197   67.602  207.316
  718.256    6.953    0.350    0.191   67.362  208.259
  718.506    7.373    0.317    0.171   66.818  208.888
  718.756    7.963    0.249    0.150   66.762  209.000
  719.006    8.063    0.219    0.101   66.951  209.111
  719.256    7.501    0.266    0.148   66.956  209.431
  719.506    7.497    0.293    0.184   65.250  209.649
  719.756    7.993    0.300    0.156   62.138  209.865
  720.006    8.475    0.272    0.097   60.249  210.185
  720.256    8.709    0.228    0.063   57.992  210.298
  720.506    8.087    0.263    0.117   63.072  210.308
  720.756    7.251    0.311    0.170   65.522  210.419
  721.006    6.431    0.375    0.221   67.545  210.531
  721.256    5.830    0.407    0.226   67.551  211.264
  721.506    5.659    0.398    0.234   67.555  212.309
  721.756    5.708    0.398    0.239   68.233  213.352
  722.006    5.953    0.409    0.244   68.546  214.708
  722.256    6.220    0.422    0.250   69.222  215.234
  722.506    6.344    0.421    0.249   69.777  215.244
  722.756    6.237    0.414    0.232   68.622  215.047
  723.006    6.155    0.405    0.182   67.282  214.020
  723.256    6.278    0.384    0.157   65.944  211.544
  723.506    6.559    0.354    0.136   64.909  206.275
  723.756    7.019    0.311    0.113   63.875  203.904
  724.006    7.566    0.320    0.136   66.570  206.397
  724.256    7.949    0.371    0.180   68.532  207.545
  724.506    8.168    0.385    0.211   69.944  207.349
  724.756    8.046    0.382    0.208   70.988  206.735
  725.006    7.444    0.389    0.207   73.255  206.123
  725.256    6.874    0.386    0.200   75.644  205.513
  725.506    6.348    0.387    0.189   77.789  205.520
  725.756    5.895    0.398    0.168   80.178  205.530
  726.006    5.555    0.392    0.173   83.729  205.747
  726.256    5.303    0.394    0.185   86.179  205.755
  726.506    5.109    0.393    0.184   87.530  205.971
  726.756    4.967    0.390    0.176   86.557  205.981
  727.006    4.938    0.393    0.172   87.662  205.578
  727.256    4.927    0.400    0.165   88.830  204.861
  727.506    4.880    0.405    0.160   88.835  204.042
  727.756    4.878    0.410    0.160   88.229  203.431
  728.006    4.885    0.399    0.175   87.317  203.440
  728.256    5.001    0.376    0.171   85.917  203.034
  728.506    5.111    0.365    0.162   85.067  201.905
  728.756    5.242    0.362    0.157   84.889  201.086
  729.006    5.357    0.368    0.154   83.977  200.992
  729.256    5.434    0.388    0.171   82.394  201.415
  729.506    5.523    0.378    0.170   83.621  202.046
  729.756    5.612    0.386    0.170   86.744  202.470
  730.006    5.663    0.394    0.173   84.977  202.789
  730.256    5.671    0.378    0.164   81.559  203.419
  730.506    5.658    0.365    0.154   85.233  204.358
  730.756    5.625    0.366    0.149   87.867  207.784
  731.006    5.591    0.368    0.132   87.077  208.931
  731.256    5.578    0.381    0.148   89.650  208.216
  731.506    5.576    0.395    0.152   92.161  206.881
  731.756    5.636    0.397    0.157   89.905  205.441
  732.006    5.727    0.388    0.148   87.710  204.310
  732.256    5.821    0.379    0.145   88.449  203.180
  732.506    5.948    0.370    0.153   87.537  202.362
  732.756    6.068    0.362    0.143   86.137  202.579
  733.006    6.190    0.364    0.133   88.832  204.553
  733.256    6.360    0.386    0.151   92.994  208.082
  733.506    6.536    0.381    0.156   92.572  210.783
  733.756    6.892    0.372    0.152   89.460  206.963
  734.006    7.666    0.359    0.163   87.998  204.384
  734.256    8.558    0.350    0.168   91.121  202.944
  734.506    9.986    0.362    0.180   90.454  201.919
  734.756   11.356    0.355    0.189   88.748  201.101
  735.006   12.378    0.364    0.191   86.124  200.384
  735.256   13.197    0.361    0.174   81.606  199.565
  735.506   13.940    0.349    0.179   78.006  199.575
  735.756   14.862    0.340    0.175   77.033  199.379
  736.006   16.022    0.345    0.168   76.672  199.178
  736.256   17.496    0.360    0.166   75.516  198.877
  736.506   19.569    0.359    0.179   71.609  198.679
  736.756   20.595    0.344    0.178   71.309  198.380
  737.006   18.741    0.349    0.171   74.066  198.389
  737.256   16.991    0.357    0.184   77.432  197.984
  737.506   15.040    0.354    0.202   79.822  197.785
  737.756   14.252    0.347    0.190   80.072  197.483
  738.006   14.862    0.342    0.176   80.200  197.181
  738.256   15.642    0.338    0.165   79.777  197.399
  738.506   16.645    0.335    0.149   78.438  197.925
  738.756   17.359    0.334    0.169   75.937  198.244
  739.006   17.774    0.346    0.164   74.721  198.461
  739.256   16.873    0.363    0.166   76.009  198.367
  739.506   15.901    0.362    0.161   81.210  198.479
  739.756   14.656    0.358    0.165   84.761  201.594
  740.006   13.509    0.354    0.176   87.028  204.192
  740.256   12.545    0.351    0.179   86.055  205.648
  740.506   11.671    0.343    0.170   84.532  206.485
  740.756   10.957    0.339    0.163   83.560  206.909
  741.006   10.596    0.344    0.163   84.543  207.228
  741.256   10.321    0.349    0.150   86.749  207.962
  741.506   10.000    0.337    0.138   85.532  208.387
  741.756    9.546    0.328    0.145   85.415  208.498
  742.006    8.929    0.324    0.142   87.560  208.302
  742.256    8.384    0.322    0.140   90.500  208.206
  742.506    7.714    0.319    0.152   89.894  208.630
  742.756    7.110    0.321    0.161   89.777  209.053
  743.006    6.518    0.327    0.147   92.410  209.477
