~VERSION INFORMATION
 VERS.                 2.0:   CWLS LOG ASCII STANDARD -VERSION 2.0
 WRAP.                  NO:   ONE LINE PER DEPTH STEP
~WELL INFORMATION BLOCK
#MNEM.UNIT           DATA                    DESCRIPTION OF MNEMONIC
#---------    -------------------            -------------------------------
# Generated from Intellog Unique Number	CS_77_79/WELL/1013
WELL.         CWWE LEISMER                   : Well_name    - WELL
LOC .         00/12-14-079-08W4/0            : Location     - LOCATION
UWI .         00/12-14-079-08W4/0            : Uwi          - UNIQUE WELL ID
ENTR.         JHS                            : Entered      - ENTERED BY
SRVC.         SCHLUMBERGER                   : Scn          - SERVICE COMPANY
STRT.M        155                            : top_depth    - START DEPTH
STOP.M        380                            : bot_depth    - STOP DEPTH
STEP.M        0.25                           : increment    - STEP LENGTH
 NULL. -999.2500:NULL Value
~CURVE INFORMATION BLOCK
#MNEM UNIT       ERCB CURVE CODE    CURVE DESCRIPTION
#-----------   ------------------   ----------------------------------
DEPT.M        00 001 00 00         : DEPTH        - DEPTH
DPHI.V/V      00 890 00 00         : PHID         - DENSITY POROSITY (LIMESTONE)
NPHI.V/V      00 330 00 00         : PHIN         - NEUTRON POROSITY (LIMESTONE)
GR  .API      00 310 00 00         : GR           - GAMMA RAY
ILD .OHMM     00 120 00 00         : RESD         - DEEP RESISTIVITY (DIL)
RHOB.KG/M3    00 350 00 00         : DENS         - BULK DENSITY
~PARAMETER INFORMATION
#MNEM.UNIT           DATA             DESCRIPTION OF MNEMONIC
#---------         -----------     ------------------------------
GL  .M        591.18               : gl           - GROUND LEVEL ELEVATION
EREF.M        595.43               : kb           - ELEVATION OF DEPTH REFERENCE
DATM.M        595.43               : datum        - DATUM ELEVATION
TDD .M        381.3                : tdd          - TOTAL DEPTH DRILLER
RUN .         ONE                  : Run          - RUN NUMBER
ENG .         BILL                 : Engineer     - RECORDING ENGINEER
WIT .         JIM                  : Witness      - WITNESSED BY
MUD .         GEL                  : Mud_type     - MUD TYPE
MATR.         LIMESTONE            : Logunit      - NEUTRON MATRIX
TMAX.C        20                   : BHT          - MAXIMUM RECORDED TEMPERATURE
BHTD.M        381.3                : BHTDEP       - MAXIMUM RECORDED TEMPERATURE
MATR.         1                    : LOGUNIT      - NEUTRON MATRIX
RMT .C        25                   : MDTP         - TEMPERATURE OF MUD
NEUT.         1                    : NEUTRON      - NEUTRON TYPE
RESI.         0                    : RESIST       - RESISTIVITY TYPE
RMC .OHMM     0.25                 : RMC          - RESISTIVITY OF MUD CAKE
RMF .OHMM     0.25                 : RMF          - RESISTIVITY OF MUD FILTRATE
SUFT.C        15                   : SUFT         - SURFACE TEMPERATURE
~A  DEPTH     PHID     PHIN       GR     RESD     DENS
# ...
  264.500    0.263    0.420   90.542    9.389    0.000
  264.750    0.248    0.429   94.793    8.723    0.000
  265.000    0.241    0.427   96.016    8.106    0.000
  265.250    0.242    0.432   94.826    7.394    0.000
  265.500    0.258    0.441   94.838    6.870    0.000
  265.750    0.281    0.446   96.664    6.270    0.000
  266.000    0.289    0.450   96.681    6.158    0.000
  266.250    0.293    0.435   94.275    5.941    0.000
  266.500    0.290    0.432   97.921    5.836    0.000
  266.750    0.287    0.452  101.562    5.527    0.000
  267.000    0.299    0.466   99.767    5.431    0.000
  267.250    0.305    0.438   96.149    5.538    0.000
  267.500    0.294    0.427   94.352    5.756    0.000
  267.750    0.284    0.422   95.574    5.763    0.000
  268.000    0.274    0.418   99.823    5.558    0.000
  268.250    0.276    0.429  103.467    5.361    0.000
  268.500    0.287    0.433  105.295    5.075    0.000
  268.750    0.294    0.435  104.707    4.460    0.000
  269.000    0.307    0.474  107.142    3.993    0.000
  269.250    0.325    0.529  110.783    3.575    0.000
  269.500    0.318    0.538  115.032    3.322    0.000
  269.750    0.303    0.533  113.839    3.265    0.000
  270.000    0.295    0.494  111.433    3.329    0.000
  270.250    0.292    0.492  112.054    3.727    0.000
  270.500    0.314    0.474  110.856    4.578    0.000
  270.750    0.335    0.442  105.427    6.175    0.000
  271.000    0.339    0.412   98.792    7.309    0.000
  271.250    0.329    0.408   92.758    8.492    0.000
  271.500    0.318    0.422   89.147    9.868    0.000
  271.750    0.301    0.446   89.159   11.255    0.000
  272.000    0.201    0.341   87.358   12.599    0.000
  272.250    0.039    0.218   75.275   13.333    0.000
  272.500    0.013    0.185   65.007   13.355    0.000
  272.750    0.060    0.209   71.070   12.875    0.000
  273.000    0.129    0.286   88.020   11.316    0.000
  273.250    0.221    0.386   95.898    9.944    0.000
  273.500    0.265    0.445   96.523    9.071    0.000
  273.750    0.253    0.440   94.114    8.590    0.000
  274.000    0.248    0.421  101.388    8.284    0.000
  274.250    0.260    0.412  105.031    8.293    0.000
  274.500    0.268    0.411   98.999    8.152    0.000
  274.750    0.257    0.425   97.805    8.006    0.000
  275.000    0.248    0.457  102.055    7.442    0.000
  275.250    0.261    0.468  103.881    7.312    0.000
  275.500    0.281    0.466  103.290    6.923    0.000
  275.750    0.274    0.454  105.119    6.930    0.000
  276.000    0.258    0.454  111.186    7.068    0.000
  276.250    0.263    0.438  113.014    7.345    0.000
  276.500    0.280    0.409  104.559    7.491    0.000
  276.750    0.276    0.401   98.528    7.361    0.000
  277.000    0.255    0.413   97.934    7.232    0.000
  277.250    0.271    0.443  103.999    6.976    0.000
  277.500    0.322    0.457  107.039    6.483    0.000
  277.750    0.333    0.469  106.447    5.804    0.000
  278.000    0.335    0.477  104.041    5.101    0.000
  278.250    0.329    0.469  111.317    4.400    0.000
  278.500    0.328    0.495  114.353    3.657    0.000
  278.750    0.330    0.520  115.585    2.928    0.000
  279.000    0.328    0.521  115.593    2.345    0.000
  279.250    0.325    0.512  116.817    2.261    0.000
  279.500    0.332    0.493  115.028    2.264    0.000
  279.750    0.361    0.487  113.220    2.352    0.000
  280.000    0.366    0.501  109.003    2.585    0.000
  280.250    0.346    0.495  107.804    2.894    0.000
  280.500    0.317    0.479  103.586    3.299    0.000
  280.750    0.302    0.475   95.739    3.979    0.000
  281.000    0.295    0.453   93.940    4.981    0.000
  281.250    0.286    0.434   93.951    6.008    0.000
  281.500    0.283    0.415   96.387    6.851    0.000
  281.750    0.297    0.396   98.217    7.816    0.000
  282.000    0.332    0.369  100.045    8.269    0.000
  282.250    0.384    0.318   97.036    9.610    0.000
  282.500    0.396    0.285   97.054   10.962    0.000
  282.750    0.398    0.279   97.670   11.390    0.000
  283.000    0.396    0.309   94.665   11.405    0.000
  283.250    0.375    0.338   94.675   10.208    0.000
  283.500    0.343    0.379   98.318    8.642    0.000
  283.750    0.295    0.473   98.335    7.599    0.000
  284.000    0.281    0.475   95.931    7.463    0.000
  284.250    0.293    0.453   92.920    7.334    0.000
  284.500    0.301    0.431   88.701    7.479    0.000
  284.750    0.296    0.412   91.135    7.920    0.000
  285.000    0.299    0.398   93.567    8.385    0.000
  285.250    0.297    0.394   91.167    8.713    0.000
  285.500    0.300    0.400   92.389    8.883    0.000
  285.750    0.303    0.410   97.245    8.893    0.000
  286.000    0.292    0.420  102.703    8.747    0.000
  286.250    0.274    0.414  108.158    8.754    0.000
  286.500    0.265    0.405  111.804    8.759    0.000
  286.750    0.270    0.401  109.398    8.933    0.000
  287.000    0.276    0.402  103.968    8.781    0.000
  287.250    0.282    0.423  100.355    8.469    0.000
  287.500    0.282    0.436   98.556    7.871    0.000
  287.750    0.271    0.444  101.594    7.314    0.000
  288.000    0.264    0.452  107.057    6.797    0.000
  288.250    0.256    0.452  108.276    6.555    0.000
  288.500    0.256    0.444  108.291    6.562    0.000
  288.750    0.257    0.433  109.519    6.820    0.000
  289.000    0.257    0.428  106.509    7.086    0.000
  289.250    0.254    0.438  105.919    7.641    0.000
  289.500    0.273    0.416  105.933    8.240    0.000
  289.750    0.282    0.399  102.319    8.888    0.000
  290.000    0.267    0.394  100.518    9.064    0.000
  290.250    0.263    0.387  102.954    8.587    0.000
  290.500    0.272    0.389  104.176    8.434    0.000
  290.750    0.278    0.411  104.189    7.985    0.000
  291.000    0.295    0.431  101.181    7.700    0.000
  291.250    0.305    0.423   93.937    7.156    0.000
  291.500    0.303    0.415   89.719    6.904    0.000
  291.750    0.285    0.410   93.362    6.786    0.000
  292.000    0.272    0.426  100.035    6.664    0.000
  292.250    0.270    0.442  103.679    6.674    0.000
  292.500    0.283    0.432  105.505    6.680    0.000
  292.750    0.275    0.415  104.914    6.563    0.000
  293.000    0.263    0.409  103.719    6.216    0.000
  293.250    0.259    0.414  101.313    5.884    0.000
  293.500    0.262    0.442   97.703    5.571    0.000
  293.750    0.329    0.476   96.504    5.680    0.000
  294.000    0.370    0.488  100.152    6.017    0.000
  294.250    0.389    0.449  101.382    6.133    0.000
  294.500    0.355    0.421  100.784    6.614    0.000
  294.750    0.327    0.394   95.354    7.405    0.000
  295.000    0.319    0.383   82.669    8.290    0.000
  295.250    0.318    0.386   80.868    8.779    0.000
  295.500    0.321    0.403   80.881    8.784    0.000
  295.750    0.321    0.403   82.710    8.317    0.000
  296.000    0.316    0.398   85.151    8.024    0.000
  296.250    0.311    0.401   85.768    7.740    0.000
  296.500    0.310    0.412   85.779    7.606    0.000
  296.750    0.315    0.404   88.217    7.471    0.000
  297.000    0.322    0.395   87.625    7.481    0.000
  297.250    0.321    0.411   90.665    7.489    0.000
  297.500    0.310    0.428   93.700    7.359    0.000
  297.750    0.304    0.439   90.694    6.966    0.000
  298.000    0.304    0.404   85.868    6.121    0.000
  298.250    0.317    0.387   84.070    5.379    0.000
  298.500    0.360    0.434   91.946    4.472    0.000
  298.750    0.390    0.483   98.613    4.395    0.000
  299.000    0.374    0.453  101.653    4.481    0.000
  299.250    0.352    0.434  102.881    4.924    0.000
  299.500    0.322    0.416  102.290    5.721    0.000
  299.750    0.299    0.410   95.046    6.525    0.000
  300.000    0.295    0.405   90.224    7.170 2205.360
  300.250    0.301    0.408   89.632    7.315 2195.010
  300.500    0.315    0.419   86.623    7.319 2172.170
  300.750    0.318    0.402   84.215    7.193 2165.980
