~VERSION INFORMATION
 VERS.                 2.0:   CWLS LOG ASCII STANDARD -VERSION 2.0
 WRAP.                  NO:   ONE LINE PER DEPTH STEP
~WELL INFORMATION BLOCK
#MNEM.UNIT           DATA                    DESCRIPTION OF MNEMONIC
#---------    -------------------            -------------------------------
# Generated from Intellog Unique Number	CW_79_81/WELL/2469
WELL.         10-18-081-20W4                 : Well_name    - WELL
LOC .         00/10-18-081-20W4/0            : Location     - LOCATION
UWI .         00/10-18-081-20W4/0            : Uwi          - UNIQUE WELL ID
ENTR.         MAX                            : Entered      - ENTERED BY
SRVC.         COMPUTALOG                     : Scn          - SERVICE COMPANY
STRT.M        190                            : top_depth    - START DEPTH
STOP.M        415                            : bot_depth    - STOP DEPTH
STEP.M        0.3                            : increment    - STEP LENGTH
 NULL. -999.2500:NULL Value
~CURVE INFORMATION BLOCK
#MNEM UNIT       ERCB CURVE CODE    CURVE DESCRIPTION
#-----------   ------------------   ----------------------------------
DEPT.M        00 001 00 00         : DEPTH        - DEPTH
GR  .API      00 310 00 00         : GR           - GAMMA RAY
CALI.MM       00 280 01 00         : CAL          - CALIPER
DPHI.V/V      00 890 00 00         : PHID         - DENSITY POROSITY (SANDSTONE)
NPHI.V/V      00 330 00 00         : PHIN         - NEUTRON POROSITY (SANDSTONE)
ILD .OHMM     00 120 00 00         : RESD         - DEEP RESISTIVITY (DIL)
~PARAMETER INFORMATION
#MNEM.UNIT           DATA             DESCRIPTION OF MNEMONIC
#---------         -----------     ------------------------------
GL  .M        581.81               : gl           - GROUND LEVEL ELEVATION
EREF.M        585.04               : kb           - ELEVATION OF DEPTH REFERENCE
DATM.M        581.81               : datum        - DATUM ELEVATION
TDD .M        415                  : tdd          - TOTAL DEPTH DRILLER
RUN .         ONE                  : Run          - RUN NUMBER
ENG .         BILL                 : Engineer     - RECORDING ENGINEER
WIT .         JIM                  : Witness      - WITNESSED BY
MUD .         GEL                  : Mud_type     - MUD TYPE
MATR.         SANDSTONE            : Logunit      - NEUTRON MATRIX
TMAX.C        27                   : BHT          - MAXIMUM RECORDED TEMPERATURE
BHTD.M        415                  : BHTDEP       - MAXIMUM RECORDED TEMPERATURE
MATR.         1                    : LOGUNIT      - NEUTRON MATRIX
RMT .C        9                    : MDTP         - TEMPERATURE OF MUD
NEUT.         1                    : NEUTRON      - NEUTRON TYPE
RESI.         0                    : RESIST       - RESISTIVITY TYPE
RMC .OHMM     6.3                  : RMC          - RESISTIVITY OF MUD CAKE
RMF .OHMM     8                    : RMF          - RESISTIVITY OF MUD FILTRATE
SUFT.C        -20                  : SUFT         - SURFACE TEMPERATURE
~A  DEPTH       GR      CAL     PHID     PHIN     RESD
# ...
  233.800   64.043  192.815    0.340    0.408   41.181
  234.100   62.921  192.444    0.345    0.411   41.629
  234.400   58.248  191.547    0.349    0.408   44.045
  234.700   58.019  191.668    0.346    0.443   47.920
  235.000   60.152  191.275    0.343    0.445   54.599
  235.300   64.944  189.908    0.341    0.460   57.785
  235.600   68.850  189.022    0.341    0.433   59.473
  235.900   72.755  189.121    0.342    0.423   57.939
  236.200   74.298  189.231    0.343    0.421   53.905
  236.500   71.404  189.844    0.343    0.447   50.608
  236.800   67.328  190.435    0.338    0.467   47.967
  237.100   66.810  192.514    0.332    0.450   45.463
  237.400   67.473  195.578    0.330    0.452   43.872
  237.700   69.298  199.134    0.330    0.442   42.733
  238.000   71.733  196.760    0.332    0.422   41.631
  238.300   68.839  195.415    0.335    0.410   40.551
  238.600   68.905  195.011    0.338    0.395   39.143
  238.900   65.709  194.136    0.340    0.395   37.094
  239.200   65.479  193.753    0.338    0.418   32.964
  239.500   65.552  193.360    0.333    0.438   29.825
  239.800   65.604  192.989    0.330    0.431   26.497
  240.100   65.382  192.595    0.333    0.422   25.117
  240.400   64.259  193.197    0.330    0.397   26.332
  240.700   65.211  193.788    0.321    0.407   27.872
  241.000   65.861  194.894    0.303    0.406   26.904
  241.300   66.229  195.966    0.281    0.425   24.571
  241.600   65.114  196.590    0.253    0.350   21.427
  241.900   66.066  200.617    0.209    0.259   19.578
  242.200   67.005  198.768    0.130    0.192   20.153
  242.500   67.661  196.898    0.165    0.167   22.748
  242.800   67.432  196.505    0.232    0.266   23.848
  243.100   60.402  196.615    0.328    0.394   21.984
  243.400   60.173  197.206    0.337    0.426   17.980
  243.700   57.574  197.830    0.338    0.406   15.685
  244.000   59.117  197.425    0.336    0.385   15.562
  244.300   58.296  197.054    0.331    0.395   15.726
  244.600   60.430  196.650    0.326    0.406   16.191
  244.900   63.450  196.289    0.324    0.415   16.981
  245.200   62.642  196.388    0.321    0.391   17.644
  245.500   59.735  196.542    0.317    0.373   17.833
  245.800   56.250  196.586    0.313    0.359   17.854
  246.100   58.101  197.199    0.308    0.349   17.560
  246.400   62.584  197.298    0.306    0.387   17.260
  246.700   67.967  197.419    0.309    0.415   16.967
  247.000   68.033  197.036    0.322    0.440   16.995
  247.300   69.280  195.669    0.333    0.451   16.867
  247.600   66.983  195.254    0.339    0.450   16.737
  247.900   69.110  195.867    0.337    0.427   16.605
  248.200   67.115  195.977    0.333    0.404   16.478
  248.500   67.168  195.091    0.328    0.389   16.348
  248.800   68.120  194.709    0.319    0.380   16.223
  249.100   67.313  194.808    0.313    0.411   16.242
  249.400   66.781  195.410    0.314    0.421   16.268
  249.700   65.653  195.509    0.324    0.432   16.292
  250.000   63.060  196.122    0.335    0.407   16.314
  250.300   68.738  196.232    0.335    0.399   16.338
  250.600   74.121  196.823    0.329    0.400   16.360
  250.900   74.187  197.425    0.324    0.401   16.236
  251.200   68.634  197.535    0.318    0.392   16.258
  251.500   67.230  197.634    0.314    0.393   16.284
  251.800   64.033  197.754    0.314    0.413   16.159
  252.100   62.032  197.842    0.317    0.423   15.885
  252.400   61.513  197.963    0.315    0.428   15.618
  252.700   59.498  198.062    0.306    0.387   15.351
  253.000   56.906  198.172    0.269    0.321   15.379
  253.300   56.381  197.789    0.124    0.232   15.826
  253.600   60.576  196.904    0.038    0.188   16.596
  253.900   67.435  195.526    0.024    0.176   17.729
  254.200   67.501  194.159    0.052    0.178   19.114
  254.500   63.432  193.776    0.080    0.171   20.411
  254.800   57.288  194.882    0.102    0.150   22.828
  255.100   51.736  195.473    0.088    0.123   26.247
  255.400   52.103  195.112    0.055    0.113   29.091
  255.700   53.344  195.189    0.088    0.137   31.355
  256.000   59.908  196.787    0.209    0.253   31.402
  256.300   68.540  196.383    0.236    0.357   30.307
  256.600   73.037  194.031    0.330    0.355   26.933
  256.900   71.330  191.680    0.334    0.375   24.368
  257.200   68.141  191.789    0.328    0.368   17.041
  257.500   65.850  192.392    0.325    0.360   15.425
  257.800   65.923  192.501    0.326    0.347   14.748
  258.100   67.452  193.082    0.328    0.337   14.370
  258.400   63.678  194.198    0.331    0.365   14.129
  258.700   61.959  195.281    0.334    0.402   14.150
  259.000   56.413  195.884    0.335    0.446   14.430
  259.300   55.586  194.998    0.330    0.464   14.453
  259.600   57.424  194.604    0.303    0.461   14.474
  259.900   56.315  194.222    0.291    0.459   14.628
  260.200   52.823  193.829    0.294    0.431   14.785
  260.500   46.982  193.950    0.314    0.412   14.941
  260.800   46.168  195.033    0.330    0.393   15.385
  261.100   47.993  196.127    0.339    0.370   15.836
  261.400   49.542  196.226    0.339    0.415   16.304
  261.700   48.132  197.332    0.341    0.472   16.479
  262.000   46.714  197.945    0.343    0.481   16.350
  262.300   46.478  198.055    0.347    0.443   16.374
  262.600   46.846  197.169    0.345    0.423   16.395
  262.900   44.831  195.299    0.342    0.398   16.422
  263.200   44.897  197.367    0.338    0.407   16.456
  263.500   43.781  197.488    0.334    0.413   16.471
  263.800   43.263  197.575    0.331    0.403   16.495
  264.100   40.959  196.230    0.333    0.410   16.515
  264.400   40.139  195.837    0.335    0.406   16.390
  264.700   39.608  194.459    0.334    0.425   16.414
  265.000   37.901  192.096    0.329    0.420   16.438
  265.300   37.370  196.156    0.322    0.400   16.460
  265.600   35.953  196.254    0.318    0.392   16.634
  265.900   33.951  195.872    0.311    0.408   16.971
  266.200   33.715  195.993    0.305    0.438   17.148
  266.500   36.741  196.595    0.306    0.406   17.332
  266.800   40.050  196.672    0.312    0.379   17.360
  267.100   43.962  196.782    0.315    0.367   17.384
  267.400   44.907  196.903    0.315    0.371   17.570
  267.700   44.684  196.991    0.316    0.396   17.599
  268.000   43.556  196.619    0.317    0.422   17.461
  268.300   41.265  194.268    0.318    0.440   17.324
  268.600   40.438  191.402    0.318    0.453   17.349
  268.900   40.215  189.553    0.317    0.473   17.213
  269.200   40.275  193.591    0.314    0.496   17.081
  269.500   40.334  196.173    0.314    0.506   17.103
  269.800   40.400  194.292    0.317    0.512   16.972
  270.100   41.352  193.909    0.318    0.496   16.997
  270.400   42.304  195.518    0.314    0.477   17.024
  270.700   43.256  196.601    0.310    0.464   17.050
  271.000   44.202  196.700    0.309    0.463   17.070
  271.300   44.852  196.799    0.313    0.479   17.098
  271.600   44.333  197.893    0.318    0.457   16.963
  271.900   42.916  198.014    0.317    0.428   16.986
  272.200   41.210  195.159    0.312    0.412   16.860
  272.500   39.799  193.300    0.305    0.391   16.880
  272.800   38.965  193.399    0.300    0.390   16.748
  273.100   40.508  194.483    0.298    0.356   16.621
  273.400   43.830  197.557    0.298    0.343   16.491
  273.700   47.447  200.128    0.300    0.374   16.214
  274.000   50.460  200.742    0.304    0.406   15.942
  274.300   53.479  200.829    0.307    0.460   15.388
  274.600   56.492  200.928    0.298    0.462   14.715
  274.900   64.238  200.065    0.283    0.495   13.441
  275.200   71.990  199.682    0.274    0.512   12.052
  275.500   73.526  199.770    0.260    0.484   10.513
  275.800   72.115  199.891    0.243    0.457    9.085
  276.100   65.978  200.012    0.247    0.415    7.780
  276.400   66.038  198.623    0.265    0.399    7.306
  276.700   70.541  198.240    0.262    0.394    7.591
  277.000   74.440  198.831    0.252    0.405    8.727
  277.300   79.232  198.952    0.249    0.437   11.626
