~VERSION INFORMATION
 VERS.                 2.0:   CWLS LOG ASCII STANDARD -VERSION 2.0
 WRAP.                  NO:   ONE LINE PER DEPTH STEP
~WELL INFORMATION BLOCK
#MNEM.UNIT           DATA                    DESCRIPTION OF MNEMONIC
#---------    -------------------            -------------------------------
# Generated from Intellog Unique Number	CW_73_75/WELL/3024
WELL.         HOME ALMX KCL MARTEN H 11-15   : Well_name    - WELL
LOC .         00/11-15-073-24W4/0            : Location     - LOCATION
UWI .         00/11-15-073-24W4/0            : Uwi          - UNIQUE WELL ID
ENTR.         JJ                             : Entered      - ENTERED BY
SRVC.         SCHLUMBERGER                   : Scn          - SERVICE COMPANY
DATE.         6 FEB 69                       : Date         - LOG DATE
STRT.M        457.2                          : top_depth    - START DEPTH
STOP.M        585.2                          : bot_depth    - STOP DEPTH
STEP.M        0.25                           : increment    - STEP LENGTH
 NULL. -999.2500:NULL Value
~CURVE INFORMATION BLOCK
#MNEM UNIT       ERCB CURVE CODE    CURVE DESCRIPTION
#-----------   ------------------   ----------------------------------
DEPT.M        00 001 00 00         : DEPTH        - DEPTH
DELT.US/F     00 520 00 00         : DELT         - SONIC TRAVEL TIME
GR  .API      00 310 00 00         : GR           - GAMMA RAY
CALI.MM       00 280 01 00         : CAL          - CALIPER
ILD .OHMM     00 120 00 00         : RESD         - DEEP RESISTIVITY (DIL)
~PARAMETER INFORMATION
#MNEM.UNIT           DATA             DESCRIPTION OF MNEMONIC
#---------         -----------     ------------------------------
GL  .M        629.107              : gl           - GROUND LEVEL ELEVATION
EREF.M        632.521              : kb           - ELEVATION OF DEPTH REFERENCE
DATM.M        629.168              : datum        - DATUM ELEVATION
TDD .M        1179.58              : tdd          - TOTAL DEPTH DRILLER
RUN .         ONE                  : Run          - RUN NUMBER
ENG .         JOHNSON              : Engineer     - RECORDING ENGINEER
WIT .         DAWSON               : Witness      - WITNESSED BY
BASE.         EDMONTON             : Branch       - HOME BASE OF LOGGING UNIT
MUD .         GEL                  : Mud_type     - MUD TYPE
MATR.         SANDSTONE            : Logunit      - NEUTRON MATRIX
TMAX.C        35.5556              : BHT          - MAXIMUM RECORDED TEMPERATURE
BHTD.M        1179.88              : BHTDEP       - MAXIMUM RECORDED TEMPERATURE
RMT .C        16.6667              : MDTP         - TEMPERATURE OF MUD
MUDD.KG/M     1188                 : MWT          - MUD DENSITY
NEUT.         1                    : NEUTRON      - NEUTRON TYPE
RESI.         0                    : RESIST       - RESISTIVITY TYPE
RM  .OHMM     2.08                 : RM           - RESISTIVITY OF MUD
RMC .OHMM     1.32                 : RMC          - RESISTIVITY OF MUD CAKE
RMF .OHMM     1.5                  : RMF          - RESISTIVITY OF MUD FILTRATE
SUFT.C        5                    : SUFT         - SURFACE TEMPERATURE
~A  DEPTH     DELT       GR      CAL     RESD
# ...
  500.700  371.359   66.440  203.791    7.936
  500.950  379.461   69.632  203.394    7.976
  501.200  376.174   70.390  202.788    7.975
  501.450  361.298   68.414  201.655    7.694
  501.700  363.312   70.113  199.786    7.773
  501.950  350.792   68.237  196.971    7.853
  502.200  330.546   68.496  194.579    8.093
  502.450  318.879   69.800  194.916    8.212
  502.700  346.688   68.221  195.785    8.613
  502.950  357.607   72.754  197.175    9.053
  503.200  353.923   70.778  198.881    9.052
  503.450  364.124   64.877  198.694    8.650
  503.700  370.589   66.379  200.612    8.329
  503.950  364.811   70.266  200.635    7.887
  504.200  358.513   67.247  199.610    7.806
  504.450  350.577   63.283  200.579    7.685
  504.700  352.462   65.729  203.971    7.684
  504.950  359.845   71.703  205.471    7.684
  505.200  360.355   76.584  204.972    7.763
  505.450  364.333   76.794  204.041    7.723
  505.700  365.037   72.334  203.223    7.722
  505.950  359.980   69.912  202.093    7.641
  506.200  357.412   67.537  201.694    7.480
  506.450  354.322   62.729  201.720    7.479
  506.700  351.754   65.922  202.481    7.679
  506.950  377.206   70.156  205.448    9.362
  507.200  388.909   73.546  202.108   10.885
  507.450  390.795   75.941  199.607   13.371
  507.700  338.273   77.941  197.004   15.375
  507.950  299.695   78.548  191.875   18.582
  508.200  282.004   74.982  186.432   19.704
  508.450  253.508   69.776  185.613   16.415
  508.700  232.739   64.123  187.215   13.969
  508.950  223.624   52.856  189.656   12.404
  509.200  281.356   54.956  191.366   11.241
  509.450  297.970   57.849  192.544   10.438
  509.700  319.757   60.891  193.304    9.354
  509.950  296.171   63.137  193.331    8.632
  510.200  262.898   62.056  192.301    8.070
  510.450  243.766   54.117  192.430    7.668
  510.700  323.888   58.650  194.982    7.467
  510.950  350.649   66.117  197.321    7.386
  511.200  355.214   75.419  199.132    7.666
  511.450  355.597   77.963  200.941    7.987
  511.700  353.815   73.055  203.386    8.307
  511.950  340.704   68.497  206.466    8.586
  512.200  342.392   68.558  207.221    8.786
  512.450  345.779   62.010  208.406    8.866
  512.700  346.813   63.760  209.058    8.865
  512.950  346.273   60.940  209.816    8.784
  513.200  346.588   60.802  210.475    8.663
  513.450  348.995   68.018  211.342    8.302
  513.700  352.450   66.837  211.995    8.060
  513.950  355.383   67.147  212.122    7.779
  514.200  356.151   68.600  212.356    7.618
  514.450  350.115   68.064  212.590    7.457
  514.700  359.460   66.236  212.408    7.175
  514.950  364.946   67.540  210.748    6.974
  515.200  365.457   64.818  208.357    6.933
  515.450  354.768   69.253  207.746    7.093
  515.700  355.933   72.444  207.769    7.493
  515.950  350.417   64.605  207.483    8.896
  516.200  346.606   65.364  206.349   10.860
  516.450  342.795   66.068  205.422   13.466
  516.700  345.069   61.459  203.767   17.675
  516.950  338.767   57.048  202.213   21.243
  517.200  332.470   56.463  200.657   27.658
  517.450  321.392   55.929  197.004   28.218
  517.700  240.454   56.138  194.501   22.965
  517.950  209.929   53.516  192.001   19.275
  518.200  206.440   47.813  190.027   16.869
  518.450  210.096   40.073  189.001   14.543
  518.700  221.147   37.898  189.341   12.256
  518.950  255.699   41.835  190.100   11.213
  519.200  274.541   60.132  191.499   10.410
  519.450  303.789   55.276  193.097   10.289
  519.700  325.709   53.249  195.326   10.249
  519.950  343.502   59.620  196.823   10.168
  520.200  337.659   59.929  198.324   10.167
  520.450  338.430   63.817  199.189   10.166
  520.700  346.994   66.512  199.629   10.085
  520.950  349.009   61.753  200.079   10.045
  521.200  349.316   61.268  200.310    9.964
  521.450  349.237   61.926  200.546    9.923
  521.700  348.768   65.315  200.785   10.083
  521.950  345.545   65.924  200.913   10.363
  522.200  348.149   66.878  200.831   10.723
  522.450  344.203   66.543  200.116   11.283
  522.700  331.162   65.262  198.246   11.764
  522.950  316.023   63.286  195.225   12.324
  523.200  297.546   57.980  192.721   12.404
  523.450  287.711   52.774  191.385   12.484
  523.700  284.029   58.600  192.245   12.443
  523.950  263.784   61.642  194.275   12.522
  524.200  301.807   55.939  195.239   12.842
  524.450  323.200   60.325  197.266   15.247
  524.700  332.418   61.877  198.340   14.765
  524.950  310.601   61.193  198.885   12.760
  525.200  305.609   61.005  199.227   11.717
  525.450  291.258   57.437  200.091   10.473
  525.700  265.185   51.437  201.695    9.791
  525.950  244.220   52.742  203.086    8.908
  526.200  304.700   54.343  204.898    8.386
  526.450  328.254   55.893  206.501    8.185
  526.700  333.476   64.402  207.786    8.024
  526.950  335.162   64.910  209.282    7.822
  527.200  336.853   66.760  210.568    7.741
  527.450  338.999   67.766  211.539    7.540
  527.700  331.781   66.038  212.515    7.419
  527.950  319.982   60.088  213.165    7.298
  528.200  333.717   57.265  214.347    7.137
  528.450  339.725   60.010  215.954    7.016
  528.700  336.567   64.196  217.132    6.975
  528.950  340.022   65.747  218.520    6.854
  529.200  335.490   65.559  220.123    6.773
  529.450  325.129   66.913  221.624    6.733
  529.700  335.133   64.391  222.591    6.732
  529.950  345.592   65.246  223.245    6.731
  530.200  351.797   66.799  221.901    6.771
  530.450  353.878   63.729  222.773    7.091
  530.700  360.149   63.493  225.001    7.291
  530.950  364.849   63.901  224.711    7.611
  531.200  343.815   65.305  220.318    7.610
  531.450  326.715   65.365  211.192    7.569
  531.700  326.566   59.861  212.897    7.408
  531.950  327.206   56.692  218.285    7.287
  532.200  328.961   58.145  218.944    7.166
  532.450  337.325   56.317  218.549    6.885
  532.700  337.701   59.559  218.259    6.684
  532.950  338.408   61.856  217.860    6.362
  533.200  340.619   62.662  217.355    6.121
  533.450  342.044   68.238  216.651    5.879
  533.700  342.686   70.984  215.939    5.598
  533.950  345.092   69.504  215.331    5.437
  534.200  345.733   71.106  214.615    5.316
  534.450  346.635   73.899  213.904    5.716
  534.700  348.779   77.191  212.662    6.157
  534.950  353.086   70.395  211.319    7.078
  535.200  356.543   69.760  209.874    7.398
  535.450  352.467   70.020  208.528    7.999
  535.700  337.330   71.621  207.503    8.640
  535.950  321.863   72.278  206.685    9.481
  536.200  310.327   67.520  204.501   11.405
  536.450  320.065   66.886  200.842   14.171
  536.700  325.681   65.755  191.401   15.534
  536.950  306.353   63.380  190.480   16.616
  537.200  255.010   59.318  191.244   17.056
  537.450  237.448   54.410  191.898   15.892
  537.700  273.705   49.204  192.449   14.328
  537.950  305.836   59.948  193.211   12.443
  538.200  302.611   65.127  193.864   11.439
  538.450  303.581   62.108  193.363   11.238
  538.700  305.726   62.271  192.018   11.398
  538.950  310.818   64.167  189.729   12.159
  539.200  316.695   67.360  184.493   14.765
  539.450  311.050   65.085  180.415   18.012
  539.700  282.097   55.557  178.548   20.537
  539.950  239.133   50.750  177.835   23.945
  540.200  204.220   46.586  177.962   17.328
  540.450  202.242   43.268  179.148   13.358
  540.700  219.774   42.286  181.066    9.989
  540.950  267.290   50.646  183.192    7.582
  541.200  294.839   56.123  184.689    6.780
  541.450  331.228   67.016  185.340    6.579
  541.700  325.580   76.071  185.787    6.979
  541.950  323.602   71.709  185.922    7.580
  542.200  324.895   72.217  185.838    7.739
  542.450  314.538   69.943  184.496    7.979
  542.700  303.131   69.955  184.200    8.259
  542.950  307.765   72.252  186.855    8.499
  543.200  332.497   69.334  189.405    8.659
  543.450  332.679   70.586  190.794    8.858
  543.700  332.010   73.728  192.290    8.978
  543.950  329.901   74.434  193.261    8.937
