~VERSION INFORMATION
 VERS.                 2.0:   CWLS LOG ASCII STANDARD -VERSION 2.0
 WRAP.                  NO:   ONE LINE PER DEPTH STEP
~WELL INFORMATION BLOCK
#MNEM.UNIT           DATA                    DESCRIPTION OF MNEMONIC
#---------    -------------------            -------------------------------
# Generated from Intellog Unique Number	CX_WELLS/WELL/3924
WELL.         14-05-097-21W4                 : Well_name    - WELL
LOC .         00/14-05-097-21W4/0            : Location     - LOCATION
UWI .         00/14-05-097-21W4/0            : Uwi          - UNIQUE WELL ID
ENTR.         TIM                            : Entered      - ENTERED BY
SRVC.         SCHLUMBERGER                   : Scn          - SERVICE COMPANY
DATE.         08/11/92                       : Date         - LOG DATE
STRT.M        320.04                         : top_depth    - START DEPTH
STOP.M        503.04                         : bot_depth    - STOP DEPTH
STEP.M        0.25                           : increment    - STEP LENGTH
 NULL. -999.2500:NULL Value
~CURVE INFORMATION BLOCK
#MNEM UNIT       ERCB CURVE CODE    CURVE DESCRIPTION
#-----------   ------------------   ----------------------------------
DEPT.M        00 001 00 00         : DEPTH        - DEPTH
DPHI.V/V      00 890 00 00         : PHID         - DENSITY POROSITY (SANDSTONE)
GR  .API      00 310 00 00         : GR           - GAMMA RAY
ILD .OHMM     00 120 00 00         : RESD         - DEEP RESISTIVITY (DIL)
RHOB.KG/M3    00 350 00 00         : DENS         - BULK DENSITY
NPHI.V/V      00 330 00 00         : PHIN         - NEUTRON POROSITY (SANDSTONE)
~PARAMETER INFORMATION
#MNEM.UNIT           DATA             DESCRIPTION OF MNEMONIC
#---------         -----------     ------------------------------
GL  .M        330.5                : gl           - GROUND LEVEL ELEVATION
EREF.M        330.5                : kb           - ELEVATION OF DEPTH REFERENCE
DATM.M        330.5                : datum        - DATUM ELEVATION
TDD .M        518.16               : tdd          - TOTAL DEPTH DRILLER
RUN .         ONE                  : Run          - RUN NUMBER
ENG .         BILL                 : Engineer     - RECORDING ENGINEER
WIT .         JIM                  : Witness      - WITNESSED BY
MUD .         GEL                  : Mud_type     - MUD TYPE
MATR.         SANDSTONE            : Logunit      - NEUTRON MATRIX
TMAX.C        0                    : BHT          - MAXIMUM RECORDED TEMPERATURE
BHTD.M        518.16               : BHTDEP       - MAXIMUM RECORDED TEMPERATURE
RMT .C        0                    : MDTP         - TEMPERATURE OF MUD
MUDD.KG/M     0                    : MWT          - MUD DENSITY
NEUT.         1                    : NEUTRON      - NEUTRON TYPE
RESI.         0                    : RESIST       - RESISTIVITY TYPE
RM  .OHMM     0                    : RM           - RESISTIVITY OF MUD
RMC .OHMM     0                    : RMC          - RESISTIVITY OF MUD CAKE
RMF .OHMM     0                    : RMF          - RESISTIVITY OF MUD FILTRATE
SUFT.C        4                    : SUFT         - SURFACE TEMPERATURE
~A  DEPTH     PHID       GR     RESD     DENS     PHIN
# ...
  393.040    0.347   65.793    3.345 2078.110    0.559
  393.290    0.349   68.611    3.106 2074.070    0.535
  393.540    0.341   69.413    2.947 2087.890    0.516
  393.790    0.330   69.809    2.788 2105.690    0.516
  394.040    0.319   69.394    2.550 2123.490    0.516
  394.290    0.308   68.577    2.391 2141.290    0.520
  394.540    0.304   67.356    2.311 2149.150    0.525
  394.790    0.296   64.520    2.311 2160.970    0.531
  395.040    0.289   61.683    2.469 2172.830    0.526
  395.290    0.277   64.099    2.866 2192.610    0.520
  395.540    0.268   66.918    3.978 2208.420    0.509
  395.790    0.257   63.678    4.613 2226.200    0.482
  396.040    0.258   58.415    4.693 2224.130    0.442
  396.290    0.265   58.406    4.534 2212.140    0.473
  396.540    0.275   61.227    4.216 2196.160    0.495
  396.790    0.282   63.644    3.739 2184.130    0.517
  397.040    0.280   59.997    3.579 2188.040    0.531
  397.290    0.272   53.116    3.579 2201.870    0.510
  397.540    0.258   49.470    3.341 2223.640    0.485
  397.790    0.242   49.459    3.420 2251.370    0.393
  398.040    0.216   50.661    5.644 2292.990    0.438
  398.290    0.214   51.061    6.915 2296.880    0.451
  398.540    0.233   51.858    7.391 2265.020    0.458
  398.790    0.262   52.658    6.914 2217.210    0.462
  399.040    0.266   53.460    6.358 2211.190    0.457
  399.290    0.292   54.258    5.960 2167.390    0.434
  399.540    0.302   55.866    5.722 2151.410    0.450
  399.790    0.325   57.476    6.516 2113.550    0.485
  400.040    0.343   59.489    7.231 2083.660    0.513
  400.290    0.349   61.097    7.469 2073.640    0.514
  400.540    0.322   62.705    7.469 2119.250    0.505
  400.790    0.307   63.909    7.468 2143.010    0.508
  401.040    0.287   65.517    7.150 2176.710    0.547
  401.290    0.276   65.912    5.402 2194.530    0.528
  401.540    0.262   65.904    4.926 2218.280    0.512
  401.790    0.285   65.893    3.893 2180.430    0.513
  402.040    0.310   66.695    2.939 2138.610    0.549
  402.290    0.318   68.707    2.621 2124.620    0.576
  402.540    0.311   71.122    2.621 2136.440    0.572
  402.790    0.303   73.136    2.621 2150.280    0.564
  403.040    0.296   75.551    2.541 2162.120    0.556
  403.290    0.290   75.542    2.461 2171.970    0.554
  403.540    0.287   74.727    2.620 2175.860    0.547
  403.790    0.292   75.527    2.858 2167.820    0.543
  404.040    0.298   77.133    2.858 2157.800    0.551
  404.290    0.297   78.337    2.857 2159.690    0.557
  404.540    0.307   79.543    2.778 2143.680    0.552
  404.790    0.314   78.322    2.698 2131.700    0.549
  405.040    0.302   76.291    2.618 2151.480    0.544
  405.290    0.289   74.668    2.698 2173.250    0.524
  405.540    0.273   70.617    2.777 2199.000    0.502
  405.790    0.260   69.798    2.856 2220.750    0.481
  406.040    0.251   69.790    2.856 2236.560    0.473
  406.290    0.246   69.781    2.856 2244.450    0.454
  406.540    0.245   69.775    3.014 2246.330    0.446
  406.790    0.243   68.551    3.411 2248.230    0.434
  407.040    0.239   67.330    4.205 2256.090    0.433
  407.290    0.235   66.513    4.602 2261.990    0.435
  407.540    0.227   66.909    5.237 2275.810    0.431
  407.790    0.216   68.115    5.555 2293.590    0.413
  408.040    0.209   69.317    5.714 2305.450    0.402
  408.290    0.199   68.904    5.554 2321.260    0.388
  408.540    0.199   68.085    5.475 2321.130    0.387
  408.790    0.202   67.677    5.395 2317.090    0.396
  409.040    0.202   66.858    5.236 2317.030    0.396
  409.290    0.203   66.041    5.315 2314.960    0.381
  409.540    0.212   66.838    5.474 2300.970    0.384
  409.790    0.260   69.661    5.712 2221.380    0.391
  410.040    0.277   72.480    5.791 2193.480    0.408
  410.290    0.285   73.682    5.394 2179.480    0.511
  410.540    0.284   73.677    4.599 2181.390    0.505
  410.790    0.274   74.073    3.725 2197.200    0.499
  411.040    0.260   71.639    3.089 2220.960    0.488
  411.290    0.253   67.589    2.771 2232.790    0.472
  411.540    0.248   61.114    3.248 2240.660    0.457
  411.790    0.247   59.893    3.883 2242.560    0.444
  412.040    0.265   61.097    4.518 2212.670    0.428
  412.290    0.278   64.322    5.153 2190.730    0.476
  412.540    0.269   67.951    5.709 2206.540    0.494
  412.790    0.259   70.769    6.265 2222.350    0.497
  413.040    0.248   72.781    5.868 2240.120    0.496
  413.290    0.247   73.177    4.755 2242.050    0.491
  413.540    0.248   72.764    3.961 2239.980    0.474
  413.790    0.251   70.333    3.643 2235.920    0.458
  414.040    0.252   65.070    3.484 2233.800    0.428
  414.290    0.255   59.403    3.483 2229.720    0.430
  414.540    0.258   56.969    3.562 2223.720    0.425
  414.790    0.267   56.961    3.880 2209.730    0.412
  415.040    0.273   57.761    4.436 2199.710    0.430
  415.290    0.297   59.771    5.866 2159.820    0.478
  415.540    0.300   60.977    7.216 2155.820    0.498
  415.790    0.324   62.585    7.771 2115.980    0.507
  416.040    0.331   64.191    7.295 2103.970    0.509
  416.290    0.311   64.183    5.706 2137.660    0.501
  416.540    0.284   62.961    3.322 2181.290    0.495
  416.790    0.276   62.953    2.607 2195.140    0.488
  417.040    0.253   63.755    2.607 2232.760    0.478
  417.290    0.249   66.978    3.083 2238.680    0.455
  417.540    0.240   65.352    3.480 2254.490    0.426
  417.790    0.245   63.729    3.718 2246.460    0.423
  418.040    0.254   60.889    4.115 2230.460    0.417
  418.290    0.228   62.091    4.512 2274.110    0.422
  418.540    0.201   63.295    4.274 2317.740    0.417
  418.790    0.195   63.691    3.876 2327.590    0.398
  419.040    0.188   63.682    3.717 2339.420    0.400
  419.290    0.215   63.269    3.876 2295.600    0.406
  419.540    0.226   62.452    4.431 2277.640    0.412
  419.790    0.231   62.040    4.908 2269.600    0.415
  420.040    0.238   63.244    5.543 2257.570    0.418
  420.290    0.243   64.448    5.781 2249.540    0.418
  420.540    0.236   66.058    5.781 2261.400    0.418
  420.790    0.226   67.664    5.781 2277.190    0.418
  421.040    0.228   67.655    5.781 2273.150    0.413
  421.290    0.237   66.030    5.780 2259.140    0.405
  421.540    0.231   64.811    5.859 2269.010    0.413
  421.790    0.208   64.398    5.939 2306.680    0.413
  422.040    0.200   63.581    5.779 2320.500    0.402
  422.290    0.206   63.573    5.620 2310.480    0.402
  422.540    0.215   65.181    5.700 2294.500    0.415
  422.790    0.219   66.789    5.699 2288.410    0.421
  423.040    0.218   67.183    5.699 2290.310    0.423
  423.290    0.222   67.174    5.699 2284.290    0.413
  423.540    0.233   67.166    5.778 2266.300    0.398
  423.790    0.237   65.947    5.778 2258.290    0.385
  424.040    0.235   64.322    5.778 2262.160    0.368
  424.290    0.231   62.696    5.698 2268.030    0.370
  424.540    0.233   63.092    5.618 2265.960    0.373
  424.790    0.236   64.696    5.459 2259.910    0.375
  425.040    0.236   65.096    5.459 2259.850    0.377
  425.290    0.235   65.895    5.617 2261.750    0.382
  425.540    0.240   65.483    6.014 2253.700    0.399
  425.790    0.247   64.664    6.650 2241.690    0.402
  426.040    0.262   63.847    7.603 2217.760    0.414
  426.290    0.273   62.221    8.317 2199.800    0.432
  426.540    0.279   61.002    7.682 2189.780    0.447
  426.790    0.283   61.396    7.046 2183.730    0.456
  427.040    0.285   63.002    6.331 2179.650    0.467
  427.290    0.283   63.402    5.854 2183.560    0.481
  427.540    0.280   64.202    5.139 2187.450    0.496
  427.790    0.272   61.766    4.582 2201.270    0.476
  428.040    0.262   60.136    3.947 2217.080    0.452
  428.290    0.256   60.536    3.470 2226.930    0.432
  428.540    0.255   62.145    3.470 2228.810    0.402
  428.790    0.255   63.348    4.264 2228.730    0.393
  429.040    0.257   62.931    5.137 2226.660    0.403
  429.290    0.257   62.523    6.011 2226.550    0.419
