~VERSION INFORMATION
 VERS.                 2.0:   CWLS LOG ASCII STANDARD -VERSION 2.0
 WRAP.                  NO:   ONE LINE PER DEPTH STEP
~WELL INFORMATION BLOCK
#MNEM.UNIT           DATA                    DESCRIPTION OF MNEMONIC
#---------    -------------------            -------------------------------
# Generated from Intellog Unique Number	CC_80_83/WELL/2334
NULL.         -999.25                        : NULL_VALUE
WELL.         PEX HOUSE                      : Well_name    - WELL              
LOC .         10-05-080-15W4                 : Location     - LOCATION          
UWI .         00/10-05-080-15W4/0            : Uwi          - UNIQUE WELL ID    
ENTR.         RJA                            : Entered      - ENTERED BY        
SRVC.         SCHLUMBERGER                   : Scn          - SERVICE COMPANY   
DATE.         05 FEB 82                      : Date         - LOG DATE
STRT.M        170                            : top_depth    - START DEPTH       
STOP.M        402.795                        : bot_depth    - STOP DEPTH        
STEP.M        0.3                            : increment    - STEP LENGTH       
~CURVE INFORMATION BLOCK
#MNEM UNIT       ERCB CURVE CODE    CURVE DESCRIPTION
#-----------   ------------------   ----------------------------------
DEPT.M        00 001 00 00         : DEPTH        - DEPTH                       
DPHI.V/V      00 890 00 00         : PHID         - DENSITY POROSITY (LIMESTONE)
NPHI.V/V      00 330 00 00         : PHIN         - NEUTRON POROSITY (LIMESTONE)
GR  .API      00 310 00 00         : GR           - GAMMA RAY                   
DELT.US/F     00 520 00 00         : DELT         - SONIC TRAVEL TIME           
ILD .OHMM     00 120 00 00         : RESD         - DEEP RESISTIVITY (DIL)      
~PARAMETER INFORMATION       
#MNEM.UNIT           DATA             DESCRIPTION OF MNEMONIC
#---------         -----------     ------------------------------
GL  .M        561.82               : gl           - GROUND LEVEL ELEVATION      
EREF.M        565.57               : kb           - ELEVATION OF DEPTH REFERENCE
DATM.M        565.57               : datum        - DATUM ELEVATION             
TDD .M        411                  : tdd          - TOTAL DEPTH DRILLER         
RUN .         ONE                  : Run          - RUN NUMBER                  
ENG .         BILL                 : Engineer     - RECORDING ENGINEER          
WIT .         JIM                  : Witness      - WITNESSED BY                
MUD .         GEL                  : Mud_type     - MUD TYPE                    
MATR.         LIMESTONE            : Logunit      - NEUTRON MATRIX              
TMAX.C        23.8                 : BHT          - MAXIMUM RECORDED TEMPERATURE
BHTD.M        411                  : BHTDEP       - MAXIMUM RECORDED TEMPERATURE
MATR.         1                    : LOGUNIT      - NEUTRON MATRIX              
RMT .C        25                   : MDTP         - TEMPERATURE OF MUD          
NEUT.         1                    : NEUTRON      - NEUTRON TYPE                
RESI.         0                    : RESIST       - RESISTIVITY TYPE            
RMC .OHMM     0.25                 : RMC          - RESISTIVITY OF MUD CAKE     
RMF .OHMM     0.25                 : RMF          - RESISTIVITY OF MUD FILTRATE 
SUFT.C        15                   : SUFT         - SURFACE TEMPERATURE         
~A  DEPTH     PHID     PHIN       GR     DELT     RESD
# ...
  301.399    0.334    0.444   56.050  348.080   12.301
  301.699    0.326    0.442   59.447  304.281   15.186
  301.999    0.324    0.426   57.515  284.440   17.840
  302.299    0.341    0.387   52.978  277.139   19.352
  302.599    0.238    0.339   53.708  264.725   15.872
  302.899    0.205    0.242   55.063  261.063   10.127
  303.199    0.281    0.250   53.564  343.445    8.761
  303.499    0.343    0.362   54.232  393.541    8.318
  303.799    0.346    0.456   57.882  415.891    8.361
  304.099    0.352    0.452   58.427  412.814    8.516
  304.399    0.335    0.435   56.246  407.832    8.692
  304.699    0.325    0.436   55.365  402.681    8.754
  304.999    0.327    0.455   56.659  399.927    8.834
  305.299    0.334    0.489   57.452  398.405    9.120
  305.599    0.330    0.492   55.702  399.528    9.361
  305.899    0.320    0.436   56.493  403.385    9.410
  306.199    0.319    0.410   56.179  407.650    9.194
  306.499    0.335    0.425   53.873  411.920    8.845
  306.799    0.338    0.435   54.665  413.864    8.740
  307.099    0.345    0.437   56.887  411.532    8.573
  307.399    0.335    0.435   60.660  408.965    8.568
  307.699    0.328    0.435   61.825  409.485    8.646
  307.999    0.329    0.441   61.258  411.616    8.725
  308.299    0.333    0.466   59.697  415.064    8.753
  308.599    0.332    0.473   58.259  418.433    8.766
  308.899    0.332    0.441   57.314  420.382    8.745
  309.199    0.336    0.422   56.995  420.757    8.773
  309.499    0.340    0.415   58.282  417.013    8.887
  309.799    0.333    0.430   58.831  412.836    9.019
  310.099    0.316    0.439   58.823  413.227    9.100
  310.399    0.317    0.447   58.747  414.846    9.182
  310.699    0.327    0.457   57.744  413.578    9.247
  310.999    0.330    0.454   57.667  410.324    9.033
  311.299    0.331    0.446   58.219  409.796    8.929
  311.599    0.330    0.457   59.076  412.742    8.381
  311.899    0.331    0.443   59.311  422.551    7.943
  312.199    0.329    0.432   60.722  428.952    7.760
  312.499    0.325    0.466   63.008  419.107    7.889
  312.799    0.313    0.477   67.090  409.249    7.975
  313.099    0.307    0.479   68.507  400.310    8.017
  313.399    0.302    0.472   67.751  402.599    7.787
  313.699    0.295    0.452   71.832  404.211    7.437
  313.999    0.285    0.443   71.821  405.572    6.569
  314.298    0.279    0.449   70.755  404.470    5.971
  314.598    0.266    0.474   75.271  406.592    5.294
  314.898    0.248    0.452   82.762  413.504    4.811
  315.198    0.229    0.466   84.608  422.056    4.845
  315.498    0.225    0.464   86.894  428.469    5.002
  315.798    0.237    0.444   85.331  421.837    5.204
  316.098    0.237    0.450   83.833  423.124    5.548
  316.398    0.231    0.461   85.062  427.725    5.772
  316.698    0.219    0.458   82.198  427.701    5.891
  316.998    0.209    0.477   82.306  430.075    5.745
  317.298    0.213    0.488   84.032  432.350    5.301
  317.598    0.198    0.482   87.186  425.129    4.938
  317.898    0.208    0.454   89.284  423.123    5.001
  318.198    0.226    0.462   88.774  428.792    5.095
  318.498    0.224    0.455   92.485  435.280    5.795
  318.798    0.214    0.448   93.960  438.470    7.006
  319.098    0.226    0.466   93.144  416.891    8.813
  319.398    0.229    0.479   88.234  392.762    9.911
  319.698    0.197    0.447   88.038  381.336    9.982
  319.998    0.191    0.429   94.475  376.362    9.643
  320.298    0.205    0.414   93.158  374.990    8.534
  320.598    0.186    0.405   89.490  381.412    7.066
  320.898    0.181    0.399   89.849  391.537    6.325
  321.198    0.214    0.401   91.514  397.777    6.086
  321.498    0.218    0.442   90.572  404.933    5.945
  321.798    0.219    0.453   85.975  411.759    5.885
  322.098    0.218    0.449   84.289  416.935    6.029
  322.398    0.221    0.437   85.641  417.150    6.166
  322.698    0.214    0.440   84.698  416.135    6.526
  322.998    0.211    0.459   82.146  415.688    7.506
  323.298    0.221    0.435   75.439  409.467    7.900
  323.598    0.247    0.456   66.561  388.545    8.850
  323.898    0.264    0.449   63.324  382.569    8.794
  324.198    0.278    0.444   64.988  387.579    8.592
  324.498    0.288    0.460   71.607  392.919    8.159
  324.798    0.259    0.431   73.954  392.070    7.630
  325.098    0.247    0.425   75.369  386.912    7.162
  325.398    0.249    0.445   74.678  390.363    6.801
  325.698    0.234    0.453   70.635  398.030    6.481
  325.998    0.221    0.438   72.300  402.277    6.703
  326.298    0.239    0.422   81.154  400.350    7.436
  326.598    0.256    0.423   85.418  401.640    7.563
  326.898    0.271    0.442   85.225  402.023    7.676
  327.198    0.229    0.452   79.073  392.326    7.864
  327.498    0.225    0.436   71.746  396.343    8.433
  327.798    0.257    0.440   72.541  408.129    9.927
  328.098    0.303    0.462   83.319  407.931   11.037
  328.398    0.288    0.473   83.866  300.141    9.261
  328.698    0.138    0.449   75.173  299.697    7.949
  328.998    0.124    0.272   68.342  383.152    7.406
  329.298    0.243    0.376   72.299  403.686    7.291
  329.598    0.277    0.437   71.542  416.461    7.150
  329.898    0.297    0.475   71.532  416.426    7.039
  330.198    0.319    0.473   74.062  413.840    7.239
  330.498    0.310    0.442   73.122  403.657    9.715
  330.798    0.308    0.437   68.211  399.004   13.064
  331.098    0.311    0.482   66.713  380.143   14.225
  331.398    0.296    0.497   64.530  279.451   14.110
  331.698    0.213    0.478   54.971  224.509   10.344
  331.998    0.009    0.294   49.255  241.822    6.804
  332.298    0.133    0.245   56.809  377.395    6.597
  332.598    0.224    0.353   64.300  390.746    6.849
  332.898    0.283    0.418   66.829  409.704    7.262
  333.198    0.304    0.454   70.539  414.299    7.906
  333.498    0.291    0.482   70.464  412.610    8.082
  333.798    0.291    0.463   73.245  412.013    8.033
  334.098    0.287    0.455   75.095  393.643    7.849
  334.398    0.167    0.437   67.828  360.170    7.037
  334.698    0.173    0.399   66.206  367.331    6.799
  334.998    0.251    0.408   68.361  402.311    6.593
  335.298    0.248    0.451   64.447  398.894    6.440
  335.598    0.234    0.436   67.223  398.296    6.243
  335.898    0.268    0.426   70.745  404.875    6.230
  336.198    0.283    0.476   72.161  409.064    6.297
  336.498    0.298    0.486   71.532  411.872    6.354
  336.798    0.295    0.455   69.284  412.650    6.290
  337.098    0.283    0.435   70.701  413.259    6.276
  337.398    0.281    0.445   72.304  413.392    6.333
  337.698    0.286    0.456   70.494  413.037    6.463
  337.998    0.292    0.451   69.552  412.098    6.584
  338.298    0.284    0.439   70.844  408.853    6.618
  338.598    0.266    0.453   73.189  402.378    6.591
  338.897    0.258    0.468   72.742  400.945    6.551
  339.197    0.250    0.471   72.421  402.915    6.423
  339.497    0.246    0.452   73.835  403.040    6.276
  339.797    0.250    0.432   73.888  400.541    5.924
  340.097    0.255    0.428   75.983  395.395    5.700
  340.397    0.232    0.427   77.706  391.152    5.230
  340.697    0.204    0.461   78.254  396.475    4.836
  340.997    0.231    0.454   81.527  407.181    4.370
  341.297    0.249    0.453   85.922  423.505    3.912
  341.597    0.236    0.476   89.072  444.289    3.888
  341.897    0.223    0.494   92.658  455.487    4.456
  342.197    0.222    0.476   97.546  449.513    6.061
  342.497    0.187    0.433   90.961  433.327    7.162
  342.797    0.193    0.451   84.253  426.423    7.797
  343.097    0.224    0.462   78.722  417.059    7.588
  343.397    0.250    0.456   75.054  409.275    7.288
  343.697    0.215    0.435   74.857  402.143    7.080
  343.997    0.167    0.437   79.371  397.482    7.393
  344.297    0.162    0.443   80.290  400.759    9.178
  344.597    0.129    0.452   66.515  392.223   10.420
  344.897    0.000    0.479   52.304  350.074   11.717
