~VERSION INFORMATION
 VERS.                 2.0:   CWLS LOG ASCII STANDARD -VERSION 2.0
 WRAP.                  NO:   ONE LINE PER DEPTH STEP
~WELL INFORMATION BLOCK
#MNEM.UNIT           DATA                    DESCRIPTION OF MNEMONIC
#---------    -------------------            -------------------------------
# Generated from Intellog Unique Number	CS_67_68/WELL/2199
WELL.         10-30-067-18W4                 : Well_name    - WELL
LOC .         00/10-30-067-18W4/0            : Location     - LOCATION
UWI .         00/10-30-067-18W4/0            : Uwi          - UNIQUE WELL ID
ENTR.         JHS                            : Entered      - ENTERED BY
SRVC.         SCHLUMBERGER                   : Scn          - SERVICE COMPANY
STRT.M        350.52                         : top_depth    - START DEPTH
STOP.M        554.52                         : bot_depth    - STOP DEPTH
STEP.M        0.25                           : increment    - STEP LENGTH
 NULL. -999.2500:NULL Value
~CURVE INFORMATION BLOCK
#MNEM UNIT       ERCB CURVE CODE    CURVE DESCRIPTION
#-----------   ------------------   ----------------------------------
DEPT.M        00 001 00 00         : DEPTH        - DEPTH
CALI.MM       00 280 01 00         : CAL          - CALIPER
GR  .API      00 310 00 00         : GR           - GAMMA RAY
DPHI.V/V      00 890 00 00         : PHID         - DENSITY POROSITY (SANDSTONE)
NPHI.V/V      00 330 00 00         : PHIN         - NEUTRON POROSITY (SANDSTONE)
ILD .OHMM     00 120 00 00         : RESD         - DEEP RESISTIVITY (DIL)
~PARAMETER INFORMATION
#MNEM.UNIT           DATA             DESCRIPTION OF MNEMONIC
#---------         -----------     ------------------------------
GL  .M        578                  : gl           - GROUND LEVEL ELEVATION
EREF.M        578                  : kb           - ELEVATION OF DEPTH REFERENCE
DATM.M        578                  : datum        - DATUM ELEVATION
TDD .M        556                  : tdd          - TOTAL DEPTH DRILLER
RUN .         ONE                  : Run          - RUN NUMBER
ENG .         BILL                 : Engineer     - RECORDING ENGINEER
WIT .         JIM                  : Witness      - WITNESSED BY
MUD .         GEL                  : Mud_type     - MUD TYPE
MATR.         SANDSTONE            : Logunit      - NEUTRON MATRIX
TMAX.C        22.7778              : BHT          - MAXIMUM RECORDED TEMPERATURE
BHTD.M        558.698              : BHTDEP       - MAXIMUM RECORDED TEMPERATURE
BTZC.MM       0                    : BITZC        - BIT SIZE CONSTANT
MATR.         1                    : LOGUNIT      - NEUTRON MATRIX
RMT .C        25                   : MDTP         - TEMPERATURE OF MUD
NEUT.         1                    : NEUTRON      - NEUTRON TYPE
RESI.         0                    : RESIST       - RESISTIVITY TYPE
RMC .OHMM     0.25                 : RMC          - RESISTIVITY OF MUD CAKE
RMF .OHMM     0.6                  : RMF          - RESISTIVITY OF MUD FILTRATE
SUFT.C        13                   : SUFT         - SURFACE TEMPERATURE
~A  DEPTH      CAL       GR     PHID     PHIN     RESD
# ...
  423.520  153.324   79.942    0.279    0.459    2.566
  423.770  152.700   84.223    0.264    0.498    2.614
  424.020  152.337   86.506    0.261    0.524    2.637
  424.270  151.820   77.885    0.305    0.546    2.636
  424.520  151.372   73.658    0.313    0.509    2.592
  424.770  150.944   73.366    0.297    0.479    2.534
  425.020  150.874   78.278    0.291    0.494    2.457
  425.270  150.932   83.263    0.286    0.505    2.400
  425.520  151.249   86.286    0.277    0.508    2.353
  425.770  151.770   84.034    0.276    0.495    2.318
  426.020  152.309   81.400    0.275    0.502    2.311
  426.270  152.482   82.123    0.285    0.491    2.353
  426.520  152.874   82.814    0.289    0.472    2.450
  426.770  153.202   83.401    0.273    0.456    2.560
  427.020  153.725   84.271    0.258    0.454    2.707
  427.270  154.068   85.273    0.245    0.451    2.869
  427.520  154.403   86.151    0.232    0.444    3.003
  427.770  154.563   86.087    0.223    0.442    3.122
  428.020  154.853   85.795    0.243    0.463    3.134
  428.270  155.147   87.120    0.253    0.474    3.106
  428.520  155.499   89.594    0.242    0.462    3.044
  428.770  155.712   92.754    0.249    0.453    2.990
  429.020  156.184   97.215    0.259    0.459    3.010
  429.270  156.728   99.400    0.236    0.463    3.076
  429.520  157.774  100.835    0.240    0.465    3.144
  429.770  158.766   99.936    0.229    0.450    3.217
  430.020  159.069   99.157    0.215    0.464    3.247
  430.270  159.289   95.013    0.246    0.482    3.239
  430.520  158.917   91.293    0.255    0.494    3.213
  430.770  158.594   87.784    0.269    0.503    3.157
  431.020  158.149   81.331    0.305    0.504    3.030
  431.270  157.488   74.598    0.263    0.480    2.952
  431.520  156.631   71.295    0.248    0.474    2.854
  431.770  156.339   69.747    0.233    0.475    2.788
  432.020  156.096   70.256    0.238    0.473    2.776
  432.270  155.874   70.918    0.260    0.440    2.784
  432.520  155.646   71.122    0.277    0.400    2.820
  432.770  155.257   75.046    0.250    0.392    2.865
  433.020  155.233   79.843    0.259    0.425    2.909
  433.270  155.064   84.318    0.274    0.453    2.997
  433.520  155.036   87.781    0.250    0.463    3.102
  433.770  154.983   90.446    0.236    0.469    3.256
  434.020  155.622   93.250    0.250    0.468    3.400
  434.270  156.679   96.163    0.242    0.458    3.605
  434.520  158.017   98.277    0.226    0.445    3.740
  434.770  159.190  100.108    0.207    0.448    3.907
  435.020  160.202   99.154    0.185    0.455    4.041
  435.270  160.936   97.752    0.173    0.458    4.185
  435.520  161.850   98.989    0.188    0.477    4.323
  435.770  162.043  100.374    0.195    0.483    4.420
  436.020  162.047  101.574    0.185    0.474    4.470
  436.270  161.861  102.161    0.177    0.465    4.448
  436.520  161.471  103.202    0.171    0.466    4.395
  436.770  160.955  101.893    0.182    0.463    4.279
  437.020  160.638  100.989    0.198    0.459    4.178
  437.270  160.027  101.359    0.187    0.459    4.067
  437.520  159.551   99.852    0.207    0.450    3.969
  437.770  159.139   99.157    0.202    0.440    3.911
  438.020  158.326   98.809    0.194    0.428    3.916
  438.270  157.736   97.084    0.189    0.428    4.159
  438.520  157.509   91.657    0.198    0.438    4.603
  438.770  157.281   83.762    0.184    0.448    5.684
  439.020  157.186   77.316    0.093    0.444    6.576
  439.270  157.220   65.426    0.021    0.235    7.465
  439.520  157.507   58.586   -0.000    0.199    8.412
  439.770  157.908   70.510   -0.000    0.267    7.936
  440.020  158.055   86.064    0.013    0.321    6.903
  440.270  158.054   91.822    0.129    0.376    6.053
  440.520  158.119   96.602    0.173    0.419    5.389
  440.770  158.180   99.843    0.178    0.457    4.961
  441.020  158.373  102.241    0.167    0.485    4.638
  441.270  158.391  104.672    0.153    0.486    4.490
  441.520  158.399  106.335    0.161    0.462    4.441
  441.770  158.466  106.736    0.156    0.436    4.396
  442.020  158.732  106.900    0.154    0.419    4.309
  442.270  158.834  106.664    0.148    0.427    4.184
  442.520  158.505  104.901    0.155    0.437    4.124
  442.770  158.045  101.414    0.176    0.442    4.177
  443.020  157.430  100.281    0.185    0.447    4.333
  443.270  157.415  100.447    0.179    0.444    4.470
  443.520  157.697   99.610    0.168    0.441    4.576
  443.770  158.301  101.535    0.143    0.440    4.669
  444.020  159.228  105.541    0.165    0.449    4.718
  444.270  160.421  105.034    0.179    0.466    4.709
  444.520  161.257  102.857    0.171    0.477    4.644
  444.770  162.070  101.998    0.170    0.461    4.582
  445.020  162.862  101.776    0.162    0.452    4.511
  445.270  163.086  100.478    0.150    0.454    4.437
  445.520  162.792  101.309    0.156    0.458    4.336
  445.770  161.635  103.548    0.160    0.457    4.191
  446.020  160.268  104.944    0.163    0.443    4.053
  446.270  158.396  104.826    0.159    0.430    3.960
  446.520  157.570  105.199    0.154    0.433    3.843
  446.770  156.724  107.660    0.151    0.432    3.729
  447.020  157.926  110.987    0.157    0.453    3.666
  447.270  159.900  114.041    0.162    0.476    3.671
  447.520  161.502  113.216    0.181    0.482    3.781
  447.770  162.546  106.556    0.193    0.467    3.919
  448.020  162.667  101.141    0.184    0.459    4.076
  448.270  159.963   97.333    0.181    0.468    4.111
  448.520  156.698   93.013    0.192    0.449    3.779
  448.770  154.458   95.428    0.200    0.435    3.287
  449.020  153.226   96.030    0.207    0.437    2.872
  449.270  154.454   99.862    0.227    0.456    2.563
  449.520  156.093  105.188    0.226    0.525    2.329
  449.770  156.375  108.796    0.243    0.554    2.385
  450.020  156.035  104.084    0.236    0.536    2.502
  450.270  155.190   96.784    0.204    0.504    2.652
  450.520  153.806   90.284    0.213    0.467    2.770
  450.770  152.391   84.219    0.224    0.453    2.802
  451.020  151.208   81.188    0.231    0.452    2.844
  451.270  151.523   82.108    0.238    0.470    2.875
  451.520  152.537   85.273    0.252    0.483    2.882
  451.770  153.098   90.152    0.249    0.468    2.914
  452.020  153.973   95.327    0.209    0.473    2.989
  452.270  154.622   94.199    0.199    0.483    3.167
  452.520  155.196   96.389    0.191    0.484    3.310
  452.770  155.417   99.222    0.184    0.449    3.501
  453.020  156.212  101.027    0.199    0.437    3.709
  453.270  156.877   98.874    0.196    0.453    3.834
  453.520  157.628   99.844    0.189    0.466    3.880
  453.770  158.802  100.705    0.191    0.468    3.869
  454.020  159.974  101.525    0.196    0.468    3.812
  454.270  160.647  102.524    0.203    0.455    3.780
  454.520  161.190  102.784    0.213    0.473    3.730
  454.770  161.480  102.662    0.215    0.473    3.717
  455.020  161.309  100.715    0.206    0.460    3.758
  455.270  161.113   97.120    0.200    0.449    3.954
  455.520  160.488   93.841    0.179    0.450    4.162
  455.770  159.800   90.322    0.150    0.456    4.325
  456.020  159.186   83.095    0.138    0.456    4.465
  456.270  158.680   75.347    0.134    0.459    4.741
  456.520  158.230   69.497    0.125    0.481    4.977
  456.770  157.767   66.342    0.114    0.397    4.911
  457.020  157.190   74.558    0.099    0.358    4.094
  457.270  156.623   84.604    0.165    0.397    4.944
  457.520  155.302   91.158    0.195    0.427    4.752
  457.770  153.586   82.724    0.214    0.432    4.783
  458.020  153.065   79.388    0.177    0.393    5.579
  458.270  152.931   80.424    0.113    0.346    6.633
  458.520  152.975   82.603    0.087    0.365    7.779
  458.770  153.410   76.996    0.110    0.376    9.497
  459.020  154.049   71.901    0.114    0.293   10.958
  459.270  154.540   67.218    0.061    0.265   11.695
  459.520  155.442   63.758    0.074    0.277   10.698
  459.770  156.106   59.083    0.056    0.234    9.271
