~VERSION INFORMATION
 VERS.                 2.0:   CWLS LOG ASCII STANDARD -VERSION 2.0
 WRAP.                  NO:   ONE LINE PER DEPTH STEP
~WELL INFORMATION BLOCK
#MNEM.UNIT           DATA                    DESCRIPTION OF MNEMONIC
#---------    -------------------            -------------------------------
# Generated from Intellog Unique Number	CS_69_70/WELL/886
NULL.         -999.25                        : NULL_VALUE
WELL.         MAYNARD ENERGY                 : Well_name    - WELL              
LOC .         00/11-06-070-15W4/0            : Location     - LOCATION          
UWI .         00/11-06-070-15W4/0            : Uwi          - UNIQUE WELL ID    
ENTR.         SP                             : Entered      - ENTERED BY        
SRVC.         SCHLUMBERGER                   : Scn          - SERVICE COMPANY   
STRT.M        270                            : top_depth    - START DEPTH       
STOP.M        492                            : bot_depth    - STOP DEPTH        
STEP.M        0.25                           : increment    - STEP LENGTH       
~CURVE INFORMATION BLOCK
#MNEM UNIT       ERCB CURVE CODE    CURVE DESCRIPTION
#-----------   ------------------   ----------------------------------
DEPT.M        00 001 00 00         : DEPTH        - DEPTH                       
ILD .OHMM     00 120 00 00         : RESD         - DEEP RESISTIVITY (DIL)      
DPHI.V/V      00 890 00 00         : PHID         - DENSITY POROSITY (LIMESTONE)
NPHI.V/V      00 330 00 00         : PHIN         - NEUTRON POROSITY (LIMESTONE)
GR  .API      00 310 00 00         : GR           - GAMMA RAY                   
~PARAMETER INFORMATION       
#MNEM.UNIT           DATA             DESCRIPTION OF MNEMONIC
#---------         -----------     ------------------------------
GL  .M        562.71               : gl           - GROUND LEVEL ELEVATION      
EREF.M        565.41               : kb           - ELEVATION OF DEPTH REFERENCE
DATM.M        562.71               : datum        - DATUM ELEVATION             
TDD .M        494                  : tdd          - TOTAL DEPTH DRILLER         
RUN .         ONE                  : Run          - RUN NUMBER                  
ENG .         BILL                 : Engineer     - RECORDING ENGINEER          
WIT .         JIM                  : Witness      - WITNESSED BY                
MUD .         GEL                  : Mud_type     - MUD TYPE                    
MATR.         LIMESTONE            : Logunit      - NEUTRON MATRIX              
TMAX.C        21                   : BHT          - MAXIMUM RECORDED TEMPERATURE
BHTD.M        494                  : BHTDEP       - MAXIMUM RECORDED TEMPERATURE
MATR.         1                    : LOGUNIT      - NEUTRON MATRIX              
RMT .C        25                   : MDTP         - TEMPERATURE OF MUD          
NEUT.         1                    : NEUTRON      - NEUTRON TYPE                
RESI.         0                    : RESIST       - RESISTIVITY TYPE            
RMC .OHMM     0.25                 : RMC          - RESISTIVITY OF MUD CAKE     
RMF .OHMM     0.25                 : RMF          - RESISTIVITY OF MUD FILTRATE 
SUFT.C        15                   : SUFT         - SURFACE TEMPERATURE         
~A  DEPTH     RESD     PHID     PHIN       GR
# ...
  313.500    5.466    0.194    0.423  123.737
  313.750    5.166    0.186    0.435  122.528
  314.000    4.842    0.173    0.445  121.325
  314.250    4.535    0.161    0.458  120.847
  314.500    4.333    0.169    0.466  120.614
  314.750    4.188    0.175    0.470  120.441
  315.000    4.157    0.209    0.465  116.489
  315.250    4.151    0.225    0.459  108.880
  315.500    4.145    0.240    0.448  103.648
  315.750    4.163    0.262    0.437   97.257
  316.000    4.173    0.275    0.429   94.830
  316.250    4.199    0.260    0.429   93.746
  316.500    4.233    0.256    0.437   93.513
  316.750    4.300    0.250    0.433   94.442
  317.000    4.392    0.251    0.425   94.636
  317.250    4.492    0.261    0.418   94.649
  317.500    4.559    0.257    0.407   94.537
  317.750    4.552    0.260    0.406   94.977
  318.000    4.489    0.265    0.409   95.049
  318.250    4.368    0.285    0.416   94.207
  318.500    4.264    0.296    0.414   90.134
  318.750    4.168    0.305    0.409   85.939
  319.000    4.170    0.312    0.406   82.780
  319.250    4.221    0.320    0.406   81.267
  319.500    4.353    0.318    0.409   80.856
  319.750    4.485    0.304    0.414   81.414
  320.000    4.601    0.292    0.422   83.682
  320.250    4.636    0.287    0.430   85.708
  320.500    4.629    0.285    0.434   87.184
  320.750    4.615    0.282    0.433   88.356
  321.000    4.633    0.307    0.429   88.791
  321.250    4.659    0.304    0.426   88.868
  321.500    4.678    0.295    0.423   88.512
  321.750    4.704    0.297    0.414   87.914
  322.000    4.705    0.303    0.411   85.728
  322.250    4.658    0.315    0.409   83.606
  322.500    4.563    0.310    0.405   83.436
  322.750    4.402    0.300    0.402   85.706
  323.000    4.346    0.299    0.408   87.179
  323.250    4.307    0.306    0.413   88.594
  323.500    4.285    0.315    0.421   88.727
  323.750    4.294    0.308    0.430   87.093
  324.000    4.313    0.288    0.439   88.875
  324.250    4.471    0.283    0.445   90.838
  324.500    4.512    0.288    0.449   93.044
  324.750    4.644    0.292    0.454   95.437
  325.000    4.736    0.278    0.458   96.239
  325.250    4.795    0.270    0.462   96.559
  325.500    4.935    0.269    0.463   96.750
  325.750    4.904    0.263    0.465   99.872
  326.000    4.840    0.256    0.459  103.421
  326.250    4.753    0.252    0.453  106.239
  326.500    4.795    0.248    0.449  108.262
  326.750    4.862    0.260    0.449  110.713
  327.000    4.970    0.270    0.448  111.456
  327.250    5.135    0.261    0.446  106.529
  327.500    5.259    0.257    0.442  101.542
  327.750    5.318    0.249    0.436   98.200
  328.000    5.280    0.252    0.430   96.077
  328.250    5.256    0.264    0.428  100.055
  328.500    5.104    0.274    0.425  103.602
  328.750    4.999    0.265    0.432  107.641
  329.000    4.813    0.250    0.440  110.457
  329.250    4.628    0.232    0.453  112.602
  329.500    4.459    0.222    0.466  113.222
  329.750    4.257    0.216    0.474  110.126
  330.000    4.194    0.217    0.483  108.978
  330.250    4.244    0.218    0.482  110.089
  330.500    4.474    0.227    0.472  111.077
  330.750    4.956    0.228    0.454  111.883
  331.000    5.472    0.241    0.443  112.565
  331.250    5.816    0.237    0.433  112.697
  331.500    6.111    0.233    0.424  111.673
  331.750    6.316    0.215    0.413  110.160
  332.000    6.465    0.192    0.407  107.916
  332.250    6.466    0.187    0.403  108.660
  332.500    6.411    0.183    0.399  109.099
  332.750    6.291    0.181    0.398  108.501
  333.000    6.219    0.187    0.398  109.244
  333.250    6.115    0.196    0.400  109.745
  333.500    6.093    0.208    0.405  106.464
  333.750    6.054    0.223    0.402  103.246
  334.000    5.983    0.239    0.398  101.491
  334.250    5.895    0.251    0.392   99.977
  334.500    5.742    0.259    0.389   97.858
  334.750    5.572    0.253    0.387   96.829
  335.000    5.468    0.245    0.386   95.194
  335.250    5.364    0.236    0.394   93.440
  335.500    5.244    0.230    0.393   92.535
  335.750    5.091    0.227    0.389   91.937
  336.000    5.027    0.239    0.388   88.719
  336.250    4.989    0.260    0.390   86.657
  336.500    5.007    0.280    0.398   85.876
  336.750    5.041    0.277    0.406   87.231
  337.000    5.125    0.257    0.413   90.596
  337.250    5.159    0.239    0.417   94.449
  337.500    5.063    0.229    0.419   96.412
  337.750    4.853    0.221    0.415   96.121
  338.000    4.529    0.251    0.411   93.693
  338.250    4.278    0.286    0.407   87.179
  338.500    4.011    0.317    0.406   81.827
  338.750    3.826    0.335    0.411   78.790
  339.000    3.697    0.352    0.416   76.790
  339.250    3.634    0.364    0.418   76.923
  339.500    3.636    0.347    0.418   78.460
  339.750    3.678    0.341    0.418   80.058
  340.000    3.763    0.331    0.420   80.740
  340.250    3.788    0.322    0.425   80.447
  340.500    3.879    0.337    0.430   79.666
  340.750    3.995    0.348    0.434   78.651
  341.000    4.054    0.360    0.435   78.536
  341.250    4.048    0.342    0.430   78.361
  341.500    3.976    0.317    0.419   78.503
  341.750    3.872    0.304    0.412   79.066
  342.000    3.793    0.304    0.407   79.252
  342.250    3.729    0.324    0.404   79.689
  342.500    3.698    0.344    0.399   79.519
  342.750    3.717    0.354    0.394   78.260
  343.000    3.784    0.345    0.392   73.506
  343.250    3.875    0.339    0.391   70.653
  343.500    3.958    0.335    0.393   68.713
  343.750    4.001    0.325    0.400   66.651
  344.000    4.003    0.320    0.407   67.396
  344.250    3.972    0.312    0.410   68.443
  344.500    3.925    0.319    0.413   69.493
  344.750    3.853    0.323    0.413   71.460
  345.000    3.790    0.334    0.411   72.631
  345.250    3.718    0.346    0.410   73.312
  345.500    3.680    0.356    0.405   73.690
  345.750    3.657    0.354    0.400   73.766
  346.000    3.643    0.334    0.398   73.833
  346.250    3.613    0.328    0.395   74.518
  346.500    3.605    0.327    0.393   74.895
  346.750    3.607    0.331    0.388   74.845
  347.000    3.625    0.337    0.386   73.881
  347.250    3.660    0.319    0.383   72.247
  347.500    3.727    0.309    0.382   69.942
  347.750    3.777    0.313    0.384   68.063
  348.000    3.787    0.300    0.392   67.038
  348.250    3.789    0.309    0.402   66.443
  348.500    3.734    0.320    0.412   66.696
  348.750    3.622    0.336    0.420   68.540
  349.000    3.566    0.337    0.427   70.196
  349.250    3.553    0.328    0.434   72.100
  349.500    3.578    0.322    0.438   73.575
  349.750    3.637    0.321    0.435   74.928
  350.000    3.639    0.323    0.426   75.793
  350.250    3.666    0.327    0.417   76.298
  350.500    3.675    0.331    0.408   76.548
  350.750    3.726    0.336    0.405   78.028
  351.000    3.777    0.346    0.407   79.259
  351.250    3.844    0.354    0.414   79.392
  351.500    3.870    0.341    0.421   78.365
  351.750    3.872    0.328    0.425   76.791
  352.000    3.898    0.316    0.423   75.525
  352.250    3.908    0.320    0.421   75.291
  352.500    3.877    0.332    0.418   75.186
  352.750    3.855    0.340    0.417   75.806
  353.000    3.791    0.348    0.416   75.999
  353.250    3.777    0.344    0.416   76.193
  353.500    3.860    0.328    0.415   75.655
  353.750    3.944    0.315    0.413   75.058
  354.000    4.027    0.308    0.414   74.889
  354.250    4.127    0.307    0.414   74.960
  354.500    4.259    0.308    0.418   75.461
  354.750    4.367    0.308    0.423   77.368
  355.000    4.393    0.315    0.427   78.168
  355.250    4.452    0.327    0.429   80.376
  355.500    4.502    0.326    0.428   82.094
  355.750    4.537    0.304    0.423   83.877
  356.000    4.538    0.277    0.416   85.598
  356.250    4.475    0.276    0.410   86.645
  356.500    4.347    0.278    0.406   86.898
  356.750    4.234    0.283    0.404   85.205
