~VERSION INFORMATION
 VERS.                 2.0:   CWLS LOG ASCII STANDARD -VERSION 2.0
 WRAP.                  NO:   ONE LINE PER DEPTH STEP
~WELL INFORMATION BLOCK
#MNEM.UNIT           DATA                    DESCRIPTION OF MNEMONIC
#---------    -------------------            -------------------------------
# Generated from Intellog Unique Number	CW_79_81/WELL/694
WELL.         10-04-079-25W4                 : Well_name    - WELL
LOC .         00/10-04-079-25W4/0            : Location     - LOCATION
UWI .         00/10-04-079-25W4/0            : Uwi          - UNIQUE WELL ID
ENTR.         MAX                            : Entered      - ENTERED BY
SRVC.         SCHLUMBERGER                   : Scn          - SERVICE COMPANY
STRT.M        274.32                         : top_depth    - START DEPTH
STOP.M        502.82                         : bot_depth    - STOP DEPTH
STEP.M        0.25                           : increment    - STEP LENGTH
 NULL. -999.2500:NULL Value
~CURVE INFORMATION BLOCK
#MNEM UNIT       ERCB CURVE CODE    CURVE DESCRIPTION
#-----------   ------------------   ----------------------------------
DEPT.M        00 001 00 00         : DEPTH        - DEPTH
ILD .OHMM     00 120 00 00         : RESD         - DEEP RESISTIVITY (DIL)
NPHI.V/V      00 330 00 00         : PHIN         - NEUTRON POROSITY (SANDSTONE)
DPHI.V/V      00 890 00 00         : PHID         - DENSITY POROSITY (SANDSTONE)
CALI.MM       00 280 01 00         : CAL          - CALIPER
GR  .API      00 310 00 00         : GR           - GAMMA RAY
~PARAMETER INFORMATION
#MNEM.UNIT           DATA             DESCRIPTION OF MNEMONIC
#---------         -----------     ------------------------------
GL  .M        587.35               : gl           - GROUND LEVEL ELEVATION
EREF.M        590.855              : kb           - ELEVATION OF DEPTH REFERENCE
DATM.M        587.35               : datum        - DATUM ELEVATION
TDD .M        502.006              : tdd          - TOTAL DEPTH DRILLER
RUN .         ONE                  : Run          - RUN NUMBER
ENG .         BILL                 : Engineer     - RECORDING ENGINEER
WIT .         JIM                  : Witness      - WITNESSED BY
MUD .         GEL                  : Mud_type     - MUD TYPE
MATR.         SANDSTONE            : Logunit      - NEUTRON MATRIX
TMAX.C        21.6667              : BHT          - MAXIMUM RECORDED TEMPERATURE
BHTD.M        502.006              : BHTDEP       - MAXIMUM RECORDED TEMPERATURE
RMT .C        17.7778              : MDTP         - TEMPERATURE OF MUD
MUDD.KG/M     9800                 : MWT          - MUD DENSITY
NEUT.         1                    : NEUTRON      - NEUTRON TYPE
RESI.         0                    : RESIST       - RESISTIVITY TYPE
RM  .OHMM     4.66                 : RM           - RESISTIVITY OF MUD
RMC .OHMM     0                    : RMC          - RESISTIVITY OF MUD CAKE
RMF .OHMM     4.56                 : RMF          - RESISTIVITY OF MUD FILTRATE
SUFT.C        -20.5556             : SUFT         - SURFACE TEMPERATURE
~A  DEPTH     RESD     PHIN     PHID      CAL       GR
# ...
  383.820    9.320    0.295    0.078  237.768   75.799
  384.070   10.071    0.401    0.122  239.774   79.949
  384.320    9.886    0.481    0.150  243.287   80.837
  384.570    8.155    0.484    0.186  243.785   81.725
  384.820    8.075    0.472    0.217  244.284   84.096
  385.070    8.281    0.458    0.202  244.780   84.687
  385.320    8.565    0.440    0.203  245.782   82.607
  385.570    8.554    0.435    0.201  246.281   82.308
  385.820    8.554    0.447    0.190  248.286   82.899
  386.070    8.534    0.451    0.201  249.790   83.490
  386.320    8.603    0.476    0.204  251.795   83.785
  386.570    8.603    0.501    0.218  252.293   83.782
  386.820    8.736    0.488    0.235  251.787   81.703
  387.070    9.277    0.458    0.244  245.754   79.624
  387.320   10.110    0.435    0.246  242.736   81.402
  387.570   10.829    0.422    0.272  242.230   80.509
  387.820   11.103    0.410    0.298  242.728   78.430
  388.070   10.900    0.395    0.299  244.232   77.241
  388.320   10.702    0.381    0.280  247.242   76.942
  388.570   10.597    0.383    0.287  251.257   79.313
  388.820   10.774    0.401    0.244  256.276   81.684
  389.070   10.774    0.428    0.210  263.808   82.275
  389.320   10.941    0.445    0.215  269.832   80.196
  389.570   11.922    0.444    0.189  271.335   79.304
  389.820   12.442    0.430    0.182  272.335   79.598
  390.070   12.869    0.411    0.183  272.834   79.892
  390.320   13.312    0.410    0.180  273.835   78.110
  390.570   13.532    0.401    0.180  275.338   75.437
  390.820   13.171    0.398    0.167  276.841   74.249
  391.070   12.271    0.416    0.166  281.358   75.136
  391.320   11.237    0.447    0.187  284.870   79.880
  391.570   10.558    0.445    0.204  288.383   80.768
  391.820   10.367    0.447    0.201  291.393   79.875
  392.070   10.358    0.461    0.212  293.901   81.059
  392.320   10.434    0.457    0.210  295.907   82.541
  392.570   10.416    0.438    0.205  296.908   83.429
  392.820   10.505    0.436    0.222  294.894   84.020
  393.070   10.493    0.431    0.236  295.894   85.204
  393.320   10.493    0.435    0.211  296.896   85.795
  393.570   10.559    0.431    0.197  297.394   85.793
  393.820   10.462    0.437    0.191  296.385   86.087
  394.070   10.462    0.455    0.204  295.878   85.491
  394.320   10.441    0.459    0.202  295.372   88.752
  394.570   10.339    0.458    0.199  295.368   89.936
  394.820   10.240    0.467    0.216  295.364   87.858
  395.070   10.229    0.466    0.205  294.858   92.305
  395.320   10.132    0.460    0.200  293.849   92.303
  395.570    9.944    0.460    0.208  292.841   90.520
  395.820    9.763    0.459    0.206  292.334   86.068
  396.070    9.669    0.472    0.197  291.325   85.768
  396.320    9.492    0.466    0.188  290.317   86.360
  396.570    9.492    0.459    0.191  289.308   89.028
  396.820    9.388    0.458    0.199  288.299   88.135
  397.070    9.220    0.453    0.210  286.788   86.056
  397.320    9.209    0.451    0.217  285.277   85.164
  397.570    9.282    0.446    0.206  282.258   88.425
  397.820    9.350    0.441    0.208  280.245   92.279
  398.070    9.505    0.453    0.208  277.227   95.837
  398.320    9.505    0.494    0.208  273.204   99.988
  398.570    9.655    0.463    0.229  268.176   99.096
  398.820   10.801    0.446    0.245  261.642   96.126
  399.070   12.187    0.435    0.229  245.058   88.114
  399.320   13.754    0.449    0.229  244.553   81.585
  399.570   15.389    0.449    0.231  243.042   80.395
  399.820   17.516    0.451    0.226  241.531   80.393
  400.070   18.599    0.448    0.221  240.522   79.501
  400.320   19.067    0.432    0.196  240.015   75.345
  400.570   19.383    0.416    0.174  240.012   64.366
  400.820   19.366    0.389    0.078  240.509   63.176
  401.070   19.347    0.287    0.045  241.007   69.998
  401.320   19.326    0.298    0.120  242.511   77.709
  401.570   19.125    0.410    0.179  243.512   80.377
  401.820   18.953    0.429    0.212  245.015   78.890
  402.070   18.282    0.385    0.223  247.021   72.362
  402.320   17.948    0.361    0.139  247.519   69.393
  402.570   17.625    0.339    0.080  248.017   66.720
  402.820   17.150    0.322    0.091  249.520   67.904
  403.070   17.150    0.355    0.117  250.521   71.166
  403.320   16.966    0.378    0.155  251.522   77.097
  403.570   16.512    0.413    0.163  252.522   79.764
  403.820   16.498    0.438    0.174  252.519   81.542
  404.070   16.478    0.476    0.200  252.012   86.880
  404.320   16.464    0.483    0.233  252.509   85.987
  404.570   16.589    0.445    0.230  253.008   78.865
  404.820   17.007    0.438    0.231  253.005   80.642
  405.070   17.445    0.434    0.238  252.498   84.793
  405.320   17.886    0.453    0.238  252.494   82.714
  405.570   18.339    0.439    0.244  252.490   80.932
  405.820   18.482    0.435    0.244  252.486   81.226
  406.070   18.145    0.440    0.233  251.980   83.597
  406.320   17.355    0.441    0.234  251.474   86.264
  406.570   16.597    0.433    0.239  250.967   86.263
  406.820   16.013    0.440    0.223  249.958   86.260
  407.070   16.013    0.445    0.211  248.949   85.664
  407.320   15.290    0.429    0.192  248.945   84.179
  407.570   14.755    0.383    0.154  249.946   84.770
  407.820   14.490    0.348    0.122  251.449   89.514
  408.070   14.101    0.385    0.126  254.460   88.918
  408.320   13.846    0.448    0.187  255.460   85.059
  408.570   13.710    0.449    0.236  256.461   85.353
  408.820   13.695    0.451    0.234  258.465   85.647
  409.070   13.801    0.472    0.224  258.465   86.832
  409.320   13.907    0.479    0.226  258.459   90.093
  409.570   13.893    0.475    0.227  261.971   92.761
  409.820   13.642    0.479    0.221  262.469   92.165
  410.070   13.391    0.479    0.219  263.972   90.086
  410.320   13.251    0.447    0.218  263.968   89.490
  410.570   13.133    0.438    0.201  262.959   90.378
  410.820   12.780    0.411    0.183  262.453   89.486
  411.070   12.657    0.308    0.149  263.454   88.296
  411.320   12.536    0.304    0.164  266.464   88.591
  411.570   14.125    0.422    0.229  275.928   95.096
  411.820   13.871    0.458    0.217  278.021   93.656
  412.070   13.377    0.461    0.221  279.609   89.230
  412.320   13.019    0.460    0.218  281.207   88.082
  412.570   12.556    0.460    0.216  282.300   89.025
  412.820   12.441    0.468    0.213  283.384   89.969
  413.070   12.551    0.467    0.205  283.963   90.316
  413.320   12.893    0.459    0.191  285.046   90.658
  413.570   13.125    0.468    0.200  286.130   89.802
  413.820   13.604    0.467    0.204  287.728   85.972
  414.070   13.974    0.471    0.199  288.811   88.411
  414.320   14.615    0.477    0.213  290.409   91.733
  414.570   15.013    0.472    0.220  292.007   93.863
  414.820   15.147    0.461    0.214  292.072   89.741
  415.070   15.418    0.466    0.201  292.651   87.991
  415.320   15.556    0.465    0.213  292.230   85.651
  415.570   15.275    0.456    0.211  292.314   82.417
  415.820   14.732    0.441    0.206  291.884   82.461
  416.070   13.583    0.445    0.198  291.463   86.087
  416.320   11.758    0.453    0.199  290.528   91.500
  416.570   11.138    0.445    0.186  290.098   93.040
  416.820   10.645    0.431    0.193  289.668   94.877
  417.070   10.453    0.448    0.199  290.256   97.598
  417.320   10.451    0.468    0.189  290.826   98.541
  417.570   10.450    0.453    0.185  290.910   95.307
  417.820   10.734    0.452    0.196  289.994   92.674
  418.070   11.026    0.446    0.204  289.049   94.507
  418.320   11.429    0.436    0.200  289.124   96.344
  418.570   11.845    0.431    0.200  289.208   96.085
  418.820   11.844    0.433    0.198  288.778   91.962
  419.070   11.422    0.442    0.190  287.843   92.017
  419.320   10.723    0.446    0.188  287.413   93.242
  419.570    9.976    0.442    0.201  286.478   95.372
  419.820    9.449    0.430    0.188  285.057   98.103
  420.070    9.363    0.427    0.184  284.132  100.531
