~VERSION INFORMATION
 VERS.                 2.0:   CWLS LOG ASCII STANDARD -VERSION 2.0
 WRAP.                  NO:   ONE LINE PER DEPTH STEP
~WELL INFORMATION BLOCK
#MNEM.UNIT           DATA                    DESCRIPTION OF MNEMONIC
#---------    -------------------            -------------------------------
# Generated from Intellog Unique Number	CC_80_83/WELL/2395
NULL.         -999.25                        : NULL_VALUE
WELL.         BVX ET AL WATCHUSK             : Well_name    - WELL
LOC .         11-11-081-02W4                 : Location     - LOCATION          
UWI .         00/11-11-081-02W400            : Uwi          - UNIQUE WELL ID    
ENTR.         DW                             : Entered      - ENTERED BY        
SRVC.         SCHLUMBERGER                   : Scn          - SERVICE COMPANY   
DATE.         08 MAR 78                      : Date         - LOG DATE
STRT.M        109.728                        : top_depth    - START DEPTH       
STOP.M        295.655                        : bot_depth    - STOP DEPTH        
STEP.M        0.305                          : increment    - STEP LENGTH       
~CURVE INFORMATION BLOCK
#MNEM UNIT       ERCB CURVE CODE    CURVE DESCRIPTION
#-----------   ------------------   ----------------------------------
DEPT.M        00 001 00 00         : DEPTH        - DEPTH                       
ILD .OHMM     00 120 00 00         : RESD         - DEEP RESISTIVITY (DIL)      
GR  .API      00 310 00 00         : GR           - GAMMA RAY                   
NPHI.V/V      00 330 00 00         : PHIN         - NEUTRON POROSITY (LIMESTONE)
DPHI.V/V      00 890 00 00         : PHID         - DENSITY POROSITY (LIMESTONE)
~PARAMETER INFORMATION       
#MNEM.UNIT           DATA             DESCRIPTION OF MNEMONIC
#---------         -----------     ------------------------------
GL  .M        502.92               : gl           - GROUND LEVEL ELEVATION      
EREF.M        505.968              : kb           - ELEVATION OF DEPTH REFERENCE
DATM.M        505.968              : datum        - DATUM ELEVATION             
TDD .M        302.971              : tdd          - TOTAL DEPTH DRILLER         
RUN .         ONE                  : Run          - RUN NUMBER                  
ENG .         BILL                 : Engineer     - RECORDING ENGINEER          
WIT .         JIM                  : Witness      - WITNESSED BY                
MUD .         GEL                  : Mud_type     - MUD TYPE                    
MATR.         LIMESTONE            : Logunit      - NEUTRON MATRIX              
TMAX.C        21.1111              : BHT          - MAXIMUM RECORDED TEMPERATURE
BHTD.M        302.971              : BHTDEP       - MAXIMUM RECORDED TEMPERATURE
MATR.         1                    : LOGUNIT      - NEUTRON MATRIX              
RMT .C        25                   : MDTP         - TEMPERATURE OF MUD          
NEUT.         1                    : NEUTRON      - NEUTRON TYPE                
RESI.         0                    : RESIST       - RESISTIVITY TYPE            
RMC .OHMM     0.25                 : RMC          - RESISTIVITY OF MUD CAKE     
RMF .OHMM     0.25                 : RMF          - RESISTIVITY OF MUD FILTRATE 
SUFT.C        15                   : SUFT         - SURFACE TEMPERATURE         
~A  DEPTH     RESD       GR     PHIN     PHID
  109.728   24.166   82.710    0.436    0.317
  110.033   24.166   90.711    0.437    0.303
  110.338   21.167   96.871    0.461    0.276
  110.642   17.187  108.581    0.483    0.254
  110.947   15.636  122.762    0.487    0.234
  111.252   13.697  132.617    0.470    0.223
  111.557   13.189  133.837    0.459    0.217
  111.862   12.700  121.475    0.462    0.215
  112.166   12.230  118.371    0.459    0.218
  112.471   12.707  120.822    0.440    0.226
  112.776   13.200  123.893    0.456    0.237
  113.081   13.455  118.315    0.476    0.243
  113.386   13.977  114.601    0.442    0.249
  113.690   15.964  104.707    0.432    0.264
  113.995   18.232   97.279    0.453    0.280
  114.300   22.894   92.943    0.454    0.284
  114.605   26.149   92.307    0.421    0.277
  114.910   27.683   95.373    0.405    0.270
  115.214   28.759   95.359    0.436    0.279
  115.519   28.226   91.639    0.459    0.301
  115.824   26.169   92.858    0.476    0.299
  116.129   22.921   97.781    0.446    0.287
  116.434   20.461   97.144    0.448    0.271
  116.738   20.465   94.655    0.444    0.144
  117.043   22.504   92.787    0.433    0.059
  117.348   26.194   86.602    0.390    0.106
  117.653   28.805   75.475    0.346    0.177
  117.958   28.812   76.073    0.373    0.235
  118.262   28.275   82.229    0.433    0.304
  118.567   27.749   80.361    0.454    0.313
  118.872   28.827   67.996    0.443    0.309
  119.177   34.850   68.591    0.436    0.297
  119.482   49.971   69.810    0.441    0.291
  119.786   57.073   68.559    0.442    0.294
  120.091   52.917   65.458    0.441    0.309
  120.396   46.352   63.591    0.437    0.314
  120.701   39.840   64.190    0.434    0.312
  121.006   37.642   70.348    0.439    0.312
  121.310   35.569   72.797    0.441    0.320
  121.615   35.577   74.627    0.445    0.320
  121.920   36.263   75.852    0.444    0.287
  122.225   38.395   83.858    0.417    0.275
  122.530   39.136   87.538    0.406    0.306
  122.834   40.656   88.141    0.406    0.318
  123.139   40.666   83.186    0.428    0.297
  123.444   39.909   79.469    0.456    0.279
  123.749   37.712   78.827    0.436    0.257
  124.054   36.315   77.583    0.425    0.260
  124.358   34.969   75.715    0.443    0.287
  124.663   31.814   84.336    0.476    0.283
  124.968   27.868   82.468    0.483    0.263
  125.273   27.348   78.131    0.447    0.259
  125.578   26.842   76.256    0.415    0.264
  125.882   26.846   76.863    0.412    0.261
  126.187   26.850   81.165    0.422    0.237
  126.492   27.850   84.852    0.434    0.179
  126.797   28.431   88.537    0.448    0.135
  127.102   30.680   90.992    0.458    0.209
  127.407   34.380   84.798    0.442    0.258
  127.711   38.531   76.143    0.455    0.296
  128.016   38.537   68.716    0.427    0.282
  128.321   31.889   69.315    0.421    0.262
  128.626   21.420   76.091    0.421    0.241
  128.930   15.819   89.035    0.432    0.223
  129.235   13.596  101.358    0.449    0.204
  129.540   12.848  105.045    0.430    0.191
  129.845   12.850  105.027    0.411    0.191
  130.150   13.098  101.923    0.413    0.192
  130.454   13.607  100.058    0.424    0.190
  130.759   13.611  100.660    0.427    0.182
  131.064   13.614  104.964    0.447    0.180
  131.369   13.361  108.649    0.473    0.185
  131.674   13.112  111.719    0.464    0.190
  131.978   12.627  113.555    0.444    0.185
  132.283   12.159  111.682    0.440    0.178
  132.588   11.933  107.957    0.446    0.185
  132.893   11.711  111.034    0.447    0.190
  133.198   12.167  112.244    0.460    0.189
  133.502   12.401  112.851    0.465    0.186
  133.807   12.884  112.217    0.467    0.185
  134.112   12.886  109.113    0.449    0.174
  134.417   12.646  104.773    0.445    0.177
  134.722   11.950  109.077    0.450    0.189
  135.026   11.507  112.764    0.453    0.199
  135.331   10.874  116.449    0.465    0.180
  135.636   10.671  114.582    0.474    0.198
  135.941   10.674  110.243    0.480    0.200
  136.246   10.880  110.838    0.480    0.195
  136.550   11.091  112.674    0.442    0.180
  136.855   11.093  113.893    0.440    0.185
  137.160   10.886  111.410    0.453    0.190
  137.465   10.684  109.539    0.468    0.199
  137.770   10.289  109.525    0.469    0.215
  138.074   10.487  107.656    0.458    0.206
  138.379   10.490  105.787    0.459    0.195
  138.684   10.492  103.915    0.475    0.202
  138.989   10.493  102.659    0.463    0.210
  139.294   11.323  102.032    0.446    0.214
  139.598   11.541  106.949    0.435    0.224
  139.903   11.989  107.553    0.430    0.236
  140.208   11.768  106.919    0.444    0.236
  140.513   11.332  103.816    0.437    0.236
  140.817   11.121   96.388    0.424    0.239
  141.122   10.311   95.755    0.422    0.231
  141.427   10.119   98.209    0.427    0.214
  141.732    9.933  105.597    0.431    0.216
  142.037    9.747  107.432    0.440    0.223
  142.341    9.565  104.940    0.450    0.233
  142.646    9.212  101.224    0.461    0.237
  142.951    9.214   98.740    0.467    0.229
  143.256    9.572   95.016    0.468    0.239
  143.561    9.756   89.445    0.456    0.250
  143.865    9.945   78.934    0.446    0.258
  144.170    9.760   67.190    0.441    0.261
  144.475    8.880   62.237    0.435    0.259
  144.780    8.390   70.239    0.440    0.258
  145.085    7.490   80.097    0.451    0.273
  145.389    7.077   83.171    0.470    0.289
  145.694    6.815   81.298    0.473    0.292
  145.999    6.563   84.370    0.472    0.276
  146.304    6.564   86.821    0.485    0.280
  146.609    6.566   80.632    0.508    0.297
  146.913    6.567   76.911    0.497    0.304
  147.218    6.445   81.214    0.491    0.299
  147.523    6.570   84.901    0.509    0.295
  147.828    6.696   80.566    0.495    0.299
  148.133    7.364   73.142    0.481    0.302
  148.437    7.946   70.031    0.465    0.309
  148.742    7.947   68.787    0.455    0.310
  149.047    7.948   70.616    0.445    0.306
  149.352    7.370   74.303    0.450    0.294
  149.657    7.097   77.368    0.457    0.289
  149.961    6.580   78.588    0.486    0.288
  150.266    6.458   79.807    0.505    0.289
  150.571    6.219   76.085    0.499    0.303
  150.876    6.103   74.217    0.453    0.314
  151.180    6.104   75.434    0.453    0.303
  151.485    6.223   80.356    0.473    0.294
  151.790    6.107   80.960    0.465    0.289
  152.095    6.108   75.382    0.458    0.286
  152.400    5.882   74.751    0.458    0.316
  152.704    5.251   81.518    0.464    0.300
  153.009    5.056   83.358    0.472    0.287
  153.314    5.058   83.960    0.479    0.287
  153.619    5.887   81.469    0.499    0.292
  153.924    5.887   78.369    0.471    0.298
  154.228    6.116   72.797    0.458    0.315
  154.533    6.118   70.927    0.462    0.324
  154.838    6.236   69.059    0.471    0.316
  155.143    5.893   67.809    0.477    0.307
  155.448    5.568   73.961    0.482    0.301
  155.752    5.362   76.412    0.489    0.293
  156.057    5.163   77.009    0.498    0.295
  156.362    5.067   76.991    0.499    0.318
  156.667    5.068   76.364    0.492    0.308
  156.972    5.265   75.110    0.475    0.296
  157.276    5.574   75.710    0.472    0.294
  157.581    6.015   75.694    0.492    0.300
  157.886    6.368   71.975    0.487    0.296
  158.191    6.742   65.785    0.460    0.279
  158.496    6.872   60.829    0.465    0.286
  158.800    7.005   68.214    0.479    0.293
  159.105    6.875   71.288    0.468    0.293
  159.410    6.747   72.507    0.466    0.294
  159.715    6.622   71.249    0.468    0.300
  160.020    6.623   73.082    0.468    0.309
  160.324    6.625   73.068    0.470    0.319
  160.629    6.626   68.730    0.473    0.322
  160.934    6.627   64.391    0.475    0.319
  161.239    6.629   63.763    0.478    0.303
  161.543    6.756   71.763    0.470    0.300
  161.848    6.887   74.220    0.453    0.301
  162.153    6.888   66.796    0.448    0.299
  162.458    6.890   65.536    0.449    0.302
