~VERSION INFORMATION
 VERS.                 2.0:   CWLS LOG ASCII STANDARD -VERSION 2.0
 WRAP.                  NO:   ONE LINE PER DEPTH STEP
~WELL INFORMATION BLOCK
#MNEM.UNIT           DATA                    DESCRIPTION OF MNEMONIC
#---------    -------------------            -------------------------------
# Generated from Intellog Unique Number	CW_70_72/WELL/3032
NULL.         -999.25                        : NULL_VALUE
WELL.         DECALTA ET AL SMITH 11-27      : Well_name    - WELL              
LOC .         11-27-070-01W5                 : Location     - LOCATION          
UWI .         00/11-27-070-01W5/0            : Uwi          - UNIQUE WELL ID    
ENTR.         JAYE                           : Entered      - ENTERED BY        
SRVC.         SCHLUMBERGER                   : Scn          - SERVICE COMPANY   
DATE.         7 FEB 78                       : Date         - LOG DATE          
STRT.M        384.048                        : top_depth    - START DEPTH       
STOP.M        634.048                        : bot_depth    - STOP DEPTH        
STEP.M        0.25                           : increment    - STEP LENGTH       
~CURVE INFORMATION BLOCK
#MNEM UNIT       ERCB CURVE CODE    CURVE DESCRIPTION
#-----------   ------------------   ----------------------------------
DEPT.M        00 001 00 00         : DEPTH        - DEPTH                       
ILD .OHMM     00 120 00 00         : RESD         - DEEP RESISTIVITY (DIL)      
CALI.MM       00 280 01 00         : CAL          - CALIPER                     
GR  .API      00 310 00 00         : GR           - GAMMA RAY                   
NPHI.V/V      00 330 00 00         : PHIN         - NEUTRON POROSITY (SANDSTONE)
DPHI.V/V      00 890 00 00         : PHID         - DENSITY POROSITY (SANDSTONE)
~PARAMETER INFORMATION       
#MNEM.UNIT           DATA             DESCRIPTION OF MNEMONIC
#---------         -----------     ------------------------------
GL  .M        559.918              : gl           - GROUND LEVEL ELEVATION      
EREF.M        562.966              : kb           - ELEVATION OF DEPTH REFERENCE
DATM.M        559.918              : datum        - DATUM ELEVATION             
TDD .M        642.214              : tdd          - TOTAL DEPTH DRILLER         
RUN .         ONE                  : Run          - RUN NUMBER                  
ENG .         GUNN                 : Engineer     - RECORDING ENGINEER          
WIT .         WALLGREN             : Witness      - WITNESSED BY                
BASE.         EDM                  : Branch       - HOME BASE OF LOGGING UNIT   
MUD .         GEL CHEM             : Mud_type     - MUD TYPE                    
MATR.         SANDSTONE            : Logunit      - NEUTRON MATRIX              
TMAX.C        -17.7778             : BHT          - MAXIMUM RECORDED TEMPERATURE
BHTD.M        641.604              : BHTDEP       - MAXIMUM RECORDED TEMPERATURE
RMT .C        15.5556              : MDTP         - TEMPERATURE OF MUD          
MUDD.KG/M     1152                 : MWT          - MUD DENSITY                 
NEUT.         1                    : NEUTRON      - NEUTRON TYPE                
RESI.         0                    : RESIST       - RESISTIVITY TYPE            
RM  .OHMM     2.61                 : RM           - RESISTIVITY OF MUD          
RMC .OHMM     0.25                 : RMC          - RESISTIVITY OF MUD CAKE     
RMF .OHMM     1.93                 : RMF          - RESISTIVITY OF MUD FILTRATE 
SUFT.C        -17.7778             : SUFT         - SURFACE TEMPERATURE         
~A  DEPTH     RESD      CAL       GR     PHIN     PHID
# ...
  457.048    2.115  149.005   69.633    0.455    0.282
  457.298    2.183  148.692   67.587    0.435    0.288
  457.548    2.271  148.483   71.496    0.439    0.283
  457.798    2.350  147.540   77.639    0.447    0.270
  458.048    2.377  148.172   80.493    0.446    0.260
  458.298    2.351  149.014   81.549    0.445    0.275
  458.548    2.167  150.696   81.922    0.445    0.261
  458.798    1.942  151.958   74.541    0.446    0.239
  459.048    1.770  153.010   69.641    0.448    0.248
  459.298    1.655  153.957   66.478    0.451    0.287
  459.548    1.523  155.220   67.099    0.450    0.309
  459.798    1.446  155.852   68.899    0.448    0.314
  460.048    1.430  156.063   68.776    0.445    0.306
  460.298    1.431  155.854   66.978    0.441    0.303
  460.548    1.461  154.595   68.530    0.438    0.308
  460.798    1.528  152.706   70.082    0.431    0.302
  461.048    1.614  150.187   68.842    0.434    0.305
  461.298    1.669  147.457   66.237    0.436    0.315
  461.548    1.705  145.883   68.286    0.434    0.305
  461.798    1.721  147.566   71.388    0.426    0.305
  462.048    1.719  148.722   72.506    0.441    0.274
  462.298    1.672  151.560   69.219    0.453    0.289
  462.548    1.608  152.403   70.088    0.447    0.301
  462.798    1.556  152.929   68.166    0.438    0.284
  463.048    1.548  153.351   65.934    0.432    0.308
  463.298    1.703  153.247   66.742    0.439    0.287
  463.548    1.926  152.514   69.224    0.464    0.275
  463.798    2.216  151.045   70.962    0.457    0.263
  464.048    2.438  149.051   72.141    0.433    0.280
  464.298    2.484  147.582   72.142    0.412    0.256
  464.548    2.281  147.793   72.888    0.423    0.253
  464.798    2.083  149.686   73.881    0.437    0.276
  465.048    2.045  151.893   73.386    0.448    0.289
  465.298    2.092  154.521   73.201    0.457    0.299
  465.548    2.259  155.363   75.001    0.437    0.277
  465.798    2.522  155.470   77.421    0.425    0.253
  466.048    2.749  155.261   81.454    0.423    0.233
  466.298    2.892  155.158   85.612    0.416    0.214
  466.548    2.920  155.369   88.652    0.403    0.194
  466.798    2.722  155.791   92.561    0.421    0.188
  467.048    2.527  155.898   86.421    0.442    0.232
  467.298    2.413  155.899   79.226    0.473    0.256
  467.548    2.432  155.691   75.132    0.445    0.265
  467.798    2.563  155.378   72.590    0.384    0.237
  468.048    2.752  155.484   71.040    0.331    0.192
  468.298    3.061  155.591   71.165    0.317    0.176
  468.548    3.227  155.908   74.454    0.346    0.158
  468.798    3.052  155.909   77.184    0.387    0.193
  469.048    2.877  156.331   81.838    0.426    0.235
  469.298    2.777  156.753   86.119    0.450    0.237
  469.548    2.820  156.124   89.780    0.472    0.219
  469.798    2.795  151.083   90.836    0.456    0.209
  470.048    2.807  145.623   89.906    0.433    0.205
  470.298    2.839  146.570   92.575    0.418    0.207
  470.548    2.915  148.357   94.127    0.421    0.227
  470.798    2.988  143.842   95.058    0.425    0.207
  471.048    3.062  144.789   95.679    0.431    0.188
  471.298    3.185  148.572   95.618    0.427    0.197
  471.548    3.357  152.145   95.123    0.428    0.217
  471.798    3.460  154.353   97.978    0.444    0.196
  472.048    3.586  156.455  101.825    0.446    0.184
  472.298    3.724  159.923  102.694    0.440    0.173
  472.548    3.802  159.505   96.802    0.459    0.169
  472.798    3.832  155.725   95.066    0.457    0.183
  473.048    3.855  151.209   95.253    0.443    0.194
  473.298    3.885  147.115   95.936    0.440    0.181
  473.548    3.952  146.381   97.240    0.449    0.168
  473.798    4.013  147.013   98.481    0.440    0.158
  474.048    4.067  147.644  102.763    0.432    0.142
  474.298    4.145  150.062  104.253    0.426    0.128
  474.548    4.194  153.110  102.268    0.423    0.121
  474.798    4.210  159.309  106.364    0.418    0.136
  475.048    4.165  162.567  108.288    0.424    0.158
  475.298    4.067  163.830  106.986    0.434    0.151
  475.548    3.890  165.197  108.290    0.438    0.145
  475.798    3.619  165.618  110.524    0.445    0.145
  476.048    3.366  165.830  111.021    0.454    0.153
  476.298    3.126  164.781  107.610    0.443    0.162
  476.548    2.833  162.367   98.306    0.443    0.179
  476.798    2.615  157.747   93.840    0.443    0.212
  477.048    2.502  154.072   88.692    0.438    0.245
  477.298    2.554  149.871   87.701    0.424    0.264
  477.548    2.743  144.726   94.525    0.412    0.243
  477.798    3.051  141.366  100.296    0.427    0.224
  478.048    3.307  140.737  100.793    0.435    0.174
  478.298    3.571  142.630   98.561    0.420    0.187
  478.548    3.856  147.569  104.455    0.414    0.164
  478.798    4.057  154.188  108.240    0.420    0.143
  479.048    4.236  158.076  110.908    0.424    0.136
  479.298    4.261  161.019  111.902    0.428    0.154
  479.548    4.199  161.861  112.151    0.436    0.154
  479.798    4.093  162.388  110.973    0.448    0.146
  480.048    3.945  162.600  107.376    0.475    0.143
  480.298    3.794  161.761  102.042    0.485    0.158
  480.548    3.590  159.977   95.157    0.457    0.203
  480.798    3.466  157.562   93.856    0.439    0.216
  481.048    3.297  154.623   96.958    0.422    0.217
  481.298    3.195  151.053  100.867    0.410    0.222
  481.548    3.120  149.794  102.667    0.405    0.213
  481.798    3.109  149.795  102.978    0.404    0.205
  482.048    3.151  150.322  101.739    0.399    0.191
  482.298    3.272  151.899  101.740    0.412    0.225
  482.548    3.391  154.528  102.981    0.425    0.245
  482.798    3.528  156.209  104.037    0.427    0.212
  483.048    3.705  159.152  104.968    0.433    0.199
  483.298    3.832  160.100  104.287    0.456    0.187
  483.548    3.942  154.114   99.201    0.440    0.205
  483.798    4.132  153.170   98.954    0.426    0.193
  484.048    4.250  158.214   95.791    0.421    0.173
  484.298    4.348  160.106   92.442    0.427    0.182
  484.548    4.382  159.372   87.914    0.428    0.207
  484.798    4.311  158.743   83.635    0.423    0.228
  485.048    4.078  156.959   81.154    0.408    0.201
  485.298    3.793  154.545   82.458    0.400    0.178
  485.548    3.568  153.601   84.568    0.396    0.190
  485.798    3.332  153.813   87.795    0.397    0.208
  486.048    3.223  154.760   93.379    0.400    0.229
  486.298    3.112  155.287   95.489    0.406    0.225
  486.548    3.061  155.393   95.242    0.418    0.243
  486.798    3.039  155.921   95.367    0.440    0.244
  487.048    3.092  156.552   96.361    0.447    0.226
  487.298    3.157  156.554   98.347    0.435    0.208
  487.548    3.205  156.870   99.278    0.426    0.208
  487.798    3.243  157.502   99.155    0.419    0.213
  488.048    3.250  157.819  100.583    0.427    0.208
  488.298    3.419  157.611  100.149    0.421    0.208
  488.548    3.478  156.982   98.352    0.410    0.208
  488.798    3.447  155.828   97.608    0.407    0.180
  489.048    3.429  155.410   97.919    0.427    0.143
  489.298    3.361  154.571   98.354    0.421    0.136
  489.548    3.269  153.942   98.231    0.415    0.190
  489.798    3.087  153.209   96.433    0.414    0.214
  490.048    3.003  151.844   92.154    0.414    0.207
  490.298    2.921  151.006   86.013    0.414    0.240
  490.548    2.863  150.482   83.099    0.413    0.250
  490.798    2.811  149.854   85.705    0.410    0.241
  491.048    2.786  149.645   88.001    0.410    0.230
  491.298    2.818  149.226   88.312    0.416    0.223
  491.548    2.856  148.913   88.003    0.422    0.219
  491.798    2.895  148.704   88.934    0.432    0.228
  492.048    2.950  148.706   92.037    0.432    0.241
  492.298    2.973  148.707   96.195    0.434    0.240
  492.548    2.985  149.340   98.553    0.444    0.229
  492.798    2.964  150.182   95.018    0.451    0.226
  493.048    2.932  151.129   89.498    0.473    0.243
  493.298    2.874  152.391   85.714    0.469    0.261
