~VERSION INFORMATION
 VERS.                 2.0:   CWLS LOG ASCII STANDARD -VERSION 2.0
 WRAP.                  NO:   ONE LINE PER DEPTH STEP
~WELL INFORMATION BLOCK
#MNEM.UNIT           DATA                    DESCRIPTION OF MNEMONIC
#---------    -------------------            -------------------------------
# Generated from Intellog Unique Number	CW_70_72/WELL/1070
NULL.         -999.25                        : NULL_VALUE
WELL.         CNW PETER 15-13                : Well_name    - WELL              
LOC .         15-13-072-01W5                 : Location     - LOCATION          
UWI .         00/15-13-072-01W5/0            : Uwi          - UNIQUE WELL ID    
ENTR.         JAYE                           : Entered      - ENTERED BY        
SRVC.         COMPUTALOG                     : Scn          - SERVICE COMPANY   
DATE.         5 DEC 88                       : Date         - LOG DATE          
STRT.M        415                            : top_depth    - START DEPTH       
STOP.M        650                            : bot_depth    - STOP DEPTH        
STEP.M        0.25                           : increment    - STEP LENGTH       
~CURVE INFORMATION BLOCK
#MNEM UNIT       ERCB CURVE CODE    CURVE DESCRIPTION
#-----------   ------------------   ----------------------------------
DEPT.M        00 001 00 00         : DEPTH        - DEPTH                       
DPHI.V/V      00 890 00 00         : PHID         - DENSITY POROSITY (SANDSTONE)
NPHI.V/V      00 330 00 00         : PHIN         - NEUTRON POROSITY (SANDSTONE)
GR  .API      00 310 00 00         : GR           - GAMMA RAY                   
CALI.MM       00 280 01 00         : CAL          - CALIPER                     
ILD .OHMM     00 120 00 00         : RESD         - DEEP RESISTIVITY (DIL)      
~PARAMETER INFORMATION       
#MNEM.UNIT           DATA             DESCRIPTION OF MNEMONIC
#---------         -----------     ------------------------------
GL  .M        631.9                : gl           - GROUND LEVEL ELEVATION      
EREF.M        636.2                : kb           - ELEVATION OF DEPTH REFERENCE
DATM.M        631.9                : datum        - DATUM ELEVATION             
TDD .M        667                  : tdd          - TOTAL DEPTH DRILLER         
RUN .         ONE                  : Run          - RUN NUMBER                  
ENG .         HOMER                : Engineer     - RECORDING ENGINEER          
WIT .         TOPIC                : Witness      - WITNESSED BY                
BASE.         EDM                  : Branch       - HOME BASE OF LOGGING UNIT   
MUD .         GEL CHEM             : Mud_type     - MUD TYPE                    
MATR.         SANDSTONE            : Logunit      - NEUTRON MATRIX              
TMAX.C        30                   : BHT          - MAXIMUM RECORDED TEMPERATURE
BHTD.M        667                  : BHTDEP       - MAXIMUM RECORDED TEMPERATURE
RMT .C        17                   : MDTP         - TEMPERATURE OF MUD          
MUDD.KG/M     1180                 : MWT          - MUD DENSITY                 
NEUT.         1                    : NEUTRON      - NEUTRON TYPE                
RESI.         0                    : RESIST       - RESISTIVITY TYPE            
RM  .OHMM     4                    : RM           - RESISTIVITY OF MUD          
RMC .OHMM     3.3                  : RMC          - RESISTIVITY OF MUD CAKE     
RMF .OHMM     4.3                  : RMF          - RESISTIVITY OF MUD FILTRATE 
SUFT.C        0                    : SUFT         - SURFACE TEMPERATURE         
~A  DEPTH     PHID     PHIN       GR      CAL     RESD
  415.000    0.200    0.502   99.634  218.012    2.578
  415.250    0.201    0.514   98.354  217.510    2.603
  415.500    0.201    0.508   96.341  217.007    2.629
  415.750    0.201    0.513   95.673  215.689    2.679
  416.000    0.199    0.521   95.249  213.760    2.756
  416.250    0.194    0.534   96.781  210.712    2.872
  416.500    0.202    0.543   97.824  208.681    2.987
  416.750    0.209    0.544   94.833  207.158    3.136
  417.000    0.209    0.520   92.698  204.618    3.280
  417.250    0.212    0.493   85.244  201.977    3.406
  417.500    0.194    0.468   75.897  199.945    3.510
  417.750    0.162    0.448   66.793  198.526    3.479
  418.000    0.131    0.449   67.408  199.755    3.316
  418.250    0.194    0.465   72.608  203.124    3.069
  418.500    0.228    0.467   76.768  206.798    2.726
  418.750    0.241    0.474   77.445  212.407    2.522
  419.000    0.239    0.487   80.933  217.406    2.317
  419.250    0.251    0.505   84.421  215.885    2.379
  419.500    0.267    0.489   83.813  212.836    2.582
  419.750    0.281    0.446   77.338  209.989    2.964
  420.000    0.267    0.424   68.296  201.336    3.747
  420.250    0.248    0.416   63.899  196.962    4.332
  420.500    0.265    0.407   60.969  195.747    4.944
  420.750    0.246    0.390   60.973  195.652    5.654
  421.000    0.202    0.361   58.899  196.269    5.491
  421.250    0.105    0.375   54.012  198.416    5.128
  421.500    0.082    0.404   57.501  200.974    4.790
  421.750    0.192    0.416   68.813  203.217    4.482
  422.000    0.209    0.422   82.264  213.106    4.147
  422.250    0.221    0.425   87.219  215.862    3.902
  422.500    0.230    0.424   85.756  213.832    3.672
  422.750    0.222    0.424   74.758  208.235    3.507
  423.000    0.201    0.429   78.796  204.371    3.482
  423.250    0.204    0.421   81.734  209.165    3.477
  423.500    0.221    0.425   84.122  214.877    3.530
  423.750    0.224    0.436   86.327  214.069    3.734
  424.000    0.234    0.434   87.675  209.797    3.972
  424.250    0.249    0.421   88.108  202.774    4.216
  424.500    0.258    0.410   88.356  197.076    4.594
  424.750    0.247    0.419   84.570  195.860    4.797
  425.000    0.241    0.422   77.545  197.089    4.728
  425.250    0.229    0.417   72.964  202.903    4.634
  425.500    0.206    0.422   78.408  206.781    4.723
  425.750    0.199    0.433   85.503  206.889    5.023
  426.000    0.191    0.434   85.079  205.062    5.576
  426.250    0.163    0.403   72.430  203.134    6.008
  426.500    0.116    0.370   64.855  202.020    6.261
  426.750    0.112    0.401   57.463  200.804    6.264
  427.000    0.201    0.425   67.491  199.996    6.117
  427.250    0.215    0.440   76.481  199.697    5.940
  427.500    0.207    0.449   77.523  199.805    5.779
  427.750    0.204    0.454   75.266  200.423    5.675
  428.000    0.217    0.453   74.843  201.245    5.573
  428.250    0.204    0.443   75.029  201.964    5.463
  428.500    0.182    0.433   76.806  202.277    5.374
  428.750    0.159    0.451   79.744  201.978    5.248
  429.000    0.179    0.455   82.988  201.169    5.116
  429.250    0.192    0.446   79.813  200.157    4.931
  429.500    0.208    0.430   73.460  199.451    4.771
  429.750    0.226    0.415   67.535  199.763    4.608
  430.000    0.241    0.403   65.400  201.603    4.474
  430.250    0.237    0.398   65.832  203.444    4.345
  430.500    0.230    0.403   71.276  204.266    4.196
  430.750    0.221    0.420   71.341  206.412    3.963
  431.000    0.207    0.437   75.135  213.142    3.633
  431.250    0.197    0.458   80.212  223.540    3.350
  431.500    0.200    0.473   89.813  233.021    3.140
  431.750    0.192    0.480  102.286  228.240    3.038
  432.000    0.166    0.477  109.564  222.032    3.097
  432.250    0.138    0.458   96.427  214.399    3.343
  432.500    0.173    0.419   90.257  207.375    3.780
  432.750    0.199    0.375   84.454  201.372    4.338
  433.000    0.229    0.339   77.429  198.424    4.998
  433.250    0.254    0.304   69.609  196.903    5.537
  433.500    0.277    0.290   63.011  196.197    6.056
  433.750    0.285    0.275   63.626  196.203    6.636
  434.000    0.298    0.254   63.019  196.414    6.889
  434.250    0.317    0.239   51.899  196.420    6.165
  434.500    0.335    0.222   44.262  196.426    5.497
  434.750    0.345    0.222   36.870  196.637    4.966
  435.000    0.335    0.254   37.791  196.237    4.502
  435.250    0.324    0.272   40.362  195.937    4.236
  435.500    0.315    0.286   42.628  195.537    4.269
  435.750    0.325    0.301   42.876  195.544    4.516
  436.000    0.340    0.292   40.374  195.550    5.319
  436.250    0.353    0.281   36.405  195.557    5.689
  436.500    0.359    0.284   34.025  195.360    5.363
  436.750    0.347    0.297   31.829  195.265    5.009
  437.000    0.330    0.307   29.755  195.679    4.567
  437.250    0.313    0.318   27.680  196.704    4.195
  437.500    0.293    0.331   31.046  197.831    3.962
  437.750    0.256    0.351   48.165  199.570    3.883
  438.000    0.231    0.372   71.824  200.290    3.892
  438.250    0.216    0.395   88.271  200.297    3.930
  438.500    0.209    0.410   95.854  199.997    4.058
  438.750    0.203    0.431   94.819  200.208    4.189
  439.000    0.199    0.446   94.090  203.067    4.522
  439.250    0.193    0.448   96.294  209.696    4.739
  439.500    0.196    0.436   99.110  211.739    4.218
  439.750    0.208    0.420   96.058  206.959    3.796
  440.000    0.206    0.413   93.862  206.455    3.384
  440.250    0.199    0.452   94.904  207.888    3.029
  440.500    0.195    0.521  101.693  210.137    2.787
  440.750    0.191    0.545  107.076  211.162    2.579
  441.000    0.184    0.523  105.308  211.781    2.547
  441.250    0.166    0.507  107.879  212.704    2.605
  441.500    0.190    0.497  111.673  213.525    2.745
  441.750    0.207    0.484  108.559  214.245    2.920
  442.000    0.223    0.490  102.695  214.965    3.182
  442.250    0.245    0.482   98.482  213.443    3.390
  442.500    0.256    0.465  101.175  209.885    3.586
  442.750    0.240    0.456  100.079  204.084    3.702
  443.000    0.248    0.450   83.029  199.405    3.690
  443.250    0.272    0.446   70.686  197.985    3.570
  443.500    0.283    0.440   60.054  198.705    3.442
  443.750    0.268    0.424   57.063  199.731    3.361
  444.000    0.251    0.444   83.901  200.858    3.381
  444.250    0.236    0.456   93.257  201.577    3.478
  444.500    0.217    0.457  103.347  202.297    3.618
  444.750    0.222    0.455   91.431  203.017    3.798
  445.000    0.241    0.449   78.416  204.144    3.921
  445.250    0.259    0.445   71.757  205.068    4.004
  445.500    0.235    0.452   76.346  204.769    4.126
  445.750    0.211    0.445   76.472  202.738    4.189
  446.000    0.189    0.438   71.464  199.995    4.278
  446.250    0.225    0.431   68.044  198.371    4.311
  446.500    0.270    0.407   66.459  196.952    4.305
  446.750    0.254    0.397   63.651  196.144    4.212
  447.000    0.250    0.419   62.983  196.048    4.008
  447.250    0.259    0.429   65.249  196.258    3.778
  447.500    0.278    0.432   66.964  196.571    3.581
  447.750    0.297    0.430   60.672  196.984    3.320
  448.000    0.317    0.424   57.559  197.399    3.101
  448.250    0.316    0.417   61.047  198.527    2.984
  448.500    0.284    0.427   67.286  199.857    2.930
  448.750    0.264    0.451   76.092  202.411    2.926
  449.000    0.248    0.471   85.265  210.873    2.932
  449.250    0.239    0.472   94.438  212.102    3.005
  449.500    0.232    0.463   93.463  201.820    3.103
  449.750    0.227    0.469   85.582  198.363    3.227
  450.000    0.234    0.471   81.369  197.044    3.332
  450.250    0.255    0.459   77.339  197.256    3.473
  450.500    0.247    0.447   72.881  197.466    3.599
  450.750    0.234    0.435   73.007  198.288    3.736
  451.000    0.228    0.432   79.368  199.517    3.794
  451.250    0.229    0.433   87.868  201.459    3.795
