~VERSION INFORMATION
 VERS.                 2.0:   CWLS LOG ASCII STANDARD -VERSION 2.0
 WRAP.                  NO:   ONE LINE PER DEPTH STEP
~WELL INFORMATION BLOCK
#MNEM.UNIT           DATA                    DESCRIPTION OF MNEMONIC
#---------    -------------------            -------------------------------
# Generated from Intellog Unique Number	CS_67_68/WELL/2402
WELL.         MERLAND TWEEDIE                : Well_name    - WELL
LOC .         00/11-27-068-11W4/0            : Location     - LOCATION
UWI .         00/11-27-068-11W4/0            : Uwi          - UNIQUE WELL ID
ENTR.         TIM                            : Entered      - ENTERED BY
SRVC.         SCHLUMBERGER                   : Scn          - SERVICE COMPANY
STRT.M        300                            : top_depth    - START DEPTH
STOP.M        505                            : bot_depth    - STOP DEPTH
STEP.M        0.25                           : increment    - STEP LENGTH
 NULL. -999.2500:NULL Value
~CURVE INFORMATION BLOCK
#MNEM UNIT       ERCB CURVE CODE    CURVE DESCRIPTION
#-----------   ------------------   ----------------------------------
DEPT.M        00 001 00 00         : DEPTH        - DEPTH
DPHI.V/V      00 890 00 00         : PHID         - DENSITY POROSITY (SANDSTONE)
NPHI.V/V      00 330 00 00         : PHIN         - NEUTRON POROSITY (SANDSTONE)
CALI.MM       00 280 01 00         : CAL          - CALIPER
GR  .API      00 310 00 00         : GR           - GAMMA RAY
ILD .OHMM     00 120 00 00         : RESD         - DEEP RESISTIVITY (DIL)
~PARAMETER INFORMATION
#MNEM.UNIT           DATA             DESCRIPTION OF MNEMONIC
#---------         -----------     ------------------------------
GL  .M        615.5                : gl           - GROUND LEVEL ELEVATION
EREF.M        619                  : kb           - ELEVATION OF DEPTH REFERENCE
DATM.M        619                  : datum        - DATUM ELEVATION
TDD .M        516                  : tdd          - TOTAL DEPTH DRILLER
RUN .         ONE                  : Run          - RUN NUMBER
ENG .         BILL                 : Engineer     - RECORDING ENGINEER
WIT .         JIM                  : Witness      - WITNESSED BY
MUD .         GEL                  : Mud_type     - MUD TYPE
MATR.         SANDSTONE            : Logunit      - NEUTRON MATRIX
TMAX.C        22                   : BHT          - MAXIMUM RECORDED TEMPERATURE
BHTD.M        516                  : BHTDEP       - MAXIMUM RECORDED TEMPERATURE
MATR.         1                    : LOGUNIT      - NEUTRON MATRIX
RMT .C        22                   : MDTP         - TEMPERATURE OF MUD
NEUT.         1                    : NEUTRON      - NEUTRON TYPE
RESI.         0                    : RESIST       - RESISTIVITY TYPE
RMC .OHMM     4                    : RMC          - RESISTIVITY OF MUD CAKE
RMF .OHMM     4                    : RMF          - RESISTIVITY OF MUD FILTRATE
SUFT.C        5                    : SUFT         - SURFACE TEMPERATURE
~A  DEPTH     PHID     PHIN      CAL       GR     RESD
# ...
  446.000    0.169    0.401  166.329  103.044    4.580
  446.250    0.161    0.397  165.512  108.366    4.665
  446.500    0.168    0.408  163.723  111.920    4.842
  446.750    0.177    0.414  163.816  109.662    5.026
  447.000    0.147    0.404  162.998  105.654    5.217
  447.250    0.138    0.400  164.063   99.898    5.729
  447.500    0.109    0.399  165.158   92.391    5.947
  447.750    0.080    0.363  165.282   87.782    6.291
  448.000    0.095    0.305  165.406   83.192    6.408
  448.250    0.122    0.334  165.529   87.366    5.941
  448.500    0.161    0.374  165.684   92.688    5.404
  448.750    0.193    0.388  166.748   97.427    4.646
  449.000    0.216    0.403  165.962  101.018    4.148
  449.250    0.193    0.407  166.055   98.742    3.845
  449.500    0.206    0.417  166.147   95.336    3.772
  449.750    0.227    0.417  166.302   93.661    3.841
  450.000    0.214    0.398  167.397   92.569    3.913
  450.250    0.205    0.381  168.554   90.894    3.986
  450.500    0.191    0.365  168.616   89.218    3.765
  450.750    0.173    0.355  168.771   89.293    3.425
  451.000    0.184    0.394  168.894   90.533    3.058
  451.250    0.204    0.414  169.018   92.356    2.679
  451.500    0.215    0.431  171.085   94.763    2.347
  451.750    0.225    0.472  175.065   96.003    2.135
  452.000    0.233    0.478  177.164   97.244    1.979
  452.250    0.244    0.473  177.287   98.484    1.905
  452.500    0.245    0.468  176.439   98.577    1.733
  452.750    0.241    0.464  175.591   96.902    1.732
  453.000    0.232    0.464  173.833   96.411    1.732
  453.250    0.216    0.465  171.951   96.448    1.832
  453.500    0.206    0.465  168.187   97.707    1.937
  453.750    0.202    0.463  166.429   97.781    2.049
  454.000    0.197    0.461  166.491   94.922    2.208
  454.250    0.183    0.452  166.614   91.497    2.472
  454.500    0.134    0.438  166.738   85.740    3.157
  454.750    0.062    0.339  167.864   79.984    5.450
  455.000    0.020    0.278  168.960   68.377    7.365
  455.250    0.053    0.300  169.052   63.787    8.400
  455.500    0.098    0.302  170.179   69.692    8.240
  455.750    0.092    0.308  171.274   76.782    7.639
  456.000    0.098    0.321  171.398   80.938    6.819
  456.250    0.144    0.336  171.521   87.444    6.322
  456.500    0.166    0.350  170.642   93.350    5.434
  456.750    0.178    0.361  170.766   98.671    4.852
  457.000    0.159    0.387  169.979  104.031    4.414
  457.250    0.192    0.406  170.072  104.105    3.940
  457.500    0.200    0.437  168.283  102.430    3.517
  457.750    0.197    0.431  168.376  101.338    3.200
  458.000    0.191    0.423  167.558  100.847    2.910
  458.250    0.185    0.412  166.679  100.921    2.802
  458.500    0.176    0.407  166.865  100.959    2.748
  458.750    0.162    0.402  166.958  102.217    2.799
  459.000    0.159    0.399  167.050  102.856    2.852
  459.250    0.167    0.403  167.205  107.012    2.850
  459.500    0.180    0.416  167.328  113.519    2.849
  459.750    0.195    0.427  167.421  112.427    2.743
  460.000    0.223    0.434  167.545  110.770    2.640
  460.250    0.224    0.442  168.671  110.261    2.542
  460.500    0.224    0.451  168.764  111.502    2.356
  460.750    0.223    0.465  169.859  115.056    2.268
  461.000    0.215    0.478  169.983  113.982    2.183
  461.250    0.213    0.493  170.168  111.724    2.142
  461.500    0.205    0.507  170.292  110.049    2.140
  461.750    0.194    0.481  170.416  106.023    2.264
  462.000    0.185    0.464  170.539  102.599    2.306
  462.250    0.182    0.464  169.691  104.422    2.439
  462.500    0.188    0.457  168.874  103.330    2.629
  462.750    0.193    0.455  167.023  100.526    2.942
  463.000    0.187    0.431  166.205   98.814    3.172
  463.250    0.187    0.376  165.326   90.123    3.687
  463.500    0.187    0.361  165.419   79.720    4.366
  463.750    0.175    0.358  166.514   80.960    4.887
  464.000    0.154    0.363  167.641   79.266    5.898
  464.250    0.142    0.359  167.764   74.694    7.117
  464.500    0.114    0.353  167.857   72.436    7.967
  464.750    0.095    0.342  167.009   70.761    8.917
  465.000    0.084    0.331  167.133   69.105    9.979
  465.250    0.175    0.322  168.259   67.975   10.757
  465.500    0.168    0.324  168.383   66.300   11.378
  465.750    0.146    0.324  168.537   64.042   11.588
  466.000    0.136    0.324  168.630   62.386   11.584
  466.250    0.143    0.324  168.784   62.460   11.363
  466.500    0.175    0.324  168.908   63.700   11.147
  466.750    0.210    0.323  169.032   64.922   10.729
  467.000    0.225    0.326  170.158   68.513   10.327
  467.250    0.233    0.334  170.251   71.484    9.573
  467.500    0.201    0.345  170.343   76.825    8.709
  467.750    0.193    0.343  170.529   80.398    7.776
  468.000    0.169    0.340  170.621   84.553    6.684
  468.250    0.163    0.343  169.773   89.894    5.968
  468.500    0.186    0.395  167.953   90.551    5.531
  468.750    0.199    0.419  167.074   85.961    5.530
  469.000    0.232    0.451  164.344   80.768    5.739
  469.250    0.254    0.434  163.465   71.513    6.185
  469.500    0.264    0.400  162.586   49.994    6.422
  469.750    0.275    0.366  162.740   48.902    7.463
  470.000    0.280    0.350  162.895   53.077    8.674
  470.250    0.276    0.335  163.018   56.631   10.082
  470.500    0.276    0.340  163.142   57.908   11.284
  470.750    0.276    0.343  163.235   54.465   12.392
  471.000    0.276    0.347  164.361   50.458   12.388
  471.250    0.277    0.353  164.454   44.682   12.151
  471.500    0.276    0.358  165.549   41.841   11.264
  471.750    0.275    0.359  167.648   41.915   10.844
  472.000    0.279    0.360  167.740   44.340    9.865
  472.250    0.287    0.360  168.897   45.599    9.144
  472.500    0.289    0.361  168.959   46.803    8.163
  472.750    0.289    0.362  169.083   48.663    7.859
  473.000    0.285    0.358  169.237   51.051    7.016
  473.250    0.286    0.352  168.389   57.539    6.030
  473.500    0.289    0.348  166.569   59.363    5.697
  473.750    0.280    0.340  165.783   57.688    4.805
  474.000    0.265    0.331  164.873   57.762    4.540
  474.250    0.265    0.334  164.025   67.767    4.053
  474.500    0.266    0.355  164.179   80.688    3.618
  474.750    0.265    0.363  163.331   88.343    3.483
  475.000    0.255    0.374  163.485   95.432    3.353
  475.250    0.242    0.384  163.547   88.491    3.167
  475.500    0.227    0.375  163.702   78.652    2.992
  475.750    0.216    0.369  163.794   67.046    2.880
  476.000    0.232    0.350  163.980   50.210    2.721
  476.250    0.279    0.339  164.042   42.103    2.619
  476.500    0.297    0.335  164.196   37.512    2.474
  476.750    0.298    0.327  165.292   34.106    2.382
  477.000    0.298    0.320  165.446   33.014    2.293
  477.250    0.296    0.315  166.573   32.505    2.249
  477.500    0.295    0.302  167.606   33.163    2.165
  477.750    0.289    0.286  167.761   33.820    2.205
  478.000    0.262    0.266  168.856   36.245    2.332
  478.250    0.228    0.220  168.980   37.448    2.562
  478.500    0.033    0.180  168.132   41.623    2.922
  478.750    0.054    0.148  166.312   47.528    3.731
  479.000    0.114    0.160  165.432   56.367    4.419
  479.250    0.152    0.228  164.584   62.272    4.417
  479.500    0.207    0.337  162.795   62.929    4.252
  479.750    0.232    0.323  161.916   67.085    4.092
  480.000    0.198    0.311  161.130   76.507    4.495
  480.250    0.161    0.314  161.222   92.344    5.031
  480.500    0.136    0.322  161.377   91.252    5.222
  480.750    0.109    0.294  160.498   83.746    5.736
  481.000    0.098    0.232  160.590   76.804    5.842
  481.250    0.095    0.206  159.742   70.464    5.840
  481.500    0.143    0.271  159.897   69.955    5.622
  481.750    0.157    0.294  160.051   78.794    5.411
  482.000    0.182    0.310  160.144   86.449    5.309
  482.250    0.223    0.323  159.358   88.855    5.014
