~VERSION INFORMATION
 VERS.                 2.0:   CWLS LOG ASCII STANDARD -VERSION 2.0
 WRAP.                  NO:   ONE LINE PER DEPTH STEP
~WELL INFORMATION BLOCK
#MNEM.UNIT           DATA                    DESCRIPTION OF MNEMONIC
#---------    -------------------            -------------------------------
# Generated from Intellog Unique Number	CW_73_75/WELL/993
WELL.         HB MARTEN HILLS 10-27          : Well_name    - WELL
LOC .         00/10-27-074-01W5/0            : Location     - LOCATION
UWI .         00/10-27-074-01W5/0            : Uwi          - UNIQUE WELL ID
ENTR.         JAYE                           : Entered      - ENTERED BY
SRVC.         SCHLUMBERGER                   : Scn          - SERVICE COMPANY
DATE.         3 MAR 75                       : Date         - LOG DATE
STRT.M        466.344                        : top_depth    - START DEPTH
STOP.M        673.594                        : bot_depth    - STOP DEPTH
STEP.M        0.25                           : increment    - STEP LENGTH
 NULL. -999.2500:NULL Value
~CURVE INFORMATION BLOCK
#MNEM UNIT       ERCB CURVE CODE    CURVE DESCRIPTION
#-----------   ------------------   ----------------------------------
DEPT.M        00 001 00 00         : DEPTH        - DEPTH
ILD .OHMM     00 120 00 00         : RESD         - DEEP RESISTIVITY (DIL)
NPHI.V/V      00 330 00 00         : PHIN         - NEUTRON POROSITY (SANDSTONE)
DPHI.V/V      00 890 00 00         : PHID         - DENSITY POROSITY (SANDSTONE)
GR  .API      00 310 00 00         : GR           - GAMMA RAY
CALI.MM       00 280 01 00         : CAL          - CALIPER
~PARAMETER INFORMATION
#MNEM.UNIT           DATA             DESCRIPTION OF MNEMONIC
#---------         -----------     ------------------------------
GL  .M        720.547              : gl           - GROUND LEVEL ELEVATION
EREF.M        730.301              : kb           - ELEVATION OF DEPTH REFERENCE
DATM.M        720.547              : datum        - DATUM ELEVATION
TDD .M        688.848              : tdd          - TOTAL DEPTH DRILLER
RUN .         ONE                  : Run          - RUN NUMBER
ENG .         CROCKFORD            : Engineer     - RECORDING ENGINEER
WIT .         CAMPBELL/GARBIES     : Witness      - WITNESSED BY
BASE.         EDM                  : Branch       - HOME BASE OF LOGGING UNIT
MUD .         GEL CHEM             : Mud_type     - MUD TYPE
MATR.         SANDSTONE            : Logunit      - NEUTRON MATRIX
TMAX.C        25.5556              : BHT          - MAXIMUM RECORDED TEMPERATURE
BHTD.M        690.982              : BHTDEP       - MAXIMUM RECORDED TEMPERATURE
RMT .C        18.3333              : MDTP         - TEMPERATURE OF MUD
MUDD.KG/M     1152                 : MWT          - MUD DENSITY
NEUT.         1                    : NEUTRON      - NEUTRON TYPE
RESI.         0                    : RESIST       - RESISTIVITY TYPE
RM  .OHMM     5.2                  : RM           - RESISTIVITY OF MUD
RMC .OHMM     0                    : RMC          - RESISTIVITY OF MUD CAKE
RMF .OHMM     0                    : RMF          - RESISTIVITY OF MUD FILTRATE
SUFT.C        -17.7778             : SUFT         - SURFACE TEMPERATURE
~A  DEPTH     RESD     PHIN     PHID       GR      CAL
  466.344    1.482    0.487    0.217   98.633  203.133
  466.594    2.299    0.500    0.220   96.397  203.712
  466.844    2.323    0.503    0.218   92.749  203.870
  467.094    2.266    0.493    0.211   92.662  204.039
  467.344    2.323    0.500    0.207   92.696  203.983
  467.594    2.449    0.506    0.205   90.825  204.356
  467.844    2.768    0.497    0.203   87.364  204.737
  468.094    3.015    0.481    0.210   84.390  205.099
  468.344    3.149    0.446    0.212   85.530  205.263
  468.594    3.164    0.458    0.210   88.381  205.525
  468.844    3.030    0.463    0.202   93.015  205.470
  469.094    2.682    0.472    0.204   95.442  205.428
  469.344    2.356    0.494    0.210   95.295  204.972
  469.594    2.021    0.507    0.218   95.266  204.501
  469.844    1.825    0.529    0.227   97.387  203.929
  470.094    1.697    0.550    0.241   98.583  202.947
  470.344    1.766    0.575    0.248   97.822  202.176
  470.594    1.913    0.589    0.256   96.746  201.930
  470.844    2.178    0.551    0.270   97.271  202.085
  471.094    2.513    0.516    0.270   98.899  202.346
  471.344    2.952    0.475    0.248   95.254  202.725
  471.594    3.513    0.465    0.228   85.900  202.768
  471.844    3.978    0.478    0.223   73.422  202.721
  472.094    4.192    0.475    0.242   66.462  202.164
  472.344    4.306    0.456    0.265   61.528  201.803
  472.594    4.326    0.451    0.283   57.330  201.234
  472.844    4.206    0.453    0.269   53.866  200.771
  473.094    4.125    0.455    0.257   55.924  200.104
  473.344    4.009    0.460    0.252   60.437  199.434
  473.594    4.022    0.464    0.260   62.064  199.076
  473.844    4.070    0.461    0.281   59.706  198.708
  474.094    4.173    0.451    0.302   55.997  198.555
  474.344    4.216    0.435    0.318   54.742  198.620
  474.594    4.213    0.432    0.316   56.863  198.575
  474.844    4.257    0.449    0.312   58.305  198.621
  475.094    4.339    0.460    0.307   57.234  198.682
  475.344    4.352    0.451    0.308   55.182  198.648
  475.594    4.341    0.439    0.305   54.604  198.491
  475.844    4.298    0.429    0.319   54.759  198.338
  476.094    4.239    0.432    0.322   55.652  198.287
  476.344    4.205    0.442    0.314   57.402  198.234
  476.594    4.179    0.439    0.309   58.851  198.090
  476.844    4.137    0.447    0.288   57.286  197.940
  477.094    4.111    0.453    0.281   56.215  197.787
  477.344    4.101    0.449    0.266   55.450  197.426
  477.594    4.082    0.449    0.258   55.180  197.384
  477.844    4.041    0.451    0.288   56.564  197.127
  478.094    4.009    0.452    0.307   59.232  196.774
  478.344    3.983    0.451    0.306   59.940  196.615
  478.594    3.959    0.452    0.289   58.011  196.358
  478.844    3.919    0.455    0.274   57.556  196.208
  479.094    3.895    0.444    0.288   59.551  196.261
  479.344    3.913    0.432    0.299   62.405  196.322
  479.594    3.961    0.429    0.289   62.501  196.795
  479.844    3.972    0.442    0.295   60.816  196.846
  480.094    3.940    0.447    0.301   59.746  197.223
  480.344    3.937    0.448    0.309   59.349  197.379
  480.594    3.955    0.441    0.307   57.665  197.640
  480.844    3.974    0.440    0.298   56.532  197.698
  481.094    3.978    0.437    0.303   56.812  197.653
  481.344    3.968    0.434    0.305   58.807  197.509
  481.594    3.965    0.443    0.303   62.522  197.558
  481.844    3.925    0.460    0.290   61.822  197.507
  482.094    3.915    0.469    0.284   59.092  197.364
  482.344    3.905    0.465    0.301   56.735  197.434
  482.594    3.887    0.454    0.311   57.074  197.488
  482.844    3.898    0.453    0.320   59.561  197.538
  483.094    3.975    0.453    0.310   57.693  197.900
  483.344    4.323    0.449    0.301   55.091  198.472
  483.594    4.806    0.439    0.297   53.160  198.842
  483.844    4.973    0.423    0.266   51.659  199.315
  484.094    4.851    0.377    0.231   53.595  201.863
  484.344    4.512    0.342    0.181   57.432  203.583
  484.594    4.189    0.419    0.187   61.762  201.565
  484.844    3.797    0.444    0.212   63.817  199.649
  485.094    3.550    0.461    0.282   65.446  198.050
  485.344    3.470    0.470    0.283   65.540  196.961
  485.594    3.487    0.467    0.280   64.225  195.668
  485.844    3.647    0.459    0.291   62.233  194.888
  486.094    3.754    0.445    0.295   60.302  194.012
  486.344    3.827    0.424    0.302   61.317  193.134
  486.594    3.839    0.441    0.295   62.886  192.981
  486.844    3.800    0.471    0.303   64.328  192.828
  487.094    3.721    0.454    0.307   65.652  192.680
  487.344    3.577    0.443    0.274   67.339  193.153
  487.594    3.433    0.431    0.285   71.299  194.139
  487.844    3.282    0.424    0.299   76.425  196.479
  488.094    3.144    0.420    0.290   80.811  199.555
  488.344    3.101    0.434    0.269   92.744  201.371
  488.594    3.162    0.456    0.200  101.184  202.055
  488.844    3.260    0.477    0.211  103.238  202.420
  489.094    3.324    0.470    0.219   88.306  204.767
  489.344    3.414    0.429    0.241   72.637  207.830
  489.594    3.546    0.415    0.233   53.412  208.929
  489.844    3.649    0.423    0.244   43.815  201.711
  490.094    3.527    0.385    0.280   41.948  198.236
  490.344    3.403    0.401    0.302   43.761  200.370
  490.594    3.376    0.402    0.305   46.430  200.949
  490.844    3.385    0.404    0.314   51.801  198.926
  491.094    3.414    0.420    0.311   54.777  197.533
  491.344    3.526    0.416    0.295   58.491  197.387
  491.594    3.737    0.394    0.307   62.449  197.955
  491.844    4.056    0.390    0.308   65.857  198.742
  492.094    4.403    0.395    0.295   71.595  199.624
  492.344    4.850    0.389    0.262   77.025  200.928
  492.594    5.046    0.331    0.215   72.585  202.344
  492.844    4.996    0.272    0.166   70.102  202.913
  493.094    4.724    0.268    0.099   76.085  202.037
  493.344    4.337    0.333    0.116   82.190  201.269
  493.594    3.903    0.364    0.206   91.914  201.219
  493.844    3.724    0.414    0.201   93.545  201.269
  494.094    3.762    0.426    0.191   93.517  201.639
  494.344    3.879    0.434    0.217   93.368  202.320
  494.594    3.992    0.452    0.233   92.478  202.788
  494.844    3.887    0.463    0.224   89.138  203.579
  495.094    3.723    0.441    0.231   88.619  204.043
  495.344    3.350    0.421    0.241   93.561  204.520
  495.594    3.009    0.431    0.236  101.506  202.809
  495.844    2.543    0.449    0.226  108.837  200.484
  496.094    2.242    0.492    0.222  113.839  199.810
  496.344    2.047    0.514    0.229  117.063  199.137
  496.594    2.019    0.505    0.206  121.452  198.055
  496.844    2.090    0.533    0.232  121.672  197.176
  497.094    2.268    0.556    0.230  117.165  195.984
  497.344    2.448    0.546    0.235  113.271  196.976
  497.594    2.657    0.509    0.248  105.454  200.664
  497.844    2.917    0.456    0.252   99.231  206.851
  498.094    3.254    0.469    0.233  100.431  209.507
  498.344    3.318    0.466    0.226  101.506  214.129
  498.594    3.365    0.473    0.228   99.024  215.121
  498.844    3.374    0.482    0.217   93.046  208.326
  499.094    3.440    0.490    0.232   83.268  204.127
  499.344    3.496    0.494    0.241   74.284  201.903
  499.594    3.480    0.472    0.265   66.038  200.399
  499.844    3.389    0.468    0.285   63.863  199.100
  500.094    3.294    0.437    0.299   65.184  198.325
  500.344    3.190    0.437    0.306   68.284  198.074
  500.594    3.106    0.445    0.308   73.836  198.965
  500.844    3.036    0.452    0.298   75.097  199.325
  501.094    3.000    0.457    0.304   73.234  199.384
  501.344    3.082    0.458    0.302   73.513  199.545
  501.594    3.260    0.457    0.269   74.342  200.221
  501.844    3.802    0.442    0.252   74.128  200.696
  502.094    4.500    0.408    0.230   72.443  201.174
  502.344    5.505    0.331    0.207   69.532  201.958
  502.594    6.834    0.300    0.176   64.843  202.632
