~VERSION INFORMATION
 VERS.                 2.0:   CWLS LOG ASCII STANDARD -VERSION 2.0
 WRAP.                  NO:   ONE LINE PER DEPTH STEP
~WELL INFORMATION BLOCK
#MNEM.UNIT           DATA                    DESCRIPTION OF MNEMONIC
#---------    -------------------            -------------------------------
# Generated from Intellog Unique Number	CW_79_81/WELL/2467
WELL.         10-15-081-19W4                 : Well_name    - WELL
LOC .         00/10-15-081-19W4/0            : Location     - LOCATION
UWI .         00/10-15-081-19W400            : Uwi          - UNIQUE WELL ID
ENTR.         MAX                            : Entered      - ENTERED BY
SRVC.         SCHLUMBERGER                   : Scn          - SERVICE COMPANY
STRT.M        167.64                         : top_depth    - START DEPTH
STOP.M        365.64                         : bot_depth    - STOP DEPTH
STEP.M        0.25                           : increment    - STEP LENGTH
 NULL. -999.2500:NULL Value
~CURVE INFORMATION BLOCK
#MNEM UNIT       ERCB CURVE CODE    CURVE DESCRIPTION
#-----------   ------------------   ----------------------------------
DEPT.M        00 001 00 00         : DEPTH        - DEPTH
ILD .OHMM     00 120 00 00         : RESD         - DEEP RESISTIVITY (DIL)
NPHI.V/V      00 330 00 00         : PHIN         - NEUTRON POROSITY (SANDSTONE)
DPHI.V/V      00 890 00 00         : PHID         - DENSITY POROSITY (SANDSTONE)
GR  .API      00 310 00 00         : GR           - GAMMA RAY
CALI.MM       00 280 01 00         : CAL          - CALIPER
~PARAMETER INFORMATION
#MNEM.UNIT           DATA             DESCRIPTION OF MNEMONIC
#---------         -----------     ------------------------------
GL  .M        576.377              : gl           - GROUND LEVEL ELEVATION
EREF.M        578.815              : kb           - ELEVATION OF DEPTH REFERENCE
DATM.M        576.377              : datum        - DATUM ELEVATION
TDD .M        373.99               : tdd          - TOTAL DEPTH DRILLER
RUN .         ONE                  : Run          - RUN NUMBER
ENG .         BILL                 : Engineer     - RECORDING ENGINEER
WIT .         JIM                  : Witness      - WITNESSED BY
MUD .         GEL                  : Mud_type     - MUD TYPE
MATR.         SANDSTONE            : Logunit      - NEUTRON MATRIX
TMAX.C        20                   : BHT          - MAXIMUM RECORDED TEMPERATURE
BHTD.M        373.99               : BHTDEP       - MAXIMUM RECORDED TEMPERATURE
MATR.         1                    : LOGUNIT      - NEUTRON MATRIX
RMT .C        15.5556              : MDTP         - TEMPERATURE OF MUD
NEUT.         1                    : NEUTRON      - NEUTRON TYPE
RESI.         0                    : RESIST       - RESISTIVITY TYPE
RMC .OHMM     7.16                 : RMC          - RESISTIVITY OF MUD CAKE
RMF .OHMM     8.11                 : RMF          - RESISTIVITY OF MUD FILTRATE
SUFT.C        -20                  : SUFT         - SURFACE TEMPERATURE
~A  DEPTH     RESD     PHIN     PHID       GR      CAL
  167.640    2.198    0.568    0.282  104.638  175.946
  167.890    2.196    0.585    0.278  102.682  177.116
  168.140    2.207    0.594    0.267  102.615  178.196
  168.390    2.229    0.598    0.256  102.817  178.151
  168.640    2.268    0.599    0.249  102.674  177.422
  168.890    2.344    0.597    0.252  101.937  178.471
  169.140    2.396    0.593    0.251  100.704  180.058
  169.390    2.464    0.585    0.249  103.685  179.620
  169.640    2.508    0.593    0.262  108.571  179.769
  169.890    2.561    0.597    0.264  111.319  179.720
  170.140    2.625    0.591    0.255  110.656  179.377
  170.390    2.673    0.575    0.257  107.985  179.407
  170.640    2.732    0.567    0.241  107.472  179.766
  170.890    2.790    0.562    0.230  107.675  180.106
  171.140    2.834    0.573    0.233  106.318  180.152
  171.390    2.884    0.586    0.237  106.175  180.108
  171.640    2.935    0.592    0.236  107.940  179.970
  171.890    2.954    0.584    0.233  110.415  179.604
  172.140    2.951    0.574    0.230  111.352  179.963
  172.390    2.949    0.582    0.232  112.246  179.534
  172.640    2.963    0.575    0.232  113.316  178.801
  172.890    2.993    0.569    0.231  114.445  177.577
  173.140    3.035    0.566    0.239  115.632  175.965
  173.390    3.090    0.558    0.269  116.991  174.346
  173.640    3.160    0.542    0.249  116.960  174.293
  173.890    3.204    0.543    0.229  114.620  173.855
  174.140    3.213    0.541    0.225  112.972  173.713
  174.390    3.199    0.541    0.225  112.599  173.862
  174.640    3.174    0.546    0.224  112.806  174.694
  174.890    3.153    0.553    0.230  111.135  177.561
  175.140    3.174    0.563    0.231  108.698  180.363
  175.390    3.242    0.551    0.235  106.358  177.971
  175.640    3.364    0.542    0.230  103.496  176.458
  175.890    3.462    0.532    0.225  100.577  175.821
  176.140    3.485    0.524    0.223   97.948  175.773
  176.390    3.405    0.530    0.219   96.219  175.644
  176.640    3.277    0.541    0.231   98.117  175.182
  176.890    3.067    0.560    0.233   97.165  174.357
  177.140    2.887    0.582    0.241   93.263  174.109
  177.390    2.844    0.594    0.254   89.303  174.251
  177.640    2.951    0.596    0.270   86.502  174.596
  177.890    3.149    0.599    0.278   84.399  174.960
  178.140    3.738    0.589    0.290   82.630  171.965
  178.390    4.760    0.528    0.304   79.711  165.386
  178.640    7.507    0.485    0.314   75.465  159.924
  178.890   12.589    0.452    0.319   68.615  155.962
  179.140   16.569    0.432    0.319   60.146  154.055
  179.390   22.456    0.429    0.320   52.955  153.604
  179.640   24.026    0.441    0.321   54.127  153.565
  179.890   25.248    0.447    0.326   57.108  153.513
  180.140   25.700    0.453    0.326   59.048  153.465
  180.390   25.774    0.454    0.329   60.178  153.617
  180.640   25.754    0.452    0.334   60.670  154.063
  180.890   25.735    0.458    0.333   60.441  155.034
  181.140   25.715    0.461    0.333   59.446  156.209
  181.390   25.700    0.463    0.334   61.270  155.766
  181.640   25.683    0.464    0.329   62.575  154.743
  181.890   25.664    0.466    0.329   63.011  153.521
  182.140   25.551    0.468    0.334   62.695  152.493
  182.390   25.125    0.477    0.336   61.865  152.051
  182.640   24.918    0.478    0.336   60.150  152.007
  182.890   24.544    0.476    0.339   59.198  152.352
  183.140   24.306    0.469    0.343   58.939  152.693
  183.390   24.113    0.464    0.341   59.602  153.033
  183.640   23.965    0.465    0.331   60.843  153.279
  183.890   23.946    0.471    0.320   61.690  153.231
  184.140   23.927    0.476    0.316   61.423  153.177
  184.390   24.085    0.475    0.322   59.777  153.140
  184.640   24.376    0.480    0.329   59.346  153.095
  184.890   24.714    0.481    0.332   58.974  153.244
  185.140   24.967    0.474    0.332   58.598  153.589
  185.390   24.912    0.459    0.336   59.111  153.924
  185.640   24.706    0.455    0.341   58.360  153.875
  185.890   24.509    0.458    0.343   58.564  153.824
  186.140   24.050    0.457    0.342   58.767  153.779
  186.390   23.516    0.458    0.337   58.279  153.537
  186.640   23.037    0.463    0.332   57.155  152.997
  186.890   22.551    0.471    0.335   56.293  152.158
  187.140   21.863    0.470    0.332   56.746  152.115
  187.390   21.693    0.461    0.328   58.105  152.846
  187.640   21.289    0.453    0.323   58.078  153.871
  187.890   20.509    0.453    0.318   57.127  154.417
  188.140   19.257    0.458    0.314   55.712  154.380
  188.390   17.031    0.461    0.306   54.480  154.324
  188.640   14.886    0.472    0.296   55.420  154.275
  188.890   12.933    0.463    0.307   56.543  155.403
  189.140   11.119    0.462    0.319   58.195  156.824
  189.390   10.230    0.470    0.323   60.715  157.952
  189.640   10.236    0.484    0.316   63.751  158.688
  189.890   10.900    0.493    0.305   65.823  159.170
  190.140   10.411    0.479    0.321   63.633  157.898
  190.390    9.460    0.473    0.328   62.215  157.068
  190.640    8.697    0.470    0.326   63.574  157.119
  190.890    8.117    0.471    0.317   65.513  157.464
  191.140    7.743    0.474    0.306   66.701  157.908
  191.390    7.781    0.488    0.299   66.808  158.556
  191.640    8.651    0.511    0.289   67.499  158.095
  191.890    9.622    0.498    0.278   68.402  157.666
  192.140   10.272    0.483    0.287   70.861  156.933
  192.390   10.874    0.475    0.295   72.913  156.495
  192.640   11.603    0.475    0.295   73.463  156.351
  192.890   12.509    0.468    0.296   71.267  155.896
  193.140   13.182    0.447    0.283   66.177  155.857
  193.390   13.460    0.438    0.289   66.381  156.197
  193.640   13.378    0.437    0.281   67.280  156.537
  193.890   13.177    0.441    0.275   68.988  156.879
  194.140   13.097    0.447    0.274   71.562  157.127
  194.390   13.433    0.455    0.272   75.094  157.075
  194.640   13.729    0.466    0.278   75.549  157.027
  194.890   13.525    0.464    0.272   71.126  156.984
  195.140   12.671    0.461    0.277   70.519  156.942
  195.390   11.737    0.455    0.284   72.227  157.094
  195.640   10.870    0.450    0.286   75.497  157.340
  195.890    9.952    0.461    0.266   81.044  157.283
  196.140    9.870    0.475    0.250   84.628  157.229
  196.390   10.372    0.479    0.270   83.214  157.183
  196.640   10.787    0.474    0.280   81.797  157.139
  196.890   11.098    0.463    0.283   82.116  156.701
  197.140   11.232    0.453    0.284   83.593  156.258
  197.390   10.873    0.450    0.289   83.666  157.226
  197.640   10.007    0.447    0.293   85.323  158.411
  197.890    8.501    0.457    0.286   87.145  159.926
  198.140    7.105    0.484    0.269   89.138  163.209
  198.390    6.430    0.498    0.250   91.887  167.665
  198.640    6.345    0.490    0.236   95.564  170.650
  198.890    6.717    0.477    0.238  100.215  166.648
  199.140    7.526    0.471    0.241  101.631  162.512
  199.390    8.311    0.465    0.244   98.598  161.700
  199.640    9.044    0.464    0.235   97.472  163.808
  199.890    9.721    0.458    0.237   97.558  164.738
  200.140   10.318    0.445    0.247   98.454  162.833
  200.390   10.866    0.434    0.237  100.427  158.783
  200.640   11.363    0.438    0.233  102.322  158.322
  200.890   11.688    0.445    0.239  100.907  158.279
  201.140   11.830    0.448    0.243   97.587  158.234
  201.390   11.648    0.443    0.257   94.669  158.380
  201.640   11.098    0.432    0.271   93.310  158.820
  201.890   10.023    0.418    0.248   93.316  159.629
  202.140    9.023    0.407    0.233   92.326  159.993
  202.390    8.887    0.417    0.223   92.301  160.734
  202.640    8.849    0.424    0.223   93.660  161.464
  202.890    8.840    0.429    0.219   95.943  162.396
  203.140    8.848    0.431    0.211   98.344  163.432
  203.390    8.935    0.431    0.212   99.507  164.072
  203.640    9.065    0.444    0.209   98.512  163.615
  203.890    9.124    0.438    0.231   97.791  162.790
