~VERSION INFORMATION
 VERS.                 2.0:   CWLS LOG ASCII STANDARD -VERSION 2.0
 WRAP.                  NO:   ONE LINE PER DEPTH STEP
~WELL INFORMATION BLOCK
#MNEM.UNIT           DATA                    DESCRIPTION OF MNEMONIC
#---------    -------------------            -------------------------------
# Generated from Intellog Unique Number	CX_WELLS/WELL/2975
WELL.         ULSTER ET AL HANGST            : Well_name    - WELL
LOC .         00/12-23-082-11W4/0            : Location     - LOCATION
UWI .         00/12-23-082-11W400            : Uwi          - UNIQUE WELL ID
ENTR.         T                              : Entered      - ENTERED BY
SRVC.         SCHLUMBERGER                   : Scn          - SERVICE COMPANY
STRT.M        270                            : top_depth    - START DEPTH
STOP.M        493                            : bot_depth    - STOP DEPTH
STEP.M        0.25                           : increment    - STEP LENGTH
 NULL. -999.2500:NULL Value
~CURVE INFORMATION BLOCK
#MNEM UNIT       ERCB CURVE CODE    CURVE DESCRIPTION
#-----------   ------------------   ----------------------------------
DEPT.M        00 001 00 00         : DEPTH        - DEPTH
GR  .API      00 310 00 00         : GR           - GAMMA RAY
NPHI.V/V      00 330 00 00         : PHIN         - NEUTRON POROSITY (SANDSTONE)
DPHI.V/V      00 890 00 00         : PHID         - DENSITY POROSITY (SANDSTONE)
ILD .OHMM     00 120 00 00         : RESD         - DEEP RESISTIVITY (OTHER)
~PARAMETER INFORMATION
#MNEM.UNIT           DATA             DESCRIPTION OF MNEMONIC
#---------         -----------     ------------------------------
GL  .M        716                  : gl           - GROUND LEVEL ELEVATION
EREF.M        721.2                : kb           - ELEVATION OF DEPTH REFERENCE
DATM.M        721.2                : datum        - DATUM ELEVATION
TDD .M        497                  : tdd          - TOTAL DEPTH DRILLER
RUN .         ONE                  : Run          - RUN NUMBER
ENG .         BILL                 : Engineer     - RECORDING ENGINEER
WIT .         JIM                  : Witness      - WITNESSED BY
MUD .         GEL                  : Mud_type     - MUD TYPE
MATR.         SANDSTONE            : Logunit      - NEUTRON MATRIX
TMAX.C        22                   : BHT          - MAXIMUM RECORDED TEMPERATURE
BHTD.M        496                  : BHTDEP       - MAXIMUM RECORDED TEMPERATURE
MATR.         1                    : LOGUNIT      - NEUTRON MATRIX
RMT .C        20                   : MDTP         - TEMPERATURE OF MUD
NEUT.         1                    : NEUTRON      - NEUTRON TYPE
RESI.         7                    : RESIST       - RESISTIVITY TYPE
RMC .OHMM     8.2                  : RMC          - RESISTIVITY OF MUD CAKE
RMF .OHMM     8.2                  : RMF          - RESISTIVITY OF MUD FILTRATE
SUFT.C        4                    : SUFT         - SURFACE TEMPERATURE
~A  DEPTH       GR     PHIN     PHID     RESD
# ...
  400.500   92.091    0.460    0.245    6.476
  400.750   92.180    0.480    0.236    6.373
  401.000   92.269    0.490    0.237    6.046
  401.250   92.357    0.488    0.241    5.833
  401.500   94.250    0.516    0.244    5.634
  401.750   97.969    0.537    0.245    5.442
  402.000  100.463    0.541    0.243    5.160
  402.250  101.733    0.549    0.244    4.892
  402.500  101.220    0.550    0.246    4.553
  402.750  100.150    0.547    0.240    4.162
  403.000   99.593    0.543    0.238    3.804
  403.250   98.479    0.516    0.237    3.739
  403.500   96.162    0.490    0.234    3.545
  403.750   93.867    0.479    0.227    3.623
  404.000   93.376    0.477    0.222    3.768
  404.250   93.420    0.474    0.220    4.152
  404.500   94.133    0.469    0.220    4.400
  404.750   94.823    0.464    0.221    4.933
  405.000   95.490    0.460    0.225    5.534
  405.250   95.022    0.452    0.228    5.868
  405.500   95.133    0.450    0.234    5.998
  405.750   94.598    0.444    0.234    6.250
  406.000   95.288    0.438    0.219    6.376
  406.250   95.376    0.436    0.210    6.635
  406.500   96.668    0.424    0.202    6.774
  406.750   96.155    0.408    0.199    7.186
  407.000   93.838    0.396    0.192    7.768
  407.250   91.521    0.411    0.179    8.391
  407.500   92.211    0.423    0.178    8.727
  407.750   94.727    0.425    0.186    9.604
  408.000   96.576    0.409    0.202   10.381
  408.250   98.491    0.402    0.211   10.229
  408.500   99.760    0.411    0.212    9.875
  408.750   99.871    0.418    0.212    9.368
  409.000   98.757    0.425    0.212    9.038
  409.250   98.244    0.434    0.211    8.416
  409.500   97.731    0.435    0.209    7.832
  409.750   97.820    0.433    0.211    7.289
  410.000   99.111    0.433    0.216    6.906
  410.250  100.403    0.434    0.221    6.667
  410.500   98.687    0.438    0.227    6.204
  410.750   95.167    0.437    0.235    5.886
  411.000   92.227    0.437    0.245    5.902
  411.250   86.925    0.436    0.259    6.154
  411.500   85.833    0.434    0.253    6.278
  411.750   86.478    0.429    0.243    6.533
  412.000   86.589    0.427    0.238    6.795
  412.250   87.301    0.422    0.230    7.209
  412.500   87.346    0.424    0.225    7.643
  412.750   89.261    0.427    0.230    7.823
  413.000   90.552    0.431    0.231    7.838
  413.250   91.866    0.438    0.226    7.849
  413.500   91.976    0.440    0.222    7.869
  413.750   92.622    0.439    0.222    7.750
  414.000   92.733    0.439    0.228    7.626
  414.250   91.017    0.437    0.241    7.500
  414.500   89.302    0.430    0.243    7.250
  414.750   88.789    0.425    0.238    7.135
  415.000   90.682    0.421    0.236    7.021
  415.250   91.350    0.418    0.240    7.177
  415.500   92.040    0.413    0.245    7.469
  415.750   90.925    0.405    0.237    7.773
  416.000   90.412    0.401    0.229    8.089
  416.250   89.900    0.405    0.229    8.424
  416.500   90.010    0.409    0.232    8.594
  416.750   90.077    0.416    0.233    8.616
  417.000   90.789    0.418    0.230    8.485
  417.250   91.479    0.425    0.231    8.502
  417.500   89.763    0.425    0.232    8.071
  417.750   87.447    0.419    0.235    7.938
  418.000   84.550    0.413    0.239    7.807
  418.250   82.233    0.409    0.244    7.688
  418.500   81.075    0.402    0.251    7.718
  418.750   79.960    0.406    0.257    7.733
  419.000   79.470    0.418    0.263    7.753
  419.250   79.558    0.432    0.267    7.774
  419.500   80.248    0.446    0.270    7.799
  419.750   81.540    0.454    0.272    7.810
  420.000   82.853    0.461    0.276    7.830
  420.250   84.167    0.473    0.277    7.569
  420.500   84.813    0.470    0.275    7.311
  420.750   86.706    0.469    0.268    7.057
  421.000   91.026    0.471    0.262    6.332
  421.250   94.122    0.483    0.257    5.780
  421.500   97.240    0.489    0.255    5.379
  421.750   98.531    0.478    0.254    4.913
  422.000   96.816    0.467    0.252    4.408
  422.250   94.498    0.457    0.257    4.258
  422.500   91.558    0.453    0.264    4.428
  422.750   85.610    0.452    0.271    4.965
  423.000   80.286    0.448    0.272    5.675
  423.250   76.165    0.440    0.260    6.483
  423.500   74.449    0.421    0.246    7.269
  423.750   72.734    0.407    0.162    7.852
  424.000   71.040    0.398    0.183    8.177
  424.250   70.550    0.406    0.204    8.047
  424.500   70.594    0.418    0.231    8.068
  424.750   71.284    0.416    0.278    7.945
  425.000   71.974    0.415    0.250    7.961
  425.250   75.092    0.417    0.221    7.839
  425.500   78.187    0.423    0.210    7.715
  425.750   83.109    0.430    0.236    7.457
  426.000   87.386    0.437    0.234    7.467
  426.250   89.301    0.446    0.226    7.358
  426.500   89.969    0.449    0.219    7.236
  426.750   91.304    0.445    0.221    7.117
  427.000   91.994    0.440    0.217    7.013
  427.250   92.684    0.435    0.220    6.893
  427.500   92.194    0.425    0.224    6.783
  427.750   91.035    0.422    0.227    6.684
  428.000   88.740    0.419    0.200    6.574
  428.250   87.604    0.420    0.176    6.469
  428.500   87.693    0.419    0.172    6.491
  428.750   90.187    0.419    0.180    6.503
  429.000   93.928    0.420    0.190    6.400
  429.250   95.175    0.421    0.195    6.421
  429.500   97.068    0.427    0.194    6.315
  429.750   98.382    0.442    0.195    5.991
  430.000   99.072    0.449    0.199    5.572
  430.250   98.559    0.455    0.205    5.090
  430.500   96.286    0.477    0.216    4.315
  430.750   94.548    0.486    0.224    3.730
  431.000   90.449    0.510    0.232    3.407
  431.250   89.269    0.534    0.244    3.226
  431.500   83.945    0.536    0.253    3.002
  431.750   79.222    0.483    0.257    3.125
  432.000   75.101    0.456    0.230    3.508
  432.250   73.407    0.447    0.219    3.933
  432.500   75.278    0.430    0.214    4.331
  432.750   77.772    0.418    0.215    4.589
  433.000   83.897    0.422    0.215    4.961
  433.250   87.015    0.421    0.218    5.263
  433.500   87.103    0.413    0.227    5.369
  433.750   87.192    0.411    0.235    5.587
  434.000   88.461    0.423    0.240    5.499
  434.250   91.579    0.449    0.242    5.124
  434.500   91.088    0.460    0.238    4.855
  434.750   90.553    0.454    0.233    4.435
  435.000   89.417    0.439    0.231    4.048
  435.250   87.144    0.416    0.227    3.499
  435.500   86.587    0.411    0.224    3.639
  435.750   84.872    0.419    0.225    4.005
  436.000   84.381    0.449    0.232    4.755
  436.250   84.448    0.471    0.236    5.133
  436.500   87.543    0.477    0.239    4.777
  436.750   92.487    0.487    0.243    4.285
  437.000   94.358    0.503    0.246    3.842
  437.250   95.650    0.522    0.247    3.507
  437.500   94.535    0.496    0.248    3.264
  437.750   95.225    0.480    0.248    3.334
  438.000   96.539    0.465    0.240    3.537
  438.250   97.830    0.460    0.235    3.681
  438.500   98.498    0.451    0.226    3.758
  438.750   99.812    0.447    0.225    3.841
  439.000   99.900    0.478    0.226    3.849
  439.250   98.207    0.488    0.223    3.859
  439.500   95.868    0.477    0.204    3.872
  439.750   92.949    0.442    0.170    3.882
  440.000   93.639    0.434    0.154    3.892
  440.250   96.735    0.463    0.179    3.833
  440.500  100.432    0.492    0.190    3.843
  440.750  104.129    0.498    0.202    3.853
  441.000  105.443    0.505    0.213    3.863
  441.250  103.727    0.448    0.182    3.943
  441.500  100.809    0.428    0.179    3.954
  441.750   96.665    0.423    0.181    3.891
  442.000   87.153    0.420    0.209    4.450
  442.250   82.988    0.414    0.217    4.990
  442.500   78.867    0.409    0.241    5.488
  442.750   74.768    0.404    0.250    6.391
  443.000   76.037    0.398    0.270    7.165
  443.250   77.328    0.396    0.281    8.034
  443.500   79.221    0.405    0.277    8.853
  443.750   80.513    0.397    0.267    8.087
