~VERSION INFORMATION
 VERS.                 2.0:   CWLS LOG ASCII STANDARD -VERSION 2.0
 WRAP.                  NO:   ONE LINE PER DEPTH STEP
~WELL INFORMATION BLOCK
#MNEM.UNIT           DATA                    DESCRIPTION OF MNEMONIC
#---------    -------------------            -------------------------------
# Generated from Intellog Unique Number	CW_82_90/WELL/3073
WELL.         10-11-086-23W4                 : Well_name    - WELL
LOC .         00/10-11-086-23W4/0            : Location     - LOCATION
UWI .         00/10-11-086-23W4/0            : Uwi          - UNIQUE WELL ID
ENTR.         MAX                            : Entered      - ENTERED BY
SRVC.         SCHLUMBERGER                   : Scn          - SERVICE COMPANY
STRT.M        289.56                         : top_depth    - START DEPTH
STOP.M        350.56                         : bot_depth    - STOP DEPTH
STEP.M        0.25                           : increment    - STEP LENGTH
 NULL. -999.2500:NULL Value
~CURVE INFORMATION BLOCK
#MNEM UNIT       ERCB CURVE CODE    CURVE DESCRIPTION
#-----------   ------------------   ----------------------------------
DEPT.M        00 001 00 00         : DEPTH        - DEPTH
ILD .OHMM     00 120 00 00         : RESD         - DEEP RESISTIVITY (DIL)
NPHI.V/V      00 330 00 00         : PHIN         - NEUTRON POROSITY (SANDSTONE)
DPHI.V/V      00 890 00 00         : PHID         - DENSITY POROSITY (SANDSTONE)
CALI.MM       00 280 01 00         : CAL          - CALIPER
GR  .API      00 310 00 00         : GR           - GAMMA RAY
~PARAMETER INFORMATION
#MNEM.UNIT           DATA             DESCRIPTION OF MNEMONIC
#---------         -----------     ------------------------------
GL  .M        562.966              : gl           - GROUND LEVEL ELEVATION
EREF.M        566.014              : kb           - ELEVATION OF DEPTH REFERENCE
DATM.M        562.966              : datum        - DATUM ELEVATION
TDD .M        407.518              : tdd          - TOTAL DEPTH DRILLER
RUN .         ONE                  : Run          - RUN NUMBER
ENG .         BILL                 : Engineer     - RECORDING ENGINEER
WIT .         JIM                  : Witness      - WITNESSED BY
MUD .         GEL                  : Mud_type     - MUD TYPE
MATR.         SANDSTONE            : Logunit      - NEUTRON MATRIX
TMAX.C        24.4444              : BHT          - MAXIMUM RECORDED TEMPERATURE
BHTD.M        407.518              : BHTDEP       - MAXIMUM RECORDED TEMPERATURE
MATR.         1                    : LOGUNIT      - NEUTRON MATRIX
RMT .C        17.2222              : MDTP         - TEMPERATURE OF MUD
NEUT.         1                    : NEUTRON      - NEUTRON TYPE
RESI.         0                    : RESIST       - RESISTIVITY TYPE
RMC .OHMM     1.02                 : RMC          - RESISTIVITY OF MUD CAKE
RMF .OHMM     1.02                 : RMF          - RESISTIVITY OF MUD FILTRATE
SUFT.C        -20.5556             : SUFT         - SURFACE TEMPERATURE
~A  DEPTH     RESD     PHIN     PHID      CAL       GR
# ...
  326.060   10.763    0.416    0.042  218.358  103.821
  326.310    9.560    0.407    0.056  218.853  107.418
  326.560    9.646    0.419    0.135  218.840  103.507
  326.810   10.374    0.451    0.178  218.830  102.297
  327.060   10.563    0.490    0.203  218.820  103.493
  327.310   10.466    0.476    0.236  218.298  107.090
  327.560    9.999    0.444    0.240  219.302  107.685
  327.810    9.728    0.442    0.110  219.802  104.072
  328.060    9.727    0.449    0.169  220.806  102.564
  328.310    9.725    0.432    0.172  222.319  103.458
  328.560   10.085    0.442    0.178  223.835  105.855
  328.810   11.248    0.469    0.274  226.875  105.845
  329.060   13.494    0.454    0.227  231.440  104.638
  329.310   16.041    0.466    0.306  234.482   98.623
  329.560   18.054    0.491    0.344  234.979   66.771
  329.810   18.217    0.499    0.428  234.459   57.451
  330.060   17.886    0.457    0.407  232.411   63.153
  330.310   18.888    0.439    0.428  231.889   69.154
  330.560   19.409    0.485    0.432  231.371   76.057
  330.810   19.230    0.519    0.388  227.798   83.559
  331.060   22.653    0.524    0.330  222.188   86.557
  331.310   31.725    0.479    0.262  217.599   83.546
  331.560   37.372    0.479    0.238  212.500   74.526
  331.810   50.467    0.517    0.294  208.925   69.712
  332.060   58.376    0.535    0.358  209.424   62.796
  332.310   78.115    0.472    0.276  214.500   58.581
  332.560   82.491    0.442    0.273  225.171   61.880
  332.810   80.992    0.447    0.274  230.243   64.276
  333.060   83.223    0.473    0.265  229.217   62.767
  333.310   85.517    0.493    0.266  227.676   62.461
  333.560   84.731    0.489    0.262  228.684   63.355
  333.810   80.216    0.466    0.259  232.233   63.949
  334.060   69.965    0.449    0.263  236.288   65.443
  334.310   43.567    0.445    0.267  236.788   66.037
  334.560   34.065    0.454    0.272  236.773   67.832
  334.810   32.544    0.459    0.258  238.290   69.327
  335.060   37.989    0.462    0.230  239.805   70.522
  335.310   62.113    0.471    0.195  235.213   76.524
  335.560   71.196    0.521    0.211  234.691   87.632
  335.810   83.106    0.529    0.281  237.226   89.728
  336.060  116.389    0.481    0.249  240.775   77.104
  336.310  121.795    0.433    0.273  242.286   68.084
  336.560  115.302    0.407    0.288  241.769   66.575
  336.810   98.753    0.420    0.282  240.738   72.276
  337.060   54.628    0.434    0.286  240.216   78.578
  337.310   18.992    0.441    0.289  240.206   83.377
  337.560   17.494    0.449    0.286  241.212   84.871
  337.810   22.573    0.448    0.288  241.198   78.556
  338.060   26.834    0.470    0.278  241.695   74.344
  338.310   27.573    0.470    0.292  241.685   65.024
  338.560   27.320    0.434    0.245  238.111   61.111
  338.810   24.939    0.416    0.227  232.505   56.897
  339.060   20.595    0.444    0.231  227.913   55.988
  339.310   16.251    0.452    0.265  227.394   57.785
  339.560   13.420    0.458    0.291  228.400   60.782
  339.810   14.433    0.466    0.295  233.982   66.784
  340.060   17.314    0.491    0.272  240.074   69.180
  340.310   19.135    0.510    0.269  240.063   72.478
  340.560   21.934    0.508    0.282  231.911   76.075
  340.810   24.021    0.473    0.293  225.287   78.472
  341.060   21.928    0.455    0.247  216.119   79.066
  341.310   19.125    0.483    0.244  211.020   77.257
  341.560   16.380    0.458    0.216  207.447   79.651
  341.810   14.817    0.429    0.209  207.435   83.251
  342.060   13.774    0.415    0.220  207.423   88.952
  342.310   13.159    0.439    0.211  206.391   93.150
  342.560   12.919    0.473    0.197  206.371   92.543
  342.810   13.397    0.509    0.217  205.349   81.120
  343.060   14.148    0.498    0.208  204.321   65.491
  343.310   15.215    0.296    0.068  203.801   55.270
  343.560   16.068    0.288    0.031  204.296   57.966
  343.810   17.123    0.318    0.006  204.796   67.873
  344.060   19.098    0.324    0.004  205.293   75.377
  344.310   20.539    0.311    0.003  204.773   66.958
  344.560   23.542    0.291    0.008  204.251   57.938
  344.810   26.257    0.305    0.034  204.240   64.240
  345.060   30.097    0.319    0.058  204.734   69.340
  345.310   35.131    0.321    0.108  205.230   67.231
  345.560   41.385    0.299    0.096  205.218   55.507
  345.810   52.434    0.284    0.078  204.701   48.590
  346.060   67.041    0.245    0.065  203.667   36.265
  346.310   68.888    0.199    0.003  203.149   29.649
  346.560   64.626    0.206    0.004  202.122   31.445
  346.810   46.133    0.270    0.009  200.584   43.154
  347.060   43.278    0.316    0.070  200.571   51.559
  347.310   40.972    0.344    0.121  200.560   63.269
  347.560   36.392    0.331    0.168  201.563   59.056
  347.810   33.831    0.297    0.149  202.567   53.341
  348.060   31.449    0.233    0.095  203.064   50.329
  348.310   32.023    0.262    0.048  203.564   62.638
  348.560   36.706    0.301    0.073  204.060   68.641
  348.810   40.569    0.361    0.101  204.558   72.840
  349.060   40.196    0.376    0.123  205.055   74.333
  349.310   42.836    0.417    0.162  205.042   72.225
  349.560   58.374    0.440    0.198  205.031   67.712
  349.810   70.668    0.451    0.219  205.020   53.285
  350.060   70.019    0.436    0.277  205.006   45.166
  350.310   46.470    0.411    0.228  203.466   46.661
  350.560   42.420    0.388    0.185  202.948   51.160
