~VERSION INFORMATION
 VERS.                 2.0:   CWLS LOG ASCII STANDARD -VERSION 2.0
 WRAP.                  NO:   ONE LINE PER DEPTH STEP
~WELL INFORMATION BLOCK
#MNEM.UNIT           DATA                    DESCRIPTION OF MNEMONIC
#---------    -------------------            -------------------------------
# Generated from Intellog Unique Number	CW_76_78/WELL/1030
WELL.         PCP MARTIN HILLS 11-33         : Well_name    - WELL
LOC .         00/11-33-076-04W5/0            : Location     - LOCATION
UWI .         00/11-33-076-04W5/0            : Uwi          - UNIQUE WELL ID
ENTR.         JAYE                           : Entered      - ENTERED BY
SRVC.         SCHLUMBERGER                   : Scn          - SERVICE COMPANY
DATE.         11 FEB 74                      : Date         - LOG DATE
STRT.M        426.72                         : top_depth    - START DEPTH
STOP.M        670.47                         : bot_depth    - STOP DEPTH
STEP.M        0.25                           : increment    - STEP LENGTH
 NULL. -999.2500:NULL Value
~CURVE INFORMATION BLOCK
#MNEM UNIT       ERCB CURVE CODE    CURVE DESCRIPTION
#-----------   ------------------   ----------------------------------
DEPT.M        00 001 00 00         : DEPTH        - DEPTH
ILD .OHMM     00 120 00 00         : RESD         - DEEP RESISTIVITY (DIL)
NPHI.V/V      00 330 00 00         : PHIN         - NEUTRON POROSITY (SANDSTONE)
DPHI.V/V      00 890 00 00         : PHID         - DENSITY POROSITY (SANDSTONE)
GR  .API      00 310 00 00         : GR           - GAMMA RAY
CALI.MM       00 280 01 00         : CAL          - CALIPER
~PARAMETER INFORMATION
#MNEM.UNIT           DATA             DESCRIPTION OF MNEMONIC
#---------         -----------     ------------------------------
GL  .M        741.578              : gl           - GROUND LEVEL ELEVATION
EREF.M        745.541              : kb           - ELEVATION OF DEPTH REFERENCE
DATM.M        741.578              : datum        - DATUM ELEVATION
TDD .M        684.276              : tdd          - TOTAL DEPTH DRILLER
RUN .         ONE                  : Run          - RUN NUMBER
MATR.         SANDSTONE            : Logunit      - NEUTRON MATRIX
TMAX.C        26.6667              : BHT          - MAXIMUM RECORDED TEMPERATURE
BHTD.M        684.276              : BHTDEP       - MAXIMUM RECORDED TEMPERATURE
RMT .C        16.6667              : MDTP         - TEMPERATURE OF MUD
MUDD.KG/M     0                    : MWT          - MUD DENSITY
NEUT.         1                    : NEUTRON      - NEUTRON TYPE
RESI.         0                    : RESIST       - RESISTIVITY TYPE
RM  .OHMM     5.95                 : RM           - RESISTIVITY OF MUD
RMC .OHMM     0                    : RMC          - RESISTIVITY OF MUD CAKE
RMF .OHMM     4.61                 : RMF          - RESISTIVITY OF MUD FILTRATE
SUFT.C        -17.7778             : SUFT         - SURFACE TEMPERATURE
~A  DEPTH     RESD     PHIN     PHID       GR      CAL
# ...
  536.220    4.642    0.448    0.243   79.481  199.016
  536.470    4.707    0.451    0.218   81.362  199.450
  536.720    4.746    0.451    0.193   82.492  199.676
  536.970    4.749    0.448    0.185   81.125  199.264
  537.220    4.780    0.446    0.217   79.760  198.641
  537.470    4.820    0.445    0.219   80.141  198.230
  537.720    4.841    0.444    0.228   81.147  197.925
  537.970    4.864    0.445    0.222   81.717  197.726
  538.220    4.859    0.448    0.225   81.037  197.526
  538.470    4.863    0.453    0.222   79.609  197.644
  538.720    4.823    0.459    0.215   78.242  197.974
  538.970    4.747    0.466    0.229   76.190  197.986
  539.220    4.648    0.479    0.244   74.012  197.892
  539.470    4.609    0.450    0.309   70.524  197.271
  539.720    4.630    0.432    0.322   64.663  196.754
  539.970    4.853    0.453    0.314   59.552  195.814
  540.220    5.190    0.472    0.305   53.754  194.664
  540.470    5.520    0.475    0.302   50.828  193.725
  540.720    5.828    0.453    0.297   50.273  193.103
  540.970    5.941    0.453    0.304   54.025  192.692
  541.220    5.721    0.471    0.293   57.903  192.388
  541.470    5.611    0.471    0.314   59.409  192.399
  541.720    5.637    0.455    0.301   59.415  192.201
  541.970    5.747    0.445    0.310   56.301  191.896
  542.220    5.892    0.441    0.302   56.683  191.696
  542.470    5.973    0.432    0.308   58.562  191.392
  542.720    6.033    0.432    0.303   58.883  191.406
  542.970    6.073    0.429    0.294   58.951  191.205
  543.220    6.123    0.429    0.286   58.959  191.323
  543.470    6.150    0.430    0.281   59.465  191.334
  543.720    6.178    0.437    0.307   60.347  191.241
  543.970    6.253    0.449    0.312   61.041  191.358
  544.220    6.281    0.446    0.300   61.484  191.793
  544.470    6.275    0.445    0.272   61.929  192.546
  544.720    6.234    0.465    0.273   62.060  193.721
  544.970    6.149    0.461    0.283   62.255  194.579
  545.220    5.780    0.455    0.291   62.013  195.541
  545.470    5.209    0.450    0.292   61.958  196.399
  545.720    4.737    0.458    0.311   62.151  197.150
  545.970    4.356    0.493    0.319   63.344  197.904
  546.220    4.080    0.487    0.291   67.784  198.338
  546.470    3.864    0.466    0.261   71.723  198.984
  546.720    3.748    0.461    0.225   75.600  199.842
  546.970    3.731    0.466    0.212   73.547  201.017
  547.220    3.714    0.451    0.224   70.059  202.191
  547.470    3.737    0.444    0.243   68.443  203.367
  547.720    3.789    0.433    0.246   70.198  204.118
  547.970    3.884    0.452    0.228   73.015  205.082
  548.220    3.975    0.452    0.219   75.206  206.046
  548.470    4.060    0.453    0.209   76.275  206.691
  548.720    4.028    0.455    0.226   77.042  208.219
  548.970    4.008    0.451    0.225   75.459  208.173
  549.220    3.981    0.452    0.217   75.305  207.603
  549.470    3.961    0.462    0.210   78.383  207.231
  549.720    3.978    0.473    0.211   81.397  206.345
  549.970    4.046    0.469    0.201   81.865  205.452
  550.220    4.138    0.463    0.183   78.916  204.464
  550.470    4.232    0.460    0.200   76.525  203.564
  550.720    4.313    0.445    0.211   75.316  202.359
  550.970    4.411    0.424    0.205   77.895  201.670
  551.220    4.479    0.416    0.216   80.849  201.319
  551.470    4.547    0.427    0.208   80.446  200.948
  551.720    4.634    0.430    0.183   79.361  201.204
  551.970    4.705    0.430    0.204   78.897  201.799
  552.220    4.759    0.449    0.212   78.185  202.370
  552.470    4.744    0.468    0.207   76.600  203.162
  552.720    4.686    0.464    0.232   74.334  200.486
  552.970    4.629    0.447    0.242   72.752  197.381
  553.220    4.547    0.439    0.236   72.038  196.283
  553.470    4.491    0.429    0.212   68.965  196.756
  553.720    4.501    0.394    0.183   66.077  197.336
  553.970    4.529    0.397    0.163   60.952  197.811
  554.220    4.632    0.472    0.214   61.856  198.081
  554.470    4.728    0.460    0.276   65.432  198.242
  554.720    4.801    0.441    0.266   67.512  197.877
  554.970    4.812    0.468    0.234   69.598  197.622
  555.220    4.806    0.473    0.247   71.741  197.675
  555.470    4.773    0.467    0.224   74.819  197.619
  555.720    4.715    0.454    0.216   76.590  197.779
  555.970    4.572    0.463    0.234   77.683  197.853
  556.220    4.508    0.488    0.220   78.581  197.911
  556.470    4.586    0.474    0.258   80.602  197.943
  556.720    4.910    0.470    0.257   78.088  198.108
  556.970    5.219    0.465    0.251   70.915  198.691
  557.220    5.567    0.450    0.279   70.264  199.055
  557.470    6.038    0.439    0.289   68.558  198.920
  557.720    6.525    0.457    0.282   64.862  198.662
  557.970    7.024    0.469    0.283   60.979  198.194
  558.220    7.605    0.456    0.275   57.035  197.826
  558.470    7.907    0.446    0.291   58.066  197.661
  558.720    8.177    0.436    0.284   61.825  197.708
  558.970    8.287    0.428    0.299   62.664  197.561
  559.220    8.352    0.430    0.288   60.337  197.397
  559.470    8.250    0.439    0.278   61.548  197.145
  559.720    7.884    0.445    0.284   63.943  197.092
  559.970    7.251    0.459    0.284   66.832  196.934
  560.220    6.716    0.469    0.283   68.977  196.881
  560.470    6.053    0.462    0.294   71.247  196.935
  560.720    5.628    0.441    0.289   70.659  197.420
  560.970    5.271    0.429    0.284   64.478  198.104
  561.220    5.112    0.438    0.283   62.276  198.905
  561.470    5.068    0.459    0.274   59.200  199.163
  561.720    5.034    0.471    0.270   57.934  199.441
  561.970    4.981    0.459    0.293   58.583  199.287
  562.220    4.920    0.448    0.296   59.549  199.238
  562.470    4.842    0.445    0.285   59.953  199.078
  562.720    4.731    0.444    0.291   60.609  199.018
  562.970    4.596    0.443    0.282   61.821  199.072
  563.220    4.466    0.445    0.281   63.718  199.134
  563.470    4.395    0.454    0.290   65.302  198.972
  563.720    4.349    0.464    0.293   67.511  199.025
  563.970    4.343    0.455    0.287   73.756  198.668
  564.220    4.369    0.450    0.286   77.331  198.426
  564.470    4.535    0.461    0.283   75.870  198.268
  564.720    4.873    0.455    0.281   67.826  198.201
  564.970    5.247    0.440    0.295   57.173  198.047
  565.220    5.649    0.421    0.299   52.794  198.099
  565.470    6.138    0.433    0.269   54.198  198.153
  565.720    6.198    0.434    0.257   55.597  198.208
  565.970    5.637    0.431    0.274   59.478  198.266
  566.220    5.202    0.449    0.291   62.185  198.221
  566.470    4.785    0.466    0.299   62.529  198.265
  566.720    4.572    0.480    0.287   64.484  198.220
  566.970    4.386    0.471    0.275   68.369  198.279
  567.220    4.169    0.462    0.277   69.024  198.220
  567.470    3.999    0.459    0.276   65.456  198.179
  567.720    3.878    0.456    0.285   65.984  198.234
  567.970    3.802    0.461    0.297   67.510  198.078
  568.220    3.853    0.486    0.307   66.112  197.817
  568.470    4.335    0.439    0.312   63.471  197.666
  568.720    4.913    0.382    0.306   59.279  197.501
  568.970    5.661    0.330    0.263   54.592  197.349
  569.220    6.816    0.264    0.139   52.200  197.726
  569.470    8.913    0.192    0.008   50.555  197.997
  569.720   11.826    0.186    0.008   50.714  198.462
  569.970   14.291    0.216    0.071   51.492  199.356
  570.220   15.614    0.223    0.075   53.449  200.778
  570.470   14.759    0.230    0.070   56.401  201.999
  570.720   10.892    0.261    0.109   61.653  202.582
  570.970    7.849    0.318    0.163   67.277  202.637
  571.220    6.109    0.383    0.201   69.546  202.479
  571.470    4.816    0.438    0.231   69.519  202.423
  571.720    4.176    0.383    0.226   68.621  202.174
  571.970    4.118    0.324    0.208   65.109  202.224
  572.220    4.850    0.277    0.157   58.122  202.385
  572.470    5.958    0.253    0.082   57.781  202.650
