~VERSION INFORMATION
 VERS.                 2.0:   CWLS LOG ASCII STANDARD -VERSION 2.0
 WRAP.                  NO:   ONE LINE PER DEPTH STEP
~WELL INFORMATION BLOCK
#MNEM.UNIT           DATA                    DESCRIPTION OF MNEMONIC
#---------    -------------------            -------------------------------
# Generated from Intellog Unique Number	CW_79_81/WELL/875
WELL.         PARAMOUNT ET AL HORIZON        : Well_name    - WELL
LOC .         00/10-29-079-19W4/0            : Location     - LOCATION
UWI .         00/10-29-079-19W4/0            : Uwi          - UNIQUE WELL ID
ENTR.         MAX                            : Entered      - ENTERED BY
SRVC.         SCHLUMBERGER                   : Scn          - SERVICE COMPANY
STRT.M        198.12                         : top_depth    - START DEPTH
STOP.M        381.62                         : bot_depth    - STOP DEPTH
STEP.M        0.25                           : increment    - STEP LENGTH
 NULL. -999.2500:NULL Value
~CURVE INFORMATION BLOCK
#MNEM UNIT       ERCB CURVE CODE    CURVE DESCRIPTION
#-----------   ------------------   ----------------------------------
DEPT.M        00 001 00 00         : DEPTH        - DEPTH
ILD .OHMM     00 120 00 00         : RESD         - DEEP RESISTIVITY (DIL)
NPHI.V/V      00 330 00 00         : PHIN         - NEUTRON POROSITY (SANDSTONE)
DPHI.V/V      00 890 00 00         : PHID         - DENSITY POROSITY (SANDSTONE)
CALI.MM       00 280 01 00         : CAL          - CALIPER
GR  .API      00 310 00 00         : GR           - GAMMA RAY
~PARAMETER INFORMATION
#MNEM.UNIT           DATA             DESCRIPTION OF MNEMONIC
#---------         -----------     ------------------------------
GL  .M        568.604              : gl           - GROUND LEVEL ELEVATION
EREF.M        571.652              : kb           - ELEVATION OF DEPTH REFERENCE
DATM.M        568.604              : datum        - DATUM ELEVATION
TDD .M        381.61               : tdd          - TOTAL DEPTH DRILLER
RUN .         ONE                  : Run          - RUN NUMBER
ENG .         BILL                 : Engineer     - RECORDING ENGINEER
WIT .         JIM                  : Witness      - WITNESSED BY
MUD .         GEL                  : Mud_type     - MUD TYPE
MATR.         SANDSTONE            : Logunit      - NEUTRON MATRIX
TMAX.C        21.1111              : BHT          - MAXIMUM RECORDED TEMPERATURE
BHTD.M        381.61               : BHTDEP       - MAXIMUM RECORDED TEMPERATURE
RMT .C        21.1111              : MDTP         - TEMPERATURE OF MUD
MUDD.KG/M     9700                 : MWT          - MUD DENSITY
NEUT.         1                    : NEUTRON      - NEUTRON TYPE
RESI.         0                    : RESIST       - RESISTIVITY TYPE
RM  .OHMM     0                    : RM           - RESISTIVITY OF MUD
RMC .OHMM     0                    : RMC          - RESISTIVITY OF MUD CAKE
RMF .OHMM     0                    : RMF          - RESISTIVITY OF MUD FILTRATE
SUFT.C        -15                  : SUFT         - SURFACE TEMPERATURE
~A  DEPTH     RESD     PHIN     PHID      CAL       GR
# ...
  234.620   16.108    0.466    0.343  151.098   59.568
  234.870   16.225    0.469    0.348  151.736   60.224
  235.120   16.342    0.472    0.355  151.342   60.592
  235.370   16.365    0.475    0.335  151.464   62.458
  235.620   16.185    0.469    0.336  150.599   63.400
  235.870   15.908    0.460    0.331  150.220   66.747
  236.120   15.535    0.452    0.311  150.326   68.900
  236.370   15.156    0.445    0.309  149.446   69.250
  236.620   14.684    0.438    0.304  148.566   71.098
  236.870   14.404    0.443    0.296  148.703   74.723
  237.120   13.934    0.455    0.289  150.298   79.540
  237.370   13.556    0.466    0.272  147.413   78.733
  237.620   13.177    0.471    0.272  145.560   77.029
  237.870   12.507    0.475    0.265  143.647   77.989
  238.120   11.635    0.482    0.256  148.812   79.533
  238.370   10.960    0.493    0.247  145.911   78.124
  238.620   10.487    0.501    0.240  142.023   75.541
  238.870   10.406    0.485    0.243  141.659   74.420
  239.120   10.924    0.477    0.258  141.249   68.868
  239.370   11.933    0.482    0.280  141.888   65.092
  239.620   13.544    0.490    0.296  142.527   66.940
  239.870   13.859    0.488    0.301  140.628   68.806
  240.120   13.386    0.471    0.263  142.269   70.044
  240.370   12.611    0.459    0.238  143.895   68.950
  240.620   11.743    0.444    0.235  145.506   67.524
  240.870   10.970    0.458    0.297  147.147   69.085
  241.120   10.495    0.476    0.316  148.287   69.158
  241.370   10.318    0.492    0.303  148.910   68.638
  241.620   10.434    0.499    0.318  148.516   67.517
  241.870   10.752    0.483    0.327  148.137   67.894
  242.120   11.171    0.480    0.313  147.758   67.679
  242.370   11.885    0.492    0.324  148.381   66.262
  242.620   12.305    0.510    0.330  148.518   64.854
  242.870   12.325    0.506    0.340  148.124   63.742
  243.120   12.048    0.496    0.342  147.259   64.415
  243.370   11.675    0.507    0.316  146.393   64.783
  243.620   11.393    0.525    0.339  145.498   65.142
  243.870   11.329    0.520    0.335  144.632   63.743
  244.120   11.136    0.505    0.349  144.268   62.335
  244.370   10.862    0.494    0.351  143.859   64.784
  244.620   10.684    0.490    0.337  143.996   66.319
  244.870   10.405    0.505    0.331  144.118   68.472
  245.120    9.732    0.509    0.331  144.255   69.737
  245.370    8.959    0.504    0.315  144.378   72.769
  245.620    8.093    0.519    0.299  144.484   76.690
  245.870    7.514    0.511    0.313  146.110   81.507
  246.120    6.937    0.526    0.298  148.739   86.908
  246.370    6.266    0.581    0.280  152.385   89.949
  246.620    5.987    0.583    0.299  152.507   91.206
  246.870    5.911    0.568    0.274  151.110   88.021
  247.120    5.934    0.562    0.285  146.250   82.173
  247.370    5.957    0.549    0.305  144.838   85.788
  247.620    5.975    0.537    0.291  144.489   87.054
  247.870    5.995    0.541    0.282  144.580   83.277
  248.120    6.015    0.543    0.279  145.219   83.044
  248.370    6.333    0.547    0.270  146.344   80.461
  248.620    6.849    0.539    0.291  147.468   77.860
  248.870    7.860    0.567    0.350  147.590   73.492
  249.120   10.259    0.574    0.413  147.211   67.930
  249.370   11.471    0.551    0.514  148.852   59.121
  249.620   12.680    0.566    0.576  152.483   51.488
  249.870   13.697    0.602    0.595  153.593   48.304
  250.120   14.413    0.598    0.571  152.226   51.641
  250.370   14.924    0.591    0.312  150.343   53.489
  250.620   15.739    0.552    0.285  149.964   55.041
  250.870   16.261    0.459    0.261  149.600   55.706
  251.120   16.276    0.447    0.287  149.707   55.204
  251.370   16.296    0.466    0.309  149.844   54.379
  251.620   16.220    0.456    0.326  149.966   55.043
  251.870   16.238    0.469    0.326  150.073   55.411
  252.120   16.360    0.488    0.339  150.712   54.891
  252.370   16.477    0.499    0.352  152.839   55.546
  252.620   16.596    0.504    0.350  151.958   57.107
  252.870   16.718    0.495    0.351  150.592   58.965
  253.120   16.843    0.489    0.358  150.182   60.822
  253.370   16.863    0.477    0.366  150.821   61.190
  253.620   16.884    0.465    0.362  148.437   58.284
  253.870   16.902    0.456    0.360  147.055   54.508
  254.120   16.922    0.444    0.360  147.177   54.885
  254.370   16.942    0.456    0.359  147.800   57.917
  254.620   16.963    0.467    0.355  148.940   59.469
  254.870   17.082    0.473    0.348  150.080   58.949
  255.120   17.202    0.472    0.337  151.205   59.021
  255.370   17.227    0.480    0.332  151.311   62.063
  255.620   17.143    0.470    0.335  148.927   63.615
  255.870   17.065    0.468    0.342  149.535   62.790
  256.120   16.790    0.476    0.343  151.161   59.606
  256.370   16.615    0.484    0.346  152.316   57.902
  256.620   16.432    0.493    0.334  152.955   58.270
  256.870   16.155    0.500    0.339  153.062   59.822
  257.120   15.978    0.507    0.339  152.166   58.710
  257.370   15.899    0.510    0.341  148.779   61.465
  257.620   15.820    0.505    0.347  147.397   63.896
  257.870   15.843    0.503    0.350  146.547   63.977
  258.120   15.864    0.504    0.342  146.670   62.264
  258.370   15.887    0.511    0.336  146.792   59.385
  258.620   15.803    0.518    0.338  146.898   61.825
  258.870   15.826    0.516    0.345  146.018   59.520
  259.120   15.849    0.520    0.350  146.140   59.305
  259.370   15.869    0.522    0.350  145.746   59.368
  259.620   15.889    0.512    0.349  145.883   60.328
  259.870   15.813    0.519    0.352  145.990   63.675
  260.120   15.630    0.523    0.352  148.633   64.034
  260.370   15.557    0.520    0.349  150.761   64.707
  260.620   15.577    0.519    0.346  150.898   64.788
  260.870   15.595    0.512    0.337  151.521   62.178
  261.120   15.613    0.513    0.333  150.155   60.779
  261.370   15.633    0.514    0.342  149.259   61.147
  261.620   15.758    0.508    0.340  145.872   58.842
  261.870   15.872    0.504    0.344  143.989   60.098
  262.120   15.895    0.513    0.339  146.602   62.556
  262.370   15.918    0.509    0.337  150.750   60.242
  262.620   15.941    0.501    0.334  151.373   58.251
  262.870   15.957    0.503    0.339  151.511   57.139
  263.120   15.880    0.515    0.345  151.116   55.130
  263.370   15.903    0.527    0.349  151.253   52.538
  263.620   15.919    0.521    0.356  151.376   52.906
  263.870   15.941    0.499    0.354  151.498   56.835
  264.120   15.962    0.502    0.357  152.121   60.164
  264.370   15.982    0.498    0.357  152.729   60.846
  264.620   15.901    0.505    0.349  153.398   60.604
  264.870   15.924    0.500    0.349  153.004   60.685
  265.120   15.848    0.482    0.352  151.622   60.461
  265.370   15.866    0.490    0.351  148.736   60.829
  265.620   15.891    0.502    0.355  146.853   60.013
  265.870   15.906    0.497    0.355  144.970   58.901
  266.120   15.929    0.490    0.355  144.606   57.484
  266.370   15.950    0.499    0.357  145.701   58.166
  266.620   15.970    0.509    0.346  146.840   60.014
  266.870   15.991    0.517    0.347  146.978   62.455
  267.120   15.912    0.517    0.342  145.596   64.321
  267.370   15.935    0.504    0.334  143.196   64.097
  267.620   15.950    0.499    0.338  143.805   65.335
  267.870   15.973    0.506    0.343  145.446   67.193
  268.120   16.001    0.516    0.335  143.077   66.377
  268.370   16.014    0.511    0.336  143.669   61.703
  268.620   15.839    0.512    0.339  150.339   63.255
  268.870   15.664    0.522    0.332  148.942   64.808
  269.120   15.481    0.526    0.334  147.560   66.378
  269.370   15.105    0.520    0.333  148.685   69.401
  269.620   14.533    0.517    0.298  150.326   72.434
  269.870   14.055    0.520    0.286  150.448   73.394
  270.120   13.682    0.530    0.293  150.053   73.179
  270.370   13.603    0.528    0.290  149.188   71.170
  270.620   13.822    0.520    0.282  149.341   72.731
  270.870   14.137    0.523    0.293  149.448   73.996
