~VERSION INFORMATION
 VERS.                 2.0:   CWLS LOG ASCII STANDARD -VERSION 2.0
 WRAP.                  NO:   ONE LINE PER DEPTH STEP
~WELL INFORMATION BLOCK
#MNEM.UNIT           DATA                    DESCRIPTION OF MNEMONIC
#---------    -------------------            -------------------------------
# Generated from Intellog Unique Number	CN_94_101/WELL/3820
WELL.         10-02-096-18W4                 : Well_name    - WELL
LOC .         00/10-02-096-18W4/0            : Location     - LOCATION
UWI .         00/10-02-096-18W400            : Uwi          - UNIQUE WELL ID
ENTR.         T                              : Entered      - ENTERED BY
SRVC.         SCHLUMBERGER                   : Scn          - SERVICE COMPANY
DATE.         06/18/92                       : Date         - LOG DATE
STRT.M        225                            : top_depth    - START DEPTH
STOP.M        404.75                         : bot_depth    - STOP DEPTH
STEP.M        0.25                           : increment    - STEP LENGTH
 NULL. -999.2500:NULL Value
~CURVE INFORMATION BLOCK
#MNEM UNIT       ERCB CURVE CODE    CURVE DESCRIPTION
#-----------   ------------------   ----------------------------------
DEPT.M        00 001 00 00         : DEPTH        - DEPTH
GR  .API      00 310 00 00         : GR           - GAMMA RAY
CALI.MM       00 280 01 00         : CAL          - CALIPER
NPHI.V/V      00 330 00 00         : PHIN         - NEUTRON POROSITY (SANDSTONE)
DPHI.V/V      00 890 00 00         : PHID         - DENSITY POROSITY (SANDSTONE)
ILD .OHMM     00 120 00 00         : RESD         - DEEP RESISTIVITY (DIL)
~PARAMETER INFORMATION
#MNEM.UNIT           DATA             DESCRIPTION OF MNEMONIC
#---------         -----------     ------------------------------
GL  .M        673.9                : gl           - GROUND LEVEL ELEVATION
EREF.M        676.9                : kb           - ELEVATION OF DEPTH REFERENCE
DATM.M        676.9                : datum        - DATUM ELEVATION
TDD .M        411                  : tdd          - TOTAL DEPTH DRILLER
RUN .         0.000000             : Run          - RUN NUMBER
MUD .         GEL                  : Mud_type     - MUD TYPE
MATR.         SANDSTONE            : Logunit      - NEUTRON MATRIX
TMAX.C        0                    : BHT          - MAXIMUM RECORDED TEMPERATURE
BHTD.M        344                  : BHTDEP       - MAXIMUM RECORDED TEMPERATURE
RMT .C        14                   : MDTP         - TEMPERATURE OF MUD
MUDD.KG/M     1050                 : MWT          - MUD DENSITY
NEUT.         1                    : NEUTRON      - NEUTRON TYPE
RESI.         0                    : RESIST       - RESISTIVITY TYPE
RM  .OHMM     3.15                 : RM           - RESISTIVITY OF MUD
RMC .OHMM     3.15                 : RMC          - RESISTIVITY OF MUD CAKE
RMF .OHMM     0                    : RMF          - RESISTIVITY OF MUD FILTRATE
SUFT.C        4                    : SUFT         - SURFACE TEMPERATURE
BTZC.MM       0                    : BITZC        - BIT SIZE CONSTANT
MDW .KG/M     0                    : MDW          - MUD WEIGHT
~A  DEPTH       GR      CAL     PHIN     PHID     RESD
  225.000   34.146  169.898    0.371    0.360   61.024
  225.250   30.488  172.959    0.382    0.350   62.311
  225.500   32.927  162.755    0.390    0.342   59.763
  225.750   35.976  169.898    0.395    0.359   59.763
  226.000   38.415  172.959    0.366    0.373   58.529
  226.250   38.415  168.878    0.360    0.361   57.320
  226.500   37.805  159.694    0.351    0.354   57.320
  226.750   35.976  159.694    0.355    0.357   57.320
  227.000   34.756  159.694    0.351    0.359   57.320
  227.250   33.537  159.694    0.352    0.347   57.320
  227.500   31.707  159.694    0.361    0.361   57.320
  227.750   32.317  160.714    0.364    0.361   57.320
  228.000   34.756  160.714    0.357    0.360   57.320
  228.250   37.805  159.694    0.356    0.360   54.977
  228.500   37.805  159.694    0.366    0.361   54.977
  228.750   36.585  159.694    0.364    0.357   53.842
  229.000   35.976  158.673    0.358    0.361   53.842
  229.250   34.756  161.735    0.384    0.367   53.842
  229.500   32.927  161.735    0.386    0.371   51.641
  229.750   31.098  161.735    0.384    0.378   51.641
  230.000   33.673  163.776    0.365    0.380   50.432
  230.250   35.510  169.898    0.382    0.364   48.382
  230.500   38.571  166.837    0.372    0.370   46.416
  230.750   38.571  172.959    0.380    0.375   45.463
  231.000   37.959  171.939    0.371    0.375   43.615
  231.250   36.735  168.878    0.358    0.364   40.984
  231.500   36.735  160.714    0.353    0.351   36.187
  231.750   35.510  165.816    0.357    0.356   34.717
  232.000   34.286  167.857    0.370    0.367   31.952
  232.250   36.735  168.878    0.375    0.377   29.408
  232.500   44.694  162.755    0.374    0.375   27.067
  232.750   75.918  163.776    0.406    0.297   23.899
  233.000   81.429  159.694    0.443    0.292   21.544
  233.250  102.245  165.816    0.472    0.293   13.936
  233.500  110.816  165.816    0.478    0.226   10.000
  233.750  110.816  165.816    0.479    0.216    7.636
  234.000  110.204  161.735    0.463    0.216    6.604
  234.250  113.265  161.735    0.449    0.217    5.954
  234.500  114.490  160.714    0.469    0.222    5.954
  234.750  112.653  160.714    0.479    0.230    6.336
  235.000  113.265  159.694    0.486    0.237    6.336
  235.250  114.490  159.694    0.506    0.243    6.336
  235.500  114.490  161.735    0.506    0.240    6.469
  235.750  112.653  158.673    0.509    0.232    6.336
  236.000  110.204  155.612    0.489    0.232    7.176
  236.250  105.306  159.694    0.459    0.242    7.028
  236.500  101.020  159.694    0.416    0.244    7.480
  236.750  101.020  159.694    0.414    0.237    9.015
  237.000  104.082  159.694    0.420    0.233    9.397
  237.250  104.694  160.714    0.418    0.231    9.204
  237.500  107.755  166.837    0.416    0.232    8.830
  237.750  107.755  165.816    0.443    0.240    8.127
  238.000  104.082  163.776    0.449    0.248    8.127
  238.250   97.959  160.714    0.423    0.253    8.297
  238.500   95.510  161.735    0.387    0.249    9.795
  238.750   94.286  161.735    0.377    0.247   10.210
  239.000   90.612  161.735    0.375    0.252   11.563
  239.250   88.163  166.837    0.367    0.264   12.305
  239.500   88.776  163.776    0.364    0.271   12.305
  239.750   91.837  161.735    0.385    0.264   12.305
  240.000   93.061  161.735    0.429    0.268   11.093
  240.250   91.837  161.735    0.435    0.281    9.594
  240.500   89.388  168.878    0.429    0.283   10.210
  240.750   93.061  163.776    0.442    0.271   10.000
  241.000  102.857  165.816    0.478    0.258   10.000
  241.250  109.592  167.857    0.486    0.254    7.796
  241.500  107.143  169.898    0.474    0.251    6.884
  241.750  104.082  172.959    0.443    0.253    6.604
  242.000  104.082  175.000    0.447    0.253    7.176
  242.250  105.306  164.796    0.459    0.248    6.206
  242.500  107.143  169.898    0.464    0.257    6.336
  242.750  108.367  169.898    0.473    0.264    6.078
  243.000  106.531  168.878    0.474    0.264    5.479
  243.250  101.633  170.918    0.467    0.258    5.479
  243.500   97.959  172.959    0.454    0.261    5.712
  243.750   90.612  162.755    0.435    0.259    6.206
  244.000   85.714  161.735    0.411    0.240    8.127
  244.250   83.878  161.735    0.395    0.187   11.563
  244.500   86.327  161.735    0.392    0.193   12.826
  244.750   90.612  161.735    0.394    0.258   10.424
  245.000   91.837  161.735    0.399    0.268   11.325
  245.250   88.776  162.755    0.379    0.259   10.424
  245.500   85.714  162.755    0.371    0.232   11.325
  245.750   88.163  162.755    0.382    0.227   11.325
  246.000   96.735  160.714    0.387    0.244   10.210
  246.250   99.184  157.653    0.414    0.254    9.397
  246.500   97.347  160.714    0.436    0.254    7.176
  246.750   94.898  161.735    0.440    0.263    6.743
  247.000   94.898  160.714    0.459    0.274    6.078
  247.250   97.347  168.878    0.463    0.273    5.831
  247.500  101.020  168.878    0.438    0.264    5.712
  247.750   97.959  166.837    0.408    0.287    5.712
  248.000   91.837  159.694    0.399    0.297    6.604
  248.250   83.878  161.735    0.392    0.293    7.796
  248.500   83.878  161.735    0.403    0.272   10.000
  248.750   90.612  165.816    0.420    0.254   11.805
  249.000  101.020  166.837    0.436    0.252    9.397
  249.250  106.531  159.694    0.440    0.238    8.127
  249.500  108.367  160.714    0.448    0.244    7.176
  249.750   96.122  160.714    0.455    0.259    6.604
  250.000   85.102  160.714    0.434    0.251    6.743
  250.250   77.755  160.714    0.385    0.211    7.480
  250.500   80.816  165.816    0.375    0.180    8.471
  250.750   88.163  159.694    0.357    0.264   11.563
  251.000   93.061  162.755    0.355    0.288   12.305
  251.250   99.796  162.755    0.395    0.279   11.093
  251.500  101.633  162.755    0.455    0.259    9.795
  251.750  101.020  161.735    0.459    0.235    8.830
  252.000   99.796  160.714    0.426    0.236    7.636
  252.250   97.347  160.714    0.415    0.235    6.336
  252.500   96.735  160.714    0.416    0.241    6.469
  252.750   98.571  165.816    0.450    0.241    5.831
  253.000   96.122  165.816    0.474    0.227    6.078
  253.250   91.837  166.837    0.445    0.213    5.954
  253.500   88.163  162.755    0.440    0.228    6.206
  253.750   90.000  166.837    0.448    0.238    7.176
  254.000   94.898  168.878    0.477    0.247    6.078
  254.250   98.571  168.878    0.509    0.256    6.078
  254.500  102.245  167.857    0.511    0.252    5.479
  254.750  104.082  167.857    0.481    0.246    5.479
  255.000  105.306  166.837    0.459    0.238    5.594
  255.250  102.857  167.857    0.446    0.243    5.594
  255.500   97.959  166.837    0.421    0.247    6.469
  255.750   93.061  162.755    0.418    0.247    7.326
  256.000   90.000  161.735    0.452    0.249    7.326
  256.250   87.551  161.735    0.442    0.253    8.471
  256.500   90.000  163.776    0.429    0.256    8.648
  256.750   93.673  165.816    0.437    0.258    8.297
  257.000   93.061  166.837    0.451    0.259    8.127
  257.250   80.816  168.878    0.463    0.262    8.127
  257.500   74.082  169.898    0.466    0.256    8.127
  257.750   81.429  170.918    0.451    0.241    8.127
  258.000   91.837  171.939    0.437    0.201    8.127
  258.250   90.000  171.939    0.436    0.178    8.127
  258.500   86.327  171.939    0.441    0.190    8.471
  258.750   88.776  171.939    0.462    0.225    8.297
  259.000   96.122  172.959    0.448    0.220    8.127
  259.250  102.857  172.959    0.451    0.217    7.636
  259.500  101.020  173.980    0.433    0.222    7.176
  259.750   97.959  172.959    0.387    0.226    7.176
  260.000   97.347  170.918    0.395    0.232    7.176
  260.250   94.286  171.939    0.402    0.248    7.636
  260.500   90.612  171.939    0.400    0.268    8.127
  260.750   86.327  172.959    0.397    0.292    7.960
  261.000   82.653  170.918    0.402    0.279    8.648
  261.250   68.571  168.878    0.374    0.230    9.594
