~VERSION INFORMATION
 VERS.                 2.0:   CWLS LOG ASCII STANDARD -VERSION 2.0
 WRAP.                  NO:   ONE LINE PER DEPTH STEP
~WELL INFORMATION BLOCK
#MNEM.UNIT           DATA                    DESCRIPTION OF MNEMONIC
#---------    -------------------            -------------------------------
# Generated from Intellog Unique Number	CS_67_68/WELL/2192
WELL.         10-07-067-04W4                 : Well_name    - WELL
LOC .         00/10-07-067-04W4/0            : Location     - LOCATION
UWI .         00/10-07-067-04W4/0            : Uwi          - UNIQUE WELL ID
ENTR.         SP                             : Entered      - ENTERED BY
SRVC.         SCHLUMBERGER                   : Scn          - SERVICE COMPANY
STRT.M        355                            : top_depth    - START DEPTH
STOP.M        570                            : bot_depth    - STOP DEPTH
STEP.M        0.25                           : increment    - STEP LENGTH
 NULL. -999.2500:NULL Value
~CURVE INFORMATION BLOCK
#MNEM UNIT       ERCB CURVE CODE    CURVE DESCRIPTION
#-----------   ------------------   ----------------------------------
DEPT.M        00 001 00 00         : DEPTH        - DEPTH
ILD .OHMM     00 120 00 00         : RESD         - DEEP RESISTIVITY (DIL)
DPHI.V/V      00 890 00 00         : PHID         - DENSITY POROSITY (LIMESTONE)
NPHI.V/V      00 330 00 00         : PHIN         - NEUTRON POROSITY (LIMESTONE)
GR  .API      00 310 00 00         : GR           - GAMMA RAY
CALI.MM       00 280 01 00         : CAL          - CALIPER
~PARAMETER INFORMATION
#MNEM.UNIT           DATA             DESCRIPTION OF MNEMONIC
#---------         -----------     ------------------------------
GL  .M        682.01               : gl           - GROUND LEVEL ELEVATION
EREF.M        686.28               : kb           - ELEVATION OF DEPTH REFERENCE
DATM.M        686.8                : datum        - DATUM ELEVATION
TDD .M        580                  : tdd          - TOTAL DEPTH DRILLER
RUN .         ONE                  : Run          - RUN NUMBER
ENG .         BILL                 : Engineer     - RECORDING ENGINEER
WIT .         JIM                  : Witness      - WITNESSED BY
MUD .         GEL                  : Mud_type     - MUD TYPE
MATR.         LIMESTONE            : Logunit      - NEUTRON MATRIX
TMAX.C        22                   : BHT          - MAXIMUM RECORDED TEMPERATURE
BHTD.M        578.2                : BHTDEP       - MAXIMUM RECORDED TEMPERATURE
MATR.         1                    : LOGUNIT      - NEUTRON MATRIX
RMT .C        25                   : MDTP         - TEMPERATURE OF MUD
NEUT.         1                    : NEUTRON      - NEUTRON TYPE
RESI.         0                    : RESIST       - RESISTIVITY TYPE
RMC .OHMM     0.25                 : RMC          - RESISTIVITY OF MUD CAKE
RMF .OHMM     0.25                 : RMF          - RESISTIVITY OF MUD FILTRATE
SUFT.C        15                   : SUFT         - SURFACE TEMPERATURE
~A  DEPTH     RESD     PHID     PHIN       GR      CAL
# ...
  391.500    6.256    0.258    0.464   85.819  252.611
  391.750    6.037    0.262    0.456   87.671  252.429
  392.000    5.950    0.267    0.451   86.031  251.940
  392.250    5.941    0.271    0.444   81.876  251.758
  392.500    5.977    0.277    0.440   79.255  251.984
  392.750    5.980    0.283    0.436   76.020  252.213
  393.000    5.983    0.282    0.430   76.650  252.232
  393.250    5.973    0.282    0.422   77.395  252.358
  393.500    5.987    0.282    0.422   78.572  252.482
  393.750    5.990    0.280    0.435   80.975  252.504
  394.000    6.027    0.282    0.436   81.910  252.630
  394.250    6.075    0.284    0.437   81.188  252.957
  394.500    6.101    0.282    0.440   80.096  253.798
  394.750    6.080    0.279    0.429   79.007  254.025
  395.000    6.094    0.275    0.412   78.960  253.638
  395.250    6.143    0.286    0.413   77.869  252.738
  395.500    6.157    0.293    0.443   76.043  251.740
  395.750    6.091    0.288    0.460   72.993  251.150
  396.000    6.047    0.284    0.472   70.064  250.763
  396.250    6.050    0.288    0.470   67.749  250.477
  396.500    6.098    0.282    0.458   65.802  250.601
  396.750    6.336    0.273    0.461   67.040  251.542
  397.000    6.509    0.272    0.491   67.055  251.770
  397.250    6.725    0.280    0.465   65.965  252.408
  397.500    7.161    0.272    0.445   62.668  252.936
  397.750    7.890    0.258    0.427   60.047  253.677
  398.000    8.307    0.248    0.410   58.957  253.902
  398.250    8.501    0.231    0.420   58.971  253.411
  398.500    8.051    0.111    0.357   63.457  252.415
  398.750    7.741    0.144    0.298   66.472  251.821
  399.000    7.513    0.193    0.414   69.365  251.129
  399.250    7.196    0.238    0.435   67.419  250.233
  399.500    6.998    0.280    0.449   68.043  249.334
  399.750    7.001    0.286    0.460   67.813  248.951
  400.000    7.330    0.287    0.470   64.149  248.668
  400.250    7.601    0.303    0.443   59.873  248.992
  400.500    8.002    0.314    0.419   56.822  249.016
  400.750    9.456    0.313    0.395   51.934  249.036
  401.000   11.302    0.317    0.426   46.800  249.876
  401.250   13.792    0.325    0.430   43.076  250.612
  401.500   17.283    0.342    0.434   40.882  251.350
  401.750   20.383    0.360    0.450   40.834  252.088
  402.000   23.814    0.368    0.460   42.136  252.720
  402.250   27.249    0.369    0.444   43.190  252.743
  402.500   29.796    0.371    0.432   44.369  252.665
  402.750   31.431    0.381    0.422   45.237  252.787
  403.000   32.411    0.372    0.425   43.044  252.914
  403.250   33.043    0.367    0.456   41.465  252.830
  403.500   32.810    0.360    0.473   41.908  252.343
  403.750   31.965    0.368    0.470   42.349  250.937
  404.000   30.046    0.374    0.453   44.508  249.323
  404.250   28.885    0.375    0.436   48.016  247.100
  404.500   27.616    0.370    0.430   50.232  245.590
  404.750   26.300    0.363    0.422   51.901  243.877
  405.000   24.675    0.354    0.411   50.872  243.283
  405.250   23.587    0.343    0.403   49.781  244.736
  405.500   21.265    0.332    0.422   50.959  247.517
  405.750   18.777    0.335    0.433   51.095  249.172
  406.000   17.448    0.339    0.425   49.576  250.829
  406.250   18.096    0.334    0.408   47.752  251.972
  406.500   19.305    0.340    0.402   46.417  253.118
  406.750   21.150    0.352    0.420   46.184  252.529
  407.000   22.909    0.349    0.434   51.592  249.488
  407.250   20.693    0.348    0.446   55.894  247.362
  407.500   15.295    0.357    0.448   60.197  245.041
  407.750    9.589    0.358    0.442   64.191  244.139
  408.000    7.375    0.351    0.447   68.067  243.549
  408.250    6.879    0.346    0.454   70.225  243.979
  408.500    6.565    0.342    0.456   70.726  245.430
  408.750    6.407    0.343    0.453   69.208  246.882
  409.000    6.278    0.340    0.447   68.179  247.829
  409.250    6.163    0.333    0.443   64.454  247.949
  409.500    6.131    0.334    0.442   60.791  247.361
  409.750    6.394    0.344    0.433   57.128  246.663
  410.000    6.706    0.351    0.423   54.322  245.766
  410.250    6.916    0.345    0.417   58.687  245.285
  410.500    6.971    0.328    0.408   61.947  245.098
  410.750    7.001    0.317    0.402   66.251  244.816
  411.000    6.977    0.302    0.409   69.449  245.344
  411.250    6.772    0.286    0.426   72.220  247.102
  411.500    6.610    0.276    0.436   73.888  249.371
  411.750    6.626    0.287    0.448   73.718  250.926
  412.000    6.794    0.292    0.473   70.667  248.190
  412.250    7.112    0.309    0.501   66.084  247.497
  412.500    7.574    0.334    0.493   60.952  247.520
  412.750    7.974    0.346    0.488   58.267  248.868
  413.000    8.920    0.340    0.438   55.523  250.527
  413.250   10.324    0.332    0.407   53.455  250.651
  413.500   11.203    0.325    0.408   52.056  249.958
  413.750   12.203    0.322    0.419   49.436  249.265
  414.000   12.970    0.318    0.426   50.614  248.678
  414.250   13.787    0.320    0.434   50.748  248.391
  414.500   14.433    0.326    0.435   48.801  247.903
  414.750   15.024    0.336    0.424   48.201  247.821
  415.000   15.819    0.343    0.418   48.460  247.742
  415.250   16.782    0.332    0.417   48.840  247.048
  415.500   17.601    0.328    0.408   49.160  246.763
  415.750   19.359    0.335    0.398   49.296  246.480
  416.000   20.305    0.338    0.423   49.860  246.500
  416.250   21.055    0.342    0.415   50.918  246.727
  416.500   21.752    0.345    0.407   51.480  247.260
  416.750   22.515    0.347    0.413   51.678  247.589
  417.000   22.825    0.346    0.416   51.690  247.412
  417.250   22.706    0.345    0.424   53.849  247.123
  417.500   20.586    0.348    0.438   55.211  246.737
  417.750   16.538    0.353    0.430   55.774  246.962
  418.000   14.034    0.356    0.417   54.317  246.881
  418.250   11.641    0.360    0.413   53.043  247.210
  418.500    9.972    0.357    0.440   52.934  248.049
  418.750    8.511    0.354    0.449   53.622  248.482
  419.000    7.849    0.352    0.424   54.187  249.115
  419.250    7.363    0.353    0.416   54.629  249.341
  419.500    7.066    0.358    0.429   55.011  249.976
  419.750    6.794    0.356    0.424   55.697  250.405
  420.000    6.532    0.354    0.414   55.893  251.147
  420.250    6.449    0.356    0.402   55.235  251.576
  420.500    6.537    0.359    0.396   54.266  251.698
  420.750    6.628    0.361    0.433   52.870  251.523
  421.000    6.580    0.353    0.472   52.638  251.031
  421.250    6.472    0.347    0.451   52.469  250.233
  421.500    6.365    0.352    0.428   52.604  249.542
  421.750    6.249    0.354    0.460   52.923  248.643
  422.000    6.111    0.358    0.476   53.487  247.643
  422.250    5.999    0.354    0.475   53.377  247.057
  422.500    6.059    0.345    0.467   49.898  246.870
  422.750    6.073    0.353    0.462   47.889  246.588
  423.000    6.064    0.361    0.467   48.641  246.505
  423.250    6.067    0.362    0.470   48.345  246.630
  423.500    6.081    0.357    0.463   47.255  246.654
  423.750    6.142    0.342    0.443   45.001  246.778
  424.000    6.273    0.309    0.425   42.749  246.391
  424.250    6.481    0.264    0.406   41.229  245.902
  424.500    6.387    0.263    0.377   40.261  244.903
  424.750    6.176    0.294    0.414   42.849  243.903
  425.000    5.949    0.340    0.441   44.944  242.802
  425.250    5.795    0.365    0.430   46.736  242.315
  425.500    5.689    0.370    0.421   47.668  242.436
  425.750    5.638    0.365    0.432   45.597  242.560
  426.000    5.608    0.368    0.440   44.446  243.098
  426.250    5.632    0.372    0.432   44.949  243.729
  426.500    5.688    0.365    0.435   45.883  244.262
  426.750    5.691    0.362    0.422   46.140  244.387
  427.000    5.597    0.363    0.411   46.092  244.205
  427.250    5.361    0.363    0.420   50.456  244.023
  427.500    4.991    0.353    0.424   57.944  244.145
  427.750    4.577    0.343    0.419   66.046  246.005
