~VERSION INFORMATION
 VERS.                 2.0:   CWLS LOG ASCII STANDARD -VERSION 2.0
 WRAP.                  NO:   ONE LINE PER DEPTH STEP
~WELL INFORMATION BLOCK
#MNEM.UNIT           DATA                    DESCRIPTION OF MNEMONIC
#---------    -------------------            -------------------------------
# Generated from Intellog Unique Number	CS_71_72/WELL/889
WELL.         BVX ET AL CALL                 : Well_name    - WELL
LOC .         00/11-08-071-16W4/0            : Location     - LOCATION
UWI .         00/11-08-071-16W4/0            : Uwi          - UNIQUE WELL ID
ENTR.         SP                             : Entered      - ENTERED BY
SRVC.         SCHLUMBERGER                   : Scn          - SERVICE COMPANY
STRT.M        285                            : top_depth    - START DEPTH
STOP.M        479                            : bot_depth    - STOP DEPTH
STEP.M        0.25                           : increment    - STEP LENGTH
 NULL. -999.2500:NULL Value
~CURVE INFORMATION BLOCK
#MNEM UNIT       ERCB CURVE CODE    CURVE DESCRIPTION
#-----------   ------------------   ----------------------------------
DEPT.M        00 001 00 00         : DEPTH        - DEPTH
ILD .OHMM     00 120 00 00         : RESD         - DEEP RESISTIVITY (DIL)
DPHI.V/V      00 890 00 00         : PHID         - DENSITY POROSITY (LIMESTONE)
NPHI.V/V      00 330 00 00         : PHIN         - NEUTRON POROSITY (LIMESTONE)
GR  .API      00 310 00 00         : GR           - GAMMA RAY
~PARAMETER INFORMATION
#MNEM.UNIT           DATA             DESCRIPTION OF MNEMONIC
#---------         -----------     ------------------------------
GL  .M        576                  : gl           - GROUND LEVEL ELEVATION
EREF.M        579.6                : kb           - ELEVATION OF DEPTH REFERENCE
DATM.M        576                  : datum        - DATUM ELEVATION
TDD .M        486                  : tdd          - TOTAL DEPTH DRILLER
RUN .         ONE                  : Run          - RUN NUMBER
ENG .         BILL                 : Engineer     - RECORDING ENGINEER
WIT .         JIM                  : Witness      - WITNESSED BY
MUD .         GEL                  : Mud_type     - MUD TYPE
MATR.         LIMESTONE            : Logunit      - NEUTRON MATRIX
TMAX.C        22                   : BHT          - MAXIMUM RECORDED TEMPERATURE
BHTD.M        486                  : BHTDEP       - MAXIMUM RECORDED TEMPERATURE
MATR.         1                    : LOGUNIT      - NEUTRON MATRIX
RMT .C        25                   : MDTP         - TEMPERATURE OF MUD
NEUT.         1                    : NEUTRON      - NEUTRON TYPE
RESI.         0                    : RESIST       - RESISTIVITY TYPE
RMC .OHMM     0.25                 : RMC          - RESISTIVITY OF MUD CAKE
RMF .OHMM     0.25                 : RMF          - RESISTIVITY OF MUD FILTRATE
SUFT.C        15                   : SUFT         - SURFACE TEMPERATURE
~A  DEPTH     RESD     PHID     PHIN       GR
# ...
  372.000    4.342    0.314    0.377   78.007
  372.250    4.212    0.309    0.386   74.949
  372.500    4.093    0.305    0.399   72.628
  372.750    3.985    0.308    0.405   72.145
  373.000    3.910    0.312    0.401   70.436
  373.250    3.836    0.317    0.395   68.238
  373.500    3.806    0.323    0.390   67.511
  373.750    3.776    0.325    0.395   67.333
  374.000    3.754    0.324    0.401   68.633
  374.250    3.760    0.322    0.401   69.865
  374.500    3.766    0.322    0.395   71.469
  374.750    3.786    0.324    0.399   72.027
  375.000    3.807    0.327    0.401   70.932
  375.250    3.820    0.330    0.399   70.940
  375.500    3.870    0.333    0.397   71.132
  375.750    3.913    0.336    0.395   71.018
  376.000    3.949    0.337    0.394   69.616
  376.250    3.970    0.339    0.393   70.053
  376.500    3.977    0.341    0.392   71.166
  376.750    3.975    0.342    0.392   72.033
  377.000    3.974    0.344    0.392   72.470
  377.250    3.951    0.344    0.392   69.902
  377.500    3.913    0.348    0.394   66.170
  377.750    3.846    0.355    0.394   64.340
  378.000    3.809    0.362    0.393   64.407
  378.250    3.779    0.368    0.391   66.194
  378.500    3.778    0.377    0.389   67.858
  378.750    3.791    0.377    0.383   69.403
  379.000    3.776    0.364    0.382   69.594
  379.250    3.803    0.342    0.380   69.725
  379.500    3.889    0.316    0.375   69.547
  379.750    4.177    0.275    0.331   67.532
  380.000    4.581    0.239    0.290   64.290
  380.250    5.042    0.153    0.243   61.845
  380.500    5.806    0.086    0.190   59.401
  380.750    6.789    0.048    0.170   57.325
  381.000    9.405    0.031    0.159   55.431
  381.250   14.703    0.030    0.148   53.783
  381.500   18.191    0.042    0.147   53.853
  381.750   20.098    0.058    0.160   55.335
  382.000   19.495    0.083    0.174   56.874
  382.250   15.838    0.116    0.203   60.380
  382.500   12.367    0.181    0.242   63.453
  382.750    8.921    0.245    0.284   66.282
  383.000    7.470    0.283    0.320   68.559
  383.250    6.694    0.305    0.346   69.856
  383.500    5.987    0.317    0.366   70.355
  383.750    5.478    0.324    0.376   70.240
  384.000    5.059    0.319    0.382   70.187
  384.250    4.726    0.313    0.384   70.687
  384.500    4.397    0.311    0.386   71.185
  384.750    4.194    0.315    0.384   70.518
  385.000    3.962    0.318    0.385   71.202
  385.250    3.829    0.315    0.388   72.192
  385.500    3.756    0.309    0.391   73.732
  385.750    3.699    0.299    0.392   76.257
  386.000    3.733    0.287    0.396   78.900
  386.250    3.846    0.268    0.402   82.465
  386.500    3.978    0.255    0.412   86.522
  386.750    4.107    0.244    0.411   90.088
  387.000    4.311    0.245    0.405   91.444
  387.250    4.343    0.265    0.402   91.881
  387.500    4.383    0.284    0.401   87.045
  387.750    4.357    0.304    0.404   80.308
  388.000    4.259    0.319    0.411   75.042
  388.250    4.092    0.330    0.419   73.211
  388.500    3.903    0.336    0.421   73.954
  388.750    3.757    0.340    0.412   75.314
  389.000    3.672    0.337    0.407   75.505
  389.250    3.602    0.330    0.400   74.655
  389.500    3.561    0.324    0.396   73.805
  389.750    3.540    0.320    0.392   73.382
  390.000    3.539    0.325    0.398   71.122
  390.250    3.564    0.330    0.397   68.984
  390.500    3.584    0.324    0.394   67.275
  390.750    3.637    0.319    0.397   65.570
  391.000    3.727    0.315    0.402   64.657
  391.250    3.891    0.311    0.402   64.295
  391.500    4.024    0.309    0.396   65.715
  391.750    4.146    0.307    0.389   67.255
  392.000    4.240    0.310    0.386   69.287
  392.250    4.263    0.320    0.383   70.583
  392.500    4.230    0.330    0.381   71.450
  392.750    4.126    0.336    0.387   69.865
  393.000    3.957    0.341    0.390   69.749
  393.250    3.795    0.341    0.379   72.211
  393.500    3.620    0.339    0.370   75.104
  393.750    3.471    0.338    0.369   77.012
  394.000    3.373    0.339    0.378   78.613
  394.250    3.354    0.340    0.372   79.605
  394.500    3.353    0.334    0.375   77.711
  394.750    3.365    0.330    0.385   72.873
  395.000    3.383    0.325    0.393   70.122
  395.250    3.401    0.320    0.397   69.824
  395.500    3.381    0.318    0.394   68.483
  395.750    3.355    0.325    0.386   66.713
  396.000    3.285    0.319    0.391   67.702
  396.250    3.210    0.323    0.398   68.510
  396.500    3.114    0.332    0.396   69.437
  396.750    3.004    0.334    0.395   72.265
  397.000    2.881    0.337    0.396   78.590
  397.250    2.732    0.340    0.406   87.184
  397.500    2.586    0.346    0.455   94.306
  397.750    2.471    0.350    0.475   95.970
  398.000    2.369    0.347    0.493   95.549
  398.250    2.294    0.331    0.483   95.559
  398.500    2.259    0.294    0.470   96.978
  398.750    2.258    0.272    0.452   96.616
  399.000    2.314    0.254    0.436   94.234
  399.250    2.393    0.245    0.422   93.445
  399.500    2.659    0.244    0.415   93.331
  399.750    3.097    0.246    0.412   94.872
  400.000    3.428    0.243    0.417   95.615
  400.250    3.963    0.236    0.426   93.416
  400.500    4.248    0.228    0.433   90.113
  400.750    4.486    0.222    0.421   89.630
  401.000    4.605    0.222    0.401   91.662
  401.250    4.691    0.231    0.389   93.940
  401.500    4.734    0.239    0.387   94.501
  401.750    4.733    0.245    0.396   94.694
  402.000    4.687    0.251    0.405   94.578
  402.250    4.598    0.254    0.411   93.605
  402.500    4.546    0.244    0.407   95.087
  402.750    4.502    0.221    0.413   95.952
  403.000    4.718    0.199    0.408   95.653
  403.250    4.716    0.183    0.394   92.534
  403.500    4.733    0.171    0.387   87.146
  403.750    4.767    0.162    0.376   82.126
  404.000    4.848    0.160    0.369   79.865
  404.250    4.976    0.186    0.363   78.585
  404.500    5.176    0.217    0.359   77.431
  404.750    5.465    0.241    0.346   77.071
  405.000    5.536    0.263    0.404   77.998
  405.250    5.462    0.272    0.411   84.567
  405.500    4.886    0.279    0.404   84.024
  405.750    4.403    0.291    0.396   80.904
  406.000    3.894    0.301    0.391   76.436
  406.250    3.658    0.312    0.388   75.953
  406.500    3.609    0.320    0.396   76.330
  406.750    3.656    0.329    0.406   77.138
  407.000    3.725    0.341    0.404   77.697
  407.250    3.816    0.358    0.411   78.072
  407.500    3.895    0.371    0.424   78.018
  407.750    4.005    0.266    0.401   76.126
  408.000    4.104    0.247    0.375   73.621
  408.250    4.213    0.244    0.351   72.401
  408.500    4.431    0.251    0.360   73.330
  408.750    4.714    0.255    0.344   74.013
  409.000    4.922    0.227    0.313   73.898
  409.250    5.257    0.208    0.301   72.495
  409.500    5.593    0.216    0.321   73.731
  409.750    5.939    0.241    0.348   75.149
  410.000    6.201    0.266    0.368   76.814
  410.250    6.341    0.285    0.380   77.496
  410.500    6.245    0.288    0.386   76.646
  410.750    5.822    0.284    0.391   75.734
  411.000    5.296    0.279    0.397   77.830
  411.250    5.138    0.273    0.401   78.573
  411.500    4.881    0.264    0.406   79.379
  411.750    4.708    0.256    0.399   79.694
  412.000    4.645    0.250    0.389   79.517
  412.250    4.644    0.251    0.381   77.932
  412.500    4.678    0.252    0.375   77.632
  412.750    4.721    0.253    0.372   78.070
  413.000    4.773    0.253    0.380   79.124
  413.250    4.862    0.250    0.385   79.620
  413.500    4.935    0.241    0.379   79.627
  413.750    5.028    0.238    0.371   78.594
  414.000    5.093    0.228    0.367   77.988
  414.250    5.208    0.226    0.365   78.487
  414.500    5.276    0.219    0.362   81.623
  414.750    5.405    0.216    0.373   84.207
  415.000    5.445    0.212    0.383   84.706
  415.250    5.516    0.211    0.381   86.557
