~VERSION INFORMATION
 VERS.                 2.0:   CWLS LOG ASCII STANDARD -VERSION 2.0
 WRAP.                  NO:   ONE LINE PER DEPTH STEP
~WELL INFORMATION BLOCK
#MNEM.UNIT           DATA                    DESCRIPTION OF MNEMONIC
#---------    -------------------            -------------------------------
# Generated from Intellog Unique Number	CS_73_76/WELL/2187
WELL.         PEX MARGIE                     : Well_name    - WELL
LOC .         00/10-11-074-09W4/0            : Location     - LOCATION
UWI .         00/10-11-074-09W4/0            : Uwi          - UNIQUE WELL ID
ENTR.         SP                             : Entered      - ENTERED BY
SRVC.         SCHLUMBERGER                   : Scn          - SERVICE COMPANY
STRT.M        285                            : top_depth    - START DEPTH
STOP.M        500                            : bot_depth    - STOP DEPTH
STEP.M        0.25                           : increment    - STEP LENGTH
 NULL. -999.2500:NULL Value
~CURVE INFORMATION BLOCK
#MNEM UNIT       ERCB CURVE CODE    CURVE DESCRIPTION
#-----------   ------------------   ----------------------------------
DEPT.M        00 001 00 00         : DEPTH        - DEPTH
ILD .OHMM     00 120 00 00         : RESD         - DEEP RESISTIVITY (DIL)
DPHI.V/V      00 890 00 00         : PHID         - DENSITY POROSITY (LIMESTONE)
NPHI.V/V      00 330 00 00         : PHIN         - NEUTRON POROSITY (LIMESTONE)
GR  .API      00 310 00 00         : GR           - GAMMA RAY
~PARAMETER INFORMATION
#MNEM.UNIT           DATA             DESCRIPTION OF MNEMONIC
#---------         -----------     ------------------------------
GL  .M        659.5                : gl           - GROUND LEVEL ELEVATION
EREF.M        663.3                : kb           - ELEVATION OF DEPTH REFERENCE
DATM.M        659.5                : datum        - DATUM ELEVATION
TDD .M        609                  : tdd          - TOTAL DEPTH DRILLER
RUN .         ONE                  : Run          - RUN NUMBER
ENG .         BILL                 : Engineer     - RECORDING ENGINEER
WIT .         JIM                  : Witness      - WITNESSED BY
MUD .         GEL                  : Mud_type     - MUD TYPE
MATR.         LIMESTONE            : Logunit      - NEUTRON MATRIX
TMAX.C        22.5                 : BHT          - MAXIMUM RECORDED TEMPERATURE
BHTD.M        609                  : BHTDEP       - MAXIMUM RECORDED TEMPERATURE
MATR.         1                    : LOGUNIT      - NEUTRON MATRIX
RMT .C        25                   : MDTP         - TEMPERATURE OF MUD
NEUT.         1                    : NEUTRON      - NEUTRON TYPE
RESI.         0                    : RESIST       - RESISTIVITY TYPE
RMC .OHMM     0.25                 : RMC          - RESISTIVITY OF MUD CAKE
RMF .OHMM     0.25                 : RMF          - RESISTIVITY OF MUD FILTRATE
SUFT.C        15                   : SUFT         - SURFACE TEMPERATURE
~A  DEPTH     RESD     PHID     PHIN       GR
# ...
  372.000    6.552    0.275    0.479   66.686
  372.250    5.628    0.259    0.472   73.367
  372.500    5.118    0.253    0.497   78.834
  372.750    4.397    0.250    0.550   85.516
  373.000    4.075    0.243    0.579   89.768
  373.250    3.848    0.238    0.548   92.199
  373.500    3.704    0.231    0.533   90.378
  373.750    3.565    0.232    0.528   86.129
  374.000    3.431    0.244    0.503   88.560
  374.250    3.302    0.263    0.496   90.383
  374.500    3.301    0.285    0.524   90.384
  374.750    3.238    0.287    0.567   89.171
  375.000    3.236    0.280    0.571   86.136
  375.250    3.296    0.254    0.541   82.494
  375.500    3.554    0.242    0.528   79.458
  375.750    4.056    0.236    0.509   77.030
  376.000    4.898    0.245    0.499   75.210
  376.250    5.383    0.247    0.490   75.819
  376.500    6.260    0.245    0.467   75.820
  376.750    6.749    0.250    0.448   74.000
  377.000    7.141    0.256    0.445   72.787
  377.250    7.275    0.256    0.436   72.181
  377.500    7.270    0.249    0.438   72.182
  377.750    7.268    0.249    0.461   71.576
  378.000    7.265    0.254    0.469   71.578
  378.250    7.262    0.261    0.470   71.580
  378.500    7.260    0.266    0.448   70.973
  378.750    7.257    0.263    0.436   69.153
  379.000    7.254    0.265    0.438   66.725
  379.250    7.387    0.266    0.436   67.334
  379.500    7.383    0.263    0.442   70.372
  379.750    7.381    0.258    0.460   71.588
  380.000    7.378    0.253    0.481   71.589
  380.250    7.517    0.216    0.502   72.198
  380.500    7.804    0.163    0.450   71.592
  380.750    8.575    0.178    0.383   68.557
  381.000    8.736    0.205    0.429   74.632
  381.250    8.407    0.227    0.445   77.061
  381.500    7.789    0.233    0.453   78.885
  381.750    7.497    0.225    0.450   77.672
  382.000    7.354    0.205    0.453   77.066
  382.250    7.213    0.213    0.461   74.638
  382.500    7.075    0.223    0.453   74.639
  382.750    6.940    0.216    0.455   77.070
  383.000    6.938    0.202    0.467   80.108
  383.250    6.805    0.201    0.475   80.716
  383.500    6.675    0.205    0.467   80.111
  383.750    6.671    0.211    0.469   78.898
  384.000    6.542    0.206    0.479   78.900
  384.250    6.064    0.206    0.483   79.508
  384.500    6.062    0.210    0.472   80.724
  384.750    6.059    0.216    0.469   81.940
  385.000    5.831    0.213    0.461   82.548
  385.250    5.613    0.212    0.467   83.157
  385.500    5.301    0.222    0.461   83.766
  385.750    4.469    0.243    0.458   87.411
  386.000    3.767    0.261    0.465   88.627
  386.250    3.362    0.281    0.492   88.628
  386.500    2.780    0.275    0.564   84.986
  386.750    2.626    0.270    0.567   84.380
  387.000    2.434    0.272    0.572   84.989
  387.250    2.387    0.260    0.585   84.990
  387.500    2.574    0.238    0.588   86.207
  387.750    2.882    0.221    0.540   86.208
  388.000    3.352    0.210    0.490   85.602
  388.250    4.048    0.206    0.481   84.388
  388.500    4.533    0.210    0.474   81.961
  388.750    5.173    0.216    0.463   81.355
  389.000    5.473    0.225    0.464   79.535
  389.250    5.368    0.228    0.465   78.929
  389.500    5.365    0.239    0.460   77.716
  389.750    5.364    0.244    0.463   74.681
  390.000    5.464    0.264    0.454   72.860
  390.250    5.566    0.287    0.459   72.254
  390.500    5.777    0.294    0.475   70.433
  390.750    5.886    0.301    0.486   64.362
  391.000    6.111    0.310    0.503   61.934
  391.250    6.343    0.304    0.474   63.757
  391.500    6.461    0.298    0.432   64.974
  391.750    6.583    0.290    0.411   64.975
  392.000    6.706    0.286    0.416   63.154
  392.250    6.831    0.283    0.433   64.371
  392.500    6.828    0.276    0.449   66.194
  392.750    6.825    0.272    0.444   66.802
  393.000    6.695    0.274    0.453   68.019
  393.250    6.691    0.281    0.464   68.020
  393.500    6.688    0.290    0.461   68.629
  393.750    6.686    0.267    0.453   70.452
  394.000    6.684    0.242    0.440   73.490
  394.250    6.556    0.226    0.438   75.313
  394.500    6.553    0.222    0.447   76.529
  394.750    6.548    0.222    0.447   76.530
  395.000    6.546    0.218    0.428   74.103
  395.250    6.544    0.218    0.429   73.497
  395.500    6.667    0.223    0.439   74.105
  395.750    6.791    0.245    0.438   74.715
  396.000    6.918    0.261    0.429   73.501
  396.250    7.046    0.267    0.432   71.681
  396.500    7.179    0.264    0.432   69.860
  396.750    7.041    0.266    0.427   69.862
  397.000    7.039    0.259    0.437   72.292
  397.250    6.774    0.255    0.437   74.723
  397.500    6.645    0.248    0.449   74.117
  397.750    6.274    0.240    0.459   74.118
  398.000    6.271    0.234    0.439   76.549
  398.250    6.152    0.225    0.431   77.157
  398.500    6.150    0.216    0.439   78.374
  398.750    6.031    0.213    0.455   76.553
  399.000    6.030    0.211    0.467   76.554
  399.250    5.913    0.213    0.466   74.734
  399.500    5.912    0.228    0.458   69.269
  399.750    5.908    0.259    0.453   65.020
  400.000    5.906    0.287    0.475   61.985
  400.250    5.904    0.306    0.470   60.164
  400.500    5.902    0.307    0.453   61.988
  400.750    5.788    0.297    0.448   64.419
  401.000    5.786    0.293    0.447   64.420
  401.250    5.784    0.296    0.445   61.992
  401.500    5.782    0.304    0.456   57.135
  401.750    5.778    0.312    0.447   60.173
  402.000    5.776    0.309    0.443   63.211
  402.250    5.775    0.304    0.454   61.998
  402.500    5.772    0.299    0.472   61.999
  402.750    5.768    0.296    0.486   63.215
  403.000    5.767    0.307    0.479   65.038
  403.250    5.874    0.314    0.461   65.040
  403.500    5.872    0.303    0.432   62.612
  403.750    6.096    0.292    0.426   62.613
  404.000    6.210    0.294    0.427   65.652
  404.250    6.326    0.293    0.436   66.867
  404.500    6.445    0.288    0.440   68.691
  404.750    6.689    0.280    0.444   69.907
  405.000    6.814    0.272    0.448   67.479
  405.250    6.812    0.267    0.460   66.873
  405.500    6.939    0.270    0.447   68.089
  405.750    6.936    0.270    0.433   68.090
  406.000    6.934    0.258    0.418   68.092
  406.250    7.062    0.250    0.421   69.915
  406.500    6.928    0.249    0.429   72.954
  406.750    6.925    0.253    0.437   74.776
  407.000    6.541    0.260    0.436   76.599
  407.250    5.619    0.269    0.447   78.423
  407.500    5.307    0.274    0.483   77.817
  407.750    4.918    0.266    0.524   72.353
  408.000    4.823    0.266    0.493   70.532
  408.250    4.822    0.256    0.467   69.926
  408.500    5.101    0.240    0.456   72.357
  408.750    5.604    0.226    0.449   74.788
  409.000    5.819    0.213    0.436   75.396
  409.250    6.156    0.215    0.436   74.790
  409.500    6.038    0.218    0.443   74.792
  409.750    5.595    0.220    0.449   76.008
  410.000    5.386    0.226    0.456   75.402
  410.250    4.990    0.221    0.471   71.759
  410.500    4.803    0.212    0.475   71.761
  410.750    4.801    0.209    0.469   74.799
  411.000    4.891    0.209    0.467   74.800
  411.250    5.374    0.204    0.456   76.017
  411.500    5.686    0.201    0.443   76.018
  411.750    6.129    0.200    0.428   75.412
  412.000    6.486    0.198    0.426   72.984
  412.250    6.733    0.195    0.431   72.985
  412.500    6.859    0.194    0.423   76.023
  412.750    6.985    0.198    0.417   77.239
  413.000    6.983    0.202    0.420   77.848
  413.250    6.980    0.205    0.423   79.064
  413.500    6.977    0.207    0.423   79.066
  413.750    6.844    0.211    0.427   76.030
  414.000    6.712    0.216    0.433   71.780
  414.250    6.710    0.212    0.454   75.426
  414.500    6.581    0.204    0.471   78.464
  414.750    6.579    0.205    0.447   79.073
  415.000    6.452    0.218    0.437   79.681
  415.250    6.450    0.233    0.437   79.075
