~VERSION INFORMATION
 VERS.                 2.0:   CWLS LOG ASCII STANDARD -VERSION 2.0
 WRAP.                  NO:   ONE LINE PER DEPTH STEP
~WELL INFORMATION BLOCK
#MNEM.UNIT           DATA                    DESCRIPTION OF MNEMONIC
#---------    -------------------            -------------------------------
# Generated from Intellog Unique Number	CW_76_78/WELL/2585
NULL.         -999.25                        : NULL_VALUE
WELL.         SOBC ET AL SANDY LAKE          : Well_name    - WELL              
LOC .         11-36-078-22W4                 : Location     - LOCATION          
UWI .         00/11-36-078-22W4/0            : Uwi          - UNIQUE WELL ID    
ENTR.         MAX                            : Entered      - ENTERED BY        
SRVC.         SCHLUMBERGER                   : Scn          - SERVICE COMPANY   
DATE.         02 MAR 74                      : Date         - LOG DATE
STRT.M        213.36                         : top_depth    - START DEPTH       
STOP.M        429.86                         : bot_depth    - STOP DEPTH        
STEP.M        0.25                           : increment    - STEP LENGTH       
~CURVE INFORMATION BLOCK
#MNEM UNIT       ERCB CURVE CODE    CURVE DESCRIPTION
#-----------   ------------------   ----------------------------------
DEPT.M        00 001 00 00         : DEPTH        - DEPTH                       
ILD .OHMM     00 120 00 00         : RESD         - DEEP RESISTIVITY (DIL)      
NPHI.V/V      00 330 00 00         : PHIN         - NEUTRON POROSITY (SANDSTONE)
DPHI.V/V      00 890 00 00         : PHID         - DENSITY POROSITY (SANDSTONE)
CALI.MM       00 280 01 00         : CAL          - CALIPER                     
GR  .API      00 310 00 00         : GR           - GAMMA RAY                   
~PARAMETER INFORMATION       
#MNEM.UNIT           DATA             DESCRIPTION OF MNEMONIC
#---------         -----------     ------------------------------
GL  .M        562.966              : gl           - GROUND LEVEL ELEVATION      
EREF.M        565.404              : kb           - ELEVATION OF DEPTH REFERENCE
DATM.M        562.966              : datum        - DATUM ELEVATION             
TDD .M        434.34               : tdd          - TOTAL DEPTH DRILLER         
RUN .         ONE                  : Run          - RUN NUMBER                  
ENG .         BILL                 : Engineer     - RECORDING ENGINEER          
WIT .         JIM                  : Witness      - WITNESSED BY                
MUD .         GEL                  : Mud_type     - MUD TYPE                    
MATR.         SANDSTONE            : Logunit      - NEUTRON MATRIX              
TMAX.C        75                   : BHT          - MAXIMUM RECORDED TEMPERATURE
BHTD.M        434.34               : BHTDEP       - MAXIMUM RECORDED TEMPERATURE
RMT .C        14.4444              : MDTP         - TEMPERATURE OF MUD          
MUDD.KG/M     9200                 : MWT          - MUD DENSITY                 
NEUT.         1                    : NEUTRON      - NEUTRON TYPE                
RESI.         0                    : RESIST       - RESISTIVITY TYPE            
RM  .OHMM     7                    : RM           - RESISTIVITY OF MUD          
RMC .OHMM     0                    : RMC          - RESISTIVITY OF MUD CAKE     
RMF .OHMM     8.51                 : RMF          - RESISTIVITY OF MUD FILTRATE 
SUFT.C        -20.5556             : SUFT         - SURFACE TEMPERATURE         
~A  DEPTH     RESD     PHIN     PHID      CAL       GR
# ...
  359.360   17.487    0.427    0.181  199.820   70.649
  359.610   19.655    0.377    0.159  199.271   67.965
  359.860   19.823    0.355    0.119  199.711   68.228
  360.110   18.428    0.271    0.050  201.153   69.378
  360.360   17.137    0.332    0.113  201.095   71.696
  360.610   15.368    0.355    0.245  198.554   74.606
  360.860   14.289    0.368    0.276  195.516   77.519
  361.110   13.775    0.381    0.283  195.470   82.185
  361.360   13.766    0.406    0.270  195.910   83.923
  361.610   13.761    0.407    0.235  196.842   80.364
  361.860   14.388    0.402    0.185  197.793   73.274
  362.110   15.181    0.391    0.159  200.735   70.303
  362.360   15.171    0.390    0.140  200.664   69.681
  362.610   15.028    0.428    0.190  200.664   67.886
  362.860   14.620    0.427    0.211  199.048   65.206
  363.110   14.350    0.394    0.198  198.020   63.698
  363.360   14.472    0.379    0.167  197.969   64.553
  363.610   14.728    0.372    0.152  198.913   66.585
  363.860   15.261    0.418    0.190  198.861   65.959
  364.110   15.814    0.455    0.217  198.804   62.698
  364.360   15.814    0.462    0.245  198.254   62.954
  364.610   16.523    0.430    0.247  196.703   62.931
  364.860   17.125    0.405    0.224  196.166   61.420
  365.110   17.426    0.402    0.224  200.085   61.397
  365.360   17.262    0.389    0.215  201.514   61.660
  365.610   16.942    0.379    0.210  199.982   60.748
  365.860   16.042    0.365    0.207  198.437   56.884
  366.110   14.916    0.337    0.185  197.881   55.979
  366.360   13.497    0.309    0.148  198.327   58.007
  366.610   12.437    0.268    0.081  199.763   65.621
  366.860   11.668    0.362    0.107  201.212   67.935
  367.110   11.249    0.429    0.206  201.147   69.378
  367.360   11.142    0.461    0.235  200.604   71.700
  367.610   11.233    0.486    0.222  200.559   71.376
  367.860   11.333    0.507    0.207  199.997   68.401
  368.110   11.638    0.460    0.244  199.441   68.367
  368.360   11.843    0.437    0.261  199.403   68.043
  368.610   12.161    0.428    0.261  198.847   67.428
  368.860   12.161    0.450    0.254  198.783   66.207
  369.110   12.368    0.450    0.239  198.744   66.184
  369.360   12.934    0.444    0.235  198.686   68.211
  369.610   13.770    0.451    0.233  198.635   70.831
  369.860   14.529    0.494    0.226  198.583   69.323
  370.110   15.331    0.491    0.229  198.532   64.588
  370.360   16.322    0.447    0.229  198.480   64.562
  370.610   16.604    0.432    0.231  197.918   64.230
  370.860   17.526    0.441    0.232  197.867   62.729
  371.110   21.174    0.431    0.222  198.319   58.873
  371.360   25.582    0.341    0.125  199.257   56.494
  371.610   35.071    0.271    0.095  199.704   55.582
  371.860   47.645    0.218    0.070  199.646   55.842
  372.110   43.904    0.202    0.060  199.058   56.983
  372.360   28.446    0.204    0.053  199.045   60.485
  372.610   22.279    0.250    0.075  198.993   62.799
  372.860   19.982    0.313    0.124  198.936   65.128
  373.110   17.284    0.395    0.161  199.382   68.328
  373.360   15.501    0.428    0.213  199.330   70.348
  373.610   15.078    0.456    0.236  199.273   70.616
  373.860   14.799    0.473    0.234  199.221   74.117
  374.110   14.396    0.477    0.231  198.672   73.789
  374.360   14.131    0.474    0.231  198.116   73.171
  374.610   13.997    0.465    0.232  198.116   77.550
  374.860   13.864    0.462    0.240  198.000   77.222
  375.110   13.731    0.472    0.233  197.457   76.604
  375.360   13.731    0.457    0.231  197.399   76.868
  375.610   13.592    0.454    0.227  197.354   78.597
  375.860   13.586    0.450    0.222  197.296   78.567
  376.110   13.457    0.447    0.225  197.749   77.952
  376.360   13.450    0.442    0.218  198.176   79.682
  376.610   13.320    0.465    0.220  198.144   82.592
  376.860   13.193    0.459    0.227  198.073   82.554
  377.110   13.069    0.450    0.218  198.526   84.295
  377.360   12.938    0.441    0.212  198.973   85.147
  377.610   12.591    0.431    0.202  198.915   84.521
  377.860   12.138    0.449    0.189  198.915   87.141
  378.110   11.807    0.445    0.185  199.303   90.638
  378.360   11.485    0.435    0.201  199.756   90.306
  378.610   11.377    0.435    0.196  200.694   89.394
  378.860   11.370    0.439    0.189  200.649   89.955
  379.110   11.363    0.448    0.182  200.591   91.979
  379.360   11.363    0.457    0.180  200.042   93.717
  379.610   11.453    0.474    0.187  200.986   96.034
  379.860   11.763    0.488    0.204  202.428   96.290
  380.110   12.300    0.493    0.187  203.372   94.500
  380.360   12.745    0.459    0.163  203.321   93.881
  380.610   13.326    0.425    0.155  202.261   95.027
  380.860   13.562    0.423    0.166  202.261   93.527
  381.110   13.554    0.402    0.172  201.136   92.026
  381.360   13.185    0.394    0.185  200.600   91.996
  381.610   12.825    0.392    0.198  200.600   92.256
  381.860   12.935    0.383    0.208  200.490   92.813
  382.110   13.648    0.383    0.213  200.956   94.245
  382.360   15.339    0.398    0.215  200.898   96.571
  382.610   17.241    0.430    0.212  201.338   97.713
  382.860   18.689    0.436    0.199  201.778   93.864
  383.110   18.680    0.412    0.182  201.739   87.655
  383.360   17.846    0.374    0.191  201.682   81.745
  383.610   16.592    0.306    0.198  201.682   81.420
  383.860   15.710    0.318    0.131  201.055   91.974
  384.110   14.739    0.372    0.094  201.023   99.882
  384.360   14.338    0.391    0.176  201.023  105.732
  384.610   14.592    0.396    0.189  200.913  107.172
  384.860   15.535    0.403    0.188  200.364  101.254
  385.110   16.391    0.399    0.195  200.313   95.641
  385.360   17.138    0.413    0.203  200.261   91.490
  385.610   17.138    0.400    0.200  200.210   85.870
  385.860   17.270    0.400    0.197  200.152   87.604
  386.110   17.580    0.398    0.203  200.592   88.455
  386.360   18.054    0.382    0.208  200.527   88.123
  386.610   19.221    0.386    0.201  200.489   88.093
  386.860   20.280    0.375    0.179  200.399   87.478
  387.110   21.203    0.370    0.162  200.386   86.272
  387.360   21.386    0.353    0.137  200.334   84.477
  387.610   20.989    0.323    0.111  200.244   81.789
  387.860   20.053    0.318    0.125  200.225   80.296
  388.110   18.816    0.339    0.156  200.665   80.560
  388.360   17.337    0.364    0.188  201.118   84.932
  388.610   16.564    0.379    0.199  201.558   84.612
  388.860   16.407    0.387    0.195  201.998   84.287
  389.110   16.248    0.412    0.195  202.451   85.429
  389.360   16.241    0.432    0.194  202.399   87.747
  389.610   15.941    0.417    0.190  202.341   89.187
  389.860   15.648    0.402    0.189  202.283   89.160
  390.110   14.948    0.429    0.176  202.736   87.656
  390.360   14.282    0.415    0.172  203.176   87.916
  390.610   13.040    0.394    0.157  203.125   88.179
  390.860   12.125    0.408    0.144  203.571   89.325
  391.110   11.584    0.442    0.170  203.513   92.239
  391.360   11.474    0.483    0.173  203.449   93.377
  391.610   11.676    0.491    0.174  203.889   91.876
  391.860   11.676    0.455    0.173  202.854   91.254
  392.110   13.474    0.451    0.179  201.814   90.933
  392.360   14.609    0.441    0.202  203.741   86.787
  392.610   20.393    0.433    0.188  206.179   83.522
  392.860   25.544    0.447    0.178  207.621   79.372
  393.110   43.891    0.413    0.169  206.069   73.461
  393.360   63.522    0.407    0.159  202.035   62.548
  393.610   70.114    0.416    0.208  198.492   54.576
  393.860   78.091    0.418    0.283  197.451   48.371
  394.110   82.396    0.404    0.281  197.897   40.693
  394.360   84.614    0.385    0.284  199.837   38.012
  394.610   84.564    0.377    0.286  199.288   37.692
  394.860   81.533    0.378    0.285  204.713   38.245
  395.110   81.533    0.362    0.292  199.677   40.857
  395.360   67.354    0.369    0.288  200.123   39.357
  395.610   54.709    0.379    0.291  202.561   39.918
