~VERSION INFORMATION
 VERS.                 2.0:   CWLS LOG ASCII STANDARD -VERSION 2.0
 WRAP.                  NO:   ONE LINE PER DEPTH STEP
~WELL INFORMATION BLOCK
#MNEM.UNIT           DATA                    DESCRIPTION OF MNEMONIC
#---------    -------------------            -------------------------------
# Generated from Intellog Unique Number	CS_73_76/WELL/2206
WELL.         DOME ET AL KIRBY               : Well_name    - WELL
LOC .         00/11-31-074-06W4/0            : Location     - LOCATION
UWI .         00/11-31-074-06W4/0            : Uwi          - UNIQUE WELL ID
ENTR.         SP                             : Entered      - ENTERED BY
SRVC.         SCHLUMBERGER                   : Scn          - SERVICE COMPANY
STRT.M        240                            : top_depth    - START DEPTH
STOP.M        470                            : bot_depth    - STOP DEPTH
STEP.M        0.25                           : increment    - STEP LENGTH
 NULL. -999.2500:NULL Value
~CURVE INFORMATION BLOCK
#MNEM UNIT       ERCB CURVE CODE    CURVE DESCRIPTION
#-----------   ------------------   ----------------------------------
DEPT.M        00 001 00 00         : DEPTH        - DEPTH
ILD .OHMM     00 120 00 00         : RESD         - DEEP RESISTIVITY (DIL)
DPHI.V/V      00 890 00 00         : PHID         - DENSITY POROSITY (LIMESTONE)
NPHI.V/V      00 330 00 00         : PHIN         - NEUTRON POROSITY (LIMESTONE)
GR  .API      00 310 00 00         : GR           - GAMMA RAY
~PARAMETER INFORMATION
#MNEM.UNIT           DATA             DESCRIPTION OF MNEMONIC
#---------         -----------     ------------------------------
GL  .M        632.87               : gl           - GROUND LEVEL ELEVATION
EREF.M        637.33               : kb           - ELEVATION OF DEPTH REFERENCE
DATM.M        632.87               : datum        - DATUM ELEVATION
TDD .M        478                  : tdd          - TOTAL DEPTH DRILLER
RUN .         ONE                  : Run          - RUN NUMBER
ENG .         BILL                 : Engineer     - RECORDING ENGINEER
WIT .         JIM                  : Witness      - WITNESSED BY
MUD .         GEL                  : Mud_type     - MUD TYPE
MATR.         LIMESTONE            : Logunit      - NEUTRON MATRIX
TMAX.C        21                   : BHT          - MAXIMUM RECORDED TEMPERATURE
BHTD.M        478                  : BHTDEP       - MAXIMUM RECORDED TEMPERATURE
MATR.         1                    : LOGUNIT      - NEUTRON MATRIX
RMT .C        25                   : MDTP         - TEMPERATURE OF MUD
NEUT.         1                    : NEUTRON      - NEUTRON TYPE
RESI.         0                    : RESIST       - RESISTIVITY TYPE
RMC .OHMM     0.25                 : RMC          - RESISTIVITY OF MUD CAKE
RMF .OHMM     0.25                 : RMF          - RESISTIVITY OF MUD FILTRATE
SUFT.C        15                   : SUFT         - SURFACE TEMPERATURE
~A  DEPTH     RESD     PHID     PHIN       GR
# ...
  414.000    9.711    0.227    0.386  114.595
  414.250    9.896    0.211    0.375  113.348
  414.500   10.472    0.203    0.369  115.776
  414.750   11.953    0.226    0.380  120.651
  415.000   13.644    0.304    0.388  117.565
  415.250   16.482    0.319    0.390  110.814
  415.500   19.912    0.333    0.392  104.059
  415.750   25.945    0.343    0.401  110.152
  416.000   33.806    0.327    0.408   96.056
  416.250   38.586    0.343    0.391   80.116
  416.500   30.748    0.344    0.390   70.302
  416.750   26.428    0.326    0.396   70.281
  417.000   24.041    0.316    0.395   80.048
  417.250   25.927    0.307    0.389   94.111
  417.500   30.735    0.300    0.402   97.761
  417.750   38.560    0.312    0.395   95.904
  418.000   49.302    0.325    0.383   91.596
  418.250   66.717    0.338    0.376   70.146
  418.500   79.088    0.354    0.383   64.617
  418.750   85.294    0.341    0.386   70.705
  419.000   90.258    0.331    0.389   74.363
  419.250   91.972    0.321    0.379   77.406
  419.500   90.239    0.316    0.372   82.284
  419.750   83.655    0.320    0.359   83.486
  420.000   73.275    0.331    0.364   76.729
  420.250   65.409    0.340    0.371   82.829
  420.500   56.219    0.341    0.374   79.747
  420.750   80.515    0.339    0.382   79.104
  421.000  113.154    0.348    0.386   82.763
  421.250  136.697    0.355    0.392   85.188
  421.500  147.419    0.344    0.388   75.376
  421.750  150.219    0.339    0.377   63.111
  422.000  139.263    0.339    0.370   57.580
  422.250  102.888    0.336    0.375   66.727
  422.500   85.150    0.328    0.371   69.164
  422.750   71.813    0.330    0.381   64.854
  423.000   67.846    0.320    0.387   65.442
  423.250   62.896    0.319    0.380   70.933
  423.500   70.445    0.330    0.391   86.220
  423.750   77.424    0.346    0.406   91.095
  424.000   74.541    0.349    0.417   86.173
  424.250   60.534    0.343    0.422   88.593
  424.500   52.029    0.345    0.406   90.418
  424.750   46.442    0.338    0.397   91.004
  425.000   42.247    0.340    0.395   85.477
  425.250   32.416    0.326    0.402   89.740
  425.500   27.339    0.326    0.410   95.839
  425.750   22.201    0.326    0.392  103.161
  426.000   18.374    0.305    0.385  104.366
  426.250   13.575    0.282    0.375   98.221
  426.500   11.024    0.251    0.378  103.093
  426.750    9.656    0.232    0.368  109.803
  427.000    8.458    0.242    0.367  118.963
  427.250    7.990    0.248    0.374  126.294
  427.500    7.692    0.242    0.390  133.620
  427.750    7.692    0.248    0.406  140.329
  428.000    8.140    0.263    0.409  140.921
  428.250    8.946    0.275    0.393  139.062
  428.500    9.648    0.304    0.382  129.857
  428.750   10.807    0.294    0.387  118.812
  429.000   12.570    0.267    0.377  113.898
  429.250   15.185    0.252    0.361  112.034
  429.500   18.344    0.261    0.367  108.957
  429.750   21.339    0.264    0.366   88.117
  430.000   23.453    0.266    0.365   78.300
  430.250   25.293    0.272    0.373   71.551
  430.500   23.895    0.319    0.372   70.299
  430.750   18.335    0.335    0.380   74.556
  431.000   15.759    0.326    0.356   78.824
  431.250   13.803    0.324    0.360   87.379
  431.500   12.321    0.294    0.382  106.947
  431.750   10.792    0.271    0.377  116.719
  432.000   10.195    0.249    0.357  120.371
  432.250   10.003    0.224    0.343  131.975
  432.500   10.388    0.194    0.333  135.631
  432.750   12.314    0.226    0.344  121.525
  433.000   14.876    0.245    0.355  123.340
  433.250   18.314    0.270    0.366  102.511
  433.500   20.512    0.296    0.381   81.062
  433.750   21.301    0.313    0.379   76.142
  434.000   17.297    0.306    0.371   93.868
  434.250   15.735    0.286    0.368  117.115
  434.500   15.150    0.227    0.368  151.370
  434.750   14.585    0.198    0.375  159.309
  435.000   14.042    0.228    0.383  155.002
  435.250   14.041    0.207    0.386  151.918
  435.500   13.777    0.224    0.391  151.896
  435.750   13.516    0.244    0.402  143.305
  436.000   13.515    0.223    0.398  150.622
  436.250   13.514    0.206    0.403  176.916
  436.500   13.770    0.203    0.412  178.115
  436.750   14.032    0.232    0.405  179.324
  437.000   14.849    0.232    0.393  181.151
  437.250   15.420    0.232    0.389  184.801
  437.500   16.629    0.262    0.383  183.550
  437.750   17.599    0.282    0.387  182.920
  438.000   19.341    0.294    0.392  182.282
  438.250   20.469    0.305    0.398  181.649
  438.500   22.075    0.304    0.398  182.241
  438.750   24.261    0.297    0.387  182.835
  439.000   28.221    0.309    0.374  182.200
  439.250   32.212    0.316    0.367  183.403
  439.500   41.971    0.310    0.373  183.379
  439.750   53.663    0.319    0.373  182.136
  440.000   62.424    0.351    0.381  182.723
  440.250   72.612    0.366    0.388  183.924
  440.500   82.879    0.355    0.385  184.500
  440.750   89.382    0.351    0.377  184.479
  441.000   96.392    0.339    0.388  184.459
  441.250   98.227    0.322    0.381  184.437
  441.500  101.999    0.307    0.375  183.814
  441.750  105.921    0.299    0.380  185.015
  442.000  107.932    0.318    0.382  158.678
  442.250  109.981    0.317    0.387  154.371
  442.500  112.067    0.303    0.400  149.450
  442.750  114.188    0.370    0.406  118.209
  443.000  114.180    0.386    0.416  106.556
  443.250  112.025    0.375    0.407  108.982
  443.500  109.918    0.378    0.411  111.409
  443.750   99.984    0.389    0.423  119.955
  444.000   98.105    0.389    0.423  124.835
  444.250   92.685    0.380    0.416  126.639
  444.500   85.919    0.370    0.419  121.116
  444.750   81.169    0.360    0.402  105.179
  445.000   79.643    0.359    0.388   97.808
  445.250   79.633    0.356    0.396  105.135
  445.500   79.625    0.353    0.398  112.456
  445.750   79.615    0.361    0.401  113.654
  446.000   79.603    0.356    0.394  105.066
  446.250   79.592    0.352    0.394   96.479
  446.500   79.584    0.356    0.405   88.497
  446.750   79.576    0.353    0.403   84.185
  447.000   79.572    0.367    0.404   82.942
  447.250   79.562    0.377    0.412   90.873
  447.500   79.551    0.387    0.402   93.921
  447.750   73.749    0.377    0.412   93.286
  448.000   45.097    0.373    0.426   86.525
  448.250   32.695    0.370    0.435   82.217
  448.500   24.156    0.365    0.419   79.747
  448.750   21.974    0.354    0.398   84.016
  449.000   20.759    0.339    0.386   93.175
  449.250   20.757    0.317    0.396  101.712
  449.500   20.755    0.296    0.383  104.151
  449.750   20.752    0.312    0.398  111.477
  450.000   22.798    0.347    0.502   83.961
  450.250   22.816    0.327    0.387   88.265
  450.500   21.573    0.331    0.392   81.981
  450.750   18.909    0.363    0.402   74.459
  451.000   15.082    0.374    0.404   69.425
  451.250   12.260    0.329    0.389   85.526
  451.500   10.950    0.305    0.380  113.465
  451.750    9.421    0.270    0.375  117.145
  452.000    8.740    0.258    0.376  113.971
  452.250    8.109    0.243    0.367  110.176
  452.500    7.964    0.251    0.372  105.766
  452.750    7.675    0.248    0.377  107.563
  453.000    7.535    0.248    0.390  103.771
  453.250    7.124    0.298    0.390  116.763
  453.500    6.611    0.364    0.377  116.716
  453.750    6.250    0.330    0.375  102.963
  454.000    5.585    0.324    0.379   91.706
  454.250    5.280    0.288    0.400   91.022
  454.500    4.898    0.266    0.414   97.175
  454.750    4.460    0.271    0.414   89.656
  455.000    4.297    0.300    0.405   82.764
  455.250    4.140    0.380    0.386   74.613
  455.500    4.304    0.369    0.380   69.573
  455.750    4.389    0.355    0.382   67.035
  456.000    4.392    0.350    0.375   77.534
  456.250    4.396    0.346    0.380   84.941
  456.500    4.397    0.322    0.391   86.130
  456.750    4.484    0.350    0.387   78.590
  457.000    4.574    0.368    0.373   73.568
  457.250    4.664    0.354    0.387   69.161
