~VERSION INFORMATION
 VERS.                 2.0:   CWLS LOG ASCII STANDARD -VERSION 2.0
 WRAP.                  NO:   ONE LINE PER DEPTH STEP
~WELL INFORMATION BLOCK
#MNEM.UNIT           DATA                    DESCRIPTION OF MNEMONIC
#---------    -------------------            -------------------------------
# Generated from Intellog Unique Number	CX_WELLS/WELL/2878
WELL.         PACIFIC STONY RAPIDS           : Well_name    - WELL
LOC .         00/11-12-081-18W4/0            : Location     - LOCATION
UWI .         00/11-12-081-18W4/0            : Uwi          - UNIQUE WELL ID
ENTR.         T                              : Entered      - ENTERED BY
SRVC.         SCHLUMBERGER                   : Scn          - SERVICE COMPANY
STRT.F        400                            : top_depth    - START DEPTH
STOP.F        1049.61                        : bot_depth    - STOP DEPTH
STEP.F        0.82                           : increment    - STEP LENGTH
 NULL. -999.2500:NULL Value
~CURVE INFORMATION BLOCK
#MNEM UNIT       ERCB CURVE CODE    CURVE DESCRIPTION
#-----------   ------------------   ----------------------------------
DEPT.F        00 001 00 00         : DEPTH        - DEPTH
GR  .API      00 310 00 00         : GR           - GAMMA RAY
NPHI.V/V      00 330 00 00         : PHIN         - NEUTRON POROSITY (SANDSTONE)
ILD .OHMM     00 120 00 00         : RESD         - DEEP RESISTIVITY (OTHER)
~PARAMETER INFORMATION
#MNEM.UNIT           DATA             DESCRIPTION OF MNEMONIC
#---------         -----------     ------------------------------
GL  .F        1794                 : gl           - GROUND LEVEL ELEVATION
EREF.F        1804                 : kb           - ELEVATION OF DEPTH REFERENCE
DATM.F        1804                 : datum        - DATUM ELEVATION
TDD .F        1059                 : tdd          - TOTAL DEPTH DRILLER
RUN .         ONE                  : Run          - RUN NUMBER
ENG .         BILL                 : Engineer     - RECORDING ENGINEER
WIT .         JIM                  : Witness      - WITNESSED BY
MUD .         GEL                  : Mud_type     - MUD TYPE
MATR.         SANDSTONE            : Logunit      - NEUTRON MATRIX
TMAX.F        62                   : BHT          - MAXIMUM RECORDED TEMPERATURE
BHTD.F        1059                 : BHTDEP       - MAXIMUM RECORDED TEMPERATURE
MATR.         1                    : LOGUNIT      - NEUTRON MATRIX
RMT .F        64.4                 : MDTP         - TEMPERATURE OF MUD
NEUT.         1                    : NEUTRON      - NEUTRON TYPE
RESI.         8.4                  : RESIST       - RESISTIVITY TYPE
RMC .OHMM     8.4                  : RMC          - RESISTIVITY OF MUD CAKE
RMF .OHMM     5.75                 : RMF          - RESISTIVITY OF MUD FILTRATE
SUFT.F        39.2                 : SUFT         - SURFACE TEMPERATURE
~A  DEPTH       GR     PHIN     RESD
  400.000  108.073    0.326    1.809
  400.820  106.197    0.323    1.977
  401.640  105.580    0.322    2.060
  402.461  106.848    0.321    2.062
  403.281  108.122    0.321    2.064
  404.101  106.246    0.321    2.066
  404.921  106.885    0.319    2.068
  405.741  103.127    0.318    1.988
  406.562   98.112    0.318    1.990
  407.382   93.097    0.317    1.991
  408.202   86.829    0.314    1.912
  409.022   83.070    0.313    1.832
  409.843   78.681    0.311    1.832
  410.663   75.551    0.310    2.001
  411.483   73.049    0.309    2.002
  412.303   69.294    0.309    2.004
  413.123   66.792    0.309    1.924
  413.944   66.803    0.308    1.926
  414.764   68.069    0.307    1.928
  415.584   69.971    0.305    1.847
  416.404   71.233    0.305    1.767
  417.224   72.507    0.305    1.769
  418.045   70.633    0.305    1.689
  418.865   67.501    0.307    1.691
  419.685   62.489    0.308    1.612
  420.505   65.010    0.311    1.613
  421.325   67.535    0.314    1.615
  422.146   68.803    0.317    1.617
  422.966   68.186    0.322    1.619
  423.786   66.313    0.329    1.621
  424.606   66.953    0.335    1.623
  425.427   70.734    0.340    1.543
  426.247   72.630    0.346    1.462
  427.067   73.898    0.349    1.464
  427.887   74.541    0.351    1.385
  428.707   73.924    0.352    1.304
  429.528   70.169    0.350    1.306
  430.348   67.667    0.348    1.308
  431.168   68.932    0.347    1.228
  431.988   70.832    0.344    1.230
  432.808   71.471    0.342    1.232
  433.629   72.111    0.341    1.233
  434.449   71.497    0.339    1.235
  435.269   71.503    0.336    1.238
  436.089   72.146    0.329    1.240
  436.909   70.272    0.318    1.242
  437.730   67.142    0.275    1.244
  438.550   64.641    0.241    1.246
  439.370   65.909    0.215    1.247
  440.190   69.693    0.191    1.250
  441.010   72.846    0.229    1.252
  441.831   75.999    0.298    1.336
  442.651   77.895    0.298    1.337
  443.471   76.022    0.298    1.339
  444.291   73.520    0.302    1.342
  445.112   70.387    0.309    1.344
  445.932   69.142    0.313    1.345
  446.752   69.782    0.313    1.348
  447.572   69.796    0.313    1.350
  448.392   69.176    0.314    1.353
  449.213   67.312    0.315    1.354
  450.033   66.064    0.315    1.356
  450.853   65.441    0.314    1.358
  451.673   64.824    0.313    1.442
  452.493   64.844    0.310    1.444
  453.314   65.481    0.309    1.446
  454.134   66.118    0.309    1.530
  454.954   66.764    0.309    1.532
  455.774   66.769    0.311    1.616
  456.594   67.409    0.313    1.619
  457.415   68.049    0.313    1.703
  458.235   68.692    0.313    1.787
  459.055   66.815    0.314    1.953
  459.875   61.803    0.316    2.038
  460.696   54.901    0.320    2.369
  461.516   46.750    0.325    2.781
  462.336   46.756    0.333    3.688
  463.156   49.283    0.346    4.265
  463.976   51.182    0.353    4.185
  464.797   53.079    0.364    3.858
  465.617   53.719    0.355    4.272
  466.437   54.990    0.344    4.520
  467.257   55.624    0.342    4.687
  468.077   55.635    0.337    4.690
  468.898   53.762    0.333    4.691
  469.718   50.003    0.328    4.610
  470.538   44.989    0.325    4.448
  471.358   37.460    0.331    4.367
  472.178   32.448    0.326    4.369
  472.999   30.572    0.315    4.371
  473.819   28.070    0.299    4.457
  474.639   27.459    0.283    4.540
  475.459   27.465    0.273    4.790
  476.280   29.364    0.313    4.956
  477.100   30.630    0.346    5.287
  477.920   33.157    0.362    5.370
  478.740   35.685    0.361    5.537
  479.560   37.581    0.348    5.375
  480.381   40.108    0.323    5.130
  481.201   40.743    0.312    4.885
  482.021   45.155    0.314    4.476
  482.841   49.562    0.322    4.231
  483.661   54.602    0.336    4.152
  484.482   53.983    0.338    3.989
  485.302   48.968    0.340    3.909
  486.122   45.838    0.339    3.828
  486.942   48.994    0.336    3.748
  487.762   52.147    0.333    3.586
  488.583   55.931    0.330    3.506
  489.403   58.456    0.329    3.425
  490.223   57.842    0.326    3.427
  491.043   56.594    0.324    3.429
  491.864   55.977    0.321    3.348
  492.684   57.245    0.323    3.269
  493.504   57.882    0.327    3.188
  494.324   59.150    0.331    3.108
  495.144   59.164    0.335    3.027
  495.965   58.550    0.332    2.948
  496.785   57.933    0.329    2.868
  497.605   57.311    0.327    2.787
  498.425   57.328    0.329    2.707
  499.245   57.971    0.328    2.709
  500.066   57.979    0.328    2.628
  500.886   57.988    0.326    2.549
  501.706   57.999    0.322    2.468
  502.526   59.896    0.320    2.389
  503.346   62.420    0.317    2.390
  504.167   64.317    0.315    2.392
  504.987   66.216    0.315    2.393
  505.807   66.228    0.316    2.561
  506.627   66.867    0.318    2.645
  507.448   66.879    0.318    2.811
  508.268   66.262    0.317    2.977
  509.088   63.135    0.316    3.555
  509.908   60.002    0.312    3.968
  510.728   54.359    0.302    4.546
  511.549   54.373    0.285    4.795
  512.369   56.267    0.276    4.879
  513.189   60.682    0.291    4.881
  514.009   61.944    0.318    4.719
  514.829   65.731    0.319    4.556
  515.650   66.365    0.317    4.311
  516.470   67.008    0.314    4.067
  517.290   66.388    0.311    4.233
  518.110   65.772    0.314    4.481
  518.930   65.783    0.318    5.059
  519.751   62.653    0.323    5.472
  520.571   59.526    0.330    5.721
  521.391   65.192    0.334    5.887
  522.211   65.832    0.336    6.219
  523.031   65.218    0.340    6.303
  523.852   63.973    0.345    6.387
  524.672   63.356    0.349    6.472
  525.492   63.365    0.353    6.473
  526.312   64.004    0.358    6.393
  527.133   65.272    0.356    6.231
  527.953   66.540    0.345    6.150
  528.773   65.295    0.328    5.988
  529.593   60.283    0.311    5.825
  530.413   58.407    0.303    5.581
  531.234   60.303    0.302    5.335
  532.054   63.459    0.298    5.008
  532.874   66.618    0.295    4.928
  533.694   67.255    0.293    4.766
  534.514   67.895    0.288    4.686
  535.335   69.163    0.283    4.606
  536.155   70.431    0.280    4.525
  536.975   71.696    0.278    4.363
  537.795   74.224    0.276    4.036
  538.615   75.489    0.269    3.873
  539.436   78.645    0.263    3.629
  540.256   81.166    0.256    3.384
  541.076   84.951    0.247    3.222
  541.896   88.735    0.238    3.059
  542.717   90.631    0.242    2.815
  543.537   91.899    0.263    2.816
  544.357   93.167    0.259    2.736
  545.177   93.179    0.249    2.738
  545.997   93.190    0.233    2.741
  546.818   90.689    0.231    2.825
  547.638   88.184    0.227    2.909
  548.458   85.682    0.222    2.993
  549.278   88.210    0.223    3.242
  550.098   84.449    0.227    3.490
  550.919   79.434    0.226    3.821
  551.739   77.563    0.223    3.988
  552.559   79.463    0.290    4.072
  553.379   80.733    0.290    4.075
  554.199   82.627    0.290    4.076
  555.020   82.641    0.290    3.996
  555.840   82.019    0.293    3.998
  556.660   80.151    0.300    3.918
  557.480   78.900    0.311    3.919
  558.301   76.401    0.320    4.004
  559.121   73.897    0.334    4.335
  559.941   71.395    0.349    4.501
  560.761   69.522    0.349    4.667
  561.581   69.536    0.349    4.916
  562.402   68.291    0.349    5.083
  563.222   66.415    0.352    5.085
  564.042   62.659    0.349    5.087
  564.862   60.157    0.341    5.006
  565.682   57.025    0.335    5.008
  566.503   52.641    0.344    5.011
  567.323   48.883    0.369    5.095
  568.143   43.870    0.388    5.426
  568.963   40.740    0.387    5.592
  569.783   38.870    0.379    5.923
  570.604   38.247    0.375    6.172
  571.424   38.262    0.369    6.339
  572.244   40.161    0.365    6.340
  573.064   40.798    0.365    6.342
  573.885   42.063    0.368    6.427
  574.705   43.334    0.372    6.428
  575.525   43.343    0.376    6.431
  576.345   42.732    0.379    6.433
  577.165   42.740    0.383    6.435
