~VERSION INFORMATION
 VERS.                 2.0:   CWLS LOG ASCII STANDARD -VERSION 2.0
 WRAP.                  NO:   ONE LINE PER DEPTH STEP
~WELL INFORMATION BLOCK
#MNEM.UNIT           DATA                    DESCRIPTION OF MNEMONIC
#---------    -------------------            -------------------------------
# Generated from Intellog Unique Number	CC_80_83/WELL/2399
NULL.         -999.25                        : NULL_VALUE
WELL.         PEX HOUSE                      : Well_name    - WELL
LOC .         11-17-080-15W4                 : Location     - LOCATION          
UWI .         00/11-17-080-15W4/0            : Uwi          - UNIQUE WELL ID    
ENTR.         DW                             : Entered      - ENTERED BY        
SRVC.         SCHLUMBERGER                   : Scn          - SERVICE COMPANY   
DATE.         27 JAN 82                      : Date         - LOG DATE
STRT.M        150                            : top_depth    - START DEPTH       
STOP.M        384.896                        : bot_depth    - STOP DEPTH        
STEP.M        0.3                            : increment    - STEP LENGTH       
~CURVE INFORMATION BLOCK
#MNEM UNIT       ERCB CURVE CODE    CURVE DESCRIPTION
#-----------   ------------------   ----------------------------------
DEPT.M        00 001 00 00         : DEPTH        - DEPTH                       
ILD .OHMM     00 120 00 00         : RESD         - DEEP RESISTIVITY (DIL)      
GR  .API      00 310 00 00         : GR           - GAMMA RAY                   
NPHI.V/V      00 330 00 00         : PHIN         - NEUTRON POROSITY (LIMESTONE)
DPHI.V/V      00 890 00 00         : PHID         - DENSITY POROSITY (LIMESTONE)
~PARAMETER INFORMATION       
#MNEM.UNIT           DATA             DESCRIPTION OF MNEMONIC
#---------         -----------     ------------------------------
GL  .M        595.9                : gl           - GROUND LEVEL ELEVATION      
EREF.M        599.6                : kb           - ELEVATION OF DEPTH REFERENCE
DATM.M        599.6                : datum        - DATUM ELEVATION             
TDD .M        385                  : tdd          - TOTAL DEPTH DRILLER         
RUN .         ONE                  : Run          - RUN NUMBER                  
ENG .         BILL                 : Engineer     - RECORDING ENGINEER          
WIT .         JIM                  : Witness      - WITNESSED BY                
MUD .         GEL                  : Mud_type     - MUD TYPE                    
MATR.         LIMESTONE            : Logunit      - NEUTRON MATRIX              
TMAX.C        18.8                 : BHT          - MAXIMUM RECORDED TEMPERATURE
BHTD.M        388                  : BHTDEP       - MAXIMUM RECORDED TEMPERATURE
MATR.         1                    : LOGUNIT      - NEUTRON MATRIX              
RMT .C        25                   : MDTP         - TEMPERATURE OF MUD          
NEUT.         1                    : NEUTRON      - NEUTRON TYPE                
RESI.         0                    : RESIST       - RESISTIVITY TYPE            
RMC .OHMM     0.25                 : RMC          - RESISTIVITY OF MUD CAKE     
RMF .OHMM     0.25                 : RMF          - RESISTIVITY OF MUD FILTRATE 
SUFT.C        15                   : SUFT         - SURFACE TEMPERATURE         
~A  DEPTH     RESD       GR     PHIN     PHID
# ...
  358.797   35.884   66.118    0.382    0.197
  359.097   34.501   66.751    0.381    0.218
  359.397   32.557   70.481    0.386    0.203
  359.697   29.567   74.218    0.405    0.195
  359.997   27.373   71.138    0.410    0.214
  360.297   25.346   68.682    0.380    0.228
  360.597   23.913   71.176    0.372    0.210
  360.897   23.007   68.098    0.421    0.150
  361.197   21.289   74.923    0.397    0.158
  361.497   20.479   78.034    0.400    0.199
  361.797   19.698   79.289    0.403    0.195
  362.097   19.300   83.022    0.390    0.165
  362.397   19.286   80.562    0.386    0.154
  362.697   19.628   75.010    0.388    0.173
  362.997   19.987   75.647    0.388    0.202
  363.297   20.356   77.520    0.386    0.189
  363.597   21.116   81.260    0.389    0.185
  363.897   21.507   82.513    0.401    0.201
  364.197   23.181   80.667    0.409    0.224
  364.497   24.980   65.835    0.408    0.232
  364.797   24.947   67.717    0.392    0.220
  365.097   24.930   68.348    0.374    0.187
  365.397   23.972   68.979    0.366    0.155
  365.697   22.187   69.621    0.364    0.122
  365.997   20.943   72.112    0.372    0.137
  366.297   19.390   77.084    0.369    0.164
  366.597   17.286   80.812    0.384    0.135
  366.897   16.309   87.635    0.398    0.126
  367.197   16.912   86.415    0.358    0.156
  367.497   17.223   83.337    0.331    0.116
  367.797   17.875   84.595    0.351    0.069
  368.097   19.264   83.995    0.370    0.153
  368.397   20.380   73.490    0.379    0.175
  368.697   22.819   65.463    0.373    0.167
  368.996   26.033   61.770    0.387    0.167
  369.296   29.138   58.071    0.377    0.214
  369.596   30.242   53.139    0.332    0.232
  369.896   31.390   54.394    0.337    0.253
  370.196   31.337   59.985    0.377    0.203
  370.496   30.148   64.336    0.359    0.188
  370.796   27.384   66.210    0.369    0.183
  371.096   24.407   63.751    0.374    0.171
  371.396   23.038   65.006    0.338    0.163
  371.696   21.732   68.116    0.338    0.149
  371.996   21.308   71.228    0.338    0.121
  372.296   18.632   81.148    0.345    0.109
  372.596   17.582   84.258    0.403    0.152
  372.896   17.900   53.951    0.349    0.189
  373.196   19.661   50.257    0.333    0.200
  373.496   20.790   62.032    0.380    0.136
  373.796   20.374   75.047    0.426    0.128
  374.096   20.752   76.921    0.449    0.149
  374.396   23.674   62.086    0.431    0.192
  374.696   26.505   57.772    0.424    0.218
  374.996   29.117   60.887    0.414    0.215
  375.296   30.790   57.806    0.397    0.208
  375.596   31.363   43.592    0.411    0.204
  375.896   30.737   39.896    0.381    0.285
  376.196   28.999   49.815    0.379    0.265
  376.496   26.347   69.635    0.405    0.240
  376.796   23.932   72.747    0.374    0.233
  377.096   21.737   66.576    0.359    0.238
  377.396   19.374   56.074    0.359    0.265
  377.696   17.270   48.672    0.361    0.292
  377.996   15.394   44.357    0.358    0.291
  378.296   13.719   41.892    0.380    0.276
  378.596   12.460   48.103    0.372    0.281
  378.896   11.758   48.741    0.355    0.301
  379.196   11.750   47.525    0.337    0.277
  379.496   11.514   46.296    0.348    0.244
  379.796   10.862   43.845    0.365    0.259
  380.096   10.248   44.478    0.362    0.290
  380.396    9.859   43.259    0.353    0.292
  380.696    9.305   38.945    0.345    0.292
  380.996    8.447   35.865    0.343    0.295
  381.296    8.282   35.883    0.348    0.280
  381.596    8.430   38.994    0.357    0.270
  381.896    8.424   42.105    0.359    0.278
  382.196    8.411   45.839    0.357    0.276
  382.496    8.567   48.332    0.349    0.268
  382.796    8.725   50.208    0.341    0.288
  383.096    9.051   50.229    0.326    0.282
  383.396    9.572   50.245    0.326    0.186
  383.696   10.124   50.262    0.388    0.161
  383.996   10.707   50.279    0.414    0.149
  384.296   10.902   49.678    0.422    0.130
  384.596   11.097   49.693    0.424    0.125
  384.896   11.300   49.709    0.440    0.136
