~VERSION INFORMATION
 VERS.                 2.0:   CWLS LOG ASCII STANDARD -VERSION 2.0
 WRAP.                  NO:   ONE LINE PER DEPTH STEP
~WELL INFORMATION BLOCK
#MNEM.UNIT           DATA                    DESCRIPTION OF MNEMONIC
#---------    -------------------            -------------------------------
# Generated from Intellog Unique Number	CS_73_76/WELL/806
WELL.         PACIFIC PHILLIPS AEC WIAU      : Well_name    - WELL
LOC .         00/10-03-073-07W4/0            : Location     - LOCATION
UWI .         00/10-03-073-07W4/0            : Uwi          - UNIQUE WELL ID
ENTR.         SP                             : Entered      - ENTERED BY
SRVC.         SCHLUMBERGER                   : Scn          - SERVICE COMPANY
STRT.M        340                            : top_depth    - START DEPTH
STOP.M        560                            : bot_depth    - STOP DEPTH
STEP.M        0.25                           : increment    - STEP LENGTH
 NULL. -999.2500:NULL Value
~CURVE INFORMATION BLOCK
#MNEM UNIT       ERCB CURVE CODE    CURVE DESCRIPTION
#-----------   ------------------   ----------------------------------
DEPT.M        00 001 00 00         : DEPTH        - DEPTH
ILD .OHMM     00 120 00 00         : RESD         - DEEP RESISTIVITY (DIL)
DPHI.V/V      00 890 00 00         : PHID         - DENSITY POROSITY (LIMESTONE)
NPHI.V/V      00 330 00 00         : PHIN         - NEUTRON POROSITY (LIMESTONE)
GR  .API      00 310 00 00         : GR           - GAMMA RAY
~PARAMETER INFORMATION
#MNEM.UNIT           DATA             DESCRIPTION OF MNEMONIC
#---------         -----------     ------------------------------
GL  .M        720.71               : gl           - GROUND LEVEL ELEVATION
EREF.M        723.71               : kb           - ELEVATION OF DEPTH REFERENCE
DATM.M        720.71               : datum        - DATUM ELEVATION
TDD .M        573                  : tdd          - TOTAL DEPTH DRILLER
RUN .         ONE                  : Run          - RUN NUMBER
ENG .         BILL                 : Engineer     - RECORDING ENGINEER
WIT .         JIM                  : Witness      - WITNESSED BY
MUD .         GEL                  : Mud_type     - MUD TYPE
MATR.         LIMESTONE            : Logunit      - NEUTRON MATRIX
TMAX.C        16                   : BHT          - MAXIMUM RECORDED TEMPERATURE
BHTD.M        573                  : BHTDEP       - MAXIMUM RECORDED TEMPERATURE
MATR.         1                    : LOGUNIT      - NEUTRON MATRIX
RMT .C        25                   : MDTP         - TEMPERATURE OF MUD
NEUT.         1                    : NEUTRON      - NEUTRON TYPE
RESI.         0                    : RESIST       - RESISTIVITY TYPE
RMC .OHMM     0.25                 : RMC          - RESISTIVITY OF MUD CAKE
RMF .OHMM     0.25                 : RMF          - RESISTIVITY OF MUD FILTRATE
SUFT.C        15                   : SUFT         - SURFACE TEMPERATURE
~A  DEPTH     RESD     PHID     PHIN       GR
  340.000    3.576    0.270    0.587   84.416
  340.250    3.642    0.281    0.581   88.070
  340.500    3.708    0.280    0.559   89.288
  340.750    3.776    0.272    0.564   87.475
  341.000    3.916    0.276    0.573   85.051
  341.250    4.062    0.276    0.526   85.667
  341.500    4.292    0.252    0.521   84.459
  341.750    4.371    0.232    0.541   83.249
  342.000    4.618    0.197    0.570   83.864
  342.250    4.790    0.145    0.597   84.480
  342.500    4.531    0.099    0.573   86.916
  342.750    4.530    0.211    0.559   89.351
  343.000    4.445    0.238    0.570   91.179
  343.250    4.526    0.228    0.561   88.759
  343.500    4.609    0.224    0.545   88.158
  343.750    4.694    0.232    0.532   88.164
  344.000    4.869    0.234    0.513   88.170
  344.250    5.050    0.219    0.516   89.392
  344.500    5.142    0.209    0.537   88.792
  344.750    5.334    0.180    0.550   90.013
  345.000    5.533    0.162    0.529   90.021
  345.250    5.635    0.145    0.521   88.204
  345.500    5.844    0.200    0.512   86.390
  345.750    5.843    0.227    0.506   85.182
  346.000    5.734    0.222    0.514   83.974
  346.250    5.423    0.211    0.524   83.982
  346.500    5.129    0.213    0.545   84.596
  346.750    4.851    0.209    0.533   85.819
  347.000    4.673    0.212    0.534   87.038
  347.250    4.672    0.221    0.543   89.475
  347.500    4.758    0.211    0.545   90.088
  347.750    5.026    0.205    0.544   87.060
  348.000    5.119    0.198    0.524   86.458
  348.250    5.212    0.205    0.497   88.288
  348.500    5.210    0.219    0.492   87.688
  348.750    5.209    0.220    0.514   85.268
  349.000    5.111    0.227    0.537   84.664
  349.250    5.016    0.213    0.560   87.101
  349.500    4.923    0.205    0.563   87.106
  349.750    5.013    0.188    0.509   84.685
  350.000    5.199    0.208    0.498   82.872
  350.250    5.494    0.208    0.503   81.662
  350.500    5.806    0.205    0.525   80.454
  350.750    6.249    0.210    0.537   84.105
  351.000    7.796    0.218    0.525   81.682
  351.250    9.548    0.194    0.471   76.224
  351.500   11.696    0.150    0.418   76.232
  351.750   14.327    0.145    0.433   80.489
  352.000   16.602    0.189    0.444   77.459
  352.250   18.887    0.194    0.424   76.253
  352.500   20.328    0.225    0.419   79.296
  352.750   21.879    0.271    0.424   84.163
  353.000   22.693    0.258    0.447   86.596
  353.250   22.686    0.225    0.463   90.250
  353.500   21.855    0.208    0.448   91.468
  353.750   20.670    0.197    0.430   93.297
  354.000   19.192    0.202    0.435   91.482
  354.250   18.492    0.255    0.435   85.418
  354.500   18.147    0.256    0.409   78.745
  354.750   18.823    0.246    0.339   75.713
  355.000   19.889    0.288    0.322   66.611
  355.250   21.407    0.300    0.334   59.938
  355.500   22.205    0.308    0.363   54.478
  355.750   23.461    0.268    0.398   56.914
  356.000   24.790    0.247    0.417   55.707
  356.250   25.242    0.262    0.411   49.643
  356.500   25.706    0.261    0.407   49.039
  356.750   25.695    0.270    0.404   48.439
  357.000   25.217    0.276    0.398   46.017
  357.250   23.412    0.279    0.389   48.453
  357.500   20.950    0.273    0.404   53.318
  357.750   19.452    0.232    0.425   60.616
  358.000   18.399    0.215    0.443   63.657
  358.250   16.460    0.218    0.453   69.131
  358.500   15.860    0.219    0.445   73.389
  358.750   15.281    0.232    0.435   75.823
  359.000   14.452    0.219    0.423   81.297
  359.250   13.923    0.207    0.420   84.948
  359.500   13.663    0.215    0.434   87.385
  359.750   13.658    0.219    0.440   88.604
  360.000   14.169    0.231    0.436   84.968
  360.250   15.249    0.238    0.424   80.723
  360.500   16.114    0.250    0.429   74.658
  360.750   17.341    0.259    0.436   72.235
  361.000   17.989    0.266    0.441   74.063
  361.250   18.317    0.267    0.435   74.678
  361.500   18.312    0.266    0.431   74.686
  361.750   17.318    0.260    0.429   74.083
  362.000   16.686    0.255    0.425   74.699
  362.250   14.657    0.290    0.436   77.135
  362.500   13.360    0.285    0.454   81.395
  362.750   12.636    0.250    0.407   83.222
  363.000   12.632    0.181    0.376   84.442
  363.250   14.910    0.214    0.382   75.948
  363.500   16.653    0.249    0.347   69.273
  363.750   20.778    0.284    0.315   60.170
  364.000   25.922    0.291    0.292   54.105
  364.250   30.041    0.316    0.269   50.469
  364.500   36.123    0.333    0.239   48.653
  364.750   38.876    0.342    0.210   46.838
  365.000   33.522    0.346    0.215   45.022
  365.250   31.709    0.257    0.255   52.319
  365.500   25.397    0.212    0.291   60.828
  365.750   20.343    0.182    0.348   69.338
  366.000   15.133    0.156    0.379   73.594
  366.250   11.468    0.157    0.416   83.318
  366.500    9.017    0.141    0.465   94.865
  366.750    7.222    0.124    0.478   95.477
  367.000    6.463    0.137    0.498  100.343
  367.250    5.677    0.157    0.508  105.818
  367.500    5.079    0.175    0.524  108.254
  367.750    4.716    0.180    0.538  110.689
  368.000    4.379    0.189    0.548  110.694
  368.250    4.219    0.195    0.562  108.274
  368.500    4.065    0.195    0.571  107.672
  368.750    3.844    0.200    0.579  105.250
  369.000    3.843    0.215    0.585   98.579
  369.250    4.136    0.212    0.579   94.939
  369.500    4.705    0.227    0.590   90.088
  369.750    5.980    0.238    0.467   85.235
  370.000    8.491    0.263    0.394   74.919
  370.250   12.281    0.298    0.368   62.779
  370.500   16.805    0.320    0.368   48.210
  370.750   19.474    0.332    0.387   42.144
  371.000   20.576    0.322    0.402   40.937
  371.250   20.191    0.322    0.411   38.516
  371.500   20.186    0.323    0.422   37.307
  371.750   20.177    0.314    0.431   36.101
  372.000   20.548    0.304    0.421   36.108
  372.250   20.542    0.297    0.408   36.114
  372.500   20.536    0.291    0.404   36.727
  372.750   20.526    0.306    0.409   37.949
  373.000   20.144    0.313    0.417   39.779
  373.250   20.139    0.309    0.418   40.999
  373.500   18.356    0.316    0.406   44.652
  373.750   16.425    0.287    0.393   47.085
  374.000   14.428    0.275    0.387   51.951
  374.250   13.397    0.255    0.409   56.816
  374.500   11.768    0.253    0.453   62.898
  374.750   10.148    0.258    0.467   65.333
  375.000    9.599    0.243    0.457   66.554
  375.250    9.078    0.235    0.453   70.813
  375.500    9.074    0.249    0.459   72.641
  375.750    9.072    0.251    0.465   70.827
  376.000    9.585    0.255    0.470   69.012
  376.250    9.943    0.238    0.464   67.803
  376.500   10.314    0.235    0.450   71.453
  376.750   10.698    0.243    0.452   67.818
  377.000   11.095    0.257    0.458   65.395
  377.250   11.299    0.252    0.447   62.367
  377.500   11.506    0.266    0.442   61.765
  377.750   11.717    0.247    0.434   64.204
  378.000   11.714    0.231    0.436   64.814
  378.250   11.709    0.235    0.439   66.036
  378.500   11.706    0.241    0.433   66.044
  378.750   11.701    0.233    0.425   67.872
  379.000   11.916    0.213    0.423   71.525
  379.250   12.588    0.215    0.427   73.353
  379.500   13.057    0.226    0.418   73.965
  379.750   13.297    0.235    0.401   70.936
  380.000   13.543    0.220    0.380   67.907
  380.250   13.789    0.209    0.372   67.306
  380.500   13.286    0.202    0.382   69.136
  380.750   12.335    0.212    0.392   70.356
  381.000   11.883    0.231    0.400   67.934
  381.250   11.880    0.243    0.417   63.692
  381.500   12.320    0.248    0.422   60.662
  381.750   12.546    0.261    0.413   56.417
  382.000   13.015    0.284    0.410   55.816
  382.250   13.751    0.276    0.412   57.036
  382.500   14.266    0.261    0.405   57.655
  382.750   15.072    0.256    0.411   57.052
  383.000   15.636    0.253    0.414   55.236
  383.250   16.520    0.253    0.417   52.208
