~VERSION INFORMATION
 VERS.                 2.0:   CWLS LOG ASCII STANDARD -VERSION 2.0
 WRAP.                  NO:   ONE LINE PER DEPTH STEP
~WELL INFORMATION BLOCK
#MNEM.UNIT           DATA                    DESCRIPTION OF MNEMONIC
#---------    -------------------            -------------------------------
# Generated from Intellog Unique Number	CS_67_68/WELL/2207
WELL.         BVX ATMORE                     : Well_name    - WELL
LOC .         00/11-12-067-16W4/0            : Location     - LOCATION
UWI .         00/11-12-067-16W4/0            : Uwi          - UNIQUE WELL ID
ENTR.         SP                             : Entered      - ENTERED BY
SRVC.         SCHLUMBERGER                   : Scn          - SERVICE COMPANY
STRT.M        374.904                        : top_depth    - START DEPTH
STOP.M        563.654                        : bot_depth    - STOP DEPTH
STEP.M        0.25                           : increment    - STEP LENGTH
 NULL. -999.2500:NULL Value
~CURVE INFORMATION BLOCK
#MNEM UNIT       ERCB CURVE CODE    CURVE DESCRIPTION
#-----------   ------------------   ----------------------------------
DEPT.M        00 001 00 00         : DEPTH        - DEPTH
CALI.MM       00 280 01 00         : CAL          - CALIPER
GR  .API      00 310 00 00         : GR           - GAMMA RAY
DPHI.V/V      00 890 00 00         : PHID         - DENSITY POROSITY (SANDSTONE)
NPHI.V/V      00 330 00 00         : PHIN         - NEUTRON POROSITY (SANDSTONE)
ILD .OHMM     00 120 00 00         : RESD         - DEEP RESISTIVITY (DIL)
~PARAMETER INFORMATION
#MNEM.UNIT           DATA             DESCRIPTION OF MNEMONIC
#---------         -----------     ------------------------------
GL  .M        612.953              : gl           - GROUND LEVEL ELEVATION
EREF.M        616.001              : kb           - ELEVATION OF DEPTH REFERENCE
DATM.M        616.001              : datum        - DATUM ELEVATION
TDD .M        567.233              : tdd          - TOTAL DEPTH DRILLER
RUN .         ONE                  : Run          - RUN NUMBER
ENG .         BILL                 : Engineer     - RECORDING ENGINEER
WIT .         JIM                  : Witness      - WITNESSED BY
MUD .         GEL                  : Mud_type     - MUD TYPE
MATR.         SANDSTONE            : Logunit      - NEUTRON MATRIX
TMAX.C        20                   : BHT          - MAXIMUM RECORDED TEMPERATURE
BHTD.M        567.538              : BHTDEP       - MAXIMUM RECORDED TEMPERATURE
MATR.         1                    : LOGUNIT      - NEUTRON MATRIX
RMT .C        25                   : MDTP         - TEMPERATURE OF MUD
NEUT.         1                    : NEUTRON      - NEUTRON TYPE
RESI.         0                    : RESIST       - RESISTIVITY TYPE
RMC .OHMM     0.25                 : RMC          - RESISTIVITY OF MUD CAKE
RMF .OHMM     0.25                 : RMF          - RESISTIVITY OF MUD FILTRATE
SUFT.C        15                   : SUFT         - SURFACE TEMPERATURE
~A  DEPTH      CAL       GR     PHID     PHIN     RESD
# ...
  411.404  169.355  130.587    0.225    0.446    1.685
  411.654  168.136  116.968    0.228    0.458    1.740
  411.904  164.763  107.341    0.221    0.465    1.851
  412.154  161.921  100.648    0.208    0.461    1.991
  412.404  160.834   99.023    0.228    0.471    2.239
  412.654  160.861   99.955    0.244    0.480    2.576
  412.904  160.784   98.508    0.250    0.467    2.663
  413.154  161.032   97.016    0.260    0.443    2.716
  413.404  161.402   98.489    0.275    0.436    2.758
  413.654  163.143   98.619    0.264    0.444    2.852
  413.904  163.324   96.029    0.255    0.453    2.966
  414.154  161.485   91.546    0.275    0.471    2.991
  414.404  158.814   88.605    0.286    0.458    3.033
  414.654  157.688   86.519    0.290    0.421    3.174
  414.904  157.259   85.815    0.273    0.420    3.333
  415.154  156.737   86.467    0.263    0.435    3.771
  415.404  156.470   83.099    0.282    0.442    4.488
  415.654  156.712   79.075    0.284    0.435    5.274
  415.904  157.880   76.137    0.265    0.398    6.579
  416.154  159.562   73.597    0.223    0.284    8.751
  416.404  161.082   71.695    0.123    0.236   11.264
  416.654  163.516   69.929    0.090    0.207   13.781
  416.904  165.222   65.975    0.069    0.195   14.944
  417.154  165.398   62.784    0.063    0.203   15.369
  417.404  163.984   60.347    0.072    0.176   14.902
  417.654  163.929   61.788    0.059    0.151   12.523
  417.904  165.219   65.007    0.052    0.166    9.368
  418.154  166.424   65.864    0.058    0.192    7.657
  418.404  166.696   68.725    0.080    0.253    5.797
  418.654  166.452   71.951    0.133    0.313    4.218
  418.904  164.432   76.659    0.189    0.339    3.339
  419.154  162.826   79.437    0.226    0.364    2.676
  419.404  161.358   81.665    0.252    0.387    2.365
  419.654  160.499   83.764    0.281    0.408    2.203
  419.904  160.564   85.710    0.283    0.428    2.090
  420.154  160.812   87.461    0.282    0.445    2.048
  420.404  161.090   85.812    0.271    0.464    2.148
  420.654  161.233   85.516    0.275    0.481    2.183
  420.904  161.759   89.311    0.276    0.471    2.248
  421.154  162.001   91.016    0.272    0.470    2.290
  421.404  162.340   91.892    0.275    0.493    2.373
  421.654  162.581   92.495    0.271    0.483    2.448
  421.904  162.543   92.949    0.262    0.462    2.515
  422.154  162.419   94.576    0.261    0.466    2.607
  422.404  162.421   97.500    0.258    0.470    2.689
  422.654  162.485  100.037    0.249    0.465    2.789
  422.904  163.484  102.158    0.235    0.475    2.916
  423.154  164.771  103.606    0.220    0.453    3.066
  423.404  165.889  104.121    0.199    0.448    3.225
  423.654  166.646  104.139    0.205    0.454    3.373
  423.904  166.261  106.662    0.230    0.456    3.421
  424.154  166.002  108.429    0.242    0.457    3.475
  424.404  165.676  107.220    0.261    0.465    3.473
  424.654  165.302  105.311    0.269    0.470    3.372
  424.904  164.682  107.585    0.256    0.457    3.280
  425.154  164.816  110.702    0.240    0.464    3.166
  425.404  165.432  113.402    0.227    0.477    3.122
  425.654  166.197  115.796    0.216    0.464    3.132
  425.904  166.445  115.777    0.218    0.476    3.110
  426.154  165.919  111.818    0.225    0.463    3.053
  426.404  166.542  110.461    0.212    0.432    2.961
  426.654  168.579  113.541    0.196    0.448    3.104
  426.904  171.203  116.370    0.225    0.472    3.260
  427.154  172.362  117.462    0.249    0.548    3.363
  427.404  172.216  115.346    0.233    0.515    3.559
  427.654  171.081  112.529    0.214    0.482    3.678
  427.904  169.091  111.285    0.208    0.468    3.806
  428.154  167.887  111.192    0.208    0.474    3.922
  428.404  166.549  112.178    0.213    0.435    4.000
  428.654  166.441  112.888    0.220    0.419    4.024
  428.904  166.719  112.675    0.223    0.417    3.995
  429.154  168.825  111.578    0.220    0.422    3.970
  429.404  170.427  110.198    0.206    0.432    3.931
  429.654  170.773  109.221    0.177    0.433    3.930
  429.904  170.712  108.478    0.190    0.401    3.932
  430.154  170.027  108.319    0.200    0.406    3.919
  430.404  169.858  108.865    0.208    0.419    3.783
  430.654  170.382  109.509    0.211    0.425    3.599
  430.904  169.993  109.897    0.206    0.431    3.340
  431.154  171.230  109.218    0.202    0.435    3.017
  431.404  171.429  105.098    0.188    0.441    2.774
  431.654  169.356   97.716    0.221    0.441    2.524
  431.904  166.097   88.212    0.240    0.458    2.275
  432.154  162.364   83.345    0.257    0.454    2.078
  432.404  159.488   81.691    0.273    0.436    1.942
  432.654  159.714   81.632    0.279    0.460    1.831
  432.904  160.674   81.248    0.283    0.479    1.723
  433.154  160.594   80.628    0.294    0.459    1.663
  433.404  159.274   79.789    0.301    0.442    1.622
  433.654  157.234   78.816    0.296    0.433    1.624
  433.904  158.966   77.365    0.301    0.429    1.641
  434.154  161.005   75.234    0.307    0.439    1.646
  434.404  162.045   74.243    0.307    0.431    1.653
  434.654  163.068   72.809    0.301    0.425    1.669
  434.904  163.574   72.087    0.306    0.417    1.685
  435.154  163.437   73.479    0.319    0.406    1.715
  435.404  162.955   73.479    0.313    0.392    1.752
  435.654  161.463   71.808    0.304    0.408    1.866
  435.904  160.164   73.602    0.301    0.425    1.984
  436.154  158.567   77.571    0.303    0.428    2.166
  436.404  158.059   80.898    0.283    0.413    2.295
  436.654  158.087   85.657    0.261    0.422    2.406
  436.904  158.626   88.762    0.245    0.431    2.446
  437.154  158.765   87.804    0.246    0.442    2.450
  437.404  159.259   83.218    0.263    0.435    2.423
  437.654  157.589   81.280    0.277    0.439    2.485
  437.904  158.052   84.496    0.278    0.439    2.569
  438.154  158.460   86.830    0.272    0.431    2.633
  438.404  158.630   87.385    0.265    0.422    2.685
  438.654  159.156   86.644    0.255    0.417    2.671
  438.904  159.730   86.406    0.251    0.424    2.621
  439.154  160.411   85.576    0.252    0.425    2.516
  439.404  160.836   83.077    0.260    0.420    2.456
  439.654  161.265   80.186    0.264    0.424    2.465
  439.904  161.138   78.886    0.269    0.428    2.436
  440.154  161.128   80.283    0.263    0.424    2.483
  440.404  160.945   82.728    0.257    0.416    2.520
  440.654  160.826   84.880    0.259    0.411    2.561
  440.904  160.834   85.975    0.255    0.408    2.639
  441.154  160.715   86.376    0.247    0.413    2.901
  441.404  160.831   88.392    0.237    0.410    2.985
  441.654  161.021   89.393    0.243    0.408    3.082
  441.904  161.651   90.051    0.254    0.411    3.194
  442.154  162.697   93.534    0.249    0.404    3.318
  442.404  163.847  103.361    0.244    0.415    3.488
  442.654  165.379  110.532    0.241    0.415    3.647
  442.904  166.918  117.392    0.210    0.402    3.778
  443.154  168.164  119.641    0.204    0.415    3.935
  443.404  168.885  119.773    0.204    0.387    4.027
  443.654  168.954  119.812    0.196    0.374    4.079
  443.904  169.061  116.254    0.187    0.366    4.079
  444.154  170.559  118.255    0.193    0.352    4.044
  444.404  173.117  119.629    0.196    0.361    4.054
  444.654  175.387  117.306    0.186    0.375    4.089
  444.904  175.449  114.797    0.176    0.386    3.457
  445.154  171.300  110.568    0.181    0.401    3.265
  445.404  168.359  107.535    0.194    0.414    2.948
  445.654  168.889  111.779    0.201    0.416    2.735
  445.904  170.440  116.960    0.194    0.424    2.548
  446.154  172.017  120.093    0.184    0.503    2.416
  446.404  173.442  121.175    0.202    0.573    2.342
  446.654  173.818  115.044    0.236    0.597    2.305
  446.904  171.817  106.593    0.228    0.546    2.319
  447.154  168.511   97.493    0.222    0.494    2.348
  447.404  166.040   93.885    0.232    0.471    2.412
  447.654  164.545   89.997    0.258    0.447    2.429
