~VERSION INFORMATION
 VERS.                 2.0:   CWLS LOG ASCII STANDARD -VERSION 2.0
 WRAP.                  NO:   ONE LINE PER DEPTH STEP
~WELL INFORMATION BLOCK
#MNEM.UNIT           DATA                    DESCRIPTION OF MNEMONIC
#---------    -------------------            -------------------------------
# Generated from Intellog Unique Number	CW_73_75/WELL/1042
WELL.         AMOCO MARTEN HILLS 83 11-19    : Well_name    - WELL
LOC .         00/11-19-075-01W5/0            : Location     - LOCATION
UWI .         00/11-19-075-01W5/0            : Uwi          - UNIQUE WELL ID
ENTR.         JAYE                           : Entered      - ENTERED BY
SRVC.         SCHLUMBERGER                   : Scn          - SERVICE COMPANY
DATE.         13 FEB 77                      : Date         - LOG DATE
STRT.M        560.832                        : top_depth    - START DEPTH
STOP.M        749.832                        : bot_depth    - STOP DEPTH
STEP.M        0.25                           : increment    - STEP LENGTH
 NULL. -999.2500:NULL Value
~CURVE INFORMATION BLOCK
#MNEM UNIT       ERCB CURVE CODE    CURVE DESCRIPTION
#-----------   ------------------   ----------------------------------
DEPT.M        00 001 00 00         : DEPTH        - DEPTH
ILD .OHMM     00 120 00 00         : RESD         - DEEP RESISTIVITY (DIL)
NPHI.V/V      00 330 00 00         : PHIN         - NEUTRON POROSITY (SANDSTONE)
DPHI.V/V      00 890 00 00         : PHID         - DENSITY POROSITY (SANDSTONE)
GR  .API      00 310 00 00         : GR           - GAMMA RAY
CALI.MM       00 280 01 00         : CAL          - CALIPER
~PARAMETER INFORMATION
#MNEM.UNIT           DATA             DESCRIPTION OF MNEMONIC
#---------         -----------     ------------------------------
GL  .M        840.791              : gl           - GROUND LEVEL ELEVATION
EREF.M        845.515              : kb           - ELEVATION OF DEPTH REFERENCE
DATM.M        840.791              : datum        - DATUM ELEVATION
TDD .M        748.223              : tdd          - TOTAL DEPTH DRILLER
RUN .         ONE                  : Run          - RUN NUMBER
ENG .         PIMM                 : Engineer     - RECORDING ENGINEER
WIT .         BRAUN                : Witness      - WITNESSED BY
BASE.         EDM                  : Branch       - HOME BASE OF LOGGING UNIT
MUD .         GEL                  : Mud_type     - MUD TYPE
MATR.         SANDSTONE            : Logunit      - NEUTRON MATRIX
TMAX.C        33.3333              : BHT          - MAXIMUM RECORDED TEMPERATURE
BHTD.M        748.284              : BHTDEP       - MAXIMUM RECORDED TEMPERATURE
RMT .C        22.2222              : MDTP         - TEMPERATURE OF MUD
MUDD.KG/M     1152                 : MWT          - MUD DENSITY
NEUT.         1                    : NEUTRON      - NEUTRON TYPE
RESI.         0                    : RESIST       - RESISTIVITY TYPE
RM  .OHMM     3.83                 : RM           - RESISTIVITY OF MUD
RMC .OHMM     0                    : RMC          - RESISTIVITY OF MUD CAKE
RMF .OHMM     0                    : RMF          - RESISTIVITY OF MUD FILTRATE
SUFT.C        -17.7778             : SUFT         - SURFACE TEMPERATURE
~A  DEPTH     RESD     PHIN     PHID       GR      CAL
  560.832    2.521    0.497    0.227   91.456  228.206
  561.082    2.562    0.504    0.217   92.317  227.282
  561.332    2.613    0.504    0.213   91.526  226.150
  561.582    2.680    0.494    0.225   89.205  223.981
  561.832    2.804    0.483    0.230   87.313  221.605
  562.082    2.930    0.462    0.217   82.301  219.852
  562.332    3.094    0.485    0.190   79.063  218.719
  562.582    3.145    0.468    0.203   80.841  219.659
  562.832    2.979    0.434    0.223   76.930  220.495
  563.082    2.766    0.466    0.187   75.528  221.539
  563.332    2.521    0.484    0.209   77.734  222.687
  563.582    2.328    0.503    0.240   79.635  223.730
  563.832    2.122    0.521    0.249   79.639  224.461
  564.082    2.189    0.541    0.271   79.705  224.986
  564.332    2.511    0.528    0.265   79.709  225.719
  564.582    3.001    0.437    0.267   75.492  226.244
  564.832    3.769    0.397    0.241   68.401  226.149
  565.082    4.787    0.393    0.218   62.226  225.740
  565.332    6.827    0.385    0.237   56.235  224.712
  565.582    8.994    0.366    0.286   54.834  223.372
  565.832   10.532    0.334    0.296   55.693  221.308
  566.082   10.034    0.318    0.285   57.901  219.348
  566.332    8.881    0.362    0.264   60.291  218.008
  566.582    7.861    0.400    0.292   62.191  217.601
  566.832    6.842    0.414    0.297   63.480  217.713
  567.082    6.353    0.413    0.253   64.034  217.718
  567.332    6.109    0.418    0.240   62.694  217.416
  567.582    5.983    0.412    0.252   60.923  217.215
  567.832    6.147    0.400    0.247   59.705  216.912
  568.082    6.874    0.394    0.237   58.791  216.504
  568.332    7.506    0.404    0.260   55.859  215.890
  568.582    8.518    0.393    0.256   53.355  215.070
  568.832    9.318    0.362    0.256   51.524  214.661
  569.082   10.518    0.356    0.259   48.775  213.737
  569.332   11.212    0.345    0.260   47.801  213.227
  569.582   10.781    0.334    0.239   48.906  213.129
  569.832    9.700    0.368    0.203   52.153  213.137
  570.082    8.745    0.390    0.225   54.788  213.352
  570.332    7.827    0.394    0.251   55.343  213.359
  570.582    6.914    0.399    0.265   53.389  213.988
  570.832    6.673    0.436    0.278   50.886  214.617
  571.082    6.780    0.442    0.296   50.890  215.142
  571.332    6.852    0.450    0.283   52.545  215.563
  571.582    7.092    0.443    0.293   54.814  215.571
  571.832    7.464    0.436    0.292   54.818  215.577
  572.082    7.826    0.430    0.286   52.620  215.689
  572.332    8.281    0.421    0.302   50.238  214.867
  572.582    8.667    0.406    0.292   49.325  215.081
  572.832    8.971    0.380    0.273   48.840  215.193
  573.082    9.388    0.359    0.229   48.844  215.406
  573.332    9.629    0.321    0.195   49.338  215.623
  573.582    9.894    0.328    0.206   51.116  215.940
  573.832    9.689    0.390    0.268   53.017  215.946
  574.082    9.163    0.429    0.321   55.040  215.955
  574.332    8.540    0.428    0.309   55.778  215.857
  574.582    7.784    0.420    0.301   56.945  215.969
  574.832    7.083    0.417    0.299   58.724  215.976
  575.082    6.303    0.423    0.292   59.217  215.776
  575.332    5.756    0.458    0.301   58.242  215.576
  575.582    5.170    0.473    0.300   56.351  215.894
  575.832    4.899    0.460    0.290   56.293  216.004
  576.082    5.052    0.455    0.278   59.601  216.011
  576.332    5.336    0.452    0.244   60.645  215.812
  576.582    5.956    0.387    0.235   56.857  215.301
  576.832    6.924    0.370    0.223   50.560  214.999
  577.082    7.449    0.402    0.276   46.894  215.317
  577.332    7.123    0.424    0.314   46.715  215.323
  577.582    6.626    0.420    0.329   46.658  215.226
  577.832    6.107    0.404    0.331   44.949  215.441
  578.082    5.981    0.393    0.340   43.547  216.175
  578.332    6.259    0.390    0.316   44.469  216.699
  578.582    6.479    0.389    0.299   45.391  216.913
  578.832    6.346    0.387    0.294   46.374  217.231
  579.082    6.046    0.387    0.281   47.418  217.342
  579.332    5.781    0.393    0.264   48.462  217.868
  579.582    5.417    0.403    0.271   49.873  218.290
  579.832    5.200    0.415    0.288   51.835  218.296
  580.082    4.981    0.403    0.298   54.164  218.407
  580.332    4.825    0.391    0.295   58.756  218.414
  580.582    4.691    0.382    0.263   64.205  218.112
  580.832    4.654    0.390    0.267   68.369  217.911
  581.082    4.643    0.385    0.256   59.564  217.918
  581.332    4.684    0.364    0.249   50.515  217.718
  581.582    4.750    0.358    0.301   40.058  217.518
  581.832    5.225    0.361    0.346   30.152  217.422
  582.082    6.859    0.366    0.346   27.587  217.533
  582.332    8.695    0.372    0.346   25.390  217.955
  582.582   11.392    0.379    0.342   23.497  218.584
  582.832   14.493    0.378    0.346   22.890  219.005
  583.082   14.221    0.376    0.342   24.056  219.323
  583.332   12.727    0.373    0.345   25.651  219.537
  583.582   10.916    0.368    0.353   25.717  219.545
  583.832    9.450    0.361    0.356   25.904  219.449
  584.082    8.364    0.356    0.350   27.254  219.248
  584.332    7.109    0.352    0.336   30.562  218.738
  584.582    6.177    0.361    0.331   32.891  218.228
  584.832    5.517    0.379    0.322   36.566  217.820
  585.082    5.113    0.394    0.318   41.587  217.723
  585.332    4.774    0.402    0.309   47.402  217.526
  585.582    4.465    0.389    0.315   55.665  217.325
  585.832    4.230    0.379    0.300   64.968  217.021
  586.082    4.174    0.379    0.266   72.741  216.820
  586.332    4.297    0.389    0.209   74.703  216.829
  586.582    4.597    0.405    0.197   69.508  216.940
  586.832    5.001    0.399    0.214   63.517  217.154
  587.082    5.431    0.383    0.217   65.112  218.094
  587.332    5.789    0.392    0.177   69.582  218.929
  587.582    5.209    0.415    0.214   71.543  219.971
  587.832    4.645    0.399    0.244   74.607  220.807
  588.082    3.991    0.376    0.245   80.912  222.058
  588.332    3.468    0.395    0.219   87.095  223.620
  588.582    3.025    0.419    0.207   98.049  224.144
  588.832    2.732    0.495    0.212  105.884  224.565
  589.082    2.555    0.490    0.189  103.931  223.848
  589.332    2.659    0.486    0.185  103.078  223.130
  589.582    3.086    0.488    0.206  101.431  222.308
  589.832    3.561    0.453    0.259   94.033  221.281
  590.082    4.108    0.409    0.235   80.457  220.562
  590.332    4.723    0.387    0.219   73.732  220.051
  590.582    5.351    0.384    0.250   74.593  219.955
  590.832    5.693    0.371    0.240   77.962  220.688
  591.082    5.495    0.380    0.239   80.597  222.560
  591.332    5.064    0.417    0.252   85.250  224.536
  591.582    4.574    0.444    0.250   94.920  225.370
  591.832    4.146    0.447    0.235   95.842  225.378
  592.082    4.205    0.445    0.221   93.032  224.557
  592.332    4.550    0.453    0.253   86.736  223.736
  592.582    5.060    0.399    0.228   76.034  223.120
  592.832    5.796    0.386    0.208   65.333  222.092
  593.082    6.553    0.386    0.241   59.525  221.477
  593.332    6.986    0.390    0.288   64.608  220.761
  593.582    7.217    0.385    0.292   68.710  220.249
  593.832    7.429    0.403    0.278   71.101  219.739
  594.082    7.775    0.429    0.264   69.086  219.229
  594.332    8.274    0.425    0.300   66.031  219.028
  594.582    9.219    0.425    0.316   64.567  219.036
  594.832   10.310    0.447    0.303   63.532  219.043
  595.082   11.216    0.431    0.285   61.273  218.844
  595.332   12.044    0.381    0.246   58.830  218.850
  595.582   10.660    0.366    0.207   58.529  218.547
  595.832    8.248    0.369    0.221   60.735  218.659
  596.082    6.958    0.392    0.243   65.756  218.665
  596.332    6.204    0.407    0.247   69.553  219.190
  596.582    5.572    0.424    0.248   71.515  219.612
  596.832    5.126    0.447    0.275   69.623  220.034
  597.082    4.966    0.465    0.283   65.222  220.352
