~VERSION INFORMATION
 VERS.                 2.0:   CWLS LOG ASCII STANDARD -VERSION 2.0
 WRAP.                  NO:   ONE LINE PER DEPTH STEP
~WELL INFORMATION BLOCK
#MNEM.UNIT           DATA                    DESCRIPTION OF MNEMONIC
#---------    -------------------            -------------------------------
# Generated from Intellog Unique Number	CN_91_93/WELL/3131
WELL.         PARAMOUNT RESOURCES LTD.       : Well_name    - WELL
LOC .         00/11-04-092-18W4/0            : Location     - LOCATION
UWI .         00/11-04-092-18W400            : Uwi          - UNIQUE WELL ID
ENTR.         JOETTE                         : Entered      - ENTERED BY
SRVC.         COMPUTALOG                     : Scn          - SERVICE COMPANY
DATE.         04/12/92                       : Date         - LOG DATE
STRT.M        70                             : top_depth    - START DEPTH
STOP.M        260                            : bot_depth    - STOP DEPTH
STEP.M        0.25                           : increment    - STEP LENGTH
 NULL. -999.2500:NULL Value
~CURVE INFORMATION BLOCK
#MNEM UNIT       ERCB CURVE CODE    CURVE DESCRIPTION
#-----------   ------------------   ----------------------------------
DEPT.M        00 001 00 00         : DEPTH        - DEPTH
CALI.MM       00 280 01 00         : CAL          - CALIPER
GR  .API      00 310 00 00         : GR           - GAMMA RAY
NPHI.V/V      00 330 00 00         : PHIN         - NEUTRON POROSITY (SANDSTONE)
DPHI.V/V      00 890 00 00         : PHID         - DENSITY POROSITY (SANDSTONE)
ILD .OHMM     00 120 00 00         : RESD         - DEEP RESISTIVITY (DIL)
~PARAMETER INFORMATION
#MNEM.UNIT           DATA             DESCRIPTION OF MNEMONIC
#---------         -----------     ------------------------------
GL  .M        520.6                : gl           - GROUND LEVEL ELEVATION
EREF.M        523.6                : kb           - ELEVATION OF DEPTH REFERENCE
DATM.M        523.6                : datum        - DATUM ELEVATION
TDD .M        262.4                : tdd          - TOTAL DEPTH DRILLER
RUN .         ONE                  : Run          - RUN NUMBER
ENG .         BILL                 : Engineer     - RECORDING ENGINEER
WIT .         JIM                  : Witness      - WITNESSED BY
MUD .         GEL                  : Mud_type     - MUD TYPE
MATR.         SANDSTONE            : Logunit      - NEUTRON MATRIX
TMAX.C        19                   : BHT          - MAXIMUM RECORDED TEMPERATURE
BHTD.M        262.4                : BHTDEP       - MAXIMUM RECORDED TEMPERATURE
RMT .C        11.1                 : MDTP         - TEMPERATURE OF MUD
MUDD.KG/M     1090                 : MWT          - MUD DENSITY
NEUT.         1                    : NEUTRON      - NEUTRON TYPE
RESI.         0                    : RESIST       - RESISTIVITY TYPE
RM  .OHMM     3.9                  : RM           - RESISTIVITY OF MUD
RMC .OHMM     3.9                  : RMC          - RESISTIVITY OF MUD CAKE
RMF .OHMM     4.9                  : RMF          - RESISTIVITY OF MUD FILTRATE
SUFT.C        4                    : SUFT         - SURFACE TEMPERATURE
~A  DEPTH      CAL       GR     PHIN     PHID     RESD
# ...
  179.500  162.248  104.642    0.420    0.208    9.687
  179.750  163.270  110.869    0.435    0.210   10.678
  180.000  164.293  125.822    0.441    0.218   11.127
  180.250  166.359  125.812    0.449    0.224   11.381
  180.500  167.377  117.695    0.430    0.218   11.445
  180.750  168.400  116.441    0.405    0.200   11.477
  181.000  167.340  114.558    0.390    0.179   11.739
  181.250  165.246   98.963    0.390    0.151   12.233
  181.500  163.147   98.327    0.383    0.105   13.001
  181.750  162.100  102.060    0.352    0.130   13.535
  182.000  158.966  111.402    0.365    0.160   15.812
  182.250  157.907  112.639    0.386    0.182   17.414
  182.500  156.843  113.252    0.381    0.214   19.578
  182.750  156.835  110.123    0.366    0.185   20.023
  183.000  156.810  109.490    0.355    0.175   20.117
  183.250  156.798  110.727    0.361    0.158   20.575
  183.500  155.747  110.714    0.369    0.174   20.653
  183.750  153.644  110.707    0.363    0.199   20.731
  184.000  153.628  110.695    0.360    0.218   20.789
  184.250  153.607  110.685    0.358    0.231   20.867
  184.500  153.595  110.677    0.360    0.232   20.946
  184.750  153.578  110.044    0.363    0.230   21.423
  185.000  153.566  109.408    0.359    0.232   22.387
  185.250  153.550  108.152    0.362    0.240   23.308
  185.500  153.529  106.269    0.363    0.256   24.266
  185.750  153.517  103.768    0.345    0.251   26.774
  186.000  153.492   94.407    0.326    0.213   31.250
  186.250  153.472   85.045    0.305    0.174   37.093
  186.500  153.464   73.188    0.284    0.109   51.244
  186.750  152.404   73.178    0.290    0.110   68.254
  187.000  152.388   76.906    0.294    0.140   81.169
  187.250  152.371   75.649    0.291    0.119   87.815
  187.500  152.355   75.639    0.319    0.113   86.510
  187.750  152.326   79.996    0.347    0.187   82.091
  188.000  153.353   86.842    0.366    0.257   76.380
  188.250  153.340   88.705    0.350    0.276   69.878
  188.500  153.328   76.847    0.327    0.222   66.246
  188.750  154.343   70.603    0.302    0.165   67.817
  189.000  154.330   66.226    0.265    0.127   73.370
  189.250  154.318   64.972    0.226    0.070   80.877
  189.500  155.332   71.197    0.240    0.088   89.238
  189.750  155.312   76.174    0.271    0.170   86.199
  190.000  155.304   83.646    0.307    0.212   75.819
  190.250  156.322   92.364    0.327    0.231   56.395
  190.500  156.302  101.080    0.341    0.230   43.508
  190.750  156.294  102.317    0.377    0.209   34.880
  191.000  156.273  101.060    0.396    0.158   29.003
  191.250  157.296   93.569    0.414    0.117   23.691
  191.500  158.314   90.439    0.419    0.084   21.232
  191.750  158.298   96.043    0.414    0.052   19.047
  192.000  158.286  104.138    0.404    0.174   17.738
  192.250  159.304  109.737    0.395    0.204   15.912
  192.500  160.331  112.220    0.390    0.208   14.558
  192.750  161.345  117.819    0.394    0.206   13.814
  193.000  161.333  110.330    0.399    0.200   13.853
  193.250  161.313   99.099    0.407    0.183   14.181
  193.500  161.288  100.959    0.414    0.155   14.518
  193.750  161.276  106.560    0.415    0.176   14.820
  194.000  160.224  110.915    0.411    0.185   15.459
  194.250  159.165  114.019    0.404    0.185   15.517
  194.500  158.113  109.646    0.409    0.194   15.575
  194.750  157.058  104.648    0.405    0.186   14.780
  195.000  157.037  100.898    0.405    0.146   14.303
  195.250  159.095   98.394    0.410    0.090   14.064
  195.500  161.161  107.112    0.410    0.091   14.130
  195.750  162.183  113.960    0.400    0.194   14.466
  196.000  162.167  117.065    0.394    0.197   14.534
  196.250  159.029  112.065    0.398    0.187   14.561
  196.500  157.978  108.317    0.404    0.174   14.092
  196.750  156.927  107.684    0.412    0.155   13.612
  197.000  154.824  112.662    0.409    0.153   13.161
  197.250  155.847  117.016    0.399    0.187   12.725
  197.500  162.064  120.747    0.398    0.206   12.536
  197.750  166.204  122.607    0.394    0.203   12.595
  198.000  167.227  123.221    0.383    0.202   12.654
  198.250  165.132  124.455    0.365    0.207   12.930
  198.500  164.081  123.199    0.358    0.212   13.224
  198.750  160.947  123.810    0.350    0.208   13.512
  199.000  157.810  120.685    0.336    0.192   14.632
  199.250  154.676  102.596    0.319    0.167   15.248
  199.500  154.660   88.870    0.330    0.125   15.890
  199.750  158.800  110.057    0.339    0.101   16.574
  200.000  165.014  121.269    0.349    0.177   16.312
  200.250  167.079  132.476    0.382    0.199   15.787
  200.500  167.063  140.574    0.394    0.201   14.966
  200.750  167.047  143.681    0.401    0.198   13.938
  201.000  164.944  136.190    0.406    0.203   13.005
  201.250  163.888  133.684    0.416    0.210   12.329
  201.500  163.872  134.298    0.431    0.203   11.688
  201.750  162.821  134.911    0.437    0.190   11.101
  202.000  162.804  130.540    0.425    0.163   10.723
  202.250  163.827  124.288    0.411    0.152   10.564
  202.500  165.880  128.019    0.418    0.126   10.407
  202.750  167.938  129.884    0.422    0.159   10.262
  203.000  168.969  131.745    0.431    0.168   10.119
  203.250  168.952  126.747    0.427    0.177   10.138
  203.500  167.897  110.528    0.364    0.170   10.186
  203.750  166.841   76.850    0.348    0.253   10.408
  204.000  161.630   35.694    0.186    0.284   11.473
  204.250  153.301   23.838    0.119    0.317   15.850
  204.500  148.081   15.719    0.085    0.348   21.490
  204.750  148.069   15.086    0.069    0.362   30.250
  205.000  148.052   15.078    0.073    0.357   36.654
  205.250  149.071   15.066    0.081    0.356   54.578
  205.500  150.097   14.430    0.089    0.360   87.590
  205.750  151.112   14.425    0.094    0.360  118.759
  206.000  151.100   13.792    0.093    0.352  143.902
  206.250  151.083   13.777    0.089    0.346  150.100
  206.500  151.063   13.770    0.093    0.350  156.270
  206.750  151.046   13.760    0.105    0.348  157.007
  207.000  151.034   13.750    0.105    0.347  163.616
  207.250  151.018   13.117    0.101    0.347  167.181
  207.500  150.997   11.860    0.088    0.342  177.846
  207.750  149.942   11.224    0.081    0.343  185.332
  208.000  149.921   11.838    0.092    0.352  192.951
  208.250  148.870   13.698    0.139    0.360  179.696
  208.500  148.845   14.935    0.176    0.354  144.060
  208.750  148.837   17.419    0.222    0.345  115.383
  209.000  148.821   19.903    0.277    0.336   92.501
  209.250  148.804   23.011    0.296    0.327   81.362
  209.500  148.784   25.494    0.312    0.320   66.461
  209.750  148.767   26.732    0.321    0.318   55.263
  210.000  148.751   26.722    0.330    0.321   42.675
  210.250  148.734   24.216    0.335    0.322   33.545
  210.500  148.710   21.712    0.340    0.324   25.399
  210.750  148.697   20.453    0.344    0.322   23.237
  211.000  148.685   19.196    0.332    0.320   23.325
  211.250  147.630   17.939    0.320    0.320   24.329
  211.500  147.613   16.059    0.312    0.324   26.819
  211.750  147.597   15.426    0.314    0.325   28.988
  212.000  147.576   17.287    0.320    0.325   35.789
  212.250  147.552   19.147    0.326    0.321   42.521
  212.500  147.544   21.003    0.326    0.316   56.582
  212.750  146.488   22.244    0.321    0.318   72.593
  213.000  146.472   25.973    0.319    0.324   77.079
  213.250  146.455   28.459    0.326    0.328   81.842
  213.500  146.439   30.315    0.329    0.328   83.626
  213.750  146.414   29.063    0.325    0.324   88.877
  214.000  146.402   28.427    0.323    0.323   94.458
  214.250  146.377   32.156    0.329    0.321   96.516
  214.500  146.365   34.639    0.344    0.320  102.673
  214.750  146.353   37.123    0.367    0.316  106.894
  215.000  145.289   38.360    0.383    0.319  113.607
  215.250  145.277   38.350    0.381    0.325  116.082
  215.500  146.304   37.096    0.367    0.328  118.946
  215.750  146.283   35.837    0.353    0.318  119.170
