~VERSION INFORMATION
 VERS.                 2.0:   CWLS LOG ASCII STANDARD -VERSION 2.0
 WRAP.                  NO:   ONE LINE PER DEPTH STEP
~WELL INFORMATION BLOCK
#MNEM.UNIT           DATA                    DESCRIPTION OF MNEMONIC
#---------    -------------------            -------------------------------
# Generated from Intellog Unique Number	CS_77_79/WELL/977
WELL.         UNEX ET AL CHARD               : Well_name    - WELL
LOC .         00/10-31-079-05W4/0            : Location     - LOCATION
UWI .         00/10-31-079-05W4/0            : Uwi          - UNIQUE WELL ID
ENTR.         JHS                            : Entered      - ENTERED BY
SRVC.         SCHLUMBERGER                   : Scn          - SERVICE COMPANY
STRT.M        105                            : top_depth    - START DEPTH
STOP.M        280                            : bot_depth    - STOP DEPTH
STEP.M        0.25                           : increment    - STEP LENGTH
 NULL. -999.2500:NULL Value
~CURVE INFORMATION BLOCK
#MNEM UNIT       ERCB CURVE CODE    CURVE DESCRIPTION
#-----------   ------------------   ----------------------------------
DEPT.M        00 001 00 00         : DEPTH        - DEPTH
DPHI.V/V      00 890 00 00         : PHID         - DENSITY POROSITY (LIMESTONE)
NPHI.V/V      00 330 00 00         : PHIN         - NEUTRON POROSITY (LIMESTONE)
GR  .API      00 310 00 00         : GR           - GAMMA RAY
ILD .OHMM     00 120 00 00         : RESD         - DEEP RESISTIVITY (DIL)
RHOB.KG/M3    00 350 00 00         : DENS         - BULK DENSITY
~PARAMETER INFORMATION
#MNEM.UNIT           DATA             DESCRIPTION OF MNEMONIC
#---------         -----------     ------------------------------
GL  .M        457.3                : gl           - GROUND LEVEL ELEVATION
EREF.M        460.8                : kb           - ELEVATION OF DEPTH REFERENCE
DATM.M        460.8                : datum        - DATUM ELEVATION
TDD .M        329                  : tdd          - TOTAL DEPTH DRILLER
RUN .         ONE                  : Run          - RUN NUMBER
ENG .         BILL                 : Engineer     - RECORDING ENGINEER
WIT .         JIM                  : Witness      - WITNESSED BY
MUD .         GEL                  : Mud_type     - MUD TYPE
MATR.         LIMESTONE            : Logunit      - NEUTRON MATRIX
TMAX.C        19                   : BHT          - MAXIMUM RECORDED TEMPERATURE
BHTD.M        329                  : BHTDEP       - MAXIMUM RECORDED TEMPERATURE
MATR.         1                    : LOGUNIT      - NEUTRON MATRIX
RMT .C        25                   : MDTP         - TEMPERATURE OF MUD
NEUT.         1                    : NEUTRON      - NEUTRON TYPE
RESI.         0                    : RESIST       - RESISTIVITY TYPE
RMC .OHMM     0.25                 : RMC          - RESISTIVITY OF MUD CAKE
RMF .OHMM     0.25                 : RMF          - RESISTIVITY OF MUD FILTRATE
SUFT.C        15                   : SUFT         - SURFACE TEMPERATURE
~A  DEPTH     PHID     PHIN       GR     RESD     DENS
# ...
  178.000    0.296    0.562  102.104    4.229 2204.290
  178.250    0.303    0.496   88.593    4.232 2191.840
  178.500    0.301    0.458   84.919    4.482 2196.060
  178.750    0.288    0.443   88.622    4.834 2216.970
  179.000    0.281    0.450   95.403    5.516 2229.540
  179.250    0.261    0.454   99.104    6.062 2262.960
  179.500    0.238    0.474  102.192    6.664 2302.630
  179.750    0.230    0.483  102.208    7.190 2317.280
  180.000    0.220    0.472   93.001    7.471 2334.010
  180.250    0.203    0.422   82.564    7.618 2363.260
  180.500    0.209    0.384   79.507    8.218 2352.890
  180.750    0.248    0.394   81.981    8.702 2286.210
  181.000    0.223    0.425   81.380    9.213 2327.980
  181.250    0.216    0.444   79.549    9.398 2340.540
  181.500    0.267    0.427   83.870    8.894 2253.010
  181.750    0.288    0.422   87.573    8.573 2217.620
  182.000    0.284    0.440   83.902    7.962 2223.920
  182.250    0.262    0.457   84.528    7.259 2261.510
  182.500    0.249    0.472   90.692    6.493 2284.500
  182.750    0.271    0.493   95.625    5.701 2247.020
  183.000    0.284    0.522  101.788    4.733 2224.140
  183.250    0.280    0.550  100.576    4.079 2230.450
  183.500    0.273    0.496   96.899    3.788 2243.010
  183.750    0.277    0.489   92.615    3.721 2236.810
  184.000    0.286    0.478   91.395    4.016 2220.190
  184.250    0.291    0.467   92.644    4.331 2211.900
  184.500    0.286    0.490   92.659    4.851 2220.290
  184.750    0.285    0.546   93.899    5.136 2222.430
  185.000    0.280    0.514   96.373    5.237 2230.830
  185.250    0.263    0.495   95.161    5.443 2260.070
  185.500    0.255    0.472   95.173    5.763 2274.730
  185.750    0.259    0.456   97.646    6.333 2266.430
  186.000    0.264    0.429  100.120    6.706 2258.140
  186.250    0.267    0.429   98.292    6.713 2254.050
  186.500    0.273    0.439   90.927    6.718 2243.660
  186.750    0.284    0.460   87.257    6.725 2224.940
  187.000    0.284    0.458   88.500    6.484 2225.000
  187.250    0.278    0.436   91.591    5.912 2235.470
  187.500    0.273    0.449   91.602    5.288 2243.870
  187.750    0.274    0.505   92.236    4.390 2241.840
  188.000    0.285    0.524   89.788    3.713 2223.120
  188.250    0.308    0.536   83.657    3.140 2183.550
  188.500    0.321    0.554   82.440    2.757 2160.670
  188.750    0.304    0.571   81.840    2.421 2189.920
  189.000    0.309    0.578   82.473    2.334 2181.630
  189.250    0.319    0.548   84.943    2.251 2165.000
  189.500    0.326    0.555   87.418    2.253 2152.540
  189.750    0.311    0.572   84.973    2.214 2177.630
  190.000    0.304    0.582   86.836    2.257 2190.190
  190.250    0.303    0.597   89.923    2.259 2192.350
  190.500    0.297    0.611   89.942    2.392 2202.810
  190.750    0.281    0.599   86.881    2.533 2229.970
  191.000    0.266    0.567   86.278    2.784 2255.040
  191.250    0.264    0.501   88.755    3.177 2259.280
  191.500    0.264    0.486   90.611    3.558 2259.330
  191.750    0.255    0.494   91.856    4.137 2273.990
  192.000    0.261    0.487   84.496    4.546 2263.600
  192.250    0.255    0.455   82.049    5.187 2274.080
  192.500    0.244    0.446   86.984    5.596 2292.900
  192.750    0.244    0.419   90.072    5.818 2292.960
  193.000    0.256    0.421   95.619    5.608 2272.150
  193.250    0.256    0.490  104.241    5.208 2272.210
  193.500    0.245    0.508   97.495    4.660 2291.030
  193.750    0.252    0.474   90.750    4.328 2278.570
  194.000    0.262    0.477   92.605    4.020 2261.950
  194.250    0.255    0.497   94.463    3.876 2274.510
  194.500    0.244    0.491   90.795    3.737 2293.350
  194.750    0.245    0.478   92.650    3.604 2291.310
  195.000    0.251    0.492   97.583    3.539 2280.930
  195.250    0.257    0.512   96.371    3.412 2270.570
  195.500    0.261    0.520   95.154    3.353 2264.350
  195.750    0.265    0.503   98.243    3.357 2256.070
  196.000    0.272    0.507   95.800    3.359 2245.690
  196.250    0.265    0.521   91.509    3.492 2256.190
  196.500    0.258    0.500   86.609    3.494 2268.740
  196.750    0.243    0.482   85.394    3.630 2293.820
  197.000    0.260    0.486   90.942    3.704 2264.690
  197.250    0.264    0.519   95.872    3.776 2258.470
  197.500    0.255    0.492   95.888    3.923 2273.120
  197.750    0.259    0.463   92.830    4.314 2266.920
  198.000    0.277    0.451   88.541    4.653 2235.700
  198.250    0.290    0.441   86.096    5.114 2214.900
  198.500    0.268    0.424   86.115    5.728 2252.480
  198.750    0.253    0.430   86.743    6.064 2277.570
  199.000    0.264    0.469   89.832    5.846 2258.850
  199.250    0.259    0.491   94.152    5.535 2267.250
  199.500    0.247    0.506   95.391    5.336 2288.160
  199.750    0.227    0.514   90.489    5.544 2321.570
  200.000    0.138    0.399   84.357    6.093 2473.850
  200.250    0.106    0.347   80.068    6.953 2528.120
  200.500    0.140    0.364   80.697    7.644 2469.790
  200.750    0.234    0.418   83.784    7.941 2309.260
  201.000    0.271    0.392   86.258    8.410 2246.760
  201.250    0.310    0.350   80.742    8.902 2180.080
  201.500    0.328    0.320   75.221    9.604 2148.860
  201.750    0.332    0.312   68.477   10.169 2142.660
  202.000    0.313    0.322   73.409    8.601 2173.990
  202.250    0.299    0.378   80.184    6.749    0.000
  202.500    0.299    0.441   83.888    5.199 2199.120
  202.750    0.322    0.418   85.136    5.205 2159.550
  203.000    0.374    0.343   81.461    5.307 2069.930
  203.250    0.418    0.166   38.439    6.055 1994.920
  203.500    0.423    0.141   29.849    9.861 1986.630
  203.750    0.399    0.123   28.017   21.663 2028.390
  204.000    0.380    0.119   31.720   45.000 2059.720
  204.250    0.369    0.138   40.343   64.281 2078.540
  204.500    0.399    0.156   45.280   74.731 2028.550
  204.750    0.412    0.161   45.294   82.145 2005.670
  205.000    0.405    0.158   42.847   64.466 2018.240
  205.250    0.381    0.157   45.939   66.992 2057.910
  205.500    0.372    0.165   51.487   69.611 2074.660
  205.750    0.367    0.182   54.573   65.882 2083.050
  206.000    0.358    0.211   56.431   57.849 2097.690
  206.250    0.362    0.217   58.293   50.786 2091.490
  206.500    0.360    0.218   61.998   42.966 2093.620
  206.750    0.347    0.224   65.698   38.439 2116.620
  207.000    0.351    0.240   71.862   35.033 2110.410
  207.250    0.368    0.251   72.492   31.353 2081.290
  207.500    0.360    0.251   70.047   30.217 2093.840
  207.750    0.341    0.252   70.677   28.604 2127.260
  208.000    0.335    0.253   67.003   27.568 2137.740
  208.250    0.343    0.259   68.862   26.589 2123.190
  208.500    0.354    0.269   74.409   25.166 2104.480
  208.750    0.370    0.276   75.041   24.252 2077.420
  209.000    0.386    0.291   73.826   22.524 2050.370
  209.250    0.384    0.306   78.760   18.703 2052.520
  209.500    0.326    0.331   85.538   16.419 2152.650
  209.750    0.271    0.356   91.698   14.147 2246.550
  210.000    0.242    0.376   99.091   12.191 2296.650
  210.250    0.234    0.423  105.261   10.311 2309.230
  210.500    0.248    0.458  107.732    8.885 2286.330
  210.750    0.278    0.442  105.898    8.102 2234.250
  211.000    0.296    0.388   90.543    8.263 2203.030
  211.250    0.298    0.348   81.339    8.270 2201.010
  211.500    0.293    0.334   77.663    8.593 2209.390
  211.750    0.263    0.370   81.368    9.448 2259.500
  212.000    0.238    0.398   89.992    9.816 2303.330
  212.250    0.213    0.412   94.309   10.393 2345.100
  212.500    0.217    0.367   95.552   11.002 2338.900
  212.750    0.279    0.334   74.662   11.014 2232.590
  213.000    0.321    0.319   60.537   10.040 2161.740
  213.250    0.329    0.323   64.247    8.816 2147.200
  213.500    0.306    0.363   66.101    7.888 2186.880
  213.750    0.301    0.366   71.651    7.462 2195.280
  214.000    0.269    0.355   80.887    7.331 2249.540
  214.250    0.227    0.363   89.507    7.340 2322.600
