~VERSION INFORMATION
 VERS.                 2.0:   CWLS LOG ASCII STANDARD -VERSION 2.0
 WRAP.                  NO:   ONE LINE PER DEPTH STEP
~WELL INFORMATION BLOCK
#MNEM.UNIT           DATA                    DESCRIPTION OF MNEMONIC
#---------    -------------------            -------------------------------
# Generated from Intellog Unique Number	CS_67_68/WELL/2209
WELL.         11-24-067-04W4                 : Well_name    - WELL
LOC .         00/11-24-067-04W4/0            : Location     - LOCATION
UWI .         00/11-24-067-04W4/0            : Uwi          - UNIQUE WELL ID
ENTR.         SP                             : Entered      - ENTERED BY
SRVC.         SCHLUMBERGER                   : Scn          - SERVICE COMPANY
STRT.M        320                            : top_depth    - START DEPTH
STOP.M        553                            : bot_depth    - STOP DEPTH
STEP.M        0.25                           : increment    - STEP LENGTH
 NULL. -999.2500:NULL Value
~CURVE INFORMATION BLOCK
#MNEM UNIT       ERCB CURVE CODE    CURVE DESCRIPTION
#-----------   ------------------   ----------------------------------
DEPT.M        00 001 00 00         : DEPTH        - DEPTH
ILD .OHMM     00 120 00 00         : RESD         - DEEP RESISTIVITY (DIL)
DPHI.V/V      00 890 00 00         : PHID         - DENSITY POROSITY (LIMESTONE)
NPHI.V/V      00 330 00 00         : PHIN         - NEUTRON POROSITY (LIMESTONE)
GR  .API      00 310 00 00         : GR           - GAMMA RAY
CALI.MM       00 280 01 00         : CAL          - CALIPER
~PARAMETER INFORMATION
#MNEM.UNIT           DATA             DESCRIPTION OF MNEMONIC
#---------         -----------     ------------------------------
GL  .M        674.8                : gl           - GROUND LEVEL ELEVATION
EREF.M        678                  : kb           - ELEVATION OF DEPTH REFERENCE
DATM.M        678                  : datum        - DATUM ELEVATION
TDD .M        558                  : tdd          - TOTAL DEPTH DRILLER
RUN .         ONE                  : Run          - RUN NUMBER
ENG .         BILL                 : Engineer     - RECORDING ENGINEER
WIT .         JIM                  : Witness      - WITNESSED BY
MUD .         GEL                  : Mud_type     - MUD TYPE
MATR.         LIMESTONE            : Logunit      - NEUTRON MATRIX
TMAX.C        18.3                 : BHT          - MAXIMUM RECORDED TEMPERATURE
BHTD.M        556.5                : BHTDEP       - MAXIMUM RECORDED TEMPERATURE
MATR.         1                    : LOGUNIT      - NEUTRON MATRIX
RMT .C        25                   : MDTP         - TEMPERATURE OF MUD
NEUT.         1                    : NEUTRON      - NEUTRON TYPE
RESI.         0                    : RESIST       - RESISTIVITY TYPE
RMC .OHMM     0.25                 : RMC          - RESISTIVITY OF MUD CAKE
RMF .OHMM     0.25                 : RMF          - RESISTIVITY OF MUD FILTRATE
SUFT.C        15                   : SUFT         - SURFACE TEMPERATURE
~A  DEPTH     RESD     PHID     PHIN       GR      CAL
# ...
  356.500    7.202    0.268    0.465   79.604  161.089
  356.750    7.423    0.246    0.478   75.959  161.114
  357.000    7.593    0.201    0.489   73.717  161.040
  357.250    8.881    0.055    0.248   70.562  161.168
  357.500   10.526    0.038    0.194   66.246  161.902
  357.750   12.082    0.022    0.182   60.954  163.656
  358.000   11.438    0.062    0.205   65.301  162.669
  358.250   10.022    0.200    0.397   70.993  161.269
  358.500    9.171    0.259    0.424   75.705  159.874
  358.750    7.825    0.293    0.434   79.502  159.392
  359.000    6.728    0.316    0.443   83.361  159.215
  359.250    6.382    0.306    0.453   78.620  159.348
  359.500    6.370    0.300    0.453   76.073  159.471
  359.750    6.369    0.293    0.466   80.236  159.698
  360.000    6.345    0.285    0.479   83.546  159.730
  360.250    6.357    0.274    0.491   85.697  159.751
  360.500    6.418    0.277    0.486   87.055  159.780
  360.750    6.515    0.279    0.473   87.255  159.808
  361.000    6.639    0.273    0.465   89.710  159.629
  361.250    6.677    0.264    0.462   92.411  159.355
  361.500    6.417    0.258    0.474   94.500  159.375
  361.750    6.393    0.253    0.476   94.944  159.810
  362.000    6.333    0.250    0.463   97.158  160.549
  362.250    6.297    0.254    0.455   98.268  161.392
  362.500    6.274    0.266    0.465   97.308  161.514
  362.750    6.285    0.276    0.474   96.410  160.728
  363.000    6.357    0.274    0.470   95.998  157.912
  363.250    6.333    0.281    0.464   92.048  156.007
  363.500    6.191    0.284    0.459   86.758  155.114
  363.750    6.041    0.280    0.446   88.054  154.428
  364.000    6.064    0.279    0.428   92.158  153.945
  364.250    6.156    0.281    0.434   94.370  154.686
  364.500    6.261    0.288    0.448   94.263  156.848
  364.750    6.539    0.293    0.440   95.439  158.701
  365.000    6.677    0.288    0.432   97.103  159.949
  365.250    6.829    0.280    0.428   98.032  160.790
  365.500    6.881    0.271    0.436   97.437  161.324
  365.750    6.817    0.273    0.432   95.196  161.250
  366.000    6.765    0.279    0.428   93.749  160.256
  366.250    6.816    0.283    0.432   93.398  158.555
  366.500    7.052    0.282    0.439   93.659  156.955
  366.750    7.146    0.280    0.443   93.124  155.661
  367.000    6.404    0.278    0.439   91.373  155.281
  367.250    6.539    0.271    0.433   90.472  155.713
  367.500    6.778    0.266    0.439   88.597  157.269
  367.750    7.039    0.275    0.468   86.051  158.515
  368.000    7.146    0.277    0.517   82.287  159.249
  368.250    7.809    0.273    0.522   79.678  158.769
  368.500    7.973    0.289    0.506   77.557  158.183
  368.750    8.018    0.302    0.495   76.660  158.110
  369.000    7.883    0.300    0.490   77.285  158.444
  369.250    7.750    0.289    0.480   78.946  158.772
  369.500    7.619    0.279    0.471   83.233  158.796
  369.750    7.406    0.285    0.463   84.470  158.621
  370.000    7.186    0.287    0.462   81.862  158.545
  370.250    8.549    0.267    0.474   78.278  158.775
  370.500   12.332    0.252    0.482   76.341  159.107
  370.750   16.494    0.255    0.466   67.391  159.336
  371.000   20.964    0.309    0.451   56.792  159.362
  371.250   27.881    0.331    0.440   48.572  159.594
  371.500   43.455    0.340    0.430   47.919  159.821
  371.750   61.046    0.337    0.443   47.140  160.052
  372.000   69.148    0.335    0.439   49.047  159.570
  372.250   71.269    0.336    0.436   52.420  158.984
  372.500   69.672    0.339    0.454   56.520  158.711
  372.750   66.333    0.340    0.459   63.796  158.834
  373.000   60.242    0.349    0.455   66.923  159.777
  373.250   57.032    0.352    0.447   51.932  160.717
  373.500   56.495    0.344    0.446   48.837  161.152
  373.750   57.247    0.351    0.461   49.587  161.483
  374.000   57.463    0.350    0.451   50.090  161.817
  374.250   57.246    0.345    0.440   54.194  161.738
  374.500   57.680    0.357    0.431   57.136  161.459
  374.750   57.788    0.365    0.464   60.267  161.183
  375.000   57.570    0.359    0.482   61.864  160.904
  375.250   56.280    0.354    0.456   63.222  160.526
  375.500   54.502    0.348    0.431   58.297  160.548
  375.750   52.185    0.350    0.438   54.164  160.270
  376.000   50.061    0.358    0.434   51.801  160.196
  376.250   47.214    0.352    0.427   52.000  161.034
  376.500   44.867    0.342    0.428   54.826  162.078
  376.750   41.446    0.333    0.440   57.094  163.325
  377.000   30.350    0.334    0.450   60.406  163.966
  377.250   21.160    0.328    0.451   62.495  163.991
  377.500   17.785    0.319    0.452   64.098  163.304
  377.750   16.244    0.310    0.460   65.027  161.908
  378.000   15.407    0.315    0.468   65.655  161.018
  378.250   14.641    0.327    0.450   65.059  159.827
  378.500   13.861    0.321    0.440   63.490  159.242
  378.750   12.852    0.309    0.440   65.030  158.758
  379.000   11.650    0.310    0.441   67.059  158.378
  379.250   10.600    0.306    0.440   70.066  158.097
  379.500    9.664    0.300    0.458   72.216  157.616
  379.750   10.864    0.301    0.465   73.329  157.340
  380.000   11.760    0.295    0.453   70.416  157.059
  380.250   12.399    0.302    0.448   66.650  157.187
  380.500   13.473    0.302    0.457   63.066  157.417
  380.750   13.498    0.292    0.463   61.741  157.646
  381.000   11.849    0.317    0.460   64.502  157.576
  381.250   10.284    0.326    0.451   67.081  157.398
  381.500    9.131    0.313    0.443   68.620  157.424
  381.750    8.450    0.298    0.422   74.676  157.855
  382.000    7.880    0.283    0.405   79.817  158.188
  382.250    7.460    0.272    0.436   84.530  158.317
  382.500    7.076    0.264    0.461   88.083  158.442
  382.750    6.891    0.265    0.483   90.477  158.061
  383.000    6.865    0.264    0.487   78.476  157.580
  383.250    7.143    0.267    0.454   69.463  157.299
  383.500    7.602    0.272    0.421   72.899  156.924
  383.750    8.825    0.266    0.421   75.229  156.945
  384.000   10.110    0.258    0.428   73.721  156.771
  384.250   12.421    0.289    0.438   66.354  157.209
  384.500   15.817    0.306    0.447   59.843  157.739
  384.750   19.506    0.325    0.429   57.236  158.177
  385.000   24.054    0.334    0.412   56.642  158.811
  385.250   29.440    0.332    0.409   55.565  159.244
  385.500   34.566    0.338    0.416   55.212  159.472
  385.750   38.567    0.346    0.432   54.861  159.498
  386.000   38.713    0.345    0.438   54.085  159.118
  386.250   38.060    0.335    0.443   53.732  158.435
  386.500   37.418    0.329    0.435   54.359  157.642
  386.750   36.580    0.329    0.431   55.654  157.264
  387.000   34.959    0.331    0.439   57.013  157.291
  387.250   36.648    0.328    0.446   57.455  157.420
  387.500   39.823    0.323    0.432   56.557  157.139
  387.750   42.464    0.318    0.425   56.266  156.864
  388.000   41.044    0.319    0.424   56.893  156.890
  388.250   33.662    0.323    0.425   58.128  156.912
  388.500   30.687    0.321    0.427   58.998  156.735
  388.750   30.744    0.319    0.429   59.380  156.558
  389.000   35.355    0.327    0.439   60.128  156.384
  389.250   38.201    0.333    0.451   60.693  155.802
  389.500   31.988    0.337    0.459   58.330  155.828
  389.750   24.097    0.340    0.434   59.505  155.548
  390.000   19.651    0.339    0.426   61.229  155.370
  390.250   15.607    0.333    0.433   60.513  155.193
  390.500   13.193    0.336    0.439   56.502  154.914
  390.750   10.779    0.340    0.444   54.567  154.941
  391.000    9.129    0.342    0.436   54.460  155.170
  391.250    7.615    0.351    0.430   54.780  155.297
  391.500    7.196    0.357    0.426   52.601  155.530
  391.750    6.995    0.364    0.424   51.029  155.554
  392.000    6.903    0.345    0.420   49.825  155.784
  392.250    6.877    0.334    0.427   48.989  156.013
  392.500    6.903    0.335    0.439   49.003  156.144
  392.750    6.929    0.339    0.425   49.264  156.170
