~VERSION INFORMATION
 VERS.                 2.0:   CWLS LOG ASCII STANDARD -VERSION 2.0
 WRAP.                  NO:   ONE LINE PER DEPTH STEP
~WELL INFORMATION BLOCK
#MNEM.UNIT           DATA                    DESCRIPTION OF MNEMONIC
#---------    -------------------            -------------------------------
# Generated from Intellog Unique Number	CS_77_79/WELL/997
WELL.         HOME OIL COMPANY LIMITED       : Well_name    - WELL
LOC .         00/11-21-077-07W4/0            : Location     - LOCATION
UWI .         00/11-21-077-07W4/0            : Uwi          - UNIQUE WELL ID
ENTR.         SP                             : Entered      - ENTERED BY
SRVC.         SCHLUMBERGER                   : Scn          - SERVICE COMPANY
STRT.M        124.968                        : top_depth    - START DEPTH
STOP.M        354.218                        : bot_depth    - STOP DEPTH
STEP.M        0.25                           : increment    - STEP LENGTH
 NULL. -999.2500:NULL Value
~CURVE INFORMATION BLOCK
#MNEM UNIT       ERCB CURVE CODE    CURVE DESCRIPTION
#-----------   ------------------   ----------------------------------
DEPT.M        00 001 00 00         : DEPTH        - DEPTH
RHOB.KG/M3    00 350 00 00         : DENS         - BULK DENSITY
GR  .API      00 310 00 00         : GR           - GAMMA RAY
DPHI.V/V      00 890 00 00         : PHID         - DENSITY POROSITY (SANDSTONE)
NPHI.V/V      00 330 00 00         : PHIN         - NEUTRON POROSITY (SANDSTONE)
ILD .OHMM     00 120 00 00         : RESD         - DEEP RESISTIVITY (DIL)
~PARAMETER INFORMATION
#MNEM.UNIT           DATA             DESCRIPTION OF MNEMONIC
#---------         -----------     ------------------------------
GL  .M        556.4                : gl           - GROUND LEVEL ELEVATION
EREF.M        560.4                : kb           - ELEVATION OF DEPTH REFERENCE
DATM.M        571.652              : datum        - DATUM ELEVATION
TDD .M        389.534              : tdd          - TOTAL DEPTH DRILLER
RUN .         ONE                  : Run          - RUN NUMBER
ENG .         BILL                 : Engineer     - RECORDING ENGINEER
WIT .         JIM                  : Witness      - WITNESSED BY
MUD .         GEL                  : Mud_type     - MUD TYPE
MATR.         SANDSTONE            : Logunit      - NEUTRON MATRIX
TMAX.C        23.3333              : BHT          - MAXIMUM RECORDED TEMPERATURE
BHTD.M        389.534              : BHTDEP       - MAXIMUM RECORDED TEMPERATURE
MATR.         1                    : LOGUNIT      - NEUTRON MATRIX
RMT .C        25                   : MDTP         - TEMPERATURE OF MUD
NEUT.         1                    : NEUTRON      - NEUTRON TYPE
RESI.         0                    : RESIST       - RESISTIVITY TYPE
RMC .OHMM     0.25                 : RMC          - RESISTIVITY OF MUD CAKE
RMF .OHMM     0.25                 : RMF          - RESISTIVITY OF MUD FILTRATE
SUFT.C        15                   : SUFT         - SURFACE TEMPERATURE
~A  DEPTH     DENS       GR     PHID     PHIN     RESD
# ...
  197.968   -0.000   69.741    0.269    0.437   22.495
  198.218   -0.000   69.401    0.281    0.439   22.034
  198.468   -0.000   68.383    0.290    0.448   22.056
  198.718    0.000   66.763    0.291    0.451   22.049
  198.968    0.000   67.377    0.291    0.448   21.995
  199.218    0.000   67.868    0.296    0.444   22.480
  199.468   -0.000   67.354    0.302    0.440   22.444
  199.718   -0.000   65.806    0.299    0.440   22.636
  199.968   -0.000   64.192    0.302    0.439   22.873
  200.218    0.000   64.199    0.309    0.440   23.284
  200.468    0.000   64.263    0.315    0.448   23.222
  200.718    0.000   66.642    0.320    0.444   23.691
  200.968   -0.000   66.180    0.322    0.448   23.665
  201.218   -0.000   65.058    0.313    0.452   23.662
  201.468    0.000   62.970    0.302    0.455   23.654
  201.718    0.000   63.257    0.286    0.457   23.598
  201.968    0.000   64.195    0.292    0.445   24.120
  202.218   -0.000   63.639    0.299    0.441   24.072
  202.468   -0.000   61.894    0.307    0.447   24.110
  202.718   -0.000   61.771    0.312    0.445   23.589
  202.968    0.000   61.867    0.307    0.446   23.242
  203.218    0.000   59.681    0.300    0.454   23.205
  203.468    0.000   57.363    0.296    0.465   22.694
  203.718   -0.000   57.742    0.291    0.465   22.712
  203.968   -0.000   59.378    0.286    0.442   22.697
  204.218    0.000   61.627    0.281    0.439   22.688
  204.468    0.000   61.808    0.276    0.459   22.678
  204.718    0.000   58.637    0.284    0.475   22.670
  204.968   -0.000   57.947    0.302    0.490   22.662
  205.218   -0.000   57.912    0.294    0.502   22.635
  205.468   -0.000   58.773    0.296    0.494   22.562
  205.718    0.000   60.308    0.309    0.476   22.288
  205.968    0.000   60.062    0.311    0.464   20.868
  206.218    0.000   59.774    0.296    0.463   20.979
  206.468   -0.000   61.286    0.279    0.450   21.017
  206.718   -0.000   62.374    0.274    0.447   20.541
  206.968   -0.000   63.376    0.269    0.449   20.571
  207.218    0.000   64.432    0.274    0.446   20.845
  207.468    0.000   63.363    0.279    0.447   20.941
  207.718   -0.000   61.523    0.275    0.457   20.933
  207.968   -0.000   60.593    0.272    0.457   20.412
  208.218   -0.000   58.946    0.275    0.459   20.591
  208.468    0.000   59.098    0.282    0.455   20.522
  208.718    0.000   58.439    0.273    0.476   20.516
  208.968    0.000   57.766    0.274    0.466   20.508
  209.218   -0.000   58.172    0.280    0.455   20.501
  209.468   -0.000   60.488    0.282    0.447   20.494
  209.718   -0.000   63.477    0.272    0.457   20.487
  209.968    0.000   65.489    0.271    0.458   20.471
  210.218    0.000   67.115    0.276    0.454   20.370
  210.468    0.000   65.659    0.271    0.449   19.708
  210.718   -0.000   66.659    0.263    0.441   18.343
  210.968   -0.000   68.668    0.261    0.454   14.815
  211.218    0.000   72.802    0.252    0.460   11.768
  211.468    0.000   75.725    0.209    0.452   10.089
  211.718    0.000   80.965    0.173    0.446    8.656
  211.968   -0.000   85.421    0.158    0.470    7.916
  212.218   -0.000   88.451    0.175    0.477    7.447
  212.468   -0.000   93.762    0.185    0.480    7.001
  212.718    0.000   95.058    0.165    0.480    6.675
  212.968    0.000   96.387    0.139    0.478    6.464
  213.218    0.000   97.752    0.149    0.476    6.399
  213.468   -0.000   98.169    0.161    0.474    6.283
  213.718   -0.000   98.285    0.161    0.472    6.121
  213.968    0.000   98.923    0.160    0.458    5.938
  214.218    0.000  100.272    0.165    0.450    5.777
  214.468    0.000  102.535    0.155    0.450    5.338
  214.718   -0.000  105.484    0.158    0.462    5.032
  214.968   -0.000  105.298    0.159    0.475    4.760
  215.218   -0.000  103.660    0.155    0.482    4.714
  215.468    0.000  103.117    0.165    0.475    4.487
  215.718    0.000  104.820    0.178    0.474    4.359
  215.968    0.000  106.765    0.185    0.484    4.136
  216.218   -0.000  106.769    0.181    0.499    3.831
  216.468   -0.000  106.914    0.161    0.521    3.573
  216.718   -0.000  107.956    0.160    0.539    3.250
  216.968    0.000  107.860    0.165    0.535    3.188
  217.218    0.000  108.484    0.179    0.513    3.184
  217.468   -0.000  107.334    0.184    0.526    3.246
  217.718   -0.000  105.047    0.186    0.536    3.301
  217.968   -0.000  101.704    0.193    0.543    3.599
  218.218    0.000  102.453    0.182    0.542    3.755
  218.468    0.000   98.988    0.169    0.535    4.020
  218.718    0.000   96.214    0.191    0.497    4.303
  218.968   -0.000   94.372    0.196    0.504    4.429
  219.218   -0.000   97.528    0.189    0.517    4.538
  219.468   -0.000  101.444    0.188    0.523    4.430
  219.718    0.000  108.244    0.176    0.532    3.865
  219.968    0.000  106.218    0.167    0.542    3.691
  220.218   -0.000  109.587    0.159    0.534    3.485
  220.468   -0.000  110.369    0.155    0.568    3.373
  220.718   -0.000  108.376    0.170    0.582    3.355
  220.968    0.000  104.870    0.173    0.564    3.352
  221.218    0.000  101.763    0.169    0.566    3.353
  221.468    0.000  101.089    0.179    0.564    3.359
  221.718   -0.000  102.176    0.166    0.509    3.412
  221.968   -0.000  101.324    0.181    0.515    3.378
  222.218   -0.000  101.091    0.188    0.537    3.337
  222.468    0.000  100.972    0.215    0.548    3.221
  222.718    0.000  101.138    0.209    0.545    3.151
  222.968    0.000   99.245    0.220    0.562    3.222
  223.218   -0.000   99.842    0.252    0.569    3.584
  223.468   -0.000   98.148    0.240    0.545    3.981
  223.718    0.000   92.056    0.188    0.499    4.568
  223.968    0.000   88.557    0.213    0.474    5.183
  224.218    0.000   89.164    0.167    0.476    5.421
  224.468   -0.000   90.568    0.176    0.477    5.413
  224.718   -0.000   91.994    0.174    0.484    5.318
  224.968   -0.000   91.863    0.192    0.483    5.093
  225.218    0.000   89.820    0.189    0.480    4.912
  225.468    0.000   87.781    0.184    0.484    5.021
  225.718    0.000   89.629    0.199    0.496    5.121
  225.968   -0.000   89.050    0.206    0.501    5.208
  226.218   -0.000   83.050    0.203    0.509    5.180
  226.468    0.000   86.346    0.186    0.500    5.011
  226.718    0.000   90.130    0.203    0.499    4.664
  226.968    0.000   90.629    0.208    0.521    4.026
  227.218   -0.000   88.991    0.221    0.532    3.725
  227.468   -0.000   84.062    0.242    0.545    3.737
  227.718   -0.000   79.241    0.267    0.545    4.042
  227.968    0.000   75.374    0.254    0.501    4.865
  228.218    0.000   69.969    0.266    0.477    6.118
  228.468    0.000   65.475    0.289    0.488    8.245
  228.718   -0.000   66.580    0.291    0.473    9.447
  228.968   -0.000   66.124    0.298    0.476   10.120
  229.218   -0.000   65.018    0.289    0.480   10.328
  229.468    0.000   65.719    0.291    0.468   10.008
  229.718    0.000   67.577    0.291    0.456    9.691
  229.968   -0.000   69.777    0.284    0.443    9.581
  230.218   -0.000   70.560    0.275    0.447    9.380
  230.468   -0.000   68.902    0.267    0.456    9.388
  230.718    0.000   67.376    0.267    0.462    9.404
  230.968    0.000   67.757    0.273    0.469    9.857
  231.218    0.000   67.445    0.279    0.456   10.258
  231.468   -0.000   68.491    0.275    0.446   10.099
  231.718   -0.000   68.441    0.273    0.453   10.100
  231.968   -0.000   69.818    0.264    0.459   10.097
  232.218    0.000   70.224    0.263    0.456   10.093
  232.468    0.000   69.141    0.269    0.458   10.088
  232.718    0.000   66.714    0.262    0.449   10.085
  232.968   -0.000   66.191    0.254    0.457   10.082
  233.218   -0.000   64.686    0.254    0.466   10.092
  233.468    0.000   65.978    0.257    0.467    9.887
  233.718    0.000   68.056    0.272    0.464    9.985
  233.968    0.000   68.399    0.270    0.452    9.884
  234.218   -0.000   67.294    0.269    0.461    9.874
