~VERSION INFORMATION
 VERS.                 2.0:   CWLS LOG ASCII STANDARD -VERSION 2.0
 WRAP.                  NO:   ONE LINE PER DEPTH STEP
~WELL INFORMATION BLOCK
#MNEM.UNIT           DATA                    DESCRIPTION OF MNEMONIC
#---------    -------------------            -------------------------------
# Generated from Intellog Unique Number	CS_69_70/WELL/899
WELL.         BOW VALLEY INDUSTRIES          : Well_name    - WELL
LOC .         00/11-26-069-12W4/0            : Location     - LOCATION
UWI .         00/11-26-069-12W4/0            : Uwi          - UNIQUE WELL ID
ENTR.         SP                             : Entered      - ENTERED BY
SRVC.         SCHLUMBERGER                   : Scn          - SERVICE COMPANY
STRT.M        265                            : top_depth    - START DEPTH
STOP.M        470                            : bot_depth    - STOP DEPTH
STEP.M        0.25                           : increment    - STEP LENGTH
 NULL. -999.2500:NULL Value
~CURVE INFORMATION BLOCK
#MNEM UNIT       ERCB CURVE CODE    CURVE DESCRIPTION
#-----------   ------------------   ----------------------------------
DEPT.M        00 001 00 00         : DEPTH        - DEPTH
ILD .OHMM     00 120 00 00         : RESD         - DEEP RESISTIVITY (DIL)
DPHI.V/V      00 890 00 00         : PHID         - DENSITY POROSITY (LIMESTONE)
NPHI.V/V      00 330 00 00         : PHIN         - NEUTRON POROSITY (LIMESTONE)
GR  .API      00 310 00 00         : GR           - GAMMA RAY
~PARAMETER INFORMATION
#MNEM.UNIT           DATA             DESCRIPTION OF MNEMONIC
#---------         -----------     ------------------------------
GL  .M        587.6                : gl           - GROUND LEVEL ELEVATION
EREF.M        590.3                : kb           - ELEVATION OF DEPTH REFERENCE
DATM.M        587.6                : datum        - DATUM ELEVATION
TDD .M        475                  : tdd          - TOTAL DEPTH DRILLER
RUN .         ONE                  : Run          - RUN NUMBER
ENG .         BILL                 : Engineer     - RECORDING ENGINEER
WIT .         JIM                  : Witness      - WITNESSED BY
MUD .         GEL                  : Mud_type     - MUD TYPE
MATR.         LIMESTONE            : Logunit      - NEUTRON MATRIX
TMAX.C        14.4                 : BHT          - MAXIMUM RECORDED TEMPERATURE
BHTD.M        475                  : BHTDEP       - MAXIMUM RECORDED TEMPERATURE
MATR.         1                    : LOGUNIT      - NEUTRON MATRIX
RMT .C        25                   : MDTP         - TEMPERATURE OF MUD
NEUT.         1                    : NEUTRON      - NEUTRON TYPE
RESI.         0                    : RESIST       - RESISTIVITY TYPE
RMC .OHMM     0.25                 : RMC          - RESISTIVITY OF MUD CAKE
RMF .OHMM     0.25                 : RMF          - RESISTIVITY OF MUD FILTRATE
SUFT.C        15                   : SUFT         - SURFACE TEMPERATURE
~A  DEPTH     RESD     PHID     PHIN       GR
# ...
  439.000    4.240    0.235    0.405  116.468
  439.250    4.494    0.226    0.404  119.524
  439.500    4.799    0.197    0.406  109.536
  439.750    5.331    0.065    0.398  101.908
  440.000    5.494    0.040    0.380  103.570
  440.250    5.578    0.145    0.376  109.902
  440.500    5.728    0.181    0.386  110.227
  440.750    5.904    0.207    0.387  103.573
  441.000    6.006    0.225    0.380   97.104
  441.250    6.110    0.241    0.374   91.906
  441.500    6.195    0.253    0.383   92.654
  441.750    6.173    0.247    0.385   99.169
  442.000    6.130    0.237    0.383  100.283
  442.250    5.671    0.226    0.375  104.432
  442.500    5.823    0.211    0.364  121.383
  442.750    6.115    0.198    0.354  120.919
  443.000    6.433    0.210    0.347  102.190
  443.250    6.781    0.230    0.333   87.466
  443.500    7.134    0.242    0.321   78.628
  443.750    7.561    0.242    0.347   79.743
  444.000    8.044    0.243    0.367   79.460
  444.250    8.526    0.247    0.358   82.458
  444.500    8.870    0.250    0.336   87.941
  444.750    9.228    0.238    0.331   93.241
  445.000    9.129    0.233    0.346   97.630
  445.250    8.306    0.222    0.357  102.813
  445.500    7.307    0.207    0.361   98.767
  445.750    6.586    0.197    0.347   87.020
  446.000    6.207    0.239    0.331   81.212
  446.250    5.873    0.269    0.350   74.862
  446.500    5.756    0.291    0.375   69.909
  446.750    5.726    0.293    0.392   73.208
  447.000    5.826    0.285    0.398   79.721
  447.250    6.164    0.287    0.388   81.380
  447.500    6.569    0.290    0.378   79.340
  447.750    6.873    0.267    0.368   82.942
  448.000    6.538    0.248    0.367   89.155
  448.250    5.450    0.230    0.362  100.099
  448.500    4.875    0.211    0.401  110.495
  448.750    4.345    0.191    0.432  128.357
  449.000    3.917    0.174    0.478  130.868
  449.250    3.671    0.179    0.495  127.977
  449.500    3.571    0.160    0.479  127.996
  449.750    3.600    0.133    0.469  126.926
  450.000    3.717    0.112    0.474  124.459
  450.250    4.037    0.115    0.486  121.993
  450.500    4.137    0.169    0.468  113.034
  450.750    4.320    0.222    0.409  101.224
  451.000    4.125    0.254    0.379   89.231
  451.250    3.589    0.277    0.363   77.845
  451.500    3.070    0.297    0.361   63.181
  451.750    2.799    0.310    0.364   55.557
  452.000    2.628    0.317    0.365   59.462
  452.250    2.491    0.313    0.363   64.281
  452.500    2.410    0.306    0.373   67.151
  452.750    2.371    0.307    0.381   72.276
  453.000    2.407    0.307    0.386   74.293
  453.250    2.519    0.294    0.388   76.380
  453.500    2.635    0.283    0.389   81.984
  453.750    2.819    0.274    0.388   87.713
  454.000    3.090    0.274    0.386   90.704
  454.250    3.374    0.270    0.379   94.004
  454.500    3.733    0.254    0.371   97.484
  454.750    3.986    0.226    0.363  101.146
  455.000    4.280    0.209    0.354  104.989
  455.250    4.579    0.201    0.348  109.198
  455.500    4.772    0.196    0.342  113.529
  455.750    4.919    0.192    0.343  116.645
  456.000    5.005    0.189    0.356  120.794
  456.250    4.979    0.194    0.370  124.030
  456.500    4.907    0.204    0.372  122.902
  456.750    4.775    0.195    0.360  124.316
  457.000    4.653    0.138    0.385  126.038
  457.250    4.510    0.087    0.414  125.088
  457.500    4.340    0.118    0.430  120.439
  457.750    4.285    0.127    0.427  118.337
  458.000    4.216    0.117    0.424  118.902
  458.250    4.178    0.127    0.419  123.658
  458.500    4.149    0.121    0.412  123.803
  458.750    4.120    0.103    0.403  118.605
  459.000    4.091    0.101    0.396  118.748
  459.250    4.062    0.114    0.396  122.656
  459.500    3.998    0.128    0.397  125.465
  459.750    3.970    0.137    0.407  127.430
  460.000    3.964    0.139    0.430  123.507
  460.250    3.957    0.131    0.433  119.523
  460.500    3.944    0.132    0.428  118.573
  460.750    3.932    0.134    0.423  121.873
  461.000    3.918    0.139    0.410  122.499
  461.250    3.891    0.145    0.409  124.341
  461.500    3.850    0.147    0.425  126.912
  461.750    3.801    0.146    0.436  128.512
  462.000    3.733    0.143    0.446  128.655
  462.250    3.659    0.137    0.461  129.889
  462.500    3.600    0.132    0.454  129.365
  462.750    3.561    0.128    0.437  126.537
  463.000    3.556    0.125    0.430  130.076
  463.250    3.544    0.142    0.439  131.311
  463.500    3.533    0.157    0.449  128.361
  463.750    3.528    0.158    0.458  127.533
  464.000    3.529    0.152    0.464  128.588
  464.250    3.531    0.144    0.464  126.059
  464.500    3.532    0.140    0.455  121.166
  464.750    3.573    0.136    0.447  115.180
  465.000    3.795    0.143    0.443  105.673
  465.250    4.238    0.136    0.442   92.344
  465.500    4.644    0.114    0.359   85.027
  465.750    5.196    0.098    0.339   83.711
  466.000    5.653    0.096    0.330   83.917
  466.250    5.980    0.096    0.323   84.058
  466.500    6.519    0.079    0.316   84.266
  466.750    6.974    0.076    0.302   84.343
  467.000    7.602    0.092    0.292   84.307
  467.250    8.087    0.093    0.281   84.448
  467.500    8.555    0.091    0.277   84.470
  467.750    9.221    0.087    0.278   84.372
  468.000    9.902    0.080    0.280   84.514
  468.250   10.854    0.068    0.282   84.598
  468.500   11.568    0.057    0.283   84.560
  468.750   12.102    0.049    0.280   84.762
  469.000   12.544    0.048    0.277   84.608
  469.250   12.644    0.063    0.274   84.455
  469.500   12.625    0.054    0.309   84.348
  469.750   12.633    0.046    0.334   84.246
  470.000   12.707    0.057    0.373   84.323
