~VERSION INFORMATION
 VERS.                 2.0:   CWLS LOG ASCII STANDARD -VERSION 2.0
 WRAP.                  NO:   ONE LINE PER DEPTH STEP
~WELL INFORMATION BLOCK
#MNEM.UNIT           DATA                    DESCRIPTION OF MNEMONIC
#---------    -------------------            -------------------------------
# Generated from Intellog Unique Number	CS_73_76/WELL/3230
WELL.         HOME OIL COMPANY LIMITED       : Well_name    - WELL
LOC .         00/10-06-076-07W4/0            : Location     - LOCATION
UWI .         00/10-06-076-07W4/0            : Uwi          - UNIQUE WELL ID
ENTR.         SP                             : Entered      - ENTERED BY
SRVC.         SCHLUMBERGER                   : Scn          - SERVICE COMPANY
STRT.M        237.744                        : top_depth    - START DEPTH
STOP.M        459.994                        : bot_depth    - STOP DEPTH
STEP.M        0.25                           : increment    - STEP LENGTH
 NULL. -999.2500:NULL Value
~CURVE INFORMATION BLOCK
#MNEM UNIT       ERCB CURVE CODE    CURVE DESCRIPTION
#-----------   ------------------   ----------------------------------
DEPT.M        00 001 00 00         : DEPTH        - DEPTH
GR  .API      00 310 00 00         : GR           - GAMMA RAY
DPHI.V/V      00 890 00 00         : PHID         - DENSITY POROSITY (SANDSTONE)
NPHI.V/V      00 330 00 00         : PHIN         - NEUTRON POROSITY (SANDSTONE)
ILD .OHMM     00 120 00 00         : RESD         - DEEP RESISTIVITY (DIL)
~PARAMETER INFORMATION
#MNEM.UNIT           DATA             DESCRIPTION OF MNEMONIC
#---------         -----------     ------------------------------
GL  .M        647.669              : gl           - GROUND LEVEL ELEVATION
EREF.M        651.51               : kb           - ELEVATION OF DEPTH REFERENCE
DATM.M        647.669              : datum        - DATUM ELEVATION
TDD .M        488.899              : tdd          - TOTAL DEPTH DRILLER
RUN .         ONE                  : Run          - RUN NUMBER
ENG .         BILL                 : Engineer     - RECORDING ENGINEER
WIT .         JIM                  : Witness      - WITNESSED BY
MUD .         GEL                  : Mud_type     - MUD TYPE
MATR.         SANDSTONE            : Logunit      - NEUTRON MATRIX
TMAX.C        15                   : BHT          - MAXIMUM RECORDED TEMPERATURE
BHTD.M        488.899              : BHTDEP       - MAXIMUM RECORDED TEMPERATURE
MATR.         1                    : LOGUNIT      - NEUTRON MATRIX
RMT .C        25                   : MDTP         - TEMPERATURE OF MUD
NEUT.         1                    : NEUTRON      - NEUTRON TYPE
RESI.         0                    : RESIST       - RESISTIVITY TYPE
RMC .OHMM     0.25                 : RMC          - RESISTIVITY OF MUD CAKE
RMF .OHMM     0.25                 : RMF          - RESISTIVITY OF MUD FILTRATE
SUFT.C        15                   : SUFT         - SURFACE TEMPERATURE
~A  DEPTH       GR     PHID     PHIN     RESD
  237.744  104.441    0.167    0.525    2.924
  237.994  105.568    0.178    0.543    2.962
  238.244  105.023    0.161    0.539    2.978
  238.494  103.895    0.147    0.534    2.976
  238.744  102.681    0.121    0.521    3.042
  238.994   99.070    0.087    0.505    3.046
  239.244   97.857    0.137    0.489    3.086
  239.494  106.043    0.161    0.493    3.248
  239.744  112.040    0.164    0.532    3.342
  239.994  112.501    0.156    0.508    3.432
  240.244  113.140    0.150    0.510    3.701
  240.494  113.375    0.149    0.522    3.884
  240.744  110.124    0.140    0.514    4.161
  240.994  107.321    0.153    0.477    4.291
  241.244  104.947    0.165    0.467    4.258
  241.494  102.629    0.180    0.462    4.128
  241.744  105.422    0.165    0.464    3.999
  241.994  105.615    0.163    0.496    3.945
  242.244  103.827    0.151    0.504    3.980
  242.494  103.551    0.153    0.519    4.116
  242.744  100.956    0.146    0.530    4.391
  242.994   96.115    0.112    0.497    4.540
  243.244   85.601    0.065    0.399    4.578
  243.494   79.724    0.152    0.377    4.502
  243.744   84.237    0.224    0.416    4.398
  243.994   93.915    0.195    0.451    4.498
  244.244  100.302    0.181    0.482    4.818
  244.494  101.467    0.182    0.507    5.211
  244.744   99.966    0.180    0.498    6.146
  244.994   93.580    0.175    0.456    7.210
  245.244   93.829    0.199    0.438    8.048
  245.494   95.471    0.189    0.430    9.263
  245.744   99.367    0.208    0.431   10.375
  245.994   98.759    0.191    0.431   11.602
  246.244  102.983    0.169    0.428   12.303
  246.494  106.686    0.161    0.407   13.017
  246.744  110.278    0.159    0.400   13.405
  246.994  111.404    0.158    0.406   13.621
  247.244  112.581    0.170    0.390   13.861
  247.494  113.808    0.184    0.397   13.393
  247.744  109.907    0.189    0.406   12.464
  247.994  106.790    0.186    0.413   10.959
  248.244  101.289    0.181    0.412    9.087
  248.494   96.076    0.171    0.402    9.081
  248.744   90.890    0.170    0.389   10.182
  248.994   88.599    0.168    0.383   11.037
  249.244   87.209    0.173    0.378    9.821
  249.494   86.826    0.196    0.378    7.373
  249.744   84.659    0.192    0.390    6.390
  249.994   83.855    0.196    0.399    5.727
  250.244   84.558    0.212    0.397    5.519
  250.494   88.048    0.225    0.407    5.500
  250.744   94.906    0.211    0.415    6.541
  250.994  100.072    0.215    0.415    7.561
  251.244  104.860    0.227    0.452    9.035
  251.494  108.669    0.191    0.461   10.024
  251.744  111.250    0.187    0.474   10.653
  251.994  109.164    0.212    0.473    9.973
  252.244  104.591    0.225    0.463    8.254
  252.494   98.660    0.232    0.460    7.713
  252.744   92.149    0.221    0.441    9.041
  252.994   87.985    0.199    0.409   11.346
  253.244   89.290    0.192    0.401   13.865
  253.494   92.360    0.179    0.397   15.600
  253.744   94.120    0.168    0.402   15.265
  253.994   93.583    0.200    0.418   12.072
  254.244   94.390    0.220    0.427    7.834
  254.494   84.460    0.241    0.431    5.007
  254.744   73.217    0.233    0.424    4.083
  254.994   67.524    0.228    0.424    3.685
  255.244   64.079    0.240    0.430    3.462
  255.494   61.905    0.250    0.423    3.358
  255.744   60.627    0.244    0.425    3.591
  255.994   60.606    0.243    0.423    3.881
  256.244   61.706    0.237    0.426    4.070
  256.494   63.053    0.243    0.417    3.995
  256.744   64.052    0.249    0.413    3.811
  256.994   65.062    0.254    0.403    3.632
  257.244   65.972    0.261    0.395    3.633
  257.494   69.849    0.262    0.412    3.999
  257.744   75.543    0.249    0.429    4.306
  257.994   84.242    0.236    0.439    5.784
  258.244   91.114    0.227    0.428    7.659
  258.494   99.428    0.150    0.414    8.569
  258.744  104.350    0.150    0.426    8.712
  258.994  107.748    0.152    0.446    7.842
  259.244  107.884    0.134    0.462    6.986
  259.494  105.084    0.088    0.461    6.004
  259.744  110.954    0.151    0.461    5.464
  259.994  113.914    0.186    0.490    4.916
  260.244  113.020    0.160    0.526    4.500
  260.494  118.968    0.183    0.532    4.253
  260.744  121.740    0.194    0.534    4.002
  260.994  118.675    0.157    0.541    3.788
  261.244  114.146    0.141    0.547    3.864
  261.494  111.569    0.161    0.530    3.974
  261.744  109.485    0.199    0.511    4.396
  261.994  101.731    0.233    0.516    5.248
  262.244   92.851    0.250    0.528    5.659
  262.494   81.817    0.230    0.478    5.749
  262.744   76.090    0.213    0.410    5.493
  262.994   74.021    0.214    0.416    5.153
  263.244   73.573    0.217    0.419    5.006
  263.494   73.089    0.230    0.422    5.385
  263.744   74.705    0.229    0.427    5.886
  263.994   77.689    0.215    0.437    6.057
  264.244   79.035    0.213    0.434    6.051
  264.494   80.429    0.220    0.431    6.039
  264.744   81.167    0.229    0.416    6.202
  264.994   84.318    0.212    0.400    6.605
  265.244   87.167    0.208    0.410    6.964
  265.494   89.517    0.215    0.416    7.891
  265.744   93.715    0.211    0.415    8.618
  265.994   95.808    0.193    0.411    9.244
  266.244   99.106    0.193    0.405    9.842
  266.494  103.385    0.215    0.407   10.425
  266.744  102.221    0.195    0.414    9.714
  266.994   95.718    0.170    0.415    8.865
  267.244   92.330    0.155    0.411    7.736
  267.494  108.369    0.183    0.422    7.221
  267.744  115.037    0.136    0.457    7.042
  267.994  117.883    0.144    0.503    6.632
  268.244  119.890    0.167    0.493    6.251
  268.494  122.376    0.187    0.468    6.114
  268.744  124.902    0.193    0.473    5.471
  268.994  125.081    0.169    0.482    4.796
  269.244  120.187    0.186    0.461    4.614
  269.494  111.694    0.197    0.455    4.742
  269.744  105.128    0.218    0.435    5.886
  269.994  105.820    0.216    0.413    7.548
  270.244  106.962    0.195    0.412    8.833
  270.494  108.503    0.192    0.406   10.871
  270.744  110.182    0.189    0.404   12.414
  270.994  111.918    0.191    0.402   14.858
  271.244  113.329    0.198    0.415   16.824
  271.494  114.848    0.202    0.426   17.176
  271.744  113.996    0.212    0.428   16.206
  271.994  111.020    0.201    0.417   13.586
  272.244  100.816    0.206    0.413    9.516
  272.494   89.027    0.218    0.409    6.371
  272.744   74.567    0.198    0.403    5.748
  272.994   68.823    0.199    0.397    5.342
  273.244   64.905    0.196    0.386    4.915
  273.494   63.920    0.173    0.374    4.554
  273.744   63.095    0.204    0.370    4.464
  273.994   65.793    0.215    0.378    4.762
  274.244   68.013    0.190    0.380    5.037
  274.494   71.781    0.207    0.387    5.192
  274.744   73.573    0.220    0.397    5.257
  274.994   77.556    0.233    0.407    5.738
  275.244   79.995    0.209    0.409    6.159
  275.494   79.596    0.207    0.398    7.061
  275.744   84.775    0.199    0.392    7.642
  275.994   88.368    0.199    0.384    8.269
  276.244   93.916    0.195    0.388    9.194
  276.494   98.799    0.179    0.397   10.209
  276.744  103.332    0.180    0.409    9.724
  276.994  105.703    0.208    0.455    8.583
  277.244  107.239    0.227    0.508    7.640
  277.494  105.486    0.240    0.553    7.530
  277.744  105.071    0.266    0.541    7.949
  277.994  105.466    0.294    0.493    9.514
  278.244  103.878    0.231    0.466   10.403
  278.494   99.137    0.167    0.438   11.362
  278.744   99.251    0.174    0.412   11.827
  278.994  100.634    0.165    0.395   11.225
  279.244  107.363    0.157    0.405   10.873
  279.494  110.014    0.147    0.398   10.013
  279.744  118.762    0.155    0.396    9.391
  279.994  125.140    0.162    0.412    9.020
  280.244  121.379    0.137    0.423    8.606
  280.494  117.651    0.150    0.439    8.424
  280.744  114.762    0.155    0.462    8.476
  280.994  114.762    0.163    0.483    9.049
