~VERSION INFORMATION
 VERS.                 2.0:   CWLS LOG ASCII STANDARD -VERSION 2.0
 WRAP.                  NO:   ONE LINE PER DEPTH STEP
~WELL INFORMATION BLOCK
#MNEM.UNIT           DATA                    DESCRIPTION OF MNEMONIC
#---------    -------------------            -------------------------------
# Generated from Intellog Unique Number	CW_76_78/WELL/1031
WELL.         CHIEFCO PR ETAL PELICAN 11-34  : Well_name    - WELL
LOC .         00/11-34-077-22W4/0            : Location     - LOCATION
UWI .         00/11-34-077-22W4/0            : Uwi          - UNIQUE WELL ID
ENTR.         jj                             : Entered      - ENTERED BY
SRVC.         SCHLUMBERGER                   : Scn          - SERVICE COMPANY
DATE.         3 MAR 73                       : Date         - LOG DATE
STRT.M        277.368                        : top_depth    - START DEPTH
STOP.M        530.368                        : bot_depth    - STOP DEPTH
STEP.M        0.25                           : increment    - STEP LENGTH
 NULL. -999.2500:NULL Value
~CURVE INFORMATION BLOCK
#MNEM UNIT       ERCB CURVE CODE    CURVE DESCRIPTION
#-----------   ------------------   ----------------------------------
DEPT.M        00 001 00 00         : DEPTH        - DEPTH
DPHI.V/V      00 890 00 00         : PHID         - DENSITY POROSITY (SANDSTONE)
NPHI.V/V      00 330 00 00         : PHIN         - NEUTRON POROSITY (SANDSTONE)
GR  .API      00 310 00 00         : GR           - GAMMA RAY
CALI.MM       00 280 01 00         : CAL          - CALIPER
ILD .OHMM     00 120 00 00         : RESD         - DEEP RESISTIVITY (DIL)
~PARAMETER INFORMATION
#MNEM.UNIT           DATA             DESCRIPTION OF MNEMONIC
#---------         -----------     ------------------------------
GL  .M        606.095              : gl           - GROUND LEVEL ELEVATION
EREF.M        608.381              : kb           - ELEVATION OF DEPTH REFERENCE
DATM.M        606.095              : datum        - DATUM ELEVATION
TDD .M        534.01               : tdd          - TOTAL DEPTH DRILLER
RUN .         ONE                  : Run          - RUN NUMBER
MUD .         GEL CHEM             : Mud_type     - MUD TYPE
MATR.         SANDSTONE            : Logunit      - NEUTRON MATRIX
TMAX.C        24.4444              : BHT          - MAXIMUM RECORDED TEMPERATURE
BHTD.M        534.01               : BHTDEP       - MAXIMUM RECORDED TEMPERATURE
RMT .C        17.2222              : MDTP         - TEMPERATURE OF MUD
MUDD.KG/M     1080                 : MWT          - MUD DENSITY
NEUT.         1                    : NEUTRON      - NEUTRON TYPE
RESI.         0                    : RESIST       - RESISTIVITY TYPE
RM  .OHMM     3.07                 : RM           - RESISTIVITY OF MUD
RMC .OHMM     0                    : RMC          - RESISTIVITY OF MUD CAKE
RMF .OHMM     2.17                 : RMF          - RESISTIVITY OF MUD FILTRATE
SUFT.C        4.5                  : SUFT         - SURFACE TEMPERATURE
~A  DEPTH     PHID     PHIN       GR      CAL     RESD
# ...
  496.368    0.232    0.595  111.141  155.275    7.261
  496.618    0.263    0.571  101.650  155.585    7.663
  496.868    0.298    0.544   94.004  155.677    7.883
  497.118    0.297    0.514   93.105  155.446    7.905
  497.368    0.233    0.488   94.432  155.111    7.854
  497.618    0.204    0.443   93.024  154.880    7.818
  497.868    0.208    0.409   83.087  154.541    7.739
  498.118    0.234    0.399   84.351  154.311    7.760
  498.368    0.227    0.509   89.306  153.651    7.867
  498.618    0.211    0.536   95.217  153.529    7.960
  498.868    0.232    0.567   99.407  153.189    8.026
  499.118    0.256    0.540  100.227  152.851    7.975
  499.368    0.307    0.513   96.019  152.299    7.610
  499.618    0.171    0.475   85.955  151.530    6.899
  499.868    0.167    0.388   75.128  150.870    6.019
  500.118    0.166    0.368   53.481  148.268    5.337
  500.368    0.176    0.378   30.053  144.482    4.812
  500.618    0.239    0.400   21.771  143.065    4.347
  500.868    0.250    0.384   18.007  144.773    4.051
  501.118    0.228    0.369   16.408  147.024    3.788
  501.368    0.250    0.353   17.608  148.518    3.642
  501.618    0.251    0.348   20.782  148.828    3.566
  501.868    0.253    0.355   25.356  149.350    3.695
  502.118    0.280    0.368   34.002  149.979    4.314
  502.368    0.244    0.365   43.094  150.076    5.129
  502.618    0.219    0.358   54.732  150.707    5.688
  502.868    0.140    0.452   75.279  151.126    5.906
  503.118    0.163    0.459   96.208  151.865    5.771
  503.368    0.145    0.446   95.881  152.926    5.457
  503.618    0.151    0.401   61.379  153.022    5.095
  503.868    0.187    0.387   42.278  152.253    4.783
  504.118    0.228    0.380   33.869  150.298    4.564
  504.368    0.253    0.374   29.660  149.421    4.568
  504.618    0.230    0.369   32.643  149.189    4.733
  504.868    0.242    0.366   36.643  149.284    4.924
  505.118    0.245    0.364   39.054  149.700    5.047
  505.368    0.221    0.362   42.289  150.224    4.978
  505.618    0.218    0.360   44.636  150.963    4.811
  505.868    0.222    0.362   44.246  151.272    4.492
  506.118    0.243    0.369   41.437  151.150    4.217
  506.368    0.259    0.383   34.301  151.136    4.113
  506.618    0.285    0.409   28.311  151.229    4.178
  506.868    0.315    0.456   26.837  151.320    4.274
  507.118    0.334    0.475   29.056  151.416    4.309
  507.368    0.344    0.487   31.337  151.617    4.227
  507.618    0.334    0.493   32.094  151.603    4.027
  507.868    0.322    0.503   31.131  151.372    3.793
  508.118    0.304    0.428   29.722  151.574    3.687
  508.368    0.269    0.372   31.241  151.450    3.759
  508.618    0.268    0.377   35.814  151.329    4.485
  508.868    0.275    0.397   40.451  151.313    5.141
  509.118    0.269    0.409   47.825  150.866    5.516
  509.368    0.207    0.405   56.917  150.312    5.303
  509.618    0.159    0.417   69.955  150.086    4.987
  509.868    0.178    0.406   75.610  149.747    4.673
  510.118    0.216    0.346   69.238  149.732    4.370
  510.368    0.238    0.337   39.445  149.395    4.050
  510.618    0.271    0.367   34.536  149.165    3.739
  510.868    0.283    0.370   31.537  149.040    3.497
  511.118    0.274    0.356   28.091  148.918    3.307
  511.368    0.275    0.342   22.164  149.121    3.156
  511.618    0.283    0.364   19.546  149.215    3.011
  511.868    0.274    0.380   19.856  149.198    2.933
  512.118    0.289    0.376   21.057  149.184    2.909
  512.368    0.288    0.373   22.193  149.276    3.003
  512.618    0.288    0.372   23.456  149.263    3.106
  512.868    0.284    0.375   24.340  149.249    3.202
  513.118    0.283    0.376   25.540  149.451    3.234
  513.368    0.290    0.380   25.468  149.327    3.195
  513.618    0.272    0.382   25.142  149.313    3.163
  513.868    0.278    0.384   23.351  149.297    3.126
  514.118    0.293    0.387   19.778  149.389    3.122
  514.368    0.287    0.391   19.579  149.377    3.177
  514.618    0.275    0.394   21.352  149.255    3.263
  514.868    0.267    0.384   22.362  149.238    3.375
  515.118    0.265    0.371   22.035  149.225    3.447
  515.368    0.253    0.367   21.771  149.209    3.393
  515.618    0.257    0.371   23.355  149.304    3.292
  515.868    0.250    0.379   24.618  149.506    3.223
  516.118    0.275    0.385   24.483  149.491    3.190
  516.368    0.263    0.381   24.218  149.367    3.141
  516.618    0.267    0.376   24.909  149.245    3.093
  516.868    0.287    0.366   26.047  148.904    3.050
  517.118    0.276    0.357   28.903  148.678    3.104
  517.368    0.280    0.363   32.586  148.341    3.380
  517.618    0.274    0.373   37.732  148.434    3.866
  517.868    0.267    0.384   44.023  148.309    4.399
  518.118    0.257    0.383   51.843  148.297    4.747
  518.368    0.204    0.347   61.699  148.498    4.725
  518.618    0.153    0.319   65.190  149.022    4.476
  518.868    0.202    0.331   57.990  149.331    4.248
  519.118    0.200    0.335   40.671  149.529    4.128
  519.368    0.197    0.329   37.034  149.733    4.050
  519.618    0.197    0.321   36.072  149.824    4.031
  519.868    0.208    0.317   35.171  149.701    3.990
  520.118    0.213    0.317   34.337  149.687    3.808
  520.368    0.242    0.320   32.546  149.672    3.641
  520.618    0.242    0.334   31.264  149.335    3.424
  520.868    0.234    0.340   30.873  149.430    3.255
  521.118    0.254    0.337   31.309  149.090    3.141
  521.368    0.244    0.348   31.747  148.429    3.025
  521.618    0.239    0.375   32.948  146.798    3.095
  521.868    0.244    0.373   36.566  145.815    3.541
  522.118    0.229    0.374   43.049  145.798    4.022
  522.368    0.195    0.386   56.470  146.432    4.808
  522.618    0.143    0.391   72.498  147.279    5.706
  522.868    0.127    0.381   73.571  147.912    6.236
  523.118    0.138    0.357   70.380  148.219    6.094
  523.368    0.165    0.313   64.326  147.451    5.405
  523.618    0.141    0.319   72.082  146.898    4.698
  523.868    0.131    0.334   71.246  147.098    4.236
  524.118    0.187    0.337   66.528  147.408    3.868
  524.368    0.209    0.338   64.419  147.501    3.624
  524.618    0.217    0.349   66.320  147.916    3.536
  524.868    0.238    0.385   69.174  148.656    3.481
  525.118    0.240    0.402   70.885  149.074    3.477
  525.368    0.246    0.406   78.577  149.057    3.532
  525.618    0.252    0.413   79.204  148.826    3.580
  525.868    0.250    0.426   74.805  148.814    3.467
  526.118    0.256    0.403   42.849  149.014    3.333
  526.368    0.260    0.361   33.803  149.001    3.282
  526.618    0.247    0.356   33.094  148.770    3.278
  526.868    0.233    0.356   33.849  148.540    3.360
  527.118    0.232    0.347   35.877  148.526    3.566
  527.368    0.232    0.347   36.760  147.757    3.806
  527.618    0.223    0.343   38.851  146.988    4.083
  527.868    0.215    0.328   42.915  145.140    4.342
  528.118    0.198    0.291   53.408  143.509    4.491
  528.368    0.184    0.253   82.865  142.417    4.553
  528.618    0.170    0.207  106.147  141.971    4.574
  528.868    0.175    0.182  105.376  143.790    4.503
  529.118    0.170    0.151  110.840  146.685    4.425
  529.368    0.161    0.349  118.214  146.670    4.341
  529.618    0.169    0.356  126.160  145.255    4.234
  529.868    0.186    0.358  130.288  144.269    4.071
  530.118    0.202    0.357  125.761  143.823    3.913
  530.368    0.198    0.357  108.506  143.487    3.831
