~VERSION INFORMATION
 VERS.                 2.0:   CWLS LOG ASCII STANDARD -VERSION 2.0
 WRAP.                  NO:   ONE LINE PER DEPTH STEP
~WELL INFORMATION BLOCK
#MNEM.UNIT           DATA                    DESCRIPTION OF MNEMONIC
#---------    -------------------            -------------------------------
# Generated from Intellog Unique Number	CS_67_68/WELL/829
WELL.         SUNCOR                         : Well_name    - WELL
LOC .         00/11-10-068-18W4/0            : Location     - LOCATION
UWI .         00/11-10-068-18W4/0            : Uwi          - UNIQUE WELL ID
ENTR.         SP                             : Entered      - ENTERED BY
SRVC.         SCHLUMBERGER                   : Scn          - SERVICE COMPANY
STRT.M        275                            : top_depth    - START DEPTH
STOP.M        500                            : bot_depth    - STOP DEPTH
STEP.M        0.25                           : increment    - STEP LENGTH
 NULL. -999.2500:NULL Value
~CURVE INFORMATION BLOCK
#MNEM UNIT       ERCB CURVE CODE    CURVE DESCRIPTION
#-----------   ------------------   ----------------------------------
DEPT.M        00 001 00 00         : DEPTH        - DEPTH
ILD .OHMM     00 120 00 00         : RESD         - DEEP RESISTIVITY (DIL)
DPHI.V/V      00 890 00 00         : PHID         - DENSITY POROSITY (LIMESTONE)
NPHI.V/V      00 330 00 00         : PHIN         - NEUTRON POROSITY (LIMESTONE)
GR  .API      00 310 00 00         : GR           - GAMMA RAY
~PARAMETER INFORMATION
#MNEM.UNIT           DATA             DESCRIPTION OF MNEMONIC
#---------         -----------     ------------------------------
GL  .M        556                  : gl           - GROUND LEVEL ELEVATION
EREF.M        559.4                : kb           - ELEVATION OF DEPTH REFERENCE
DATM.M        556                  : datum        - DATUM ELEVATION
TDD .M        537                  : tdd          - TOTAL DEPTH DRILLER
RUN .         ONE                  : Run          - RUN NUMBER
ENG .         BILL                 : Engineer     - RECORDING ENGINEER
WIT .         JIM                  : Witness      - WITNESSED BY
MUD .         GEL                  : Mud_type     - MUD TYPE
MATR.         LIMESTONE            : Logunit      - NEUTRON MATRIX
TMAX.C        21                   : BHT          - MAXIMUM RECORDED TEMPERATURE
BHTD.M        527                  : BHTDEP       - MAXIMUM RECORDED TEMPERATURE
MATR.         1                    : LOGUNIT      - NEUTRON MATRIX
RMT .C        25                   : MDTP         - TEMPERATURE OF MUD
NEUT.         1                    : NEUTRON      - NEUTRON TYPE
RESI.         0                    : RESIST       - RESISTIVITY TYPE
RMC .OHMM     0.25                 : RMC          - RESISTIVITY OF MUD CAKE
RMF .OHMM     0.25                 : RMF          - RESISTIVITY OF MUD FILTRATE
SUFT.C        15                   : SUFT         - SURFACE TEMPERATURE
~A  DEPTH     RESD     PHID     PHIN       GR
# ...
  405.500    3.144    0.267    0.435   76.771
  405.750    3.217    0.282    0.416   76.972
  406.000    3.292    0.264    0.395   77.662
  406.250    3.445    0.234    0.384   79.328
  406.500    3.577    0.217    0.378   82.341
  406.750    3.716    0.219    0.389   82.725
  407.000    3.830    0.236    0.401   80.911
  407.250    3.890    0.252    0.414   80.742
  407.500    3.906    0.259    0.423   82.165
  407.750    3.864    0.248    0.414   85.912
  408.000    3.802    0.229    0.403   91.856
  408.250    3.754    0.211    0.396   94.804
  408.500    3.777    0.203    0.390   87.859
  408.750    3.865    0.200    0.390   84.209
  409.000    3.992    0.198    0.394   88.323
  409.250    4.130    0.195    0.414   91.148
  409.500    4.242    0.194    0.430   93.612
  409.750    4.364    0.193    0.413   94.542
  410.000    4.482    0.192    0.404   94.867
  410.250    4.544    0.198    0.419   95.558
  410.500    4.563    0.204    0.402   95.084
  410.750    4.582    0.207    0.389   92.172
  411.000    4.610    0.209    0.382   88.766
  411.250    4.604    0.202    0.379   87.194
  411.500    4.588    0.195    0.374   92.344
  411.750    4.523    0.199    0.379   95.600
  412.000    4.491    0.202    0.402   96.044
  412.250    4.443    0.199    0.421   94.965
  412.500    4.404    0.196    0.434   95.532
  412.750    4.374    0.192    0.420   96.952
  413.000    4.367    0.194    0.411   97.764
  413.250    4.370    0.192    0.406   95.948
  413.500    4.372    0.186    0.413   93.888
  413.750    4.374    0.181    0.421   92.807
  414.000    4.376    0.177    0.409   94.599
  414.250    4.386    0.182    0.403   98.832
  414.500    4.404    0.189    0.403  101.845
  414.750    4.390    0.182    0.413  103.448
  415.000    4.343    0.176    0.413  104.871
  415.250    4.289    0.173    0.419  106.479
  415.500    4.220    0.180    0.427  107.776
  415.750    4.174    0.193    0.436  108.039
  416.000    4.099    0.198    0.450  104.268
  416.250    4.003    0.196    0.468   99.094
  416.500    3.908    0.209    0.478   94.894
  416.750    3.718    0.222    0.453   91.431
  417.000    3.604    0.232    0.412   89.736
  417.250    3.460    0.241    0.394   88.043
  417.500    3.171    0.246    0.406   86.898
  417.750    2.889    0.251    0.420   87.893
  418.000    2.564    0.255    0.431   93.654
  418.250    2.112    0.249    0.430   98.622
  418.500    1.889    0.239    0.492  103.039
  418.750    1.838    0.247    0.524  105.805
  419.000    1.881    0.256    0.541  103.927
  419.250    2.105    0.235    0.528  101.929
  419.500    2.325    0.210    0.508  102.620
  419.750    2.573    0.195    0.464  101.783
  420.000    2.774    0.187    0.443   97.705
  420.250    2.941    0.199    0.444   91.489
  420.500    3.004    0.220    0.452   84.786
  420.750    3.051    0.234    0.438   78.693
  421.000    3.069    0.239    0.424   70.890
  421.250    3.065    0.246    0.416   73.842
  421.500    3.055    0.238    0.412   79.601
  421.750    3.114    0.228    0.409   86.708
  422.000    3.204    0.221    0.424   90.880
  422.250    3.340    0.216    0.429   92.974
  422.500    3.508    0.215    0.409   93.663
  422.750    3.644    0.212    0.403   95.454
  423.000    3.728    0.201    0.421   96.936
  423.250    3.786    0.191    0.436   97.015
  423.500    3.881    0.186    0.432   93.367
  423.750    4.192    0.183    0.433   89.840
  424.000    5.388    0.184    0.438   84.359
  424.250    7.674    0.187    0.348   73.256
  424.500    9.771    0.145    0.276   61.603
  424.750   11.675    0.097    0.261   57.160
  425.000   14.161    0.063    0.268   63.106
  425.250   16.484    0.086    0.273   66.971
  425.500   16.006    0.061    0.162   65.890
  425.750    9.244    0.031    0.157   64.258
  426.000    6.188    0.174    0.226   68.490
  426.250    4.739    0.230    0.286   72.540
  426.500    3.656    0.292    0.327   74.574
  426.750    3.103    0.303    0.364   72.147
  427.000    2.860    0.288    0.386   67.768
  427.250    2.751    0.267    0.406   65.095
  427.500    2.701    0.272    0.419   62.852
  427.750    2.628    0.306    0.434   61.830
  428.000    2.581    0.323    0.441   61.177
  428.250    2.515    0.303    0.440   60.521
  428.500    2.461    0.284    0.430   60.478
  428.750    2.398    0.284    0.410   60.190
  429.000    2.307    0.297    0.390   59.474
  429.250    2.248    0.285    0.405   58.147
  429.500    2.159    0.293    0.420   59.265
  429.750    2.088    0.292    0.415   61.115
  430.000    2.070    0.245    0.385   58.200
  430.250    2.056    0.229    0.350   56.813
  430.500    2.053    0.262    0.361   64.104
  430.750    2.058    0.291    0.373   69.070
  431.000    2.055    0.302    0.378   69.574
  431.250    2.052    0.288    0.383   70.203
  431.500    2.057    0.289    0.399   72.665
  431.750    2.069    0.297    0.400   75.371
  432.000    2.129    0.283    0.412   78.565
  432.250    2.317    0.261    0.423   82.248
  432.500    2.748    0.220    0.423   85.382
  432.750    3.217    0.204    0.419   81.611
  433.000    3.547    0.199    0.411   79.126
  433.250    3.810    0.196    0.407   80.487
  433.500    4.046    0.200    0.409   82.214
  433.750    4.250    0.212    0.413   83.024
  434.000    4.389    0.221    0.416   84.999
  434.250    4.466    0.202    0.405   89.292
  434.500    4.443    0.198    0.389   91.082
  434.750    4.363    0.210    0.384   86.028
  435.000    4.229    0.217    0.398   82.684
  435.250    4.106    0.222    0.406   86.247
  435.500    3.965    0.226    0.411   88.707
  435.750    3.879    0.205    0.397   90.130
  436.000    3.859    0.185    0.384   87.092
  436.250    3.993    0.179    0.378   83.934
  436.500    4.233    0.186    0.389   88.230
  436.750    4.388    0.198    0.398   91.850
  437.000    4.481    0.194    0.406   94.007
  437.250    4.534    0.183    0.395   94.573
  437.500    4.545    0.179    0.386   94.775
  437.750    4.573    0.174    0.381   94.673
  438.000    4.644    0.171    0.391   93.281
  438.250    4.751    0.169    0.401   91.468
  438.500    4.898    0.171    0.407   90.261
  438.750    4.873    0.176    0.391   94.557
  439.000    4.653    0.180    0.385   94.147
  439.250    4.409    0.177    0.397   90.316
  439.500    4.290    0.168    0.404   90.026
  439.750    4.267    0.164    0.405   92.671
  440.000    4.302    0.161    0.402   93.971
  440.250    4.385    0.174    0.404   92.706
  440.500    4.470    0.186    0.401   92.235
  440.750    4.514    0.188    0.394   93.535
  441.000    4.559    0.179    0.392   94.774
  441.250    4.561    0.176    0.394   95.586
  441.500    4.546    0.175    0.398   96.276
  441.750    4.523    0.173    0.406   97.454
  442.000    4.508    0.174    0.417  100.039
  442.250    4.510    0.178    0.430  102.744
  442.500    4.538    0.184    0.440  101.542
  442.750    4.574    0.196    0.428  100.518
  443.000    4.680    0.206    0.427   98.581
  443.250    4.691    0.194    0.450   92.794
  443.500    4.396    0.187    0.416   89.511
  443.750    3.902    0.186    0.371   89.957
  444.000    3.233    0.211    0.396   96.515
  444.250    2.859    0.244    0.474  101.295
  444.500    2.699    0.236    0.511  105.834
  444.750    2.621    0.226    0.491  108.052
  445.000    2.612    0.223    0.480  109.292
  445.250    2.633    0.229    0.488  108.270
  445.500    2.694    0.225    0.502  108.166
  445.750    2.726    0.219    0.479  109.345
  446.000    2.763    0.212    0.464  107.650
  446.250    2.806    0.208    0.462  106.692
  446.500    2.898    0.208    0.467  106.281
  446.750    3.016    0.216    0.470  104.221
  447.000    3.233    0.200    0.472   98.434
  447.250    3.558    0.148    0.428   92.340
  447.500    3.765    0.103    0.395   92.296
  447.750    3.845    0.080    0.385   98.425
  448.000    3.720    0.140    0.409  102.231
  448.250    3.619    0.166    0.418  104.632
  448.500    3.600    0.167    0.433  106.115
  448.750    3.739    0.164    0.450  107.786
