~VERSION INFORMATION
 VERS.                 2.0:   CWLS LOG ASCII STANDARD -VERSION 2.0
 WRAP.                  NO:   ONE LINE PER DEPTH STEP
~WELL INFORMATION BLOCK
#MNEM.UNIT           DATA                    DESCRIPTION OF MNEMONIC
#---------    -------------------            -------------------------------
# Generated from Intellog Unique Number	CS_71_72/WELL/853
WELL.         HOL BVX UNIGAS NIXON           : Well_name    - WELL
LOC .         00/10-10-071-15W4/0            : Location     - LOCATION
UWI .         00/10-10-071-15W4/0            : Uwi          - UNIQUE WELL ID
ENTR.         SP                             : Entered      - ENTERED BY
SRVC.         SCHLUMBERGER                   : Scn          - SERVICE COMPANY
STRT.M        313.944                        : top_depth    - START DEPTH
STOP.M        517.944                        : bot_depth    - STOP DEPTH
STEP.M        0.25                           : increment    - STEP LENGTH
 NULL. -999.2500:NULL Value
~CURVE INFORMATION BLOCK
#MNEM UNIT       ERCB CURVE CODE    CURVE DESCRIPTION
#-----------   ------------------   ----------------------------------
DEPT.M        00 001 00 00         : DEPTH        - DEPTH
GR  .API      00 310 00 00         : GR           - GAMMA RAY
DPHI.V/V      00 890 00 00         : PHID         - DENSITY POROSITY (SANDSTONE)
NPHI.V/V      00 330 00 00         : PHIN         - NEUTRON POROSITY (SANDSTONE)
ILD .OHMM     00 120 00 00         : RESD         - DEEP RESISTIVITY (DIL)
~PARAMETER INFORMATION
#MNEM.UNIT           DATA             DESCRIPTION OF MNEMONIC
#---------         -----------     ------------------------------
GL  .M        620.573              : gl           - GROUND LEVEL ELEVATION
EREF.M        623.011              : kb           - ELEVATION OF DEPTH REFERENCE
DATM.M        620.573              : datum        - DATUM ELEVATION
TDD .M        523.646              : tdd          - TOTAL DEPTH DRILLER
RUN .         ONE                  : Run          - RUN NUMBER
ENG .         BILL                 : Engineer     - RECORDING ENGINEER
WIT .         JIM                  : Witness      - WITNESSED BY
MUD .         GEL                  : Mud_type     - MUD TYPE
MATR.         SANDSTONE            : Logunit      - NEUTRON MATRIX
TMAX.C        21.6667              : BHT          - MAXIMUM RECORDED TEMPERATURE
BHTD.M        523.646              : BHTDEP       - MAXIMUM RECORDED TEMPERATURE
MATR.         1                    : LOGUNIT      - NEUTRON MATRIX
RMT .C        25                   : MDTP         - TEMPERATURE OF MUD
NEUT.         1                    : NEUTRON      - NEUTRON TYPE
RESI.         0                    : RESIST       - RESISTIVITY TYPE
RMC .OHMM     0.25                 : RMC          - RESISTIVITY OF MUD CAKE
RMF .OHMM     0.25                 : RMF          - RESISTIVITY OF MUD FILTRATE
SUFT.C        15                   : SUFT         - SURFACE TEMPERATURE
~A  DEPTH       GR     PHID     PHIN     RESD
  313.944   84.532    0.199    0.560    3.401
  314.194   80.137    0.211    0.560    3.232
  314.444   78.073    0.215    0.577    3.028
  314.694   87.432    0.216    0.624    2.791
  314.944   91.032    0.248    0.659    2.603
  315.194   93.738    0.262    0.652    2.510
  315.444   95.040    0.260    0.630    2.457
  315.694   94.523    0.261    0.613    2.503
  315.944   92.282    0.252    0.604    2.716
  316.194   89.963    0.247    0.596    2.794
  316.444   89.530    0.238    0.600    2.822
  316.694   91.612    0.241    0.631    2.781
  316.944   92.117    0.228    0.674    2.726
  317.194   93.093    0.242    0.668    2.801
  317.444   94.143    0.242    0.674    2.851
  317.694   92.692    0.248    0.649    2.821
  317.944   91.775    0.266    0.664    2.723
  318.194   92.018    0.279    0.631    2.664
  318.444   90.648    0.299    0.613    2.752
  318.694   89.713    0.317    0.614    2.922
  318.944   87.969    0.340    0.655    3.045
  319.194   85.344    0.363    0.699    3.063
  319.444   83.273    0.382    0.670    3.028
  319.694   86.112    0.387    0.641    2.877
  319.944   86.936    0.394    0.582    2.778
  320.194   85.758    0.404    0.612    2.797
  320.444   83.868    0.411    0.674    2.745
  320.694   82.754    0.424    0.751    2.943
  320.944   82.181    0.439    0.600    3.150
  321.194   81.950    0.428    0.547    3.538
  321.444   82.596    0.367    0.501    3.926
  321.694   88.448    0.312    0.481    4.334
  321.944   87.487    0.300    0.536    4.575
  322.194   79.580    0.320    0.578    4.810
  322.444   75.363    0.331    0.638    4.818
  322.694   73.626    0.321    0.495    4.516
  322.944   73.007    0.266    0.477    4.239
  323.194   73.635    0.253    0.484    3.962
  323.444   75.555    0.246    0.471    3.825
  323.694   75.790    0.247    0.456    3.757
  323.944   74.492    0.245    0.446    3.907
  324.194   76.854    0.239    0.452    4.143
  324.444   81.926    0.238    0.456    4.423
  324.694   85.995    0.241    0.440    4.686
  324.944   89.596    0.246    0.414    5.038
  325.194   90.418    0.249    0.454    5.045
  325.444   74.280    0.263    0.500    4.593
  325.694   61.009    0.288    0.555    4.124
  325.944   46.152    0.307    0.526    3.500
  326.194   35.392    0.322    0.449    2.969
  326.444   28.767    0.322    0.445    2.720
  326.694   24.405    0.315    0.452    2.440
  326.944   23.824    0.314    0.437    2.253
  327.194   24.052    0.315    0.418    2.194
  327.444   28.167    0.311    0.410    2.180
  327.694   31.886    0.306    0.423    2.179
  327.944   36.854    0.310    0.420    2.201
  328.194   40.132    0.309    0.412    2.249
  328.444   41.597    0.303    0.414    2.272
  328.694   42.828    0.301    0.428    2.295
  328.944   45.651    0.300    0.453    2.285
  329.194   51.637    0.302    0.472    2.270
  329.444   56.959    0.301    0.486    2.289
  329.694   61.380    0.300    0.496    2.334
  329.944   66.518    0.297    0.486    2.416
  330.194   69.637    0.294    0.486    2.471
  330.444   73.381    0.281    0.499    2.588
  330.694   77.047    0.274    0.487    2.813
  330.944   78.913    0.264    0.473    3.186
  331.194   79.299    0.253    0.446    3.484
  331.444   76.771    0.237    0.417    3.872
  331.694   73.064    0.232    0.393    4.248
  331.944   68.834    0.226    0.370    4.524
  332.194   64.442    0.222    0.355    4.732
  332.444   61.648    0.229    0.346    4.873
  332.694   63.103    0.249    0.378    4.903
  332.944   67.075    0.260    0.419    4.817
  333.194   71.065    0.266    0.463    4.557
  333.444   71.844    0.259    0.504    4.108
  333.694   68.576    0.270    0.492    3.773
  333.944   64.201    0.278    0.441    3.369
  334.194   61.731    0.310    0.420    3.053
  334.444   61.379    0.356    0.430    2.841
  334.694   60.723    0.403    0.449    2.955
  334.944   63.666    0.445    0.471    3.144
  335.194   66.419    0.493    0.521    3.410
  335.444   70.696    0.527    0.602    3.678
  335.694   74.365    0.541    0.709    3.911
  335.944   76.668    0.530    0.761    4.026
  336.194   77.393    0.547    0.783    4.005
  336.444   78.572    0.588    0.785    3.905
  336.694   77.159    0.624    0.786    3.791
  336.944   70.499    0.631    0.789    3.653
  337.194   67.298    0.630    0.779    3.533
  337.444   67.715    0.622    0.708    3.407
  337.694   70.039    0.613    0.732    3.342
  337.944   72.744    0.595    0.735    3.319
  338.194   73.680    0.554    0.731    3.240
  338.444   74.815    0.529    0.750    3.129
  338.694   76.710    0.516    0.682    2.950
  338.944   78.600    0.504    0.659    2.765
  339.194   79.846    0.495    0.642    2.631
  339.444   80.749    0.492    0.627    2.552
  339.694   80.677    0.468    0.610    2.654
  339.944   87.038    0.419    0.601    3.032
  340.194   93.442    0.323    0.607    3.372
  340.444   97.865    0.306    0.609    3.801
  340.694   99.979    0.294    0.591    4.121
  340.944   96.267    0.293    0.572    4.419
  341.194   90.773    0.287    0.571    4.649
  341.444   86.986    0.256    0.556    4.820
  341.694   83.237    0.242    0.539    4.937
  341.944   84.294    0.296    0.530    5.019
  342.194   90.970    0.353    0.526    4.990
  342.444   92.661    0.387    0.543    4.869
  342.694   93.503    0.426    0.585    4.597
  342.944   88.192    0.468    0.609    4.316
  343.194   82.360    0.515    0.658    4.020
  343.444   78.837    0.490    0.786    3.775
  343.694   81.236    0.440    0.683    3.655
  343.944   83.764    0.396    0.653    3.638
  344.194   82.863    0.362    0.626    3.662
  344.444   82.513    0.334    0.599    3.858
  344.694   88.274    0.297    0.558    4.080
  344.944   93.253    0.253    0.524    4.275
  345.194   97.974    0.227    0.515    4.386
  345.444  100.848    0.256    0.522    4.449
  345.694   99.957    0.266    0.505    4.385
  345.944   95.075    0.262    0.486    4.237
  346.194   88.345    0.259    0.468    4.096
  346.444   83.498    0.255    0.457    4.046
  346.694   82.757    0.253    0.458    4.242
  346.944   86.754    0.246    0.488    4.442
  347.194   90.058    0.239    0.507    4.686
  347.444   94.385    0.232    0.499    4.877
  347.694   97.326    0.223    0.486    4.998
  347.944   98.512    0.218    0.477    5.048
  348.194   96.127    0.214    0.473    5.030
  348.444   94.385    0.208    0.489    4.921
  348.694   95.375    0.202    0.508    4.784
  348.944  101.437    0.198    0.530    4.687
  349.194  105.536    0.202    0.549    4.617
  349.444  109.111    0.243    0.519    4.539
  349.694  111.032    0.243    0.495    4.529
  349.944  110.622    0.252    0.516    4.567
  350.194  106.109    0.254    0.537    4.656
  350.444   99.587    0.246    0.480    4.756
  350.694   95.896    0.236    0.452    4.940
  350.944  100.500    0.224    0.433    5.114
  351.194  102.478    0.215    0.420    5.195
  351.444  103.235    0.213    0.447    5.194
  351.694  105.138    0.224    0.455    5.096
  351.944  107.225    0.227    0.467    4.899
  352.194  108.176    0.220    0.503    4.725
  352.444  107.295    0.215    0.542    4.451
  352.694  104.912    0.212    0.574    4.281
  352.944  101.056    0.213    0.597    4.114
  353.194  102.385    0.223    0.623    3.946
  353.444  104.181    0.236    0.649    3.840
  353.694  103.122    0.234    0.583    3.761
  353.944  100.926    0.239    0.567    3.665
  354.194   96.085    0.244    0.559    3.571
  354.444   91.582    0.252    0.561    3.485
  354.694   91.480    0.257    0.586    3.445
  354.944   93.585    0.254    0.611    3.436
  355.194   94.192    0.252    0.569    3.558
  355.444   92.803    0.247    0.516    3.719
  355.694   91.104    0.244    0.490    3.921
  355.944   89.439    0.241    0.492    4.092
  356.194   85.258    0.238    0.498    4.211
  356.444   82.113    0.237    0.488    4.251
  356.694   81.216    0.238    0.485    4.231
  356.944   78.750    0.245    0.476    4.304
  357.194   75.361    0.254    0.464    4.413
