~VERSION INFORMATION
 VERS.                 2.0:   CWLS LOG ASCII STANDARD -VERSION 2.0
 WRAP.                  NO:   ONE LINE PER DEPTH STEP
~WELL INFORMATION BLOCK
#MNEM.UNIT           DATA                    DESCRIPTION OF MNEMONIC
#---------    -------------------            -------------------------------
# Generated from Intellog Unique Number	CS_71_72/WELL/898
WELL.         BVX ET AL NIXON                : Well_name    - WELL
LOC .         00/11-15-072-16W4/0            : Location     - LOCATION
UWI .         00/11-15-072-16W4/0            : Uwi          - UNIQUE WELL ID
ENTR.         SP                             : Entered      - ENTERED BY
SRVC.         SCHLUMBERGER                   : Scn          - SERVICE COMPANY
STRT.M        256.032                        : top_depth    - START DEPTH
STOP.M        435.532                        : bot_depth    - STOP DEPTH
STEP.M        0.25                           : increment    - STEP LENGTH
 NULL. -999.2500:NULL Value
~CURVE INFORMATION BLOCK
#MNEM UNIT       ERCB CURVE CODE    CURVE DESCRIPTION
#-----------   ------------------   ----------------------------------
DEPT.M        00 001 00 00         : DEPTH        - DEPTH
GR  .API      00 310 00 00         : GR           - GAMMA RAY
DPHI.V/V      00 890 00 00         : PHID         - DENSITY POROSITY (SANDSTONE)
NPHI.V/V      00 330 00 00         : PHIN         - NEUTRON POROSITY (SANDSTONE)
ILD .OHMM     00 120 00 00         : RESD         - DEEP RESISTIVITY (DIL)
~PARAMETER INFORMATION
#MNEM.UNIT           DATA             DESCRIPTION OF MNEMONIC
#---------         -----------     ------------------------------
GL  .M        577.596              : gl           - GROUND LEVEL ELEVATION
EREF.M        580.644              : kb           - ELEVATION OF DEPTH REFERENCE
DATM.M        577.596              : datum        - DATUM ELEVATION
TDD .M        438.912              : tdd          - TOTAL DEPTH DRILLER
RUN .         ONE                  : Run          - RUN NUMBER
ENG .         BILL                 : Engineer     - RECORDING ENGINEER
WIT .         JIM                  : Witness      - WITNESSED BY
MUD .         GEL                  : Mud_type     - MUD TYPE
MATR.         SANDSTONE            : Logunit      - NEUTRON MATRIX
TMAX.C        15.5556              : BHT          - MAXIMUM RECORDED TEMPERATURE
BHTD.M        438.912              : BHTDEP       - MAXIMUM RECORDED TEMPERATURE
MATR.         1                    : LOGUNIT      - NEUTRON MATRIX
RMT .C        25                   : MDTP         - TEMPERATURE OF MUD
NEUT.         1                    : NEUTRON      - NEUTRON TYPE
RESI.         0                    : RESIST       - RESISTIVITY TYPE
RMC .OHMM     0.25                 : RMC          - RESISTIVITY OF MUD CAKE
RMF .OHMM     0.25                 : RMF          - RESISTIVITY OF MUD FILTRATE
SUFT.C        15                   : SUFT         - SURFACE TEMPERATURE
~A  DEPTH       GR     PHID     PHIN     RESD
# ...
  386.532   71.569    0.302    0.475    4.283
  386.782   70.012    0.301    0.466    4.210
  387.032   69.046    0.292    0.456    4.257
  387.282   68.146    0.286    0.453    4.217
  387.532   68.196    0.295    0.462    4.225
  387.782   69.479    0.304    0.470    4.136
  388.032   70.079    0.311    0.474    4.147
  388.282   69.701    0.304    0.468    4.149
  388.532   68.752    0.308    0.464    4.149
  388.782   67.132    0.306    0.459    4.237
  389.032   65.895    0.301    0.452    4.313
  389.282   66.915    0.295    0.443    4.431
  389.532   70.171    0.302    0.443    4.487
  389.782   74.359    0.285    0.460    4.549
  390.032   80.783    0.277    0.467    4.484
  390.282   86.642    0.263    0.474    4.428
  390.532   93.534    0.255    0.473    4.197
  390.782   97.241    0.236    0.483    4.163
  391.032   98.743    0.232    0.507    3.967
  391.282   99.054    0.249    0.522    3.853
  391.532  100.152    0.254    0.526    3.741
  391.782  101.824    0.242    0.522    3.671
  392.032  101.883    0.247    0.504    3.760
  392.282  102.581    0.246    0.498    3.755
  392.532  103.394    0.233    0.509    3.710
  392.782  103.668    0.230    0.497    3.679
  393.032  103.288    0.221    0.482    3.565
  393.282  103.613    0.199    0.468    3.485
  393.532  103.642    0.194    0.455    3.574
  393.782   99.003    0.198    0.437    3.807
  394.032   91.481    0.206    0.398    4.243
  394.282   83.750    0.201    0.360    4.844
  394.532   74.073    0.143    0.322    5.945
  394.782   68.043    0.117    0.337    6.675
  395.032   65.022    0.105    0.350    7.979
  395.282   66.071    0.093    0.266    9.443
  395.532   67.250    0.071    0.259   11.225
  395.782   68.702    0.065    0.262   12.159
  396.032   69.610    0.068    0.269   13.034
  396.282   72.237    0.070    0.306   13.701
  396.532   75.810    0.100    0.350   13.175
  396.782   79.227    0.138    0.376   12.225
  397.032   81.885    0.166    0.392   10.837
  397.282   84.925    0.188    0.394    9.296
  397.532   88.817    0.207    0.405    7.766
  397.782   91.350    0.224    0.419    6.350
  398.032   91.680    0.235    0.438    5.889
  398.282   86.859    0.184    0.414    5.904
  398.532   82.906    0.157    0.370    6.422
  398.782   79.732    0.148    0.351    6.800
  399.032   86.637    0.133    0.346    7.593
  399.282   92.410    0.119    0.414    8.168
  399.532  100.165    0.139    0.444    8.114
  399.782  102.869    0.162    0.443    7.662
  400.032   98.752    0.176    0.429    7.109
  400.282   99.276    0.175    0.422    6.807
  400.532  105.951    0.153    0.417    6.685
  400.782  107.848    0.149    0.418    6.795
  401.032  107.929    0.134    0.418    7.022
  401.282  107.950    0.112    0.432    7.094
  401.532  105.289    0.138    0.442    7.013
  401.782  102.784    0.169    0.442    6.766
  402.032   98.456    0.163    0.440    6.482
  402.282  101.515    0.171    0.439    6.282
  402.532  103.596    0.175    0.444    6.249
  402.782  103.476    0.179    0.456    6.368
  403.032  102.896    0.163    0.464    6.444
  403.282  101.481    0.153    0.470    6.517
  403.532  100.603    0.141    0.438    6.637
  403.782  101.448    0.136    0.422    6.691
  404.032  105.656    0.165    0.421    6.760
  404.282  111.499    0.190    0.430    6.764
  404.532  113.139    0.194    0.433    6.724
  404.782  112.637    0.212    0.428    6.650
  405.032  109.872    0.213    0.415    6.456
  405.282  108.258    0.196    0.408    6.299
  405.532  107.984    0.204    0.403    6.197
  405.782  106.944    0.197    0.410    6.202
  406.032  106.483    0.188    0.424    6.222
  406.282  102.359    0.177    0.434    6.314
  406.532   98.271    0.192    0.432    6.450
  406.782   92.619    0.174    0.407    6.432
  407.032   93.013    0.146    0.392    6.334
  407.282   97.950    0.152    0.403    6.170
  407.532   99.838    0.192    0.421    5.993
  407.782  100.174    0.194    0.430    5.623
  408.032   97.400    0.180    0.435    4.702
  408.282   95.101    0.207    0.430    4.079
  408.532   96.743    0.221    0.474    3.362
  408.782  102.453    0.227    0.512    2.980
  409.032  107.026    0.231    0.525    2.547
  409.282  109.229    0.236    0.535    2.269
  409.532  108.931    0.227    0.548    2.121
  409.782  109.041    0.218    0.538    2.112
  410.032  108.940    0.205    0.506    2.401
  410.282  107.992    0.189    0.491    2.667
  410.532  105.212    0.178    0.471    3.173
  410.782  100.744    0.156    0.448    3.878
  411.032   96.033    0.167    0.421    4.598
  411.282   95.156    0.179    0.426    5.418
  411.532   89.583    0.184    0.402    6.470
  411.782   86.603    0.143    0.384    7.027
  412.032   83.488    0.100    0.357    7.096
  412.282   89.892    0.132    0.370    7.005
  412.532   92.369    0.165    0.395    6.693
  412.782   96.422    0.182    0.407    6.414
  413.032   97.128    0.171    0.413    6.449
  413.282   85.765    0.153    0.402    6.652
  413.532   77.542    0.108    0.344    7.054
  413.782   74.132    0.074    0.306    7.496
  414.032   76.286    0.063    0.316    7.832
  414.282   83.195    0.104    0.360    8.072
  414.532   86.867    0.135    0.398    8.075
  414.782   93.510    0.166    0.406    7.560
  415.032   99.239    0.145    0.415    6.445
  415.282  101.948    0.133    0.433    6.053
  415.532  103.713    0.175    0.446    5.156
  415.782  103.881    0.170    0.449    4.500
  416.032  102.197    0.156    0.457    4.075
  416.282  103.735    0.173    0.465    3.477
  416.532  105.366    0.173    0.464    3.190
  416.782  107.831    0.176    0.466    2.854
  417.032  109.658    0.179    0.460    2.741
  417.282  108.938    0.169    0.475    2.628
  417.532  108.257    0.181    0.486    2.628
  417.782  106.397    0.193    0.497    2.711
  418.032  104.886    0.195    0.504    2.886
  418.282  103.217    0.166    0.493    3.077
  418.532  103.089    0.152    0.473    3.210
  418.782  103.578    0.131    0.455    3.471
  419.032  108.197    0.123    0.442    3.653
  419.282  111.240    0.112    0.465    3.845
  419.532  110.972    0.177    0.484    3.965
  419.782  107.513    0.167    0.481    3.965
  420.032  108.778    0.162    0.462    4.143
  420.282  110.262    0.178    0.446    4.253
  420.532  110.440    0.179    0.436    4.616
  420.782  108.202    0.172    0.433    4.802
  421.032  104.491    0.167    0.415    4.968
  421.282  104.263    0.160    0.395    4.852
  421.532  107.538    0.139    0.408    4.495
  421.782  111.170    0.147    0.454    3.902
  422.032  115.303    0.183    0.471    3.478
  422.282  117.321    0.196    0.493    3.378
  422.532  117.322    0.184    0.494    3.719
  422.782  108.582    0.178    0.487    4.864
  423.032   97.082    0.173    0.475    6.646
  423.282   87.825    0.165    0.419    8.443
  423.532   79.435    0.154    0.340   10.790
  423.782   70.128    0.140    0.310   13.227
  424.032   61.672    0.125    0.320   15.443
  424.282   64.668    0.215    0.341   16.449
  424.532   66.388    0.220    0.363   17.321
  424.782   66.390    0.207    0.390   17.860
  425.032   63.792    0.185    0.390   18.058
  425.282   62.128    0.176    0.377   18.828
  425.532   61.444    0.171    0.366   19.211
  425.782   68.862    0.169    0.357   20.146
  426.032   73.516    0.223    0.382   21.015
  426.282   77.234    0.251    0.393   21.942
  426.532   81.584    0.266    0.382   23.443
  426.782   81.760    0.275    0.392   24.772
  427.032   83.778    0.268    0.385   25.847
  427.282   88.498    0.259    0.374   20.213
  427.532   96.017    0.239    0.363   15.360
  427.782  103.506    0.224    0.357   11.581
  428.032  113.075    0.205    0.370    9.256
  428.282  121.499    0.189    0.380    7.973
  428.532  126.935    0.166    0.397    7.172
  428.782  127.511    0.174    0.416    6.707
  429.032  120.075    0.184    0.432    7.617
  429.282  102.375    0.175    0.426    8.269
  429.532   89.924    0.173    0.412    9.443
  429.782   69.605    0.205    0.396   10.758
