~VERSION INFORMATION
 VERS.                 2.0:   CWLS LOG ASCII STANDARD -VERSION 2.0
 WRAP.                  NO:   ONE LINE PER DEPTH STEP
~WELL INFORMATION BLOCK
#MNEM.UNIT           DATA                    DESCRIPTION OF MNEMONIC
#---------    -------------------            -------------------------------
# Generated from Intellog Unique Number	CS_73_76/WELL/3256
WELL.         DOME ET AL KIRBY               : Well_name    - WELL
LOC .         00/11-04-075-06W4/0            : Location     - LOCATION
UWI .         00/11-04-075-06W4/0            : Uwi          - UNIQUE WELL ID
ENTR.         SP                             : Entered      - ENTERED BY
SRVC.         SCHLUMBERGER                   : Scn          - SERVICE COMPANY
STRT.M        265                            : top_depth    - START DEPTH
STOP.M        480                            : bot_depth    - STOP DEPTH
STEP.M        0.25                           : increment    - STEP LENGTH
 NULL. -999.2500:NULL Value
~CURVE INFORMATION BLOCK
#MNEM UNIT       ERCB CURVE CODE    CURVE DESCRIPTION
#-----------   ------------------   ----------------------------------
DEPT.M        00 001 00 00         : DEPTH        - DEPTH
ILD .OHMM     00 120 00 00         : RESD         - DEEP RESISTIVITY (DIL)
DPHI.V/V      00 890 00 00         : PHID         - DENSITY POROSITY (LIMESTONE)
NPHI.V/V      00 330 00 00         : PHIN         - NEUTRON POROSITY (LIMESTONE)
GR  .API      00 310 00 00         : GR           - GAMMA RAY
~PARAMETER INFORMATION
#MNEM.UNIT           DATA             DESCRIPTION OF MNEMONIC
#---------         -----------     ------------------------------
GL  .M        654.52               : gl           - GROUND LEVEL ELEVATION
EREF.M        658.42               : kb           - ELEVATION OF DEPTH REFERENCE
DATM.M        654.52               : datum        - DATUM ELEVATION
TDD .M        484                  : tdd          - TOTAL DEPTH DRILLER
RUN .         ONE                  : Run          - RUN NUMBER
ENG .         BILL                 : Engineer     - RECORDING ENGINEER
WIT .         JIM                  : Witness      - WITNESSED BY
MUD .         GEL                  : Mud_type     - MUD TYPE
MATR.         LIMESTONE            : Logunit      - NEUTRON MATRIX
TMAX.C        16                   : BHT          - MAXIMUM RECORDED TEMPERATURE
BHTD.M        484                  : BHTDEP       - MAXIMUM RECORDED TEMPERATURE
MATR.         1                    : LOGUNIT      - NEUTRON MATRIX
RMT .C        25                   : MDTP         - TEMPERATURE OF MUD
NEUT.         1                    : NEUTRON      - NEUTRON TYPE
RESI.         0                    : RESIST       - RESISTIVITY TYPE
RMC .OHMM     0.25                 : RMC          - RESISTIVITY OF MUD CAKE
RMF .OHMM     0.25                 : RMF          - RESISTIVITY OF MUD FILTRATE
SUFT.C        15                   : SUFT         - SURFACE TEMPERATURE
~A  DEPTH     RESD     PHID     PHIN       GR
# ...
  352.000    3.977    0.274    0.479   84.133
  352.250    4.051    0.252    0.485   83.519
  352.500    4.127    0.242    0.491   82.295
  352.750    4.125    0.237    0.498   81.683
  353.000    4.124    0.240    0.496   80.460
  353.250    4.122    0.249    0.495   79.237
  353.500    4.044    0.257    0.491   78.014
  353.750    4.043    0.253    0.484   78.620
  354.000    4.042    0.240    0.490   79.837
  354.250    4.041    0.260    0.500   80.442
  354.500    4.195    0.244    0.502   79.220
  354.750    4.354    0.251    0.483   77.386
  355.000    4.606    0.270    0.468   76.773
  355.250    4.692    0.259    0.468   77.380
  355.500    4.870    0.253    0.472   78.595
  355.750    4.869    0.261    0.466   79.812
  356.000    4.959    0.267    0.458   77.367
  356.250    4.958    0.257    0.461   76.146
  356.500    5.051    0.245    0.464   74.313
  356.750    5.050    0.240    0.459   72.480
  357.000    5.048    0.237    0.455   71.868
  357.250    5.047    0.220    0.454   74.912
  357.500    4.951    0.228    0.458   76.738
  357.750    4.950    0.236    0.466   79.174
  358.000    4.856    0.215    0.473   80.390
  358.250    4.764    0.217    0.481   80.385
  358.500    4.673    0.234    0.456   80.382
  358.750    4.499    0.227    0.462   80.986
  359.000    4.414    0.236    0.470   81.593
  359.250    4.250    0.244    0.482   82.199
  359.500    3.867    0.242    0.492   82.807
  359.750    3.388    0.249    0.503   84.023
  360.000    2.969    0.251    0.510   85.849
  360.250    2.702    0.262    0.511   88.284
  360.500    2.601    0.281    0.509   89.501
  360.750    2.552    0.295    0.501   89.497
  361.000    2.551    0.303    0.517   87.664
  361.250    2.648    0.280    0.531   86.441
  361.500    2.698    0.264    0.537   87.657
  361.750    2.800    0.260    0.532   90.092
  362.000    2.853    0.238    0.514   89.479
  362.250    2.906    0.236    0.523   87.646
  362.500    2.960    0.249    0.515   86.423
  362.750    3.251    0.256    0.500   83.981
  363.000    3.571    0.266    0.503   78.489
  363.250    3.996    0.239    0.509   75.437
  363.500    4.149    0.248    0.461   77.263
  363.750    4.388    0.265    0.453   77.260
  364.000    4.471    0.286    0.454   74.816
  364.250    4.386    0.305    0.446   72.984
  364.500    4.385    0.308    0.437   69.321
  364.750    4.907    0.299    0.442   66.879
  365.000    5.921    0.288    0.403   68.706
  365.250    6.504    0.299    0.283   64.433
  365.500    7.279    0.335    0.210   59.551
  365.750    8.784    0.355    0.167   55.889
  366.000   11.429    0.377    0.148   52.225
  366.250   16.648    0.443    0.149   51.614
  366.500   12.549    0.463    0.166   49.781
  366.750    9.640    0.460    0.199   48.559
  367.000    5.797    0.435    0.244   46.115
  367.250    4.053    0.394    0.288   44.892
  367.500    3.294    0.354    0.346   43.670
  367.750    2.997    0.337    0.404   43.666
  368.000    2.727    0.341    0.425   44.883
  368.250    2.529    0.338    0.429   46.708
  368.500    2.576    0.335    0.419   47.924
  368.750    2.624    0.338    0.429   46.090
  369.000    2.623    0.341    0.431   46.087
  369.250    2.622    0.336    0.438   46.083
  369.500    2.622    0.341    0.446   47.298
  369.750    2.620    0.344    0.455   47.906
  370.000    2.669    0.341    0.446   48.511
  370.250    2.669    0.344    0.430   49.119
  370.500    2.668    0.336    0.420   49.725
  370.750    2.618    0.335    0.419   49.721
  371.000    2.617    0.340    0.426   48.498
  371.250    2.820    0.332    0.435   48.495
  371.500    2.819    0.330    0.440   48.489
  371.750    2.819    0.332    0.440   48.486
  372.000    2.871    0.336    0.419   48.484
  372.250    2.871    0.332    0.421   49.090
  372.500    2.924    0.327    0.424   50.306
  372.750    3.036    0.334    0.428   50.303
  373.000    3.151    0.334    0.430   48.470
  373.250    3.396    0.327    0.431   47.245
  373.500    3.730    0.330    0.415   47.243
  373.750    4.021    0.332    0.404   48.458
  374.000    4.253    0.327    0.386   49.065
  374.250    4.252    0.314    0.362   49.672
  374.500    3.726    0.306    0.369   51.498
  374.750    3.455    0.324    0.387   53.321
  375.000    3.203    0.331    0.420   54.538
  375.250    3.084    0.334    0.437   55.754
  375.500    3.141    0.343    0.442   56.362
  375.750    3.322    0.334    0.439   57.577
  376.000    3.449    0.321    0.436   58.793
  376.250    3.717    0.324    0.443   60.618
  376.500    3.932    0.304    0.445   62.445
  376.750    4.159    0.296    0.434   64.270
  377.000    4.318    0.290    0.426   64.877
  377.250    4.399    0.292    0.440   64.264
  377.500    4.235    0.281    0.443   63.651
  377.750    4.155    0.284    0.450   64.256
  378.000    4.076    0.279    0.446   64.863
  378.250    3.999    0.272    0.457   67.297
  378.500    3.923    0.280    0.463   67.904
  378.750    3.777    0.287    0.460   67.900
  379.000    3.568    0.292    0.448   68.507
  379.250    3.436    0.246    0.441   70.332
  379.500    3.186    0.215    0.436   72.158
  379.750    3.010    0.206    0.445   73.984
  380.000    3.066    0.228    0.443   75.810
  380.250    3.182    0.234    0.443   77.026
  380.500    3.304    0.230    0.457   76.412
  380.750    3.494    0.218    0.470   75.798
  381.000    3.628    0.222    0.488   75.796
  381.250    3.626    0.220    0.481   75.792
  381.500    3.491    0.224    0.468   75.788
  381.750    3.298    0.222    0.463   77.005
  382.000    3.236    0.237    0.453   79.439
  382.250    3.175    0.245    0.470   80.656
  382.500    3.174    0.262    0.481   83.092
  382.750    3.357    0.262    0.493   83.698
  383.000    3.618    0.253    0.509   82.473
  383.250    3.974    0.258    0.520   81.252
  383.500    4.365    0.268    0.529   76.978
  383.750    4.617    0.288    0.487   73.316
  384.000    4.704    0.311    0.440   72.095
  384.250    5.070    0.356    0.396   69.043
  384.500    5.568    0.373    0.400   65.990
  384.750    5.673    0.349    0.414   64.157
  385.000    6.000    0.340    0.410   63.544
  385.250    5.999    0.352    0.390   56.222
  385.500    5.775    0.369    0.360   54.390
  385.750    5.254    0.364    0.378   52.556
  386.000    4.872    0.350    0.440   52.554
  386.250    4.780    0.341    0.459   51.940
  386.500    4.869    0.335    0.469   52.546
  386.750    4.959    0.331    0.461   52.543
  387.000    4.958    0.322    0.450   52.540
  387.250    4.865    0.316    0.440   53.146
  387.500    4.596    0.311    0.458   53.752
  387.750    4.343    0.322    0.467   54.968
  388.000    4.181    0.329    0.472   56.184
  388.250    4.102    0.333    0.470   57.400
  388.500    3.949    0.336    0.461   59.225
  388.750    3.948    0.341    0.455   60.441
  389.000    3.946    0.345    0.458   61.048
  389.250    4.020    0.349    0.469   61.654
  389.500    4.095    0.341    0.474   62.259
  389.750    4.094    0.335    0.468   63.477
  390.000    4.170    0.321    0.470   64.692
  390.250    4.169    0.306    0.479   65.909
  390.500    4.247    0.304    0.481   67.124
  390.750    4.246    0.297    0.447   68.340
  391.000    4.325    0.284    0.443   68.947
  391.250    4.406    0.251    0.452   68.942
  391.500    4.574    0.260    0.461   68.330
  391.750    4.660    0.263    0.470   68.326
  392.000    4.746    0.269    0.462   67.713
  392.250    4.927    0.263    0.453   67.100
  392.500    5.114    0.266    0.446   68.925
  392.750    5.209    0.260    0.453   70.750
  393.000    5.307    0.256    0.464   71.358
  393.250    5.406    0.251    0.474   71.353
  393.500    5.507    0.243    0.473   72.570
  393.750    5.610    0.238    0.468   73.786
  394.000    5.608    0.237    0.463   75.610
  394.250    5.714    0.245    0.462   76.218
  394.500    5.711    0.254    0.466   76.214
  394.750    5.710    0.254    0.461   76.820
  395.000    5.708    0.248    0.455   78.647
  395.250    5.706    0.244    0.462   79.862
