~VERSION INFORMATION
 VERS.                 2.0:   CWLS LOG ASCII STANDARD -VERSION 2.0
 WRAP.                  NO:   ONE LINE PER DEPTH STEP
~WELL INFORMATION BLOCK
#MNEM.UNIT           DATA                    DESCRIPTION OF MNEMONIC
#---------    -------------------            -------------------------------
# Generated from Intellog Unique Number	CS_69_70/WELL/880
NULL.         -999.25                        : NULL_VALUE
WELL.         HUSKY OIL OPERATION LTD.       : Well_name    - WELL              
LOC .         00/10-33-070-06W4/0            : Location     - LOCATION          
UWI .         00/10-33-070-06W4/0            : Uwi          - UNIQUE WELL ID    
ENTR.         SP                             : Entered      - ENTERED BY        
SRVC.         SCHLUMBERGER                   : Scn          - SERVICE COMPANY   
STRT.M        275                            : top_depth    - START DEPTH       
STOP.M        500                            : bot_depth    - STOP DEPTH        
STEP.M        0.25                           : increment    - STEP LENGTH       
~CURVE INFORMATION BLOCK
#MNEM UNIT       ERCB CURVE CODE    CURVE DESCRIPTION
#-----------   ------------------   ----------------------------------
DEPT.M        00 001 00 00         : DEPTH        - DEPTH                       
ILD .OHMM     00 120 00 00         : RESD         - DEEP RESISTIVITY (DIL)      
DPHI.V/V      00 890 00 00         : PHID         - DENSITY POROSITY (LIMESTONE)
NPHI.V/V      00 330 00 00         : PHIN         - NEUTRON POROSITY (LIMESTONE)
GR  .API      00 310 00 00         : GR           - GAMMA RAY                   
~PARAMETER INFORMATION       
#MNEM.UNIT           DATA             DESCRIPTION OF MNEMONIC
#---------         -----------     ------------------------------
GL  .M        638.1                : gl           - GROUND LEVEL ELEVATION      
EREF.M        641.8                : kb           - ELEVATION OF DEPTH REFERENCE
DATM.M        638.1                : datum        - DATUM ELEVATION             
TDD .M        503                  : tdd          - TOTAL DEPTH DRILLER         
RUN .         ONE                  : Run          - RUN NUMBER                  
ENG .         BILL                 : Engineer     - RECORDING ENGINEER          
WIT .         JIM                  : Witness      - WITNESSED BY                
MUD .         GEL                  : Mud_type     - MUD TYPE                    
MATR.         LIMESTONE            : Logunit      - NEUTRON MATRIX              
TMAX.C        26                   : BHT          - MAXIMUM RECORDED TEMPERATURE
BHTD.M        503                  : BHTDEP       - MAXIMUM RECORDED TEMPERATURE
MATR.         1                    : LOGUNIT      - NEUTRON MATRIX              
RMT .C        25                   : MDTP         - TEMPERATURE OF MUD          
NEUT.         1                    : NEUTRON      - NEUTRON TYPE                
RESI.         0                    : RESIST       - RESISTIVITY TYPE            
RMC .OHMM     0.25                 : RMC          - RESISTIVITY OF MUD CAKE     
RMF .OHMM     0.25                 : RMF          - RESISTIVITY OF MUD FILTRATE 
SUFT.C        15                   : SUFT         - SURFACE TEMPERATURE         
~A  DEPTH     RESD     PHID     PHIN       GR
# ...
  449.000    9.719    0.253    0.402   92.704
  449.250    8.536    0.245    0.385   90.288
  449.500    8.380    0.236    0.360   96.907
  449.750    8.228    0.230    0.353  100.518
  450.000    8.706    0.214    0.350   99.907
  450.250    9.381    0.198    0.347   93.275
  450.500   10.109    0.190    0.356   69.174
  450.750   12.184    0.226    0.364   59.529
  451.000   13.129    0.245    0.361   58.319
  451.250   14.414    0.260    0.358   58.913
  451.500   15.535    0.271    0.353   58.908
  451.750   16.131    0.264    0.347   59.503
  452.000   16.747    0.266    0.350   59.499
  452.250   18.050    0.282    0.377   59.492
  452.500   19.452    0.279    0.381   58.282
  452.750   20.576    0.258    0.348   55.264
  453.000   21.365    0.253    0.358   60.076
  453.250   22.601    0.271    0.375   64.286
  453.500   23.464    0.286    0.384   60.667
  453.750   25.288    0.285    0.383   58.251
  454.000   29.362    0.277    0.382   54.029
  454.250   33.457    0.291    0.393   45.589
  454.500   44.255    0.303    0.413   40.161
  454.750   57.456    0.311    0.421   36.538
  455.000   66.706    0.321    0.400   36.534
  455.250   76.018    0.324    0.383   41.945
  455.500   86.639    0.320    0.377   42.546
  455.750   93.364    0.320    0.373   43.745
  456.000  102.517    0.322    0.366   44.340
  456.250  106.428    0.328    0.373   46.140
  456.500  100.698    0.331    0.366   47.942
  456.750   93.495    0.326    0.359   50.346
  457.000   88.444    0.324    0.355   47.327
  457.250   86.846    0.325    0.373   43.104
  457.500   93.613    0.318    0.383   41.894
  457.750   93.625    0.325    0.382   42.489
  458.000   90.236    0.316    0.378   46.099
  458.250   82.245    0.307    0.373   51.514
  458.500   72.216    0.313    0.379   53.313
  458.750   57.778    0.320    0.401   55.113
  459.000   48.879    0.328    0.395   56.915
  459.250   39.844    0.330    0.394   58.718
  459.500   34.341    0.330    0.394   63.529
  459.750   30.720    0.328    0.404   65.934
  460.000   26.480    0.319    0.405   64.723
  460.250   25.048    0.294    0.394   62.909
  460.500   26.496    0.276    0.395   64.711
  460.750   26.019    0.257    0.397   68.922
  461.000   22.013    0.209    0.380   74.337
  461.250   17.941    0.165    0.322   80.957
  461.500   14.354    0.140    0.290   88.179
  461.750   11.920    0.165    0.299   92.391
  462.000   10.663    0.190    0.332  104.433
  462.250    9.540    0.219    0.349  110.451
  462.500    8.695    0.231    0.363  109.239
  462.750    8.538    0.216    0.375   98.992
  463.000    8.702    0.205    0.382   92.962
  463.250    8.867    0.200    0.375   88.740
  463.500    8.707    0.200    0.382   87.527
  463.750    8.392    0.207    0.366   83.306
  464.000    8.239    0.216    0.329   80.288
  464.250    7.795    0.229    0.344   82.088
  464.500    8.095    0.242    0.355   82.685
  464.750    8.249    0.251    0.361   73.639
  465.000    8.564    0.248    0.365   70.623
  465.250    9.582    0.246    0.369   67.003
  465.500    9.947    0.237    0.350   76.034
  465.750   10.522    0.228    0.336   88.076
  466.000   10.723    0.230    0.318   98.309
  466.250    9.774    0.197    0.306  103.124
  466.500    9.246    0.173    0.310  101.910
  466.750    8.585    0.143    0.336   95.278
  467.000    8.275    0.122    0.353   87.442
  467.250    8.433    0.132    0.366   78.399
  467.500    9.259    0.142    0.359   71.166
  467.750   11.800    0.159    0.341   59.111
  468.000   13.698    0.180    0.338   49.466
  468.250   21.828    0.213    0.354   44.039
  468.500   29.411    0.244    0.374   39.214
  468.750   45.151    0.291    0.377   35.593
  469.000   55.429    0.318    0.370   32.574
  469.250   66.800    0.317    0.366   30.760
  469.500   70.660    0.323    0.374   30.154
  469.750   72.014    0.326    0.374   35.568
  470.000   69.408    0.334    0.376   50.020
  470.250   55.526    0.334    0.378   64.471
  470.500   34.230    0.329    0.361   73.501
  470.750   24.040    0.321    0.351   60.843
  471.000   20.342    0.298    0.343   55.416
  471.250   19.602    0.269    0.344   81.915
  471.500   18.891    0.275    0.343   80.702
  471.750   18.207    0.293    0.341   80.097
  472.000   16.595    0.290    0.352   85.513
  472.250   13.781    0.286    0.366   98.759
  472.500   11.232    0.286    0.370  101.765
  472.750    9.156    0.268    0.335   98.145
  473.000    8.501    0.210    0.312   89.703
  473.250    8.664    0.174    0.313   84.879
  473.500    9.693    0.154    0.334   77.643
  473.750   10.445    0.189    0.354   74.023
  474.000   11.468    0.204    0.358   69.799
  474.250   12.359    0.210    0.363   66.783
  474.500   13.318    0.217    0.371   61.957
  474.750   15.180    0.250    0.375   60.144
  475.000   16.667    0.264    0.372   54.114
  475.250   17.960    0.273    0.377   51.698
  475.500   19.357    0.287    0.389   53.497
  475.750   19.729    0.301    0.406   54.698
  476.000   19.733    0.300    0.386   54.692
  476.250   17.330    0.292    0.371   48.662
  476.500   16.392    0.277    0.393   42.029
  476.750   14.396    0.274    0.405   42.625
  477.000   13.366    0.289    0.414   48.040
  477.250   11.520    0.307    0.403   51.648
  477.500   10.115    0.313    0.397   49.836
  477.750    8.093    0.301    0.387   52.841
  478.000    6.476    0.307    0.387   50.424
  478.250    5.902    0.307    0.385   56.444
  478.500    5.583    0.297    0.385   70.894
  478.750    5.585    0.292    0.387   72.696
  479.000    5.692    0.277    0.380   56.423
  479.250    5.486    0.215    0.371   47.983
  479.500    5.094    0.221    0.382   44.967
  479.750    4.909    0.268    0.391   42.550
  480.000    4.731    0.314    0.399   41.943
  480.250    4.733    0.335    0.400   41.937
  480.500    4.735    0.332    0.397   49.158
  480.750    4.826    0.323    0.394   52.165
  481.000    4.918    0.311    0.387   43.725
  481.250    4.920    0.292    0.381   40.105
  481.500    4.921    0.294    0.382   55.158
  481.750    4.923    0.307    0.403   62.984
  482.000    4.925    0.330    0.387   71.411
  482.250    5.210    0.340    0.379   77.429
  482.500    5.409    0.318    0.386   81.640
  482.750    5.830    0.294    0.390   84.645
  483.000    6.053    0.264    0.374   63.556
  483.250    6.054    0.230    0.360   49.693
  483.500    5.519    0.209    0.365   43.663
  483.750    5.221    0.289    0.384   39.440
  484.000    4.939    0.312    0.403   38.231
  484.250    4.672    0.328    0.413   36.416
  484.500    4.420    0.331    0.403   34.000
  484.750    4.104    0.340    0.403   31.583
  485.000    3.811    0.342    0.395   29.770
  485.250    3.742    0.346    0.388   29.766
  485.500    3.606    0.347    0.382   32.169
  485.750    3.476    0.353    0.380   33.368
  486.000    3.477    0.352    0.379   34.566
  486.250    3.478    0.351    0.378   36.968
  486.500    3.479    0.347    0.378   40.578
  486.750    3.480    0.345    0.375   44.186
  487.000    3.547    0.346    0.376   40.566
  487.250    3.615    0.346    0.370   34.535
  487.500    3.685    0.341    0.374   32.121
  487.750    3.618    0.328    0.375   32.716
  488.000    3.619    0.325    0.371   32.711
  488.250    3.554    0.331    0.365   29.090
  488.500    3.555    0.327    0.362   27.276
  488.750    3.623    0.324    0.361   30.280
  489.000    3.557    0.331    0.359   30.879
  489.250    3.493    0.344    0.361   30.270
  489.500    3.430    0.346    0.367   30.866
  489.750    3.431    0.346    0.371   35.678
  490.000    3.369    0.346    0.360   38.081
  490.250    3.370    0.346    0.361   39.282
  490.500    3.371    0.342    0.366   36.865
  490.750    3.310    0.334    0.372   31.434
  491.000    3.311    0.325    0.374   29.623
  491.250    3.251    0.330    0.361   27.811
  491.500    3.253    0.333    0.357   27.202
  491.750    3.194    0.335    0.362   31.412
  492.000    3.194    0.342    0.367   33.816
  492.250    3.196    0.341    0.370   33.208
