~VERSION INFORMATION
 VERS.                 2.0:   CWLS LOG ASCII STANDARD -VERSION 2.0
 WRAP.                  NO:   ONE LINE PER DEPTH STEP
~WELL INFORMATION BLOCK
#MNEM.UNIT           DATA                    DESCRIPTION OF MNEMONIC
#---------    -------------------            -------------------------------
# Generated from Intellog Unique Number	CS_71_72/WELL/902
WELL.         BVX PCP WANDER                 : Well_name    - WELL
LOC .         00/11-22-071-14W4/0            : Location     - LOCATION
UWI .         00/11-22-071-14W4/0            : Uwi          - UNIQUE WELL ID
ENTR.         SP                             : Entered      - ENTERED BY
SRVC.         SCHLUMBERGER                   : Scn          - SERVICE COMPANY
STRT.M        335.28                         : top_depth    - START DEPTH
STOP.M        535.28                         : bot_depth    - STOP DEPTH
STEP.M        0.25                           : increment    - STEP LENGTH
 NULL. -999.2500:NULL Value
~CURVE INFORMATION BLOCK
#MNEM UNIT       ERCB CURVE CODE    CURVE DESCRIPTION
#-----------   ------------------   ----------------------------------
DEPT.M        00 001 00 00         : DEPTH        - DEPTH
GR  .API      00 310 00 00         : GR           - GAMMA RAY
DPHI.V/V      00 890 00 00         : PHID         - DENSITY POROSITY (SANDSTONE)
NPHI.V/V      00 330 00 00         : PHIN         - NEUTRON POROSITY (SANDSTONE)
ILD .OHMM     00 120 00 00         : RESD         - DEEP RESISTIVITY (DIL)
~PARAMETER INFORMATION
#MNEM.UNIT           DATA             DESCRIPTION OF MNEMONIC
#---------         -----------     ------------------------------
GL  .M        646.176              : gl           - GROUND LEVEL ELEVATION
EREF.M        649.224              : kb           - ELEVATION OF DEPTH REFERENCE
DATM.M        646.176              : datum        - DATUM ELEVATION
TDD .M        543.154              : tdd          - TOTAL DEPTH DRILLER
RUN .         ONE                  : Run          - RUN NUMBER
ENG .         BILL                 : Engineer     - RECORDING ENGINEER
WIT .         JIM                  : Witness      - WITNESSED BY
MUD .         GEL                  : Mud_type     - MUD TYPE
MATR.         SANDSTONE            : Logunit      - NEUTRON MATRIX
TMAX.C        25                   : BHT          - MAXIMUM RECORDED TEMPERATURE
BHTD.M        543.154              : BHTDEP       - MAXIMUM RECORDED TEMPERATURE
MATR.         1                    : LOGUNIT      - NEUTRON MATRIX
RMT .C        25                   : MDTP         - TEMPERATURE OF MUD
NEUT.         1                    : NEUTRON      - NEUTRON TYPE
RESI.         0                    : RESIST       - RESISTIVITY TYPE
RMC .OHMM     0.25                 : RMC          - RESISTIVITY OF MUD CAKE
RMF .OHMM     0.25                 : RMF          - RESISTIVITY OF MUD FILTRATE
SUFT.C        15                   : SUFT         - SURFACE TEMPERATURE
~A  DEPTH       GR     PHID     PHIN     RESD
# ...
  509.280   77.772    0.243    0.410   14.682
  509.530   80.395    0.246    0.391   12.468
  509.780   81.766    0.222    0.371   10.774
  510.030   82.054    0.207    0.362    9.967
  510.280   82.941    0.194    0.362    9.584
  510.530   83.649    0.188    0.363    9.464
  510.780   85.257    0.193    0.364    9.328
  511.030   89.134    0.174    0.361    9.145
  511.280   93.853    0.161    0.355    8.879
  511.530   96.566    0.185    0.357    8.444
  511.780   97.816    0.188    0.379    8.112
  512.030   99.614    0.193    0.403    7.899
  512.280  101.177    0.190    0.424    7.808
  512.530  103.077    0.171    0.420    7.880
  512.780  103.293    0.157    0.410    8.117
  513.030   97.301    0.174    0.405    8.611
  513.280   92.059    0.199    0.418    9.334
  513.530   85.136    0.212    0.425    9.994
  513.780   80.563    0.176    0.416   10.767
  514.030   78.456    0.146    0.399   11.365
  514.280   77.688    0.124    0.372   11.861
  514.530   77.585    0.127    0.374   12.367
  514.780   75.504    0.181    0.393   12.546
  515.030   76.069    0.248    0.415   12.669
  515.280   78.938    0.249    0.420   12.526
  515.530   81.137    0.249    0.421   12.335
  515.780   82.183    0.226    0.414   11.998
  516.030   86.030    0.205    0.396   11.063
  516.280   93.328    0.187    0.395    9.646
  516.530  101.084    0.184    0.407    8.078
  516.780  108.313    0.175    0.428    6.903
  517.030  113.039    0.136    0.514    5.894
  517.280  112.547    0.124    0.577    5.211
  517.530  111.834    0.112    0.590    4.817
  517.780  111.999    0.112    0.573    4.694
  518.030   97.091    0.152    0.565    4.906
  518.280   82.900    0.168    0.458    5.451
  518.530   75.225    0.211    0.409    6.667
  518.780   71.107    0.242    0.395    7.678
  519.030   72.593    0.253    0.387    8.772
  519.280   73.655    0.243    0.385    9.755
  519.530   75.909    0.233    0.393   10.458
  519.780   79.107    0.235    0.395   10.844
  520.030   82.394    0.221    0.379   10.916
  520.280   82.828    0.219    0.384   10.739
  520.530   81.515    0.250    0.405   10.572
  520.780   83.195    0.236    0.420   10.290
  521.030   87.076    0.223    0.421    9.907
  521.280   91.417    0.207    0.408    9.524
  521.530   94.153    0.189    0.398    9.024
  521.780   91.132    0.181    0.421    8.581
  522.030   88.366    0.185    0.393    8.355
  522.280   88.488    0.196    0.377    8.190
  522.530   89.877    0.196    0.371    8.025
  522.780   91.174    0.203    0.365    7.876
  523.030   95.406    0.180    0.360    7.753
  523.280  102.044    0.166    0.359    7.554
  523.530  106.596    0.165    0.361    7.458
  523.780  107.987    0.158    0.382    7.538
  524.030   98.557    0.204    0.393    7.889
  524.280   88.627    0.218    0.435    8.484
  524.530   80.958    0.210    0.416    9.111
  524.780   73.846    0.214    0.386    9.707
  525.030   70.704    0.229    0.375   10.328
  525.280   81.926    0.232    0.380   10.432
  525.530  100.692    0.212    0.402    8.900
  525.780  112.311    0.188    0.425    7.400
  526.030  116.088    0.166    0.463    6.693
  526.280   95.696    0.231    0.525    7.015
  526.530   77.180    0.261    0.637    7.688
  526.780   67.945    0.280    0.534    8.518
  527.030   62.929    0.286    0.424    9.091
  527.280   65.448    0.289    0.427    9.303
  527.530   70.746    0.279    0.401    9.596
  527.780   77.670    0.278    0.395    9.904
  528.030   85.865    0.291    0.404   10.428
  528.280   92.884    0.304    0.400   10.684
  528.530  101.003    0.311    0.421   10.676
  528.780  107.831    0.272    0.438   10.282
  529.030  113.101    0.214    0.384    9.283
  529.280  113.812    0.193    0.372    7.474
  529.530  113.974    0.178    0.369    6.350
  529.780  113.503    0.162    0.366    5.918
  530.030  111.593    0.163    0.375    5.990
  530.280  107.750    0.171    0.364    6.302
  530.530  104.645    0.161    0.352    6.742
  530.780  101.486    0.174    0.343    6.985
  531.030  106.955    0.165    0.333    7.282
  531.280  110.440    0.156    0.348    7.483
  531.530  113.980    0.150    0.360    7.621
  531.780  102.122    0.147    0.360    7.661
  532.030   91.310    0.172    0.371    7.573
  532.280   87.790    0.207    0.382    7.378
  532.530   95.732    0.203    0.363    7.167
  532.780  105.348    0.167    0.347    7.093
  533.030  113.962    0.165    0.337    7.193
  533.280  122.865    0.155    0.338    7.355
  533.530  124.805    0.141    0.350    7.409
  533.780  118.536    0.136    0.364    7.409
  534.030  103.745    0.137    0.377    7.211
  534.280   92.470    0.160    0.379    6.871
  534.530   76.586    0.202    0.384    6.439
  534.780   56.307    0.230    0.391    6.007
  535.030   35.028    0.241    0.399    5.842
  535.280   16.767    0.250    0.385    5.643
