~VERSION INFORMATION
 VERS.                 2.0:   CWLS LOG ASCII STANDARD -VERSION 2.0
 WRAP.                  NO:   ONE LINE PER DEPTH STEP
~WELL INFORMATION BLOCK
#MNEM.UNIT           DATA                    DESCRIPTION OF MNEMONIC
#---------    -------------------            -------------------------------
# Generated from Intellog Unique Number	CN_91_93/WELL/3201
WELL.         11-34-092-18W4                 : Well_name    - WELL
LOC .         00/11-34-092-18W4/0            : Location     - LOCATION
UWI .         00/11-34-092-18W400            : Uwi          - UNIQUE WELL ID
ENTR.         JOETTE                         : Entered      - ENTERED BY
SRVC.         SCHLUMBERGER                   : Scn          - SERVICE COMPANY
DATE.         04/14/92                       : Date         - LOG DATE
STRT.M        75                             : top_depth    - START DEPTH
STOP.M        240                            : bot_depth    - STOP DEPTH
STEP.M        0.25                           : increment    - STEP LENGTH
 NULL. -999.2500:NULL Value
~CURVE INFORMATION BLOCK
#MNEM UNIT       ERCB CURVE CODE    CURVE DESCRIPTION
#-----------   ------------------   ----------------------------------
DEPT.M        00 001 00 00         : DEPTH        - DEPTH
CALI.MM       00 280 01 00         : CAL          - CALIPER
GR  .API      00 310 00 00         : GR           - GAMMA RAY
NPHI.V/V      00 330 00 00         : PHIN         - NEUTRON POROSITY (SANDSTONE)
DPHI.V/V      00 890 00 00         : PHID         - DENSITY POROSITY (SANDSTONE)
ILD .OHMM     00 120 00 00         : RESD         - DEEP RESISTIVITY (DIL)
~PARAMETER INFORMATION
#MNEM.UNIT           DATA             DESCRIPTION OF MNEMONIC
#---------         -----------     ------------------------------
GL  .M        510.7                : gl           - GROUND LEVEL ELEVATION
EREF.M        513.9                : kb           - ELEVATION OF DEPTH REFERENCE
DATM.M        513.9                : datum        - DATUM ELEVATION
TDD .M        245                  : tdd          - TOTAL DEPTH DRILLER
RUN .         ONE                  : Run          - RUN NUMBER
ENG .         BILL                 : Engineer     - RECORDING ENGINEER
WIT .         JIM                  : Witness      - WITNESSED BY
MUD .         GEL                  : Mud_type     - MUD TYPE
MATR.         SANDSTONE            : Logunit      - NEUTRON MATRIX
TMAX.C        18                   : BHT          - MAXIMUM RECORDED TEMPERATURE
BHTD.M        245                  : BHTDEP       - MAXIMUM RECORDED TEMPERATURE
RMT .C        15                   : MDTP         - TEMPERATURE OF MUD
MUDD.KG/M     1130                 : MWT          - MUD DENSITY
NEUT.         1                    : NEUTRON      - NEUTRON TYPE
RESI.         0                    : RESIST       - RESISTIVITY TYPE
RM  .OHMM     8.35                 : RM           - RESISTIVITY OF MUD
RMC .OHMM     8.35                 : RMC          - RESISTIVITY OF MUD CAKE
RMF .OHMM     8.35                 : RMF          - RESISTIVITY OF MUD FILTRATE
SUFT.C        4                    : SUFT         - SURFACE TEMPERATURE
~A  DEPTH      CAL       GR     PHIN     PHID     RESD
# ...
  221.000  167.071   75.087    0.428    0.250   18.321
  221.250  167.067   80.490    0.441    0.240   13.534
  221.500  168.066   84.091    0.471    0.230   12.538
  221.750  168.061   94.898    0.477    0.224   12.289
  222.000  169.060   97.299    0.484    0.219   12.277
  222.250  170.058   89.490    0.483    0.218   13.226
  222.500  170.055   78.678    0.451    0.226   15.079
  222.750  165.046   70.869    0.419    0.244   17.190
  223.000  164.042   69.065    0.389    0.270   19.602
  223.250  163.038   69.664    0.361    0.297   23.649
  223.500  163.033   69.662    0.370    0.270   27.474
  223.750  163.030   67.258    0.376    0.233   31.919
  224.000  163.027   67.256    0.282    0.212   35.709
  224.250  163.024   67.854    0.247    0.260   41.475
  224.500  162.020   63.649    0.245    0.324   43.027
  224.750  161.014   57.641    0.251    0.361   41.393
  225.000  162.014   55.838    0.263    0.350   36.928
  225.250  162.009   55.836    0.277    0.329   32.943
  225.500  162.006   57.034    0.283    0.308   31.685
  225.750  162.004   58.234    0.286    0.299   31.654
  226.000  162.000   60.033    0.301    0.323   32.225
  226.250  160.996   58.230    0.308    0.348   32.201
  226.500  160.992   55.826    0.292    0.364   30.400
  226.750  160.989   52.221    0.278    0.356   25.149
  227.000  160.984   49.817    0.301    0.301   19.651
  227.250  160.984   50.415    0.311    0.234   20.391
  227.500  161.978   52.214    0.301    0.261   25.069
  227.750  162.977   51.611    0.282    0.334   30.820
  228.000  162.974   49.808    0.261    0.364   34.488
  228.250  162.970   47.404    0.264    0.370   40.066
  228.500  162.966   44.398    0.274    0.369   49.258
  228.750  161.962   42.595    0.301    0.360   48.278
  229.000  160.959   42.594    0.334    0.350   43.879
  229.250  160.955   42.592    0.372    0.335   42.213
  229.500  160.951   44.391    0.401    0.323   40.600
  229.750  160.949   46.191    0.428    0.314   40.580
  230.000  160.945   46.790    0.439    0.318   39.039
  230.250  160.941   46.788    0.434    0.321   34.168
  230.500  160.939   46.786    0.428    0.312   32.257
  230.750  160.935   47.384    0.418    0.308   31.032
  231.000  161.933   47.982    0.406    0.315   29.288
  231.250  161.933   49.181    0.423    0.308   27.127
  231.500  163.926   50.980    0.428    0.311   26.109
  231.750  160.920   55.182    0.420    0.305   27.080
  232.000  160.917   60.585    0.417    0.291   27.576
  232.250  160.913   56.379    0.447    0.278   28.608
  232.500  160.911   54.576    0.447    0.285   26.503
  232.750  160.908   53.974    0.439    0.285   23.196
  233.000  160.904   53.371    0.438    0.281   24.058
  233.250  160.901   50.967    0.447    0.279   25.446
  233.500  160.897   46.761    0.443    0.285   31.880
  233.750  161.896   41.955    0.433    0.297   39.193
  234.000  161.892   31.744    0.421    0.306   43.846
  234.250  161.889   28.739    0.407    0.312   40.620
  234.500  162.887   31.139    0.390    0.313   34.244
  234.750  163.884   32.939    0.378    0.316   28.868
  235.000  163.879   33.537    0.384    0.318   19.766
  235.250  163.878   33.535    0.383    0.323   17.974
  235.500  163.874   33.533    0.375    0.325   14.319
  235.750  163.870   33.531    0.367    0.314    5.783
  236.000  163.867   32.928    0.530    0.291    5.062
  236.250  163.864   32.926    0.558    0.243    7.805
  236.500  164.861   32.324    0.584    0.237   14.534
  236.750  164.858   31.722    0.579    0.290   24.625
  237.000  164.854   26.915    0.548    0.317   37.964
  237.250  164.850   22.710    0.513    0.321   51.290
  237.500  164.848   24.509    0.455    0.317   53.197
  237.750  166.846   26.909    0.426    0.312   51.189
  238.000  169.846   29.310    0.430    0.312   44.802
  238.250  178.850   31.109    0.443    0.308   37.779
  238.500  181.849   31.708    0.437    0.300   31.253
  238.750  182.847   30.505    0.432    0.292   24.891
  239.000  182.844   29.302    0.425    0.284   23.946
  239.250  181.840   28.699    0.423    0.282   23.923
  239.500  177.832   26.895    0.431    0.279   23.899
  239.750  172.824   26.292    0.441    0.277   22.992
  240.000  169.818   25.690    0.434    0.273   22.119
