~VERSION INFORMATION
 VERS.                 2.0:   CWLS LOG ASCII STANDARD -VERSION 2.0
 WRAP.                  NO:   ONE LINE PER DEPTH STEP
~WELL INFORMATION BLOCK
#MNEM.UNIT           DATA                    DESCRIPTION OF MNEMONIC
#---------    -------------------            -------------------------------
# Generated from Intellog Unique Number	CN_94_101/WELL/3423
WELL.         PARAMOUNT RESOURCES LTD.       : Well_name    - WELL
LOC .         00/11-16-095-18W4/0            : Location     - LOCATION
UWI .         00/11-16-095-18W400            : Uwi          - UNIQUE WELL ID
ENTR.         JOETTE                         : Entered      - ENTERED BY
SRVC.         COMPUTALOG                     : Scn          - SERVICE COMPANY
DATE.         07/27/92                       : Date         - LOG DATE
STRT.M        175                            : top_depth    - START DEPTH
STOP.M        345                            : bot_depth    - STOP DEPTH
STEP.M        0.25                           : increment    - STEP LENGTH
 NULL. -999.2500:NULL Value
~CURVE INFORMATION BLOCK
#MNEM UNIT       ERCB CURVE CODE    CURVE DESCRIPTION
#-----------   ------------------   ----------------------------------
DEPT.M        00 001 00 00         : DEPTH        - DEPTH
ILD .OHMM     00 120 00 00         : RESD         - DEEP RESISTIVITY (DIL)
GR  .API      00 310 00 00         : GR           - GAMMA RAY
NPHI.V/V      00 330 00 00         : PHIN         - NEUTRON POROSITY (SANDSTONE)
DPHI.V/V      00 890 00 00         : PHID         - DENSITY POROSITY (SANDSTONE)
~PARAMETER INFORMATION
#MNEM.UNIT           DATA             DESCRIPTION OF MNEMONIC
#---------         -----------     ------------------------------
GL  .M        623.61               : gl           - GROUND LEVEL ELEVATION
EREF.M        626.61               : kb           - ELEVATION OF DEPTH REFERENCE
DATM.M        626.61               : datum        - DATUM ELEVATION
TDD .M        346.8                : tdd          - TOTAL DEPTH DRILLER
RUN .         ONE                  : Run          - RUN NUMBER
ENG .         BILL                 : Engineer     - RECORDING ENGINEER
WIT .         JIM                  : Witness      - WITNESSED BY
MUD .         GEL                  : Mud_type     - MUD TYPE
MATR.         SANDSTONE            : Logunit      - NEUTRON MATRIX
TMAX.C        25                   : BHT          - MAXIMUM RECORDED TEMPERATURE
BHTD.M        346.8                : BHTDEP       - MAXIMUM RECORDED TEMPERATURE
RMT .C        17.8                 : MDTP         - TEMPERATURE OF MUD
MUDD.KG/M     1120                 : MWT          - MUD DENSITY
NEUT.         1                    : NEUTRON      - NEUTRON TYPE
RESI.         0                    : RESIST       - RESISTIVITY TYPE
RM  .OHMM     3.5                  : RM           - RESISTIVITY OF MUD
RMC .OHMM     3                    : RMC          - RESISTIVITY OF MUD CAKE
RMF .OHMM     3                    : RMF          - RESISTIVITY OF MUD FILTRATE
SUFT.C        4                    : SUFT         - SURFACE TEMPERATURE
~A  DEPTH     RESD       GR     PHIN     PHID
# ...
  305.500    9.670   89.135    0.163    0.084
  305.750   10.837  101.254    0.332    0.058
  306.000   12.352  110.931    0.316    0.095
  306.250   12.820  110.199    0.323    0.101
  306.500   12.053  109.437    0.366    0.100
  306.750   11.114  111.117    0.376    0.105
  307.000   10.441  111.667    0.385    0.136
  307.250   10.188  111.546    0.377    0.169
  307.500   10.171  112.035    0.370    0.161
  307.750   10.520  112.524    0.367    0.164
  308.000   10.502  112.983    0.357    0.167
  308.250   10.863  112.861    0.356    0.168
  308.500   10.835  112.740    0.358    0.166
  308.750   10.817  113.168    0.369    0.165
  309.000   10.753  113.108    0.371    0.160
  309.250   10.519  113.017    0.371    0.156
  309.500   10.492  114.116    0.380    0.152
  309.750   10.457  117.017    0.380    0.151
  310.000   10.421  118.758    0.368    0.154
  310.250   10.590  117.415    0.373    0.159
  310.500   10.752  113.631    0.378    0.156
  310.750   10.916  111.648    0.369    0.153
  311.000   11.112  109.695    0.363    0.150
  311.250   11.291  105.911    0.376    0.150
  311.500   11.709   95.381    0.387    0.147
  311.750   12.369   86.682    0.371    0.138
  312.000   14.970   78.014    0.330    0.122
  312.250   18.488   69.315    0.275    0.085
  312.500   24.183   69.774    0.228    0.042
  312.750   27.611   74.567    0.152    0.001
  313.000   25.460   84.244    0.136   -0.022
  313.250   19.712   90.868    0.151   -0.016
  313.500   14.956  102.347    0.194   -0.007
  313.750   12.760  107.750    0.260    0.011
  314.000   11.082  111.231    0.323    0.038
  314.250   11.044  110.560    0.357    0.095
  314.500   11.223  107.996    0.384    0.143
  314.750   11.845  106.044    0.389    0.169
  315.000   12.294  102.229    0.373    0.179
  315.250   12.748  103.909    0.372    0.198
  315.500   12.461  105.008    0.372    0.191
  315.750   12.169  101.865    0.356    0.182
  316.000   12.608   97.440    0.359    0.179
  316.250   13.592   93.656    0.379    0.190
  316.500   17.102   92.313    0.392    0.195
  316.750   19.167   97.106    0.377    0.178
  317.000   16.986  102.479    0.307    0.153
  317.250   14.480  103.579    0.230    0.093
  317.500   13.364  105.869    0.236    0.041
  317.750   12.313  108.160    0.288    0.064
  318.000   11.354  109.320    0.314    0.161
  318.250   10.666  106.726    0.365    0.182
  318.500   10.416  100.530    0.396    0.185
  318.750   10.594   92.442    0.407    0.184
  319.000   11.411   86.796    0.412    0.185
  319.250   11.832   89.147    0.360    0.184
  319.500   13.006   98.794    0.313    0.170
  319.750   12.962  110.302    0.277    0.151
  320.000   11.257  113.874    0.432    0.131
  320.250   10.181  113.753    0.463    0.139
  320.500    9.038  115.463    0.481    0.156
  320.750    8.334  117.783    0.486    0.158
  321.000    7.678  119.463    0.461    0.154
  321.250    7.499  119.952    0.435    0.150
  321.500    7.626  118.610    0.426    0.155
  321.750    7.743  117.909    0.422    0.161
  322.000    7.717  120.809    0.415    0.155
  322.250    7.697  123.130    0.399    0.140
  322.500    7.658  123.009    0.379    0.143
  322.750    7.645  123.498    0.391    0.148
  323.000    7.600  123.987    0.403    0.154
  323.250    7.435  123.866    0.401    0.158
  323.500    7.422  124.355    0.403    0.160
  323.750    7.397  124.874    0.403    0.160
  324.000    7.516  120.480    0.399    0.162
  324.250    7.631  108.118    0.400    0.164
  324.500    7.900   97.588    0.421    0.161
  324.750    8.041   94.414    0.434    0.155
  325.000    8.662  111.417    0.410    0.133
  325.250    9.330  119.873    0.359    0.087
  325.500    9.127  127.688    0.294    0.031
  325.750    7.926  133.061    0.292    0.024
  326.000    7.025  137.213    0.348    0.086
  326.250    6.616  135.260    0.379    0.118
  326.500    5.868  132.117    0.368    0.145
  326.750    5.100  127.662    0.367    0.141
  327.000    4.609  125.709    0.377    0.135
  327.250    4.168  124.977    0.390    0.131
  327.500    4.074  124.856    0.413    0.136
  327.750    4.304  126.566    0.444    0.139
  328.000    4.636  127.696    0.513    0.139
  328.250    4.803  130.596    0.469    0.133
  328.500    4.516  127.453    0.408    0.134
  328.750    4.329  124.859    0.414    0.128
  329.000    4.755  125.959    0.429    0.119
  329.250    5.222  128.890    0.435    0.114
  329.500    5.847  131.241    0.436    0.102
  329.750    6.188  133.531    0.473    0.109
  330.000    6.665  134.051    0.448    0.116
  330.250    6.637  134.570    0.403    0.132
  330.500    6.492   95.867    0.383    0.139
  330.750    6.465   98.187    0.410    0.133
  331.000    6.569  107.254    0.404    0.120
  331.250    6.806  111.436    0.392    0.079
  331.500    6.783  114.978    0.371    0.045
  331.750    6.378  119.130    0.345   -0.005
  332.000    5.441  123.252    0.321    0.027
  332.250    4.921  126.243    0.351    0.076
  332.500    4.538  126.122    0.380    0.133
  332.750    4.436  121.056    0.391    0.143
  333.000    4.503  118.523    0.418    0.151
  333.250    4.753  116.570    0.429    0.145
  333.500    5.124  115.808    0.441    0.137
  333.750    5.520  116.328    0.450    0.121
  334.000    5.724  116.206    0.448    0.109
  334.250    5.381  114.864    0.441    0.108
  334.500    5.468  111.049    0.435    0.122
  334.750    6.366  102.381    0.423    0.134
  335.000    7.417   91.241    0.414    0.128
  335.250    9.332   80.710    0.411    0.120
  335.500   10.664   76.896    0.448    0.111
  335.750   13.417   73.081    0.450    0.107
  336.000   16.557   69.327    0.361    0.124
  336.250   19.669   63.651    0.300    0.156
  336.500   24.747   64.170    0.254    0.342
  336.750   28.279   65.850    0.228    0.358
  337.000   32.893   65.759    0.211    0.365
  337.250   33.453   65.638    0.155    0.354
  337.500   35.310   65.486    0.173    0.343
  337.750   35.221   65.365    0.183    0.342
  338.000   35.072   67.105    0.192    0.337
  338.250   34.983   70.006    0.200    0.329
  338.500   34.864   71.777    0.206    0.310
  338.750   36.092   76.540    0.228    0.308
  339.000   38.127   81.272    0.229    0.307
  339.250   35.878   83.653    0.238    0.306
  339.500   31.158   85.363    0.260    0.305
  339.750   29.345   87.654    0.284    0.299
  340.000   28.131   90.004    0.297    0.287
  340.250   25.896   89.273    0.344    0.268
  340.500   27.941   87.930    0.355    0.257
  340.750   39.500   85.978    0.305    0.255
  341.000   50.716   85.246    0.230    0.263
  341.250   73.165   85.124    0.148    0.275
  341.500   86.772   85.583    0.130    0.304
  341.750   93.543   86.653    0.168    0.343
  342.000  104.660   86.592    0.183    0.357
  342.250  106.532   87.051    0.191    0.353
  342.500  106.171   87.510    0.198    0.340
  342.750  126.022   87.449    0.202    0.328
  343.000  164.840   83.024    0.203    0.328
  343.250  192.060   81.681    0.203    0.336
  343.500  206.872   82.140    0.206    0.348
  343.750  190.599   82.629    0.208    0.349
  344.000  153.283   83.119    0.210    0.341
  344.250  136.076   83.608    0.217    0.316
  344.500  113.866   82.815    0.222    0.291
  344.750   88.084   82.754    0.236    0.273
  345.000   73.707   82.053    0.253    0.252
