~VERSION INFORMATION
 VERS.                 2.0:   CWLS LOG ASCII STANDARD -VERSION 2.0
 WRAP.                  NO:   ONE LINE PER DEPTH STEP
~WELL INFORMATION BLOCK
#MNEM.UNIT           DATA                    DESCRIPTION OF MNEMONIC
#---------    -------------------            -------------------------------
# Generated from Intellog Unique Number	CS_73_76/WELL/2200
WELL.         PEX KIRBY                      : Well_name    - WELL
LOC .         AA/11-10-074-08W4/0            : Location     - LOCATION
UWI .         AA/11-10-074-08W4/0            : Uwi          - UNIQUE WELL ID
ENTR.         SP                             : Entered      - ENTERED BY
SRVC.         SCHLUMBERGER                   : Scn          - SERVICE COMPANY
STRT.M        310                            : top_depth    - START DEPTH
STOP.M        533                            : bot_depth    - STOP DEPTH
STEP.M        0.25                           : increment    - STEP LENGTH
 NULL. -999.2500:NULL Value
~CURVE INFORMATION BLOCK
#MNEM UNIT       ERCB CURVE CODE    CURVE DESCRIPTION
#-----------   ------------------   ----------------------------------
DEPT.M        00 001 00 00         : DEPTH        - DEPTH
ILD .OHMM     00 120 00 00         : RESD         - DEEP RESISTIVITY (DIL)
DPHI.V/V      00 890 00 00         : PHID         - DENSITY POROSITY (LIMESTONE)
NPHI.V/V      00 330 00 00         : PHIN         - NEUTRON POROSITY (LIMESTONE)
GR  .API      00 310 00 00         : GR           - GAMMA RAY
~PARAMETER INFORMATION
#MNEM.UNIT           DATA             DESCRIPTION OF MNEMONIC
#---------         -----------     ------------------------------
GL  .M        692.3                : gl           - GROUND LEVEL ELEVATION
EREF.M        695.8                : kb           - ELEVATION OF DEPTH REFERENCE
DATM.M        692.3                : datum        - DATUM ELEVATION
TDD .M        538                  : tdd          - TOTAL DEPTH DRILLER
RUN .         ONE                  : Run          - RUN NUMBER
ENG .         BILL                 : Engineer     - RECORDING ENGINEER
WIT .         JIM                  : Witness      - WITNESSED BY
MUD .         GEL                  : Mud_type     - MUD TYPE
MATR.         LIMESTONE            : Logunit      - NEUTRON MATRIX
TMAX.C        23                   : BHT          - MAXIMUM RECORDED TEMPERATURE
BHTD.M        538                  : BHTDEP       - MAXIMUM RECORDED TEMPERATURE
MATR.         1                    : LOGUNIT      - NEUTRON MATRIX
RMT .C        25                   : MDTP         - TEMPERATURE OF MUD
NEUT.         1                    : NEUTRON      - NEUTRON TYPE
RESI.         0                    : RESIST       - RESISTIVITY TYPE
RMC .OHMM     0.25                 : RMC          - RESISTIVITY OF MUD CAKE
RMF .OHMM     0.25                 : RMF          - RESISTIVITY OF MUD FILTRATE
SUFT.C        15                   : SUFT         - SURFACE TEMPERATURE
~A  DEPTH     RESD     PHID     PHIN       GR
# ...
  353.500   10.353    0.265    0.455   91.150
  353.750   11.165    0.265    0.454   94.183
  354.000   11.596    0.268    0.443   94.171
  354.250   12.045    0.273    0.431   92.328
  354.500   12.276    0.267    0.420   91.094
  354.750   12.282    0.257    0.411   90.477
  355.000   12.056    0.250    0.397   88.632
  355.250   11.616    0.256    0.389   87.401
  355.500   11.622    0.264    0.430   84.951
  355.750   12.299    0.271    0.446   82.499
  356.000   14.034    0.279    0.462   79.436
  356.250   15.134    0.287    0.457   77.599
  356.500   16.015    0.283    0.446   79.416
  356.750   16.636    0.243    0.420   83.665
  357.000   16.639    0.227    0.419   84.874
  357.250   15.442    0.244    0.476   86.085
  357.500   14.330    0.254    0.487   86.075
  357.750   13.298    0.252    0.478   85.453
  358.000   13.057    0.255    0.463   82.388
  358.250   13.310    0.274    0.443   78.722
  358.500   13.566    0.287    0.412   72.003
  358.750   14.092    0.296    0.395   75.647
  359.000   14.097    0.285    0.389   79.898
  359.250   14.100    0.274    0.393   81.111
  359.500   13.843    0.269    0.413   82.319
  359.750   13.591    0.269    0.434   79.257
  360.000   13.597    0.279    0.450   74.368
  360.250   14.390    0.290    0.431   70.695
  360.500   14.945    0.301    0.423   74.953
  360.750   15.820    0.286    0.411   77.988
  361.000   15.827    0.279    0.419   72.488
  361.250   15.831    0.279    0.408   67.600
  361.500   14.972    0.276    0.392   62.707
  361.750   14.697    0.272    0.402   64.523
  362.000   14.161    0.284    0.421   64.512
  362.250   13.903    0.298    0.437   64.498
  362.500   13.908    0.298    0.437   65.099
  362.750   14.176    0.292    0.423   62.037
  363.000   14.452    0.285    0.417   61.414
  363.250   14.455    0.283    0.417   65.669
  363.500   14.460    0.280    0.412   68.708
  363.750   14.197    0.280    0.409   72.349
  364.000   13.940    0.279    0.400   72.952
  364.250   13.685    0.273    0.396   72.329
  364.500   13.188    0.263    0.394   72.923
  364.750   12.946    0.256    0.409   73.523
  365.000   12.949    0.260    0.421   74.122
  365.250   12.957    0.266    0.437   75.327
  365.500   12.962    0.276    0.447   76.534
  365.750   12.967    0.279    0.434   76.522
  366.000   13.216    0.277    0.415   75.901
  366.250   13.471    0.273    0.408   71.620
  366.500   14.258    0.273    0.393   70.386
  366.750   14.532    0.274    0.387   72.206
  367.000   15.093    0.273    0.391   76.461
  367.250   15.677    0.270    0.406   77.669
  367.500   16.591    0.272    0.421   73.387
  367.750   17.893    0.301    0.432   65.450
  368.000   19.295    0.331    0.429   58.733
  368.250   20.421    0.345    0.415   55.671
  368.500   21.210    0.350    0.414   54.440
  368.750   21.619    0.350    0.446   53.815
  369.000   22.456    0.350    0.451   55.632
  369.250   23.325    0.352    0.432   53.791
  369.500   23.775    0.357    0.424   51.949
  369.750   24.237    0.360    0.413   52.548
  370.000   24.702    0.348    0.414   53.145
  370.250   24.713    0.341    0.409   52.523
  370.500   24.724    0.337    0.424   51.293
  370.750   24.729    0.340    0.437   54.328
  371.000   25.211    0.347    0.437   56.142
  371.250   24.750    0.356    0.425   55.520
  371.500   24.760    0.348    0.423   53.072
  371.750   24.766    0.347    0.429   51.837
  372.000   23.863    0.351    0.426   52.438
  372.250   22.566    0.350    0.417   52.426
  372.500   21.342    0.348    0.416   54.239
  372.750   21.347    0.351    0.440   55.450
  373.000   21.361    0.356    0.456   57.262
  373.250   21.364    0.363    0.436   58.472
  373.500   22.611    0.366    0.411   59.675
  373.750   23.930    0.362    0.394   59.669
  374.000   24.851    0.359    0.424   61.481
  374.250   25.335    0.362    0.439   61.473
  374.500   25.341    0.362    0.445   55.362
  374.750   24.881    0.353    0.441   51.084
  375.000   25.363    0.341    0.416   45.584
  375.250   25.850    0.338    0.375   48.615
  375.500   27.362    0.345    0.394   50.438
  375.750   27.887    0.346    0.420   52.254
  376.000   27.900    0.347    0.427   51.017
  376.250   27.390    0.349    0.428   51.010
  376.500   26.391    0.349    0.411   51.605
  376.750   24.957    0.355    0.411   49.156
  377.000   23.599    0.363    0.415   45.486
  377.250   22.736    0.363    0.404   46.690
  377.500   21.907    0.360    0.431   48.509
  377.750   21.915    0.362    0.450   49.718
  378.000   23.198    0.365    0.461   50.921
  378.250   23.205    0.362    0.425   52.132
  378.500   23.211    0.354    0.406   52.727
  378.750   23.220    0.338    0.422   52.715
  379.000   21.958    0.320    0.444   55.144
  379.250   21.156    0.307    0.458   59.399
  379.500   20.770    0.299    0.464   61.216
  379.750   21.573    0.328    0.443   52.058
  380.000   22.832    0.338    0.398   42.900
  380.250   24.621    0.348    0.367   37.399
  380.500   27.053    0.350    0.381   43.485
  380.750   30.293    0.339    0.404   41.032
  381.000   32.059    0.336    0.400   39.802
  381.250   32.681    0.335    0.386   41.619
  381.500   32.090    0.336    0.376   43.436
  381.750   32.097    0.337    0.379   44.643
  382.000   31.509    0.342    0.396   45.845
  382.250   30.934    0.346    0.391   45.836
  382.500   30.379    0.340    0.385   46.432
  382.750   29.825    0.336    0.392   47.643
  383.000   29.834    0.341    0.398   44.580
  383.250   29.841    0.341    0.392   40.302
  383.500   30.424    0.335    0.392   43.334
  383.750   30.431    0.337    0.395   46.371
  384.000   30.439    0.346    0.396   50.016
  384.250   30.455    0.348    0.401   51.224
  384.500   30.463    0.347    0.414   49.995
  384.750   30.478    0.335    0.447   48.154
  385.000   30.485    0.332    0.452   47.532
  385.250   29.934    0.343    0.433   48.735
  385.500   29.385    0.351    0.414   49.943
  385.750   28.853    0.352    0.428   52.980
  386.000   27.800    0.351    0.436   54.798
  386.250   27.292    0.357    0.418   54.783
  386.500   26.793    0.362    0.395   55.384
  386.750   25.817    0.360    0.429   58.421
  387.000   25.346    0.353    0.441   60.846
  387.250   24.886    0.352    0.441   62.664
  387.500   24.892    0.358    0.450   62.042
  387.750   25.378    0.357    0.452   58.371
  388.000   25.866    0.355    0.440   54.086
  388.250   26.363    0.351    0.449   53.469
  388.500   26.877    0.349    0.439   52.848
  388.750   27.396    0.351    0.434   52.221
  389.000   28.452    0.351    0.432   51.604
  389.250   29.554    0.349    0.429   50.975
  389.500   30.128    0.349    0.437   50.968
  389.750   30.135    0.356    0.431   50.344
  390.000   30.150    0.359    0.434   50.333
  390.250   30.162    0.353    0.443   52.151
  390.500   29.613    0.351    0.438   50.311
  390.750   29.069    0.353    0.441   50.290
  391.000   28.013    0.354    0.454   50.888
  391.250   27.498    0.355    0.450   51.488
  391.500   26.998    0.354    0.444   50.868
  391.750   26.011    0.353    0.437   53.297
  392.000   25.064    0.349    0.421   55.115
  392.250   24.149    0.345    0.411   53.272
  392.500   23.270    0.354    0.432   53.258
  392.750   22.002    0.360    0.460   54.466
  393.000   18.942    0.356    0.477   55.065
  393.250   16.307    0.338    0.479   52.005
  393.500   14.037    0.302    0.399   53.212
  393.750    8.950    0.294    0.442   58.073
  394.000   10.405    0.349    0.481   58.673
  394.250   12.325    0.365    0.524   52.561
  394.500   13.799    0.360    0.469   48.894
  394.750   14.880    0.346    0.436   53.146
  395.000   15.455    0.341    0.420   59.232
  395.250   15.461    0.348    0.463   60.439
  395.500   14.347    0.349    0.487   59.819
  395.750    9.147    0.340    0.464   65.295
  396.000    7.874    0.325    0.456   67.720
  396.250    7.446    0.326    0.466   66.491
  396.500    7.735    0.329    0.444   61.595
  396.750    8.032    0.335    0.446   60.368
