~VERSION INFORMATION
 VERS.                 2.0:   CWLS LOG ASCII STANDARD -VERSION 2.0
 WRAP.                  NO:   ONE LINE PER DEPTH STEP
~WELL INFORMATION BLOCK
#MNEM.UNIT           DATA                    DESCRIPTION OF MNEMONIC
#---------    -------------------            -------------------------------
# Generated from Intellog Unique Number	CW_82_90/WELL/913
WELL.         PARAMOUNT ET AL GRANOR 10-25   : Well_name    - WELL
LOC .         00/10-25-083-19W4/0            : Location     - LOCATION
UWI .         00/10-25-083-19W400            : Uwi          - UNIQUE WELL ID
ENTR.         JAYE                           : Entered      - ENTERED BY
SRVC.         COMPUTALOG                     : Scn          - SERVICE COMPANY
DATE.         4 MAR 77                       : Date         - LOG DATE
STRT.M        183.185                        : top_depth    - START DEPTH
STOP.M        336.685                        : bot_depth    - STOP DEPTH
STEP.M        0.25                           : increment    - STEP LENGTH
 NULL. -999.2500:NULL Value
~CURVE INFORMATION BLOCK
#MNEM UNIT       ERCB CURVE CODE    CURVE DESCRIPTION
#-----------   ------------------   ----------------------------------
DEPT.M        00 001 00 00         : DEPTH        - DEPTH
ILD .OHMM     00 120 00 00         : RESD         - DEEP RESISTIVITY (DIL)
CALI.MM       00 280 01 00         : CAL          - CALIPER
GR  .API      00 310 00 00         : GR           - GAMMA RAY
NPHI.V/V      00 330 00 00         : PHIN         - NEUTRON POROSITY (SANDSTONE)
DPHI.V/V      00 890 00 00         : PHID         - DENSITY POROSITY (SANDSTONE)
~PARAMETER INFORMATION
#MNEM.UNIT           DATA             DESCRIPTION OF MNEMONIC
#---------         -----------     ------------------------------
GL  .M        570.89               : gl           - GROUND LEVEL ELEVATION
EREF.M        573.938              : kb           - ELEVATION OF DEPTH REFERENCE
DATM.M        570.89               : datum        - DATUM ELEVATION
TDD .M        336.499              : tdd          - TOTAL DEPTH DRILLER
RUN .         ONE                  : Run          - RUN NUMBER
ENG .         KING/HALL            : Engineer     - RECORDING ENGINEER
WIT .         CONNELLY             : Witness      - WITNESSED BY
BASE.         MEDICINE HAT         : Branch       - HOME BASE OF LOGGING UNIT
MUD .         GEL CHEM             : Mud_type     - MUD TYPE
MATR.         SANDSTONE            : Logunit      - NEUTRON MATRIX
TMAX.C        0                    : BHT          - MAXIMUM RECORDED TEMPERATURE
BHTD.M        62                   : BHTDEP       - MAXIMUM RECORDED TEMPERATURE
RMT .C        1104                 : MDTP         - TEMPERATURE OF MUD
MUDD.KG/M     58                   : MWT          - MUD DENSITY
NEUT.         9.1                  : NEUTRON      - NEUTRON TYPE
RM  .OHMM     1                    : RM           - RESISTIVITY OF MUD
RMC .OHMM     4.1                  : RMC          - RESISTIVITY OF MUD CAKE
RMF .OHMM     0                    : RMF          - RESISTIVITY OF MUD FILTRATE
SUFT.C        3.5                  : SUFT         - SURFACE TEMPERATURE
SUFT.C        0                    : SUFT         - SURFACE TEMPERATURE
~A  DEPTH     RESD      CAL       GR     PHIN     PHID
# ...
  256.185   11.315  158.036   66.350    0.408    0.182
  256.435   10.950  157.835   66.788    0.403    0.187
  256.685   11.111  157.740   65.370    0.395    0.194
  256.935   11.134  157.015   65.561    0.399    0.197
  257.185   10.882  154.091   68.722    0.413    0.201
  257.435   10.623  157.557   68.542    0.429    0.195
  257.685   10.533  157.672   70.529    0.438    0.199
  257.935   10.483  157.366   71.832    0.434    0.195
  258.185   10.466  158.214   73.447    0.425    0.187
  258.435   10.473  158.746   71.967    0.423    0.186
  258.685   10.601  158.651   69.064    0.408    0.188
  258.935   10.818  158.554   66.656    0.411    0.191
  259.185   10.817  155.840   67.218    0.413    0.196
  259.435   10.759  155.114   70.380    0.407    0.197
  259.685   10.782  154.496   69.456    0.401    0.193
  259.935   10.846  154.295   71.504    0.398    0.178
  260.185   11.095  154.934   71.510    0.391    0.170
  260.435   11.530  155.256   69.658    0.393    0.174
  260.685   11.884  155.578   66.136    0.403    0.194
  260.935   12.294  155.693   65.151    0.398    0.199
  261.185   12.535  156.121   65.342    0.389    0.199
  261.435   12.099  158.226   62.934    0.335    0.198
  261.685   11.758  159.807   64.858    0.318    0.196
  261.935   11.297  160.339   70.743    0.362    0.189
  262.185   10.860  160.662   70.995    0.382    0.187
  262.435   10.593  161.302   69.577    0.406    0.188
  262.685   10.333  161.625   66.674    0.421    0.192
  262.935    9.945  161.424   69.341    0.426    0.195
  263.185    9.693  160.175   68.665    0.398    0.205
  263.435    9.668  159.031   66.319    0.404    0.208
  263.685    9.691  157.575   65.396    0.410    0.218
  263.935    9.722  158.001   68.680    0.412    0.212
  264.185    9.729  159.163   74.751    0.425    0.212
  264.435    9.688  160.430   70.486    0.429    0.199
  264.685    9.549  160.440   70.368    0.427    0.193
  264.935    9.290  159.924   73.591    0.421    0.202
  265.185    9.281  161.400   71.245    0.422    0.215
  265.435    9.247  163.924   71.002    0.425    0.224
  265.685    9.182  164.876   72.431    0.427    0.222
  265.935    8.898  162.475   74.107    0.424    0.223
  266.185    8.598  162.903   78.507    0.416    0.220
  266.435    8.436  163.645   82.102    0.441    0.226
  266.685    8.386  163.969   80.126    0.446    0.243
  266.935    8.538  163.035   72.334    0.443    0.244
  267.185    8.763  158.643   63.861    0.433    0.244
  267.435    9.214  153.307   62.443    0.424    0.249
  267.685   10.400  152.583   62.572    0.404    0.252
  267.935   11.004  151.440   58.246    0.368    0.253
  268.185   11.406  151.031   55.962    0.387    0.248
  268.435   11.728  150.619   55.534    0.407    0.247
  268.685   11.881  150.524   55.353    0.398    0.235
  268.935   11.920  150.742   57.463    0.379    0.234
  269.185   11.862  151.694   57.654    0.374    0.226
  269.435   11.829  153.383   59.516    0.376    0.215
  269.685   11.804  153.913   61.254    0.378    0.238
  269.935   11.778  154.971   56.308    0.381    0.245
  270.185   11.817  155.609   55.757    0.383    0.245
  270.435   11.857  155.617   47.593    0.355    0.244
  270.685   11.864  154.369   49.332    0.364    0.241
  270.935   11.959  154.064   57.815    0.388    0.237
  271.185   12.088  154.492   56.459    0.411    0.246
  271.435   12.401  155.023   54.298    0.406    0.262
  271.685   12.893  157.444   56.718    0.411    0.264
  271.935   13.868  159.338   56.846    0.408    0.263
  272.185   15.336  159.977   51.344    0.401    0.263
  272.435   16.562  159.147   47.947    0.315    0.264
  272.685   16.634  157.900   40.401    0.268    0.265
  272.935   16.269  157.489   47.461    0.255    0.256
  273.185   15.638  156.869   51.860    0.287    0.233
  273.435   14.071  156.878   56.011    0.382    0.139
  273.685   12.246  156.677   62.576    0.388    0.099
  273.935   11.341  156.476   65.924    0.369    0.081
  274.185   10.435  156.277   69.394    0.393    0.101
  274.435    9.530  155.761   75.464    0.404    0.125
  274.685    8.496  157.343   78.069    0.408    0.233
  274.935    7.994  159.552   79.436    0.426    0.210
  275.185    7.872  159.456   77.894    0.433    0.200
  275.435    7.911  158.416   76.847    0.426    0.182
  275.685    8.306  156.436   68.498    0.409    0.184
  275.935    9.871  157.493   67.019    0.384    0.172
  276.185   10.434  157.292   68.199    0.396    0.158
  276.435   10.514  156.986   68.577    0.398    0.222
  276.685   10.400  156.262   69.077    0.373    0.211
  276.935   10.124  155.746   71.001    0.384    0.187
  277.185    9.695  154.917   67.107    0.391    0.130
  277.435    9.468  153.355   71.754    0.397    0.103
  277.685    9.193  155.042   68.479    0.386    0.144
  277.935    8.933  156.307   71.516    0.379    0.162
  278.185    8.666  159.776   74.741    0.375    0.153
  278.435    8.277  161.460   77.840    0.382    0.140
  278.685    8.074  163.249   84.033    0.401    0.182
  278.935    7.855  163.678   76.614    0.421    0.171
  279.185    7.749  161.905   78.227    0.428    0.186
  279.435    7.780  161.916   80.893    0.445    0.172
  279.685    7.957  162.973   83.065    0.437    0.190
  279.935    8.125  163.819   83.256    0.416    0.182
  280.185    8.262  164.563   82.766    0.426    0.170
  280.435    8.454  164.466   81.904    0.422    0.172
  280.685    8.663  164.998   79.682    0.420    0.170
  280.935    8.638  164.274   77.769    0.424    0.165
  281.185    8.418  162.082   79.260    0.430    0.162
  281.435    8.143  162.826   79.699    0.423    0.162
  281.685    8.005  163.149   80.136    0.415    0.166
  281.935    7.866  163.577   82.741    0.412    0.156
  282.185    7.825  163.586   85.469    0.407    0.137
  282.435    7.799  162.861   85.412    0.409    0.116
  282.685    7.628  165.071   88.574    0.420    0.151
  282.935    7.474  166.023   91.426    0.413    0.170
  283.185    7.078  166.555   89.575    0.428    0.175
  283.435    6.842  166.251   87.662    0.433    0.166
  283.685    6.785  168.566   85.254    0.437    0.173
  283.935    6.937  163.126   79.627    0.438    0.157
  284.185    7.541  161.772   73.445    0.434    0.149
  284.435    8.477  161.152   70.046    0.290    0.127
  284.685    9.307  161.686   67.391    0.277    0.041
  284.935   11.211  161.903   71.357    0.278    0.092
  285.185   13.672  161.808   77.241    0.300    0.111
  285.435   13.009  161.817   80.278    0.321    0.169
  285.685   12.209  161.512   76.757    0.333    0.183
  285.935   10.819  164.666   80.289    0.389    0.180
  286.185   10.414  164.361   82.646    0.393    0.176
  286.435   10.244  163.005   80.238    0.390    0.179
  286.685   10.420  163.330   72.756    0.374    0.192
  286.935   10.823  163.654   71.524    0.317    0.198
  287.185   11.379  163.349   72.580    0.321    0.192
  287.435   11.934  162.832   71.286    0.323    0.186
  287.685   12.426  162.212   67.517    0.318    0.205
  287.935   13.022  161.383   58.858    0.311    0.189
  288.185   13.699  160.764   49.643    0.287    0.156
  288.435   14.691  160.774   38.633    0.193    0.110
  288.685   16.175  160.363   37.154    0.123    0.111
  288.935   19.564  160.163   38.088    0.094    0.072
  289.185   19.854  160.487   39.206    0.070    0.036
  289.435   20.135  160.495   42.183    0.011    0.038
  289.685   20.198  159.878   42.683    0.003    0.043
  289.935   20.124  159.989   44.607    0.039    0.077
  290.185   19.817  159.685   47.706    0.271    0.127
  290.435   19.339  159.379   54.084    0.272    0.164
  290.685   18.160  158.759   59.969    0.269    0.168
  290.935   16.786  158.243   60.160    0.269    0.164
  291.185   15.574  156.893   61.589    0.286    0.162
  291.435   14.847  156.585   61.781    0.327    0.182
  291.685   14.159  157.117   61.352    0.337    0.211
  291.935   13.400  157.445   58.572    0.339    0.215
  292.185   12.559  157.869   58.145    0.339    0.225
  292.435   12.170  158.299   58.831    0.337    0.212
