~VERSION INFORMATION
 VERS.                 2.0:   CWLS LOG ASCII STANDARD -VERSION 2.0
 WRAP.                  NO:   ONE LINE PER DEPTH STEP
~WELL INFORMATION BLOCK
#MNEM.UNIT           DATA                    DESCRIPTION OF MNEMONIC
#---------    -------------------            -------------------------------
# Generated from Intellog Unique Number	CS_73_76/WELL/3259
WELL.         T0TAL ET AL DEVENISH           : Well_name    - WELL
LOC .         00/11-08-075-08W4/0            : Location     - LOCATION
UWI .         00/11-08-075-08W4/0            : Uwi          - UNIQUE WELL ID
ENTR.         SP                             : Entered      - ENTERED BY
SRVC.         SCHLUMBERGER                   : Scn          - SERVICE COMPANY
STRT.M        275                            : top_depth    - START DEPTH
STOP.M        500                            : bot_depth    - STOP DEPTH
STEP.M        0.25                           : increment    - STEP LENGTH
 NULL. -999.2500:NULL Value
~CURVE INFORMATION BLOCK
#MNEM UNIT       ERCB CURVE CODE    CURVE DESCRIPTION
#-----------   ------------------   ----------------------------------
DEPT.M        00 001 00 00         : DEPTH        - DEPTH
ILD .OHMM     00 120 00 00         : RESD         - DEEP RESISTIVITY (DIL)
DPHI.V/V      00 890 00 00         : PHID         - DENSITY POROSITY (LIMESTONE)
NPHI.V/V      00 330 00 00         : PHIN         - NEUTRON POROSITY (LIMESTONE)
GR  .API      00 310 00 00         : GR           - GAMMA RAY
~PARAMETER INFORMATION
#MNEM.UNIT           DATA             DESCRIPTION OF MNEMONIC
#---------         -----------     ------------------------------
GL  .M        665.61               : gl           - GROUND LEVEL ELEVATION
EREF.M        669                  : kb           - ELEVATION OF DEPTH REFERENCE
DATM.M        665.61               : datum        - DATUM ELEVATION
TDD .M        514                  : tdd          - TOTAL DEPTH DRILLER
RUN .         ONE                  : Run          - RUN NUMBER
ENG .         BILL                 : Engineer     - RECORDING ENGINEER
WIT .         JIM                  : Witness      - WITNESSED BY
MUD .         GEL                  : Mud_type     - MUD TYPE
MATR.         LIMESTONE            : Logunit      - NEUTRON MATRIX
TMAX.C        23.8                 : BHT          - MAXIMUM RECORDED TEMPERATURE
BHTD.M        514                  : BHTDEP       - MAXIMUM RECORDED TEMPERATURE
MATR.         1                    : LOGUNIT      - NEUTRON MATRIX
RMT .C        25                   : MDTP         - TEMPERATURE OF MUD
NEUT.         1                    : NEUTRON      - NEUTRON TYPE
RESI.         0                    : RESIST       - RESISTIVITY TYPE
RMC .OHMM     0.25                 : RMC          - RESISTIVITY OF MUD CAKE
RMF .OHMM     0.25                 : RMF          - RESISTIVITY OF MUD FILTRATE
SUFT.C        15                   : SUFT         - SURFACE TEMPERATURE
~A  DEPTH     RESD     PHID     PHIN       GR
  275.000    2.800    0.242    0.523   93.288
  275.250    2.960    0.227    0.496   93.275
  275.500    3.190    0.214    0.485   91.433
  275.750    3.436    0.207    0.540   86.543
  276.000    3.634    0.170    0.579   80.433
  276.250    3.915    0.000    0.562   71.276
  276.500    4.063    0.000    0.439   63.947
  276.750    4.062    0.000    0.466   76.736
  277.000    3.986    0.195    0.486   81.606
  277.250    3.838    0.207    0.475   87.687
  277.500    3.560    0.211    0.485   85.240
  277.750    3.364    0.223    0.500   90.101
  278.000    3.301    0.227    0.500   93.140
  278.250    3.179    0.226    0.517   94.957
  278.500    3.119    0.229    0.523   94.942
  278.750    3.118    0.227    0.532   93.100
  279.000    3.236    0.223    0.507   91.260
  279.250    3.358    0.223    0.490   90.027
  279.500    3.551    0.215    0.482   89.407
  279.750    3.617    0.196    0.482   91.226
  280.000    3.616    0.187    0.510   94.262
  280.250    3.482    0.194    0.523   96.080
  280.500    3.417    0.198    0.525   97.895
  280.750    3.290    0.200    0.506   96.664
  281.000    3.289    0.212    0.510   93.605
  281.250    3.227    0.222    0.503   91.153
  281.500    3.287    0.214    0.490   85.654
  281.750    3.348    0.199    0.492   81.980
  282.000    3.540    0.164    0.473   83.190
  282.250    3.674    0.194    0.469   89.274
  282.500    3.742    0.217    0.498   92.310
  282.750    4.108    0.247    0.530   88.638
  283.000    4.770    0.302    0.434   86.799
  283.250    6.083    0.290    0.422   84.348
  283.500    7.197    0.273    0.427   83.117
  283.750    9.350    0.263    0.432   82.496
  284.000   14.111    0.258    0.434   86.143
  284.250   14.919    0.240    0.431   93.445
  284.500   14.368    0.223    0.411   95.872
  284.750   13.328    0.210    0.394   97.690
  285.000   12.595    0.223    0.393  101.946
  285.250   12.591    0.259    0.392   98.884
  285.500   13.823    0.284    0.402   88.508
  285.750   18.298    0.313    0.357   71.423
  286.000   27.102    0.346    0.185   55.559
  286.250   35.878    0.360    0.186   37.254
  286.500   51.186    0.370    0.195   26.875
  286.750   62.870    0.361    0.212   25.644
  287.000   57.235    0.322    0.234   26.244
  287.250   48.345    0.317    0.266   26.839
  287.500   41.607    0.309    0.309   28.048
  287.750   36.486    0.300    0.345   29.253
  288.000   32.598    0.299    0.377   31.680
  288.250   29.124    0.299    0.356   42.031
  288.500   27.017    0.287    0.353   48.120
  288.750   24.594    0.280    0.391   63.348
  289.000   22.814    0.289    0.399   68.827
  289.250   21.162    0.283    0.379   71.858
  289.500   19.997    0.274    0.390   74.290
  289.750   19.623    0.267    0.411   77.933
  290.000   19.254    0.272    0.406   79.142
  290.250   19.248    0.274    0.400   71.201
  290.500   18.883    0.277    0.387   66.924
  290.750   18.878    0.276    0.389   65.079
  291.000   18.872    0.272    0.394   66.287
  291.250   18.517    0.277    0.397   67.495
  291.500   18.506    0.286    0.392   68.704
  291.750   18.851    0.288    0.387   61.982
  292.000   19.568    0.280    0.379   57.704
  292.250   21.480    0.287    0.380   52.816
  292.500   22.712    0.308    0.408   51.583
  292.750   23.573    0.320    0.428   54.617
  293.000   24.013    0.318    0.411   55.827
  293.250   24.459    0.315    0.405   52.765
  293.500   25.381    0.309    0.394   48.487
  293.750   25.377    0.307    0.407   44.205
  294.000   25.368    0.307    0.421   42.974
  294.250   25.357    0.312    0.422   46.010
  294.500   25.351    0.315    0.417   49.046
  294.750   24.868    0.320    0.402   50.254
  295.000   24.863    0.328    0.398   52.070
  295.250   24.858    0.326    0.382   52.669
  295.500   24.389    0.317    0.379   51.435
  295.750   24.381    0.314    0.405   52.035
  296.000   23.919    0.308    0.425   52.633
  296.250   23.914    0.296    0.404   52.010
  296.500   23.907    0.289    0.399   53.826
  296.750   23.457    0.304    0.408   48.327
  297.000   23.447    0.313    0.389   44.048
  297.250   23.008    0.311    0.373   44.035
  297.500   22.999    0.292    0.345   47.681
  297.750   22.565    0.270    0.351   48.279
  298.000   21.327    0.290    0.384   40.338
  298.250   19.056    0.302    0.378   34.231
  298.500   14.387    0.300    0.339   37.878
  298.750   10.462    0.262    0.366   68.959
  299.000    8.354    0.212    0.442   82.361
  299.250    7.057    0.187    0.471   93.936
  299.500    6.074    0.171    0.483  101.851
  299.750    5.529    0.185    0.494  107.934
  300.000    5.129    0.202    0.489  109.751
  300.250    4.669    0.197    0.473  108.517
  300.500    4.331    0.196    0.477  108.506
  300.750    4.017    0.203    0.508  107.887
  301.000    3.726    0.208    0.538  103.607
  301.250    3.521    0.214    0.561  101.764
  301.500    3.455    0.252    0.549   93.827
  301.750    3.586    0.296    0.538   76.741
  302.000    4.928    0.314    0.517   68.804
  302.250    7.437    0.290    0.478   63.301
  302.500   10.414    0.269    0.447   60.243
  302.750   15.424    0.250    0.418   59.620
  303.000   18.593    0.265    0.418   61.437
  303.250   17.572    0.271    0.420   63.862
  303.500   15.700    0.265    0.423   68.728
  303.750   14.563    0.267    0.429   70.548
  304.000   14.024    0.268    0.427   71.145
  304.250   14.284    0.286    0.422   71.743
  304.500   14.549    0.299    0.416   71.728
  304.750   15.972    0.300    0.411   71.716
  305.000   17.209    0.291    0.405   72.314
  305.250   17.526    0.275    0.399   80.226
  305.500   16.258    0.258    0.402   92.410
  305.750   13.479    0.228    0.418  101.545
  306.000   10.967    0.199    0.429  105.189
  306.250    9.264    0.182    0.435  105.788
  306.500    7.679    0.168    0.440  105.778
  306.750    6.366    0.157    0.436  108.205
  307.000    5.688    0.194    0.458  112.456
  307.250    5.276    0.215    0.486  115.492
  307.500    4.894    0.208    0.502  117.310
  307.750    4.893    0.209    0.509  115.469
  308.000    4.984    0.209    0.507  114.851
  308.250    5.269    0.219    0.498  111.788
  308.500    5.468    0.239    0.493  106.289
  308.750    5.893    0.254    0.466  102.620
  309.000    7.656    0.273    0.438  100.167
  309.250   10.326    0.288    0.436   94.055
  309.500   13.670    0.284    0.416   89.778
  309.750   16.173    0.264    0.420   89.764
  310.000   15.573    0.247    0.432   94.019
  310.250   14.997    0.238    0.442   95.837
  310.500   13.910    0.241    0.451   99.483
  310.750   12.662    0.253    0.431  102.520
  311.000   11.967    0.241    0.409  103.120
  311.250   11.524    0.216    0.394   86.035
  311.500   11.739    0.202    0.383   70.170
  311.750   13.630    0.235    0.392   59.183
  312.000   15.534    0.264    0.393   50.632
  312.250   17.704    0.297    0.382   50.619
  312.500   19.802    0.289    0.377   49.390
  312.750   21.739    0.257    0.375   47.549
  313.000   23.420    0.278    0.369   47.537
  313.250   23.856    0.290    0.374   51.793
  313.500   23.404    0.301    0.379   58.482
  313.750   22.966    0.297    0.390   59.696
  314.000   22.113    0.291    0.393   60.291
  314.250   21.698    0.284    0.402   59.060
  314.500   20.894    0.287    0.397   64.531
  314.750   20.118    0.277    0.402   67.569
  315.000   19.739    0.265    0.419   68.169
  315.250   19.010    0.258    0.427   72.426
  315.500   16.360    0.246    0.440   83.390
  315.750   13.311    0.211    0.446  102.888
  316.000   11.457    0.186    0.457  108.973
  316.250    9.148    0.185    0.456  104.690
  316.500    8.174    0.191    0.461  100.409
  316.750    7.304    0.211    0.463   94.302
  317.000    7.033    0.233    0.404   86.975
  317.250    8.015    0.250    0.385   80.253
  317.500    9.135    0.232    0.382   78.412
  317.750   10.411    0.217    0.367   83.278
  318.000   11.864    0.207    0.360   93.021
  318.250   12.545    0.210    0.380  102.153
