~VERSION INFORMATION
 VERS.                 2.0:   CWLS LOG ASCII STANDARD -VERSION 2.0
 WRAP.                  NO:   ONE LINE PER DEPTH STEP
~WELL INFORMATION BLOCK
#MNEM.UNIT           DATA                    DESCRIPTION OF MNEMONIC
#---------    -------------------            -------------------------------
# Generated from Intellog Unique Number	CS_73_76/WELL/2189
WELL.         AMOCO KIRBY                    : Well_name    - WELL
LOC .         00/10-15-074-06W4/0            : Location     - LOCATION
UWI .         00/10-15-074-06W4/0            : Uwi          - UNIQUE WELL ID
ENTR.         SP                             : Entered      - ENTERED BY
SRVC.         SCHLUMBERGER                   : Scn          - SERVICE COMPANY
STRT.M        235                            : top_depth    - START DEPTH
STOP.M        455                            : bot_depth    - STOP DEPTH
STEP.M        0.25                           : increment    - STEP LENGTH
 NULL. -999.2500:NULL Value
~CURVE INFORMATION BLOCK
#MNEM UNIT       ERCB CURVE CODE    CURVE DESCRIPTION
#-----------   ------------------   ----------------------------------
DEPT.M        00 001 00 00         : DEPTH        - DEPTH
DPHI.V/V      00 890 00 00         : PHID         - DENSITY POROSITY (LIMESTONE)
ILD .OHMM     00 120 00 00         : RESD         - DEEP RESISTIVITY (DIL)
NPHI.V/V      00 330 00 00         : PHIN         - NEUTRON POROSITY (LIMESTONE)
GR  .API      00 310 00 00         : GR           - GAMMA RAY
~PARAMETER INFORMATION
#MNEM.UNIT           DATA             DESCRIPTION OF MNEMONIC
#---------         -----------     ------------------------------
GL  .M        627.32               : gl           - GROUND LEVEL ELEVATION
EREF.M        631.57               : kb           - ELEVATION OF DEPTH REFERENCE
DATM.M        627.32               : datum        - DATUM ELEVATION
TDD .M        464                  : tdd          - TOTAL DEPTH DRILLER
RUN .         ONE                  : Run          - RUN NUMBER
ENG .         BILL                 : Engineer     - RECORDING ENGINEER
WIT .         JIM                  : Witness      - WITNESSED BY
MUD .         GEL                  : Mud_type     - MUD TYPE
MATR.         LIMESTONE            : Logunit      - NEUTRON MATRIX
TMAX.C        23                   : BHT          - MAXIMUM RECORDED TEMPERATURE
BHTD.M        464                  : BHTDEP       - MAXIMUM RECORDED TEMPERATURE
MATR.         1                    : LOGUNIT      - NEUTRON MATRIX
RMT .C        25                   : MDTP         - TEMPERATURE OF MUD
NEUT.         1                    : NEUTRON      - NEUTRON TYPE
RESI.         0                    : RESIST       - RESISTIVITY TYPE
RMC .OHMM     0.25                 : RMC          - RESISTIVITY OF MUD CAKE
RMF .OHMM     0.25                 : RMF          - RESISTIVITY OF MUD FILTRATE
SUFT.C        15                   : SUFT         - SURFACE TEMPERATURE
~A  DEPTH     PHID     RESD     PHIN       GR
  235.000    0.232    3.406    0.522  109.320
  235.250    0.235    3.283    0.522  109.330
  235.500    0.243    3.223    0.520  111.171
  235.750    0.246    3.223    0.515  112.396
  236.000    0.245    3.165    0.508  109.981
  236.250    0.241    3.165    0.520  107.566
  236.500    0.253    3.166    0.532  104.544
  236.750    0.251    3.167    0.546  102.127
  237.000    0.255    3.226    0.509  100.925
  237.250    0.236    3.287    0.497  102.153
  237.500    0.234    3.349    0.485  103.990
  237.750    0.245    3.542    0.472  106.432
  238.000    0.265    4.768    0.452  104.627
  238.250    0.279    7.043    0.398   99.782
  238.500    0.292   10.212    0.374   96.756
  238.750    0.285   13.003    0.397   93.733
  239.000    0.259   14.538    0.409   97.397
  239.250    0.246   14.540    0.420  101.049
  239.500    0.240   13.501    0.425  109.566
  239.750    0.250   12.772    0.431  116.867
  240.000    0.253   12.540    0.427  114.455
  240.250    0.259   12.541    0.416  103.540
  240.500    0.262   13.511    0.394   99.904
  240.750    0.271   15.388    0.351   90.201
  241.000    0.281   19.593    0.324   83.533
  241.250    0.298   26.377    0.234   75.658
  241.500    0.316   31.764    0.228   71.417
  241.750    0.309   36.857    0.281   67.177
  242.000    0.340   36.186    0.310   64.154
  242.250    0.377   31.196    0.336   68.423
  242.500    0.341   25.437    0.369   74.510
  242.750    0.311   20.359    0.398   81.811
  243.000    0.281   15.701    0.416   89.719
  243.250    0.276   14.047    0.426   95.806
  243.500    0.265   12.805    0.432   96.428
  243.750    0.261   12.340    0.438   95.224
  244.000    0.267   12.342    0.417   94.634
  244.250    0.260   12.118    0.427   95.863
  244.500    0.261   12.347    0.440   97.698
  244.750    0.274   12.580    0.444   99.534
  245.000    0.282   12.818    0.446   99.545
  245.250    0.264   12.820    0.431   97.130
  245.500    0.262   13.062    0.406   95.322
  245.750    0.273   13.559    0.417   95.335
  246.000    0.297   13.816    0.427   95.349
  246.250    0.297   13.818    0.436   92.933
  246.500    0.308   13.071    0.441   90.517
  246.750    0.286   11.479    0.432  101.463
  247.000    0.249    9.896    0.416  110.585
  247.250    0.199    8.532    0.429  109.388
  247.500    0.174    7.776    0.407  105.149
  247.750    0.151    7.494    0.394  102.126
  248.000    0.170    7.779    0.414  101.531
  248.250    0.164    8.698    0.428   99.725
  248.500    0.163    9.370    0.426   97.309
  248.750    0.178   10.476    0.415   92.466
  249.000    0.191   13.339    0.401   87.015
  249.250    0.239   15.768    0.395   83.381
  249.500    0.252   15.770    0.405   77.930
  249.750    0.256   15.482    0.413   77.945
  250.000    0.256   14.646    0.415   79.781
  250.250    0.246   13.350    0.401   85.868
  250.500    0.227   12.396    0.406   91.346
  250.750    0.215   10.687    0.410  102.294
  251.000    0.198    9.213    0.429  110.201
  251.250    0.159    8.397    0.444  119.323
  251.500    0.174    7.239    0.459  122.980
  251.750    0.182    6.358    0.470  119.354
  252.000    0.174    5.795    0.471  121.793
  252.250    0.195    5.185    0.482  128.490
  252.500    0.201    4.997    0.482  126.681
  252.750    0.195    4.471    0.488  124.874
  253.000    0.201    4.230    0.501  124.281
  253.250    0.207    4.001    0.509  124.294
  253.500    0.217    3.715    0.524  124.305
  253.750    0.216    3.514    0.542  126.140
  254.000    0.233    3.264    0.556  125.550
  254.250    0.234    3.204    0.564  122.527
  254.500    0.250    3.087    0.563  122.541
  254.750    0.260    2.975    0.551  120.125
  255.000    0.246    3.206    0.507  115.886
  255.250    0.246    3.453    0.458  107.396
  255.500    0.250    4.824    0.377   98.908
  255.750    0.266    7.676    0.349   89.207
  256.000    0.301   11.988    0.315   83.146
  256.250    0.359   21.322    0.266   74.052
  256.500    0.394   33.300    0.219   67.382
  256.750    0.415   46.526    0.170   58.288
  257.000    0.421   54.998    0.146   52.228
  257.250    0.417   60.360    0.156   48.597
  257.500    0.416   57.099    0.158   46.792
  257.750    0.416   53.023    0.153   46.807
  258.000    0.403   52.054    0.165   47.426
  258.250    0.391   50.163    0.176   47.439
  258.500    0.392   47.458    0.182   47.453
  258.750    0.401   44.894    0.174   49.288
  259.000    0.412   41.686    0.162   45.055
  259.250    0.411   39.432    0.174   51.142
  259.500    0.406   36.615    0.194   58.446
  259.750    0.396   32.158    0.208   61.490
  260.000    0.384   27.724    0.209   65.754
  260.250    0.384   23.029    0.225   66.377
  260.500    0.393   19.129    0.274   68.210
  260.750    0.364   15.597    0.325   77.338
  261.000    0.320   12.484    0.371   84.635
  261.250    0.305   11.379    0.439   91.938
  261.500    0.294   11.171    0.456   94.381
  261.750    0.277   10.969    0.451   94.394
  262.000    0.276   10.768    0.443   96.234
  262.250    0.276   10.770    0.447   97.460
  262.500    0.278   10.771    0.453   98.079
  262.750    0.278   10.976    0.460   95.058
  263.000    0.301   10.776    0.416   85.964
  263.250    0.323   10.579    0.399   77.472
  263.500    0.320   10.386    0.399   66.555
  263.750    0.309   10.197    0.402   62.924
  264.000    0.294   10.010    0.406   62.937
  264.250    0.287    9.648    0.409   72.065
  264.500    0.289    9.297    0.409   75.718
  264.750    0.293    9.128    0.397   80.594
  265.000    0.272    8.961    0.392   81.212
  265.250    0.277    8.798    0.401   77.588
  265.500    0.286    8.799    0.409   75.167
  265.750    0.297    9.134    0.415   70.324
  266.000    0.286    9.307    0.415   67.299
  266.250    0.293    9.309    0.412   62.454
  266.500    0.282    9.485    0.394   63.076
  266.750    0.268    9.486    0.390   70.986
  267.000    0.269    9.487    0.401   74.038
  267.250    0.274    9.314    0.402   72.228
  267.500    0.293    9.145    0.412   70.419
  267.750    0.315    9.146    0.421   77.117
  268.000    0.304    8.980    0.421   79.559
  268.250    0.292    8.981    0.418   79.569
  268.500    0.284    8.982    0.422   83.227
  268.750    0.277    8.819    0.418   91.748
  269.000    0.257    8.658    0.411   96.010
  269.250    0.240    8.659    0.417   99.665
  269.500    0.216    8.660    0.423  103.324
  269.750    0.228    8.662    0.431   98.480
  270.000    0.247    8.663    0.434   89.994
  270.250    0.239    8.665    0.420   84.541
  270.500    0.251    8.507    0.413   89.412
  270.750    0.285    8.509    0.421   89.424
  271.000    0.274    8.354    0.434   89.443
  271.250    0.280    8.202    0.437   89.452
  271.500    0.287    8.052    0.416   90.682
  271.750    0.299    7.760    0.414   93.730
  272.000    0.251    7.478    0.429  104.676
  272.250    0.224    7.207    0.439  115.623
  272.500    0.224    6.945    0.452  121.711
  272.750    0.217    6.693    0.457  125.365
  273.000    0.207    6.571    0.458  124.775
  273.250    0.223    6.451    0.463  123.573
  273.500    0.228    6.333    0.465  119.945
  273.750    0.220    6.217    0.476  116.923
  274.000    0.236    6.105    0.491  115.115
  274.250    0.228    5.993    0.506  113.910
  274.500    0.218    6.107    0.512  113.318
  274.750    0.236    6.222    0.485  115.761
  275.000    0.238    6.458    0.470  113.345
  275.250    0.237    6.580    0.442  109.112
  275.500    0.241    6.705    0.425  106.691
  275.750    0.241    6.832    0.417  103.062
  276.000    0.247    6.962    0.422  104.904
  276.250    0.249    6.963    0.422  106.735
  276.500    0.250    6.964    0.423  107.964
  276.750    0.253    7.095    0.431  106.152
  277.000    0.249    7.230    0.447  102.526
  277.250    0.255    7.366    0.453  100.718
  277.500    0.244    7.367    0.453  100.122
  277.750    0.232    7.101    0.457   98.922
  278.000    0.244    6.971    0.461  100.148
  278.250    0.248    6.595    0.470  106.240
