~VERSION INFORMATION
 VERS.                 2.0:   CWLS LOG ASCII STANDARD -VERSION 2.0
 WRAP.                  NO:   ONE LINE PER DEPTH STEP
~WELL INFORMATION BLOCK
#MNEM.UNIT           DATA                    DESCRIPTION OF MNEMONIC
#---------    -------------------            -------------------------------
# Generated from Intellog Unique Number	CS_77_79/WELL/974
WELL.         AMOCO B-3 LEISMER              : Well_name    - WELL
LOC .         00/10-27-078-09W4/0            : Location     - LOCATION
UWI .         00/10-27-078-09W4/0            : Uwi          - UNIQUE WELL ID
ENTR.         JHS                            : Entered      - ENTERED BY
SRVC.         SCHLUMBERGER                   : Scn          - SERVICE COMPANY
STRT.M        192.024                        : top_depth    - START DEPTH
STOP.M        420.274                        : bot_depth    - STOP DEPTH
STEP.M        0.25                           : increment    - STEP LENGTH
 NULL. -999.2500:NULL Value
~CURVE INFORMATION BLOCK
#MNEM UNIT       ERCB CURVE CODE    CURVE DESCRIPTION
#-----------   ------------------   ----------------------------------
DEPT.M        00 001 00 00         : DEPTH        - DEPTH
GR  .API      00 310 00 00         : GR           - GAMMA RAY
DPHI.V/V      00 890 00 00         : PHID         - DENSITY POROSITY (SANDSTONE)
NPHI.V/V      00 330 00 00         : PHIN         - NEUTRON POROSITY (SANDSTONE)
ILD .OHMM     00 120 00 00         : RESD         - DEEP RESISTIVITY (DIL)
~PARAMETER INFORMATION
#MNEM.UNIT           DATA             DESCRIPTION OF MNEMONIC
#---------         -----------     ------------------------------
GL  .M        625.693              : gl           - GROUND LEVEL ELEVATION
EREF.M        629.26               : kb           - ELEVATION OF DEPTH REFERENCE
DATM.M        629.26               : datum        - DATUM ELEVATION
TDD .M        419.1                : tdd          - TOTAL DEPTH DRILLER
RUN .         ONE                  : Run          - RUN NUMBER
ENG .         BILL                 : Engineer     - RECORDING ENGINEER
WIT .         JIM                  : Witness      - WITNESSED BY
MUD .         GEL                  : Mud_type     - MUD TYPE
MATR.         SANDSTONE            : Logunit      - NEUTRON MATRIX
TMAX.C        60                   : BHT          - MAXIMUM RECORDED TEMPERATURE
BHTD.M        419.1                : BHTDEP       - MAXIMUM RECORDED TEMPERATURE
MATR.         1                    : LOGUNIT      - NEUTRON MATRIX
RMT .C        25                   : MDTP         - TEMPERATURE OF MUD
NEUT.         1                    : NEUTRON      - NEUTRON TYPE
RESI.         0                    : RESIST       - RESISTIVITY TYPE
RMC .OHMM     0.25                 : RMC          - RESISTIVITY OF MUD CAKE
RMF .OHMM     0.25                 : RMF          - RESISTIVITY OF MUD FILTRATE
SUFT.C        15                   : SUFT         - SURFACE TEMPERATURE
~A  DEPTH       GR     PHID     PHIN     RESD
# ...
  279.024   45.602    0.020    0.131   89.520
  279.274   45.472    0.007    0.123   88.086
  279.524   46.943   -0.000    0.114   84.192
  279.774   46.927    0.006    0.120   70.856
  280.024   46.839    0.044    0.137   58.461
  280.274   46.840    0.095    0.180   38.186
  280.524   47.761    0.136    0.233   25.074
  280.774   50.490    0.252    0.333   20.246
  281.024   54.046    0.333    0.370   17.767
  281.274   61.271    0.375    0.436   16.565
  281.524   64.029    0.382    0.446   15.703
  281.774   64.534    0.366    0.453   14.803
  282.024   63.817    0.374    0.453   13.793
  282.274   63.796    0.377    0.437   12.844
  282.524   69.487    0.357    0.452   12.482
  282.774   70.934    0.361    0.463   12.431
  283.024   66.760    0.365    0.478   12.685
  283.274   64.868    0.355    0.492   13.056
  283.524   66.203    0.353    0.472   13.250
  283.774   67.617    0.355    0.464   13.156
  284.024   68.352    0.351    0.456   12.775
  284.274   66.483    0.348    0.455   12.017
  284.524   64.073    0.354    0.478   11.153
  284.774   62.288    0.344    0.469   10.580
  285.024   62.908    0.337    0.457   10.567
  285.274   61.811    0.346    0.471   10.682
  285.524   60.213    0.347    0.499   11.451
  285.774   61.819    0.356    0.508   12.312
  286.024   63.348    0.363    0.483   13.351
  286.274   64.487    0.372    0.483   13.048
  286.524   67.228    0.382    0.480   12.132
  286.774   72.832    0.341    0.469    9.607
  287.024   80.901    0.292    0.467    3.839
  287.274   88.932    0.237    0.457    3.323
  287.524   93.266    0.220    0.458    3.060
  287.774   95.197    0.210    0.493    3.130
  288.024   95.112    0.223    0.497    3.295
  288.274   93.028    0.247    0.489    3.687
  288.524   88.814    0.263    0.485    4.227
  288.774   86.314    0.286    0.486    4.792
  289.024   85.254    0.285    0.488    4.937
  289.274   83.544    0.294    0.474    5.084
  289.524   82.204    0.289    0.482    5.225
  289.774   79.136    0.296    0.508    5.434
  290.024   75.115    0.311    0.511    5.908
  290.274   75.384    0.322    0.484    6.748
  290.524   76.940    0.322    0.456    7.817
  290.774   81.192    0.307    0.454    8.249
  291.024   82.603    0.285    0.448    7.791
  291.274   84.054    0.277    0.469    6.769
  291.524   92.153    0.263    0.465    5.189
  291.774  101.147    0.220    0.459    4.307
  292.024  107.493    0.218    0.476    4.049
  292.274  106.555    0.223    0.488    3.869
  292.524  103.452    0.232    0.497    3.740
  292.774   99.468    0.241    0.507    3.624
  293.024   99.249    0.252    0.521    3.446
  293.274  103.225    0.257    0.534    3.315
  293.524  108.687    0.223    0.548    3.071
  293.774  109.081    0.212    0.555    3.004
  294.024  108.751    0.219    0.549    2.901
  294.274  108.479    0.249    0.543    2.903
  294.524  104.423    0.243    0.550    2.903
  294.774  106.771    0.249    0.539    2.903
  295.024  108.214    0.240    0.519    2.901
  295.274  106.445    0.246    0.534    3.034
  295.524  103.736    0.257    0.564    3.261
  295.774   99.955    0.260    0.572    3.579
  296.024   98.030    0.246    0.509    3.926
  296.274   91.127    0.249    0.488    4.214
  296.524   91.659    0.264    0.472    4.295
  296.774   96.492    0.251    0.487    4.144
  297.024  100.330    0.238    0.509    3.840
  297.274   99.393    0.237    0.538    3.571
  297.524   97.512    0.244    0.547    3.327
  297.774   95.508    0.253    0.514    3.076
  298.024   98.064    0.255    0.520    2.983
  298.274   99.740    0.245    0.554    2.898
  298.524   98.745    0.252    0.559    2.880
  298.774   98.354    0.245    0.534    3.157
  299.024   99.719    0.244    0.532    3.376
  299.274   96.013    0.262    0.522    3.671
  299.524   87.713    0.276    0.501    4.285
  299.774   83.464    0.290    0.456    5.258
  300.024   81.553    0.287    0.438    6.171
  300.274   79.753    0.291    0.453    6.926
  300.524   76.925    0.288    0.470    7.091
  300.774   78.013    0.255    0.459    6.571
  301.024   87.314    0.216    0.451    5.678
  301.274   93.984    0.193    0.464    4.947
  301.524   97.979    0.202    0.462    4.566
  301.774   98.730    0.212    0.459    4.446
  302.024  100.116    0.221    0.477    4.591
  302.274   99.413    0.235    0.487    4.915
  302.524   92.506    0.229    0.466    5.568
  302.774   89.549    0.226    0.437    5.984
  303.024   88.650    0.241    0.419    6.579
  303.274   87.286    0.256    0.416    6.939
  303.524   83.960    0.248    0.436    7.311
  303.774   80.967    0.233    0.459    7.325
  304.024   83.384    0.225    0.463    6.965
  304.274   85.760    0.230    0.472    6.628
  304.524   92.703    0.219    0.481    6.162
  304.774   94.579    0.218    0.491    5.610
  305.024   93.751    0.238    0.502    5.107
  305.274   92.080    0.247    0.513    4.870
  305.524   90.757    0.236    0.510    4.578
  305.774   93.049    0.248    0.499    4.498
  306.024   92.225    0.234    0.522    4.438
  306.274   91.551    0.229    0.539    4.347
  306.524   92.518    0.233    0.527    4.335
  306.774   98.612    0.225    0.505    4.272
  307.024  103.203    0.222    0.503    4.180
  307.274  103.711    0.233    0.517    4.101
  307.524  102.669    0.268    0.523    3.839
  307.774  102.582    0.261    0.532    3.543
  308.024  103.299    0.257    0.551    3.337
  308.274  102.777    0.241    0.541    3.122
  308.524  101.380    0.240    0.519    3.052
  308.774   98.990    0.238    0.533    3.059
  309.024   99.594    0.231    0.549    3.207
  309.274   98.071    0.240    0.525    3.487
  309.524   98.428    0.261    0.513    3.877
  309.774   97.350    0.268    0.485    4.621
  310.024   94.803    0.276    0.472    5.369
  310.274   89.746    0.267    0.472    5.941
  310.524   83.499    0.237    0.480    6.328
  310.774   82.887    0.240    0.484    6.570
  311.024   84.887    0.255    0.498    6.788
  311.274   87.673    0.268    0.482    6.852
  311.524   88.156    0.256    0.477    6.922
  311.774   84.849    0.264    0.463    7.026
  312.024   81.531    0.243    0.468    7.052
  312.274   83.420    0.230    0.479    7.055
  312.524   86.722    0.240    0.490    6.966
  312.774   88.730    0.257    0.485    6.932
  313.024   88.909    0.261    0.472    6.808
  313.274   88.548    0.246    0.463    6.451
  313.524   88.307    0.231    0.457    6.400
  313.774   88.302    0.232    0.476    6.407
  314.024   88.297    0.242    0.474    6.398
  314.274   88.272    0.242    0.467    6.694
  314.524   87.256    0.250    0.446    6.891
  314.774   86.490    0.250    0.443    7.114
  315.024   86.563    0.260    0.452    7.180
  315.274   89.053    0.241    0.454    7.178
  315.524   90.926    0.242    0.456    7.145
  315.774   90.220    0.227    0.474    6.920
  316.024   91.343    0.246    0.503    6.804
  316.274   92.692    0.237    0.518    6.494
  316.524   92.159    0.237    0.499    6.306
  316.774   90.434    0.255    0.485    6.238
  317.024   90.336    0.264    0.487    6.185
  317.274   91.397    0.237    0.501    6.192
  317.524   90.884    0.215    0.500    6.056
  317.774   87.151    0.220    0.465    6.067
  318.024   87.253    0.245    0.429    6.075
  318.274   88.270    0.241    0.422    5.901
  318.524   94.688    0.221    0.432    5.843
  318.774   98.977    0.214    0.451    5.660
  319.024   99.002    0.215    0.460    5.465
  319.274   96.436    0.210    0.472    5.232
  319.524   99.240    0.222    0.478    4.881
  319.774  100.018    0.231    0.489    4.478
  320.024  100.618    0.217    0.487    4.153
  320.274  101.565    0.222    0.493    3.596
  320.524  104.182    0.245    0.508    3.114
  320.774  105.905    0.256    0.538    2.681
  321.024  102.703    0.271    0.582    2.277
  321.274  100.093    0.275    0.587    2.090
  321.524   97.415    0.282    0.581    1.990
  321.774   98.605    0.267    0.582    1.988
  322.024   97.159    0.275    0.575    2.135
  322.274   95.239    0.272    0.533    2.363
