~VERSION INFORMATION
 VERS.                 2.0:   CWLS LOG ASCII STANDARD -VERSION 2.0
 WRAP.                  NO:   ONE LINE PER DEPTH STEP
~WELL INFORMATION BLOCK
#MNEM.UNIT           DATA                    DESCRIPTION OF MNEMONIC
#---------    -------------------            -------------------------------
# Generated from Intellog Unique Number	CS_77_79/WELL/946
WELL.         AMOCO B-1 LEISMER              : Well_name    - WELL
LOC .         00/10-11-078-10W4/0            : Location     - LOCATION
UWI .         00/10-11-078-10W4/0            : Uwi          - UNIQUE WELL ID
ENTR.         JHS                            : Entered      - ENTERED BY
SRVC.         SCHLUMBERGER                   : Scn          - SERVICE COMPANY
STRT.M        198.12                         : top_depth    - START DEPTH
STOP.M        429.62                         : bot_depth    - STOP DEPTH
STEP.M        0.25                           : increment    - STEP LENGTH
 NULL. -999.2500:NULL Value
~CURVE INFORMATION BLOCK
#MNEM UNIT       ERCB CURVE CODE    CURVE DESCRIPTION
#-----------   ------------------   ----------------------------------
DEPT.M        00 001 00 00         : DEPTH        - DEPTH
RHOB.KG/M3    00 350 00 00         : DENS         - BULK DENSITY
GR  .API      00 310 00 00         : GR           - GAMMA RAY
DPHI.V/V      00 890 00 00         : PHID         - DENSITY POROSITY (SANDSTONE)
NPHI.V/V      00 330 00 00         : PHIN         - NEUTRON POROSITY (SANDSTONE)
ILD .OHMM     00 120 00 00         : RESD         - DEEP RESISTIVITY (DIL)
~PARAMETER INFORMATION
#MNEM.UNIT           DATA             DESCRIPTION OF MNEMONIC
#---------         -----------     ------------------------------
GL  .M        619.354              : gl           - GROUND LEVEL ELEVATION
EREF.M        622.097              : kb           - ELEVATION OF DEPTH REFERENCE
DATM.M        622.097              : datum        - DATUM ELEVATION
TDD .M        429.768              : tdd          - TOTAL DEPTH DRILLER
RUN .         ONE                  : Run          - RUN NUMBER
ENG .         BILL                 : Engineer     - RECORDING ENGINEER
WIT .         JIM                  : Witness      - WITNESSED BY
MUD .         GEL                  : Mud_type     - MUD TYPE
MATR.         SANDSTONE            : Logunit      - NEUTRON MATRIX
TMAX.C        30                   : BHT          - MAXIMUM RECORDED TEMPERATURE
BHTD.M        429.768              : BHTDEP       - MAXIMUM RECORDED TEMPERATURE
MATR.         1                    : LOGUNIT      - NEUTRON MATRIX
RMT .C        25                   : MDTP         - TEMPERATURE OF MUD
NEUT.         1                    : NEUTRON      - NEUTRON TYPE
RESI.         0                    : RESIST       - RESISTIVITY TYPE
RMC .OHMM     0.25                 : RMC          - RESISTIVITY OF MUD CAKE
RMF .OHMM     0.25                 : RMF          - RESISTIVITY OF MUD FILTRATE
SUFT.C        15                   : SUFT         - SURFACE TEMPERATURE
~A  DEPTH     DENS       GR     PHID     PHIN     RESD
# ...
  307.620    0.000   76.452    0.085    0.311    8.466
  307.870    0.000   85.400    0.200    0.453    7.828
  308.120   -0.000   88.339    0.251    0.501    7.591
  308.370   -0.000   85.159    0.236    0.523    7.605
  308.620   -0.000   85.725    0.246    0.537    7.611
  308.870    0.000   85.279    0.214    0.544    7.617
  309.120    0.000   81.635    0.252    0.513    7.622
  309.370   -0.000   80.977    0.261    0.493    7.627
  309.620   -0.000   82.427    0.242    0.493    7.546
  309.870   -0.000   80.828    0.237    0.496    7.500
  310.120    0.000   80.994    0.228    0.497    7.510
  310.370    0.000   83.188    0.229    0.495    7.299
  310.620    0.000   86.030    0.270    0.491    7.093
  310.870   -0.000   86.813    0.253    0.480    6.779
  311.120   -0.000   89.204    0.240    0.495    6.556
  311.370   -0.000   88.404    0.227    0.511    6.499
  311.620    0.000   89.335    0.210    0.510    6.596
  311.870    0.000   91.926    0.211    0.517    6.635
  312.120    0.000   95.118    0.202    0.508    6.514
  312.370   -0.000   93.302    0.196    0.495    5.912
  312.620   -0.000   92.966    0.218    0.502    5.239
  312.870    0.000   93.931    0.236    0.513    3.817
  313.120    0.000   97.031    0.232    0.525    2.777
  313.370    0.000   97.605    0.242    0.554    2.350
  313.620   -0.000   98.241    0.268    0.594    2.146
  313.870   -0.000   98.632    0.251    0.617    2.078
  314.120   -0.000   99.041    0.260    0.622    2.067
  314.370    0.000   98.674    0.274    0.623    2.157
  314.620    0.000   97.166    0.281    0.623    2.365
  314.870    0.000   94.800    0.295    0.624    2.635
  315.120   -0.000   91.455    0.296    0.617    3.154
  315.370   -0.000   87.302    0.279    0.605    4.323
  315.620    0.000   84.256    0.273    0.568    5.549
  315.870    0.000   82.329    0.265    0.517    6.712
  316.120    0.000   82.546    0.256    0.476    7.764
  316.370   -0.000   80.992    0.269    0.460    8.334
  316.620   -0.000   76.085    0.272    0.438    8.798
  316.870   -0.000   72.803    0.256    0.432    8.857
  317.120    0.000   70.833    0.297    0.429    8.732
  317.370    0.000   70.950    0.288    0.403    8.437
  317.620    0.000   71.989    0.301    0.381    7.780
  317.870   -0.000   73.032    0.353    0.368    7.352
  318.120   -0.000   72.809    0.374    0.390    7.030
  318.370   -0.000   71.437    0.354    0.452    6.874
  318.620    0.000   72.183    0.334    0.481    6.729
  318.870    0.000   71.460    0.299    0.507    6.889
  319.120   -0.000   68.094    0.280    0.519    7.004
  319.370   -0.000   66.272    0.288    0.493    7.473
  319.620   -0.000   68.621    0.311    0.496    7.604
  319.870    0.000   70.468    0.320    0.503    7.967
  320.120    0.000   69.921    0.308    0.509    8.327
  320.370    0.000   68.592    0.298    0.508    8.296
  320.620   -0.000   66.921    0.314    0.480    8.026
  320.870   -0.000   67.150    0.294    0.456    7.911
  321.120   -0.000   66.394    0.269    0.462    7.585
  321.370    0.000   63.995    0.241    0.468    7.461
  321.620    0.000   61.097    0.260    0.463    7.271
  321.870   -0.000   58.187    0.315    0.457    7.199
  322.120   -0.000   56.543    0.330    0.457    7.119
  322.370   -0.000   56.470    0.330    0.453    7.080
  322.620    0.000   55.894    0.333    0.447    7.091
  322.870    0.000   55.646    0.333    0.456    6.961
  323.120    0.000   54.705    0.327    0.475    6.826
  323.370   -0.000   54.306    0.329    0.468    6.840
  323.620   -0.000   53.607    0.335    0.464    6.789
  323.870   -0.000   52.982    0.345    0.475    6.728
  324.120    0.000   53.952    0.346    0.474    6.730
  324.370    0.000   54.920    0.344    0.475    6.736
  324.620    0.000   54.930    0.334    0.480    6.740
  324.870   -0.000   54.971    0.334    0.481    6.746
  325.120   -0.000   54.965    0.341    0.495    6.755
  325.370    0.000   55.590    0.335    0.491    6.639
  325.620    0.000   56.587    0.334    0.489    6.494
  325.870    0.000   57.530    0.313    0.498    6.652
  326.120   -0.000   57.517    0.322    0.500    6.643
  326.370   -0.000   57.675    0.335    0.500    6.648
  326.620   -0.000   56.326    0.332    0.478    6.650
  326.870    0.000   55.931    0.342    0.465    6.764
  327.120    0.000   55.620    0.342    0.463    6.839
  327.370    0.000   55.291    0.327    0.479    6.921
  327.620   -0.000   55.738    0.321    0.496    7.136
  327.870   -0.000   56.989    0.333    0.505    7.570
  328.120    0.000   57.781    0.334    0.504    7.880
  328.370    0.000   57.422    0.342    0.486    8.540
  328.620    0.000   57.230    0.338    0.478    9.029
  328.870   -0.000   57.824    0.328    0.474    9.321
  329.120   -0.000   59.326    0.320    0.472    8.797
  329.370   -0.000   61.031    0.306    0.474    8.287
  329.620    0.000   57.859    0.318    0.488    7.421
  329.870    0.000   58.043    0.332    0.488    7.108
  330.120    0.000   57.423    0.321    0.491    6.817
  330.370   -0.000   57.023    0.317    0.496    6.601
  330.620   -0.000   57.120    0.326    0.498    6.480
  330.870   -0.000   58.168    0.342    0.492    6.368
  331.120    0.000   58.756    0.329    0.485    6.394
  331.370    0.000   59.647    0.332    0.484    6.284
  331.620   -0.000   60.042    0.340    0.482    6.385
  331.870   -0.000   60.108    0.337    0.482    6.401
  332.120   -0.000   59.302    0.333    0.485    6.267
  332.370    0.000   59.028    0.328    0.505    6.280
  332.620    0.000   56.669    0.329    0.519    6.226
  332.870    0.000   57.446    0.343    0.523    6.181
  333.120   -0.000   60.060    0.352    0.517    6.085
  333.370   -0.000   61.043    0.339    0.509    6.074
  333.620   -0.000   58.962    0.329    0.509    6.075
  333.870    0.000   57.917    0.300    0.532    6.080
  334.120    0.000   58.172    0.313    0.531    6.085
  334.370    0.000   58.610    0.325    0.522    6.088
  334.620   -0.000   58.246    0.319    0.519    6.291
  334.870   -0.000   58.094    0.325    0.517    6.322
  335.120    0.000   58.090    0.325    0.512    6.328
  335.370    0.000   59.102    0.300    0.503    6.346
  335.620    0.000   59.173    0.285    0.483    6.215
  335.870   -0.000   57.714    0.247    0.459    6.134
  336.120   -0.000   55.922    0.219    0.432    5.945
  336.370   -0.000   57.148    0.230    0.514    5.901
  336.620    0.000   59.627    0.332    0.529    5.904
  336.870    0.000   61.601    0.350    0.532    5.911
  337.120    0.000   63.752    0.352    0.527    5.915
  337.370   -0.000   63.370    0.341    0.526    6.032
  337.620   -0.000   63.344    0.330    0.500    6.023
  337.870    0.000   65.003    0.330    0.483    6.143
  338.120    0.000   65.436    0.329    0.478    6.137
  338.370    0.000   63.712    0.346    0.478    6.280
  338.620   -0.000   62.833    0.345    0.489    6.268
  338.870   -0.000   62.449    0.334    0.491    6.470
  339.120   -0.000   62.752    0.315    0.489    6.530
  339.370    0.000   61.951    0.316    0.476    6.649
  339.620    0.000   66.749    0.314    0.463    6.701
  339.870    0.000   67.071    0.309    0.460    6.773
  340.120   -0.000   66.157    0.309    0.480    6.779
  340.370   -0.000   64.679    0.292    0.506    6.782
  340.620   -0.000   64.820    0.284    0.496    6.787
  340.870    0.000   65.874    0.291    0.487    6.574
  341.120    0.000   65.909    0.302    0.489    6.523
  341.370   -0.000   65.470    0.303    0.496    6.440
  341.620   -0.000   68.095    0.295    0.482    6.326
  341.870   -0.000   71.374    0.291    0.470    6.207
  342.120    0.000   72.768    0.304    0.469    6.126
  342.370    0.000   73.388    0.307    0.477    5.947
  342.620    0.000   74.794    0.286    0.488    5.783
  342.870   -0.000   77.171    0.279    0.488    5.708
  343.120   -0.000   81.142    0.264    0.481    5.734
  343.370   -0.000   83.725    0.247    0.485    5.798
  343.620    0.000   82.981    0.260    0.492    6.069
  343.870    0.000   79.944    0.278    0.494    6.311
