~VERSION INFORMATION
 VERS.                 2.0:   CWLS LOG ASCII STANDARD -VERSION 2.0
 WRAP.                  NO:   ONE LINE PER DEPTH STEP
~WELL INFORMATION BLOCK
#MNEM.UNIT           DATA                    DESCRIPTION OF MNEMONIC
#---------    -------------------            -------------------------------
# Generated from Intellog Unique Number	CS_73_76/WELL/2193
WELL.         AMOCO CONKLIN                  : Well_name    - WELL
LOC .         00/10-25-074-07W4/0            : Location     - LOCATION
UWI .         00/10-25-074-07W4/0            : Uwi          - UNIQUE WELL ID
ENTR.         SP                             : Entered      - ENTERED BY
SRVC.         SCHLUMBERGER                   : Scn          - SERVICE COMPANY
STRT.M        252.984                        : top_depth    - START DEPTH
STOP.M        471.484                        : bot_depth    - STOP DEPTH
STEP.M        0.25                           : increment    - STEP LENGTH
 NULL. -999.2500:NULL Value
~CURVE INFORMATION BLOCK
#MNEM UNIT       ERCB CURVE CODE    CURVE DESCRIPTION
#-----------   ------------------   ----------------------------------
DEPT.M        00 001 00 00         : DEPTH        - DEPTH
GR  .API      00 310 00 00         : GR           - GAMMA RAY
DPHI.V/V      00 890 00 00         : PHID         - DENSITY POROSITY (SANDSTONE)
NPHI.V/V      00 330 00 00         : PHIN         - NEUTRON POROSITY (SANDSTONE)
ILD .OHMM     00 120 00 00         : RESD         - DEEP RESISTIVITY (DIL)
~PARAMETER INFORMATION
#MNEM.UNIT           DATA             DESCRIPTION OF MNEMONIC
#---------         -----------     ------------------------------
GL  .M        646.877              : gl           - GROUND LEVEL ELEVATION
EREF.M        650.138              : kb           - ELEVATION OF DEPTH REFERENCE
DATM.M        646.877              : datum        - DATUM ELEVATION
TDD .M        618.744              : tdd          - TOTAL DEPTH DRILLER
RUN .         ONE                  : Run          - RUN NUMBER
ENG .         BILL                 : Engineer     - RECORDING ENGINEER
WIT .         JIM                  : Witness      - WITNESSED BY
MUD .         GEL                  : Mud_type     - MUD TYPE
MATR.         SANDSTONE            : Logunit      - NEUTRON MATRIX
TMAX.C        26.1111              : BHT          - MAXIMUM RECORDED TEMPERATURE
BHTD.M        618.744              : BHTDEP       - MAXIMUM RECORDED TEMPERATURE
MATR.         1                    : LOGUNIT      - NEUTRON MATRIX
RMT .C        25                   : MDTP         - TEMPERATURE OF MUD
NEUT.         1                    : NEUTRON      - NEUTRON TYPE
RESI.         0                    : RESIST       - RESISTIVITY TYPE
RMC .OHMM     0.25                 : RMC          - RESISTIVITY OF MUD CAKE
RMF .OHMM     0.25                 : RMF          - RESISTIVITY OF MUD FILTRATE
SUFT.C        15                   : SUFT         - SURFACE TEMPERATURE
~A  DEPTH       GR     PHID     PHIN     RESD
# ...
  383.484   71.754    0.199    0.433    7.380
  383.734   73.295    0.198    0.437    7.509
  383.984   71.406    0.208    0.439    7.519
  384.234   68.652    0.212    0.454    7.526
  384.484   65.643    0.193    0.437    7.544
  384.734   63.806    0.188    0.429    7.385
  384.984   63.627    0.198    0.442    7.405
  385.234   66.263    0.193    0.449    7.412
  385.484   67.669    0.196    0.455    7.427
  385.734   69.083    0.203    0.442    7.281
  385.984   70.458    0.208    0.428    7.275
  386.234   73.531    0.218    0.419    7.437
  386.484   72.855    0.206    0.429    7.573
  386.734   69.406    0.200    0.462    7.575
  386.984   66.875    0.205    0.449    7.566
  387.234   64.899    0.208    0.439    7.326
  387.484   63.944    0.217    0.449    6.976
  387.734   63.027    0.238    0.463    6.640
  387.984   62.490    0.248    0.471    6.346
  388.234   63.140    0.255    0.480    5.816
  388.484   63.064    0.267    0.474    5.433
  388.734   63.140    0.279    0.491    4.971
  388.984   62.452    0.287    0.501    4.441
  389.234   61.870    0.281    0.508    3.900
  389.484   61.887    0.279    0.500    3.544
  389.734   61.856    0.287    0.501    3.201
  389.984   62.453    0.284    0.512    3.072
  390.234   63.733    0.274    0.523    2.918
  390.484   66.706    0.277    0.535    2.835
  390.734   69.914    0.279    0.539    2.802
  390.984   75.372    0.272    0.507    2.769
  391.234   72.113    0.268    0.504    2.805
  391.484   71.064    0.250    0.500    2.900
  391.734   71.358    0.227    0.487    3.009
  391.984   71.054    0.214    0.474    3.206
  392.234   69.138    0.220    0.471    3.598
  392.484   66.549    0.224    0.468    4.143
  392.734   65.657    0.224    0.473    4.562
  392.984   67.588    0.232    0.485    5.022
  393.234   66.639    0.244    0.476    5.243
  393.484   65.226    0.258    0.455    5.321
  393.734   61.819    0.275    0.431    5.571
  393.984   59.982    0.287    0.401    6.110
  394.234   57.325    0.294    0.385    6.704
  394.484   56.464    0.302    0.378    7.797
  394.734   57.224    0.295    0.370   10.039
  394.984   58.693    0.291    0.376   12.918
  395.234   59.702    0.292    0.383   15.519
  395.484   59.020    0.292    0.391   17.032
  395.734   58.101    0.278    0.401   17.253
  395.984   56.400    0.268    0.410   17.372
  396.234   54.871    0.245    0.423   19.148
  396.484   52.838    0.207    0.391   20.945
  396.734   51.678    0.156    0.317   23.427
  396.984   49.626    0.124    0.274   24.902
  397.234   46.659    0.170    0.279   21.152
  397.484   48.553    0.251    0.372   15.253
  397.734   54.247    0.262    0.416   11.945
  397.984   58.767    0.256    0.450    9.944
  398.234   62.786    0.247    0.440    8.545
  398.484   59.778    0.222    0.422    7.758
  398.734   57.206    0.197    0.402    9.295
  398.984   53.694    0.189    0.371   12.608
  399.234   51.675    0.209    0.337   17.958
  399.484   50.673    0.245    0.381   21.758
  399.734   52.333    0.268    0.428   23.376
  399.984   54.416    0.276    0.430   23.504
  400.234   55.727    0.277    0.419   22.524
  400.484   57.170    0.281    0.418   22.846
  400.734   59.436    0.276    0.419   24.349
  400.984   58.547    0.271    0.426   25.323
  401.234   57.467    0.276    0.436   26.090
  401.484   58.446    0.277    0.444   26.658
  401.734   60.481    0.273    0.433   25.234
  401.984   60.300    0.262    0.420   24.186
  402.234   58.930    0.248    0.407   23.494
  402.484   57.463    0.237    0.397   24.237
  402.734   56.505    0.220    0.392   26.317
  402.984   55.703    0.208    0.382   27.107
  403.234   58.980    0.226    0.403   26.216
  403.484   62.329    0.259    0.430   25.654
  403.734   64.749    0.269    0.448   25.125
  403.984   62.093    0.271    0.435   25.151
  404.234   59.793    0.271    0.439   25.085
  404.484   57.423    0.272    0.460   26.178
  404.734   55.724    0.268    0.464   28.459
  404.984   56.504    0.260    0.456   31.064
  405.234   58.112    0.245    0.445   34.469
  405.484   60.724    0.231    0.432   37.739
  405.734   57.706    0.217    0.426   38.758
  405.984   55.307    0.235    0.433   39.998
  406.234   52.871    0.246    0.448   38.240
  406.484   51.952    0.261    0.471   34.088
  406.734   51.389    0.255    0.459   26.865
  406.984   53.356    0.242    0.446   22.426
  407.234   54.636    0.228    0.442   18.418
  407.484   56.728    0.217    0.408   17.161
  407.734   57.651    0.203    0.417   15.900
  407.984   57.619    0.197    0.423   15.640
  408.234   57.200    0.196    0.419   15.282
  408.484   57.054    0.211    0.413   14.282
  408.734   57.012    0.224    0.428   13.201
  408.984   57.650    0.226    0.416   14.075
  409.234   58.425    0.229    0.429   16.539
  409.484   59.426    0.234    0.439   18.880
  409.734   60.724    0.243    0.439   21.963
  409.984   61.977    0.250    0.425   26.176
  410.234   61.940    0.259    0.417   29.294
  410.484   61.698    0.251    0.405   34.704
  410.734   61.343    0.250    0.394   39.052
  410.984   60.737    0.244    0.404   36.098
  411.234   60.915    0.235    0.413   34.169
  411.484   62.599    0.228    0.411   29.396
  411.734   66.641    0.225    0.410   25.786
  411.984   68.288    0.220    0.428   23.365
  412.234   64.163    0.227    0.430   21.396
  412.484   57.201    0.238    0.416   20.184
  412.734   51.804    0.249    0.406   22.025
  412.984   48.431    0.253    0.402   27.111
  413.234   45.545    0.259    0.412   32.097
  413.484   44.312    0.260    0.412   44.830
  413.734   43.694    0.259    0.404   57.370
  413.984   44.393    0.254    0.408   74.607
  414.234   45.699    0.248    0.394   71.643
  414.484   48.460    0.246    0.385   63.779
  414.734   48.959    0.248    0.401   56.011
  414.984   51.098    0.238    0.414   49.471
  415.234   53.151    0.227    0.417   43.608
  415.484   54.318    0.207    0.414   40.489
  415.734   55.894    0.212    0.419   39.291
  415.984   56.078    0.213    0.416   40.394
  416.234   55.577    0.205    0.406   36.755
  416.484   58.211    0.197    0.397   33.645
  416.734   60.830    0.191    0.414   29.948
  416.984   63.592    0.197    0.431   24.895
  417.234   67.416    0.198    0.443   22.906
  417.484   70.270    0.201    0.432   21.729
  417.734   75.627    0.210    0.433   20.753
  417.984   79.328    0.220    0.420   19.003
  418.234   81.879    0.232    0.405   16.642
  418.484   60.749    0.240    0.391   15.159
  418.734   54.517    0.248    0.374   14.276
  418.984   51.732    0.255    0.362   15.282
  419.234   51.751    0.250    0.354   16.175
  419.484   52.437    0.248    0.349   17.083
  419.734   54.687    0.233    0.353   16.798
  419.984   57.341    0.222    0.365   15.853
  420.234   58.262    0.222    0.378   16.015
  420.484   55.483    0.217    0.401   20.693
  420.734   52.880    0.210    0.427   18.283
  420.984   51.880    0.198    0.413   18.450
  421.234   52.551    0.187    0.401   22.211
  421.484   55.990    0.172    0.390   23.372
  421.734   60.600    0.159    0.392   24.044
  421.984   65.188    0.165    0.398   24.528
  422.234   68.622    0.174    0.414   20.987
  422.484   70.345    0.182    0.416   19.256
  422.734   71.940    0.178    0.416   17.833
  422.984   73.239    0.173    0.430   16.769
  423.234   73.733    0.175    0.442   15.764
  423.484   69.391    0.178    0.432   14.816
  423.734   65.813    0.183    0.426   14.549
  423.984   64.239    0.197    0.429   15.221
  424.234   64.237    0.208    0.427   15.815
  424.484   68.146    0.210    0.425   14.289
  424.734   72.790    0.208    0.424   12.868
  424.984   68.370    0.208    0.414   11.425
  425.234   61.743    0.203    0.410   12.905
  425.484   56.218    0.216    0.408   15.705
  425.734   53.167    0.223    0.415   19.421
  425.984   50.370    0.220    0.404   22.300
  426.234   53.017    0.222    0.398   24.177
  426.484   56.351    0.235    0.389   24.003
  426.734   59.613    0.247    0.383   23.723
