~VERSION INFORMATION
 VERS.                 2.0:   CWLS LOG ASCII STANDARD -VERSION 2.0
 WRAP.                  NO:   ONE LINE PER DEPTH STEP
~WELL INFORMATION BLOCK
#MNEM.UNIT           DATA                    DESCRIPTION OF MNEMONIC
#---------    -------------------            -------------------------------
# Generated from Intellog Unique Number	CS_73_76/WELL/2195
WELL.         BOW VALLEY INDUSTRIES LTD      : Well_name    - WELL
LOC .         00/11-04-074-15W4/0            : Location     - LOCATION
UWI .         00/11-04-074-15W4/0            : Uwi          - UNIQUE WELL ID
ENTR.         SP                             : Entered      - ENTERED BY
SRVC.         SCHLUMBERGER                   : Scn          - SERVICE COMPANY
STRT.M        285                            : top_depth    - START DEPTH
STOP.M        500                            : bot_depth    - STOP DEPTH
STEP.M        0.25                           : increment    - STEP LENGTH
 NULL. -999.2500:NULL Value
~CURVE INFORMATION BLOCK
#MNEM UNIT       ERCB CURVE CODE    CURVE DESCRIPTION
#-----------   ------------------   ----------------------------------
DEPT.M        00 001 00 00         : DEPTH        - DEPTH
ILD .OHMM     00 120 00 00         : RESD         - DEEP RESISTIVITY (DIL)
DPHI.V/V      00 890 00 00         : PHID         - DENSITY POROSITY (LIMESTONE)
NPHI.V/V      00 330 00 00         : PHIN         - NEUTRON POROSITY (LIMESTONE)
GR  .API      00 310 00 00         : GR           - GAMMA RAY
~PARAMETER INFORMATION
#MNEM.UNIT           DATA             DESCRIPTION OF MNEMONIC
#---------         -----------     ------------------------------
GL  .M        638.2                : gl           - GROUND LEVEL ELEVATION
EREF.M        641.71               : kb           - ELEVATION OF DEPTH REFERENCE
DATM.M        638.2                : datum        - DATUM ELEVATION
TDD .M        504.25               : tdd          - TOTAL DEPTH DRILLER
RUN .         ONE                  : Run          - RUN NUMBER
ENG .         BILL                 : Engineer     - RECORDING ENGINEER
WIT .         JIM                  : Witness      - WITNESSED BY
MUD .         GEL                  : Mud_type     - MUD TYPE
MATR.         LIMESTONE            : Logunit      - NEUTRON MATRIX
TMAX.C        20                   : BHT          - MAXIMUM RECORDED TEMPERATURE
BHTD.M        504.25               : BHTDEP       - MAXIMUM RECORDED TEMPERATURE
MATR.         1                    : LOGUNIT      - NEUTRON MATRIX
RMT .C        25                   : MDTP         - TEMPERATURE OF MUD
NEUT.         1                    : NEUTRON      - NEUTRON TYPE
RESI.         0                    : RESIST       - RESISTIVITY TYPE
RMC .OHMM     0.25                 : RMC          - RESISTIVITY OF MUD CAKE
RMF .OHMM     0.25                 : RMF          - RESISTIVITY OF MUD FILTRATE
SUFT.C        15                   : SUFT         - SURFACE TEMPERATURE
~A  DEPTH     RESD     PHID     PHIN       GR
# ...
  459.000   12.752    0.138    0.318   86.000
  459.250   12.054    0.154    0.344   93.354
  459.500    9.623    0.165    0.369   98.870
  459.750    8.128    0.168    0.387  101.324
  460.000    6.737    0.172    0.398  100.105
  460.250    5.908    0.172    0.404  101.335
  460.500    5.084    0.176    0.415  103.178
  460.750    4.543    0.179    0.420  103.796
  461.000    4.294    0.187    0.413  103.189
  461.250    4.059    0.190    0.408  104.419
  461.500    3.837    0.185    0.412  103.813
  461.750    3.696    0.179    0.398  101.369
  462.000    3.766    0.146    0.361  100.152
  462.250    3.985    0.088    0.349   97.094
  462.500    4.808    0.077    0.348   89.755
  462.750    5.183    0.089    0.355   88.535
  463.000    6.023    0.113    0.359   92.215
  463.250    6.493    0.132    0.367   95.284
  463.500    6.869    0.150    0.373   96.512
  463.750    7.132    0.156    0.381   98.354
  464.000    7.000    0.151    0.387   98.971
  464.250    6.742    0.153    0.383   97.142
  464.500    6.617    0.161    0.362   96.534
  464.750    6.617    0.163    0.360   98.377
  465.000    6.618    0.156    0.377  100.832
  465.250    6.743    0.156    0.386  102.673
  465.500    7.002    0.178    0.344  104.516
  465.750    7.691    0.200    0.319  103.909
  466.000    8.771    0.221    0.302   93.508
  466.250   10.003    0.234    0.290   88.616
  466.500   11.625    0.256    0.275   85.558
  466.750   15.698    0.283    0.261   76.382
  467.000   20.803    0.281    0.275   72.101
  467.250   28.092    0.275    0.307   66.597
  467.500   34.537    0.266    0.323   64.765
  467.750   37.231    0.248    0.329   64.159
  468.000   37.938    0.228    0.326   64.776
  468.250   38.659    0.221    0.319   66.007
  468.500   37.942    0.217    0.320   67.851
  468.750   35.866    0.222    0.337   68.470
  469.000   33.904    0.226    0.346   69.085
  469.250   33.275    0.222    0.356   70.928
  469.500   32.657    0.212    0.352   72.161
  469.750   32.052    0.207    0.341   72.775
  470.000   32.053    0.200    0.314   71.557
  470.250   32.661    0.174    0.288   69.115
  470.500   33.282    0.080    0.259   66.671
  470.750   36.558    0.101    0.256   64.839
  471.000   39.411    0.180    0.277   69.134
  471.250   40.159    0.246    0.305   70.976
  471.500   37.962    0.277    0.330   71.591
  471.750   36.565    0.294    0.345   66.699
  472.000   36.566    0.308    0.364   58.745
  472.250   43.298    0.313    0.379   53.852
  472.500   48.462    0.304    0.373   61.208
  472.750   53.233    0.290    0.357   65.497
  473.000   55.272    0.286    0.347   74.076
  473.250   53.237    0.276    0.348   77.753
  473.500   42.502    0.255    0.351   86.331
  473.750   27.601    0.246    0.341   92.458
  474.000   20.829    0.231    0.337   99.198
  474.250   16.319    0.219    0.345  105.940
  474.500   14.311    0.207    0.359  113.294
  474.750   11.425    0.201    0.367  118.809
  475.000   10.018    0.191    0.363  121.875
  475.250    8.785    0.190    0.347  120.044
  475.500    9.122    0.198    0.336  110.867
  475.750    9.834    0.203    0.326  104.749
  476.000   11.215    0.201    0.326   96.184
  476.250   13.788    0.193    0.337   89.454
  476.500   16.326    0.194    0.342   85.174
  476.750   18.273    0.205    0.352   87.629
  477.000   19.332    0.210    0.354   90.084
  477.250   18.621    0.208    0.346   91.926
  477.500   16.638    0.204    0.338   92.544
  477.750   15.435    0.204    0.312   91.326
  478.000   15.149    0.209    0.302   89.497
  478.250   15.150    0.210    0.298   88.276
  478.500   14.869    0.211    0.301   87.057
  478.750   14.593    0.207    0.310   87.674
  479.000   14.322    0.202    0.317   93.192
  479.250   14.056    0.192    0.311   96.258
  479.500   13.539    0.186    0.304   98.100
  479.750   13.288    0.183    0.311   95.658
  480.000   12.799    0.172    0.316   96.274
  480.250   12.799    0.165    0.321   99.954
  480.500   12.800    0.173    0.316  103.022
  480.750   12.800    0.188    0.312  103.640
  481.000   14.061    0.198    0.304   99.359
  481.250   14.599    0.205    0.297   92.017
  481.500   16.036    0.213    0.292   82.226
  481.750   18.289    0.185    0.290   72.436
  482.000   19.716    0.146    0.290   77.953
  482.250   19.717    0.123    0.289   81.019
  482.500   17.951    0.140    0.289   84.699
  482.750   16.344    0.161    0.292   87.767
  483.000   15.162    0.185    0.305   90.220
  483.250   14.332    0.185    0.313   93.900
  483.500   14.067    0.172    0.311   98.194
  483.750   14.067    0.167    0.305  100.034
  484.000   14.334    0.158    0.302   98.202
  484.250   15.165    0.183    0.306   95.146
  484.500   16.349    0.209    0.312   95.152
  484.750   16.975    0.225    0.325   99.444
  485.000   16.976    0.211    0.337  104.960
  485.250   16.661    0.202    0.333  107.414
  485.500   16.351    0.214    0.329  105.583
  485.750   16.352    0.217    0.333  101.304
  486.000   16.979    0.190    0.334   86.615
  486.250   17.301    0.139    0.313   77.436
  486.500   16.664    0.066    0.295   80.504
  486.750   14.890    0.104    0.300   86.632
  487.000   15.173    0.150    0.308   89.087
  487.250   16.052    0.220    0.323   76.236
  487.500   17.305    0.249    0.328   68.282
  487.750   17.633    0.233    0.323   73.798
  488.000   17.634    0.224    0.312   83.600
  488.250   16.985    0.206    0.301   92.789
  488.500   16.670    0.163    0.303  100.142
  488.750   14.618    0.173    0.317  102.595
  489.000   13.561    0.179    0.324  100.765
  489.250   12.581    0.190    0.331   97.097
  489.500   12.118    0.202    0.336   95.878
  489.750   11.455    0.187    0.342   99.558
  490.000   11.033    0.174    0.337  102.011
  490.250   10.627    0.168    0.319   95.285
  490.500   10.430    0.171    0.313   91.616
  490.750   10.431    0.176    0.308   89.786
  491.000   10.237    0.178    0.304   91.627
  491.250   10.237    0.180    0.323   94.695
  491.500   10.432    0.186    0.332   97.149
  491.750   10.630    0.195    0.341   99.604
  492.000   10.832    0.201    0.351   99.609
  492.250   11.247    0.211    0.350   94.716
  492.500   12.588    0.205    0.331   99.620
  492.750   13.070    0.197    0.313  106.361
  493.000   13.828    0.201    0.304  108.203
  493.250   14.630    0.206    0.305   94.739
  493.500   15.190    0.211    0.307   84.337
  493.750   15.479    0.216    0.299   75.159
  494.000   16.072    0.223    0.283   70.266
  494.250   16.377    0.220    0.276   65.986
  494.500   17.004    0.196    0.275   62.319
  494.750   17.004    0.166    0.277   62.324
  495.000   16.074    0.158    0.286   63.554
  495.250   16.690    0.158    0.299   64.171
  495.500   16.380    0.171    0.300   68.463
  495.750   15.777    0.195    0.301   71.531
  496.000   14.914    0.201    0.301   72.762
  496.250   14.365    0.203    0.309   72.768
  496.500   14.098    0.198    0.320   72.772
  496.750   13.580    0.202    0.324   72.777
  497.000   12.837    0.209    0.326   72.783
  497.250   12.364    0.210    0.325   73.401
  497.500   11.909    0.205    0.322   73.406
  497.750   11.688    0.205    0.320   75.862
  498.000   11.471    0.199    0.333   79.541
  498.250   11.049    0.186    0.338   82.609
  498.500   10.445    0.173    0.325   83.838
  498.750   10.445    0.162    0.319   86.292
  499.000   10.445    0.165    0.314   87.524
  499.250   10.446    0.175    0.318   88.140
  499.500   10.846    0.178    0.316   84.473
  499.750   11.052    0.186    0.315   81.417
  500.000   11.915    0.187    0.315   77.750
