~VERSION INFORMATION
 VERS.                 2.0:   CWLS LOG ASCII STANDARD -VERSION 2.0
 WRAP.                  NO:   ONE LINE PER DEPTH STEP
~WELL INFORMATION BLOCK
#MNEM.UNIT           DATA                    DESCRIPTION OF MNEMONIC
#---------    -------------------            -------------------------------
# Generated from Intellog Unique Number	CS_73_76/WELL/2022
WELL.         AMOCO CANADA PETROLEUM CO.LTD. : Well_name    - WELL
LOC .         00/10-19-073-04W4/0            : Location     - LOCATION
UWI .         00/10-19-073-04W4/0            : Uwi          - UNIQUE WELL ID
ENTR.         JOETTE                         : Entered      - ENTERED BY
SRVC.         SCHLUMBERGER                   : Scn          - SERVICE COMPANY
DATE.         05/13/92                       : Date         - LOG DATE
STRT.M        300                            : top_depth    - START DEPTH
STOP.M        470                            : bot_depth    - STOP DEPTH
STEP.M        0.25                           : increment    - STEP LENGTH
 NULL. -999.2500:NULL Value
~CURVE INFORMATION BLOCK
#MNEM UNIT       ERCB CURVE CODE    CURVE DESCRIPTION
#-----------   ------------------   ----------------------------------
DEPT.M        00 001 00 00         : DEPTH        - DEPTH
CALI.MM       00 280 01 00         : CAL          - CALIPER
GR  .API      00 310 00 00         : GR           - GAMMA RAY
NPHI.V/V      00 330 00 00         : PHIN         - NEUTRON POROSITY (SANDSTONE)
DPHI.V/V      00 890 00 00         : PHID         - DENSITY POROSITY (SANDSTONE)
ILD .OHMM     00 120 00 00         : RESD         - DEEP RESISTIVITY (DIL)
~PARAMETER INFORMATION
#MNEM.UNIT           DATA             DESCRIPTION OF MNEMONIC
#---------         -----------     ------------------------------
GL  .M        630                  : gl           - GROUND LEVEL ELEVATION
EREF.M        634.4                : kb           - ELEVATION OF DEPTH REFERENCE
DATM.M        634.4                : datum        - DATUM ELEVATION
TDD .M        475.7                : tdd          - TOTAL DEPTH DRILLER
RUN .         ONE                  : Run          - RUN NUMBER
ENG .         BILL                 : Engineer     - RECORDING ENGINEER
WIT .         JIM                  : Witness      - WITNESSED BY
MUD .         GEL                  : Mud_type     - MUD TYPE
MATR.         SANDSTONE            : Logunit      - NEUTRON MATRIX
TMAX.C        20                   : BHT          - MAXIMUM RECORDED TEMPERATURE
BHTD.M        475.7                : BHTDEP       - MAXIMUM RECORDED TEMPERATURE
MATR.         1                    : LOGUNIT      - NEUTRON MATRIX
RMT .C        17                   : MDTP         - TEMPERATURE OF MUD
NEUT.         1                    : NEUTRON      - NEUTRON TYPE
RESI.         0                    : RESIST       - RESISTIVITY TYPE
RMC .OHMM     6.3                  : RMC          - RESISTIVITY OF MUD CAKE
RMF .OHMM     5.3                  : RMF          - RESISTIVITY OF MUD FILTRATE
SUFT.C        15                   : SUFT         - SURFACE TEMPERATURE
~A  DEPTH      CAL       GR     PHIN     PHID     RESD
# ...
  409.500  216.171   77.931    0.453    0.265    2.350
  409.750  220.602   82.418    0.454    0.258    2.450
  410.000  221.816   88.183    0.458    0.257    2.499
  410.250  220.942   89.538    0.461    0.253    2.552
  410.500  220.111   88.387    0.457    0.247    2.655
  410.750  220.196   86.610    0.457    0.247    2.660
  411.000  221.452   88.591    0.458    0.248    2.718
  411.250  221.622   92.477    0.467    0.253    2.723
  411.500  222.879   93.806    0.498    0.258    2.634
  411.750  224.093   95.813    0.530    0.261    2.637
  412.000  224.178   99.699    0.545    0.263    2.504
  412.250  223.304  101.028    0.558    0.269    2.463
  412.500  222.430   98.024    0.561    0.274    2.427
  412.750  220.554   95.620    0.543    0.279    2.343
  413.000  219.638   94.469    0.529    0.273    2.265
  413.250  216.718   94.597    0.521    0.263    2.229
  413.500  215.801   94.648    0.520    0.257    2.231
  413.750  216.014   96.002    0.527    0.251    2.239
  414.000  216.141   98.610    0.540    0.249    2.415
  414.250  217.398  103.749    0.542    0.250    2.657
  414.500  218.654  106.382    0.531    0.256    3.149
  414.750  219.826  100.821    0.522    0.263    3.943
  415.000  222.084   95.260    0.481    0.266    4.941
  415.250  227.516   86.617    0.460    0.273    5.966
  415.500  229.774   82.961    0.424    0.328    6.438
  415.750  229.987   81.784    0.349    0.399    7.222
  416.000  230.114   79.381    0.283    0.436    7.949
  416.250  230.242   76.325    0.278    0.468    8.259
  416.500  230.412   72.669    0.267    0.469    8.435
  416.750  229.580   68.386    0.248    0.465    8.301
  417.000  229.708   67.235    0.240    0.461    7.876
  417.250  228.834   66.736    0.242    0.462    7.464
  417.500  229.046   65.585    0.248    0.466    7.083
  417.750  228.172   64.434    0.257    0.465    6.717
  418.000  227.383   63.910    0.269    0.460    6.489
  418.250  227.468   63.986    0.280    0.458    6.268
  418.500  226.637   64.088    0.287    0.458    6.172
  418.750  225.762   64.190    0.295    0.459    6.067
  419.000  224.888   64.318    0.302    0.459    5.974
  419.250  223.013   64.420    0.307    0.456    6.105
  419.500  223.098   65.148    0.314    0.456    6.351
  419.750  221.180   65.250    0.325    0.454    6.858
  420.000  219.262   64.100    0.325    0.442    7.268
  420.250  219.474   61.044    0.318    0.382    7.423
  420.500  219.602   56.786    0.305    0.241    7.305
  420.750  219.772   53.105    0.300    0.181    6.675
  421.000  217.854   53.206    0.295    0.264    6.326
  421.250  215.936   57.719    0.291    0.407    5.678
  421.500  215.104   61.554    0.283    0.460    5.381
  421.750  216.275   66.066    0.281    0.462    5.012
  422.000  217.489   66.194    0.282    0.446    4.665
  422.250  217.659   65.043    0.288    0.429    4.346
  422.500  217.872   64.518    0.297    0.422    4.193
  422.750  216.998   65.247    0.313    0.420    3.983
  423.000  216.124   66.602    0.318    0.423    3.913
  423.250  217.338   66.729    0.311    0.427    3.851
  423.500  219.596   66.154    0.310    0.427    3.722
  423.750  221.854   65.655    0.330    0.412    3.401
  424.000  222.024   65.757    0.365    0.396    3.108
  424.250  220.106   65.859    0.395    0.342    2.947
  424.500  219.232   64.708    0.408    0.309    2.956
  424.750  219.444   62.279    0.376    0.254    3.129
  425.000  219.657   57.996    0.315    0.109    3.779
  425.250  219.784   52.435    0.276    0.019    4.732
  425.500  222.042   46.899    0.154   -0.030    5.930
  425.750  224.300   43.268    0.132   -0.008    5.319
  426.000  224.428   42.092    0.149    0.053    4.111
  426.250  225.684   37.834    0.241    0.120    3.299
  426.500  227.942   35.405    0.270    0.179    2.598
  426.750  229.156   41.145    0.302    0.238    2.009
  427.000  228.282   46.884    0.356    0.296    1.643
  427.250  225.362   53.902    0.446    0.331    1.557
  427.500  224.403   64.052    0.456    0.332    1.562
  427.750  222.485   69.166    0.459    0.321    1.567
  428.000  223.742   61.751    0.460    0.313    1.631
  428.250  223.912   61.226    0.461    0.314    1.633
  428.500  224.082   61.955    0.462    0.325    1.637
  428.750  223.250   65.841    0.466    0.339    1.641
  429.000  221.332   67.195    0.476    0.356    1.615
  429.250  219.414   67.297    0.474    0.369    1.532
  429.500  218.455   67.374    0.471    0.375    1.453
  429.750  218.710   65.597    0.461    0.380    1.429
  430.000  217.794   63.845    0.448    0.373    1.382
  430.250  215.876   65.826    0.445    0.357    1.465
  430.500  213.957   68.408    0.453    0.328    1.583
  430.750  213.126   74.199    0.465    0.305    1.646
  431.000  213.253   79.287    0.484    0.290    1.845
  431.250  214.467   88.210    0.507    0.263    1.918
  431.500  217.769   90.817    0.528    0.250    2.034
  431.750  220.027   90.293    0.538    0.248    2.115
  432.000  222.328   89.142    0.534    0.250    2.242
  432.250  222.455   87.365    0.524    0.253    2.420
  432.500  222.625   80.551    0.511    0.248    2.869
  432.750  223.882   78.147    0.480    0.238    3.336
  433.000  224.009   80.128    0.402    0.233    3.810
  433.250  224.222   80.856    0.348    0.236    3.678
  433.500  224.434   77.826    0.252    0.276    2.741
  433.750  224.604   74.144    0.219    0.310    2.200
  434.000  224.774   67.356    0.203    0.370    1.900
  434.250  225.988   61.846    0.282    0.420    1.443
  434.500  226.116   60.069    0.349    0.390    1.137
  434.750  225.242   60.170    0.370    0.377    1.119
  435.000  224.410   59.646    0.366    0.369    1.164
  435.250  220.404   57.869    0.358    0.373    1.212
  435.500  218.443   55.440    0.352    0.380    1.236
  435.750  218.656   53.011    0.351    0.381    1.263
  436.000  219.827   56.270    0.354    0.383    1.267
  436.250  221.084   57.625    0.356    0.389    1.247
  436.500  221.254   57.727    0.357    0.386    1.204
  436.750  221.381   55.349    0.352    0.381    1.165
  437.000  219.463   54.824    0.348    0.373    1.166
  437.250  218.632   55.527    0.352    0.366    1.237
  437.500  216.671   55.629    0.363    0.354    1.386
  437.750  216.841   55.130    0.372    0.320    1.641
  438.000  217.011   55.258    0.386    0.262    2.173
  438.250  217.224   55.309    0.378    0.177    3.530
  438.500  217.351   54.158    0.296    0.115    3.812
  438.750  217.521   50.501    0.224    0.035    3.682
  439.000  218.820   45.592    0.193    0.050    3.242
  439.250  218.948   46.947    0.264    0.096    2.554
  439.500  219.075   52.687    0.375    0.132    2.249
  439.750  220.374   59.705    0.436    0.275    1.943
  440.000  220.501   67.950    0.467    0.261    1.502
  440.250  220.714   75.594    0.477    0.247    1.323
  440.500  220.926   81.960    0.476    0.231    1.303
  440.750  221.011   90.257    0.482    0.223    1.406
  441.000  221.224   90.960    0.481    0.224    1.761
  441.250  221.351   85.424    0.473    0.225    2.048
  441.500  222.650   81.115    0.456    0.226    2.295
  441.750  222.778   74.953    0.446    0.232    2.527
  442.000  222.905   75.055    0.438    0.243    2.680
  442.250  222.031   76.410    0.441    0.247    2.683
  442.500  222.244   75.310    0.449    0.247    2.692
  442.750  222.456   74.735    0.452    0.247    2.697
  443.000  222.541   73.584    0.451    0.247    2.654
  443.250  223.798   73.712    0.451    0.248    2.615
  443.500  223.968   74.440    0.451    0.250    2.619
  443.750  224.095   74.542    0.452    0.251    2.628
  444.000  224.350   74.644    0.455    0.252    2.633
  444.250  224.520   75.372    0.461    0.253    2.640
  444.500  223.646   76.101    0.463    0.255    2.650
  444.750  223.816   75.576    0.468    0.257    2.605
  445.000  223.986   75.077    0.473    0.258    2.518
  445.250  223.112   75.179    0.473    0.263    2.476
  445.500  222.238   75.307    0.475    0.270    2.438
  445.750  222.408   75.358    0.479    0.274    2.489
