~VERSION INFORMATION
 VERS.                 2.0:   CWLS LOG ASCII STANDARD -VERSION 2.0
 WRAP.                  NO:   ONE LINE PER DEPTH STEP
~WELL INFORMATION BLOCK
#MNEM.UNIT           DATA                    DESCRIPTION OF MNEMONIC
#---------    -------------------            -------------------------------
# Generated from Intellog Unique Number	CW_73_75/WELL/3529
WELL.         ULSTER G&W MARTEN HILLS        : Well_name    - WELL
LOC .         00/12-12-074-02W5/0            : Location     - LOCATION
UWI .         00/12-12-074-02W5/0            : Uwi          - UNIQUE WELL ID
ENTR.         T                              : Entered      - ENTERED BY
SRVC.         SCHLUMBERGER                   : Scn          - SERVICE COMPANY
STRT.M        360                            : top_depth    - START DEPTH
STOP.M        600                            : bot_depth    - STOP DEPTH
STEP.M        0.25                           : increment    - STEP LENGTH
 NULL. -999.2500:NULL Value
~CURVE INFORMATION BLOCK
#MNEM UNIT       ERCB CURVE CODE    CURVE DESCRIPTION
#-----------   ------------------   ----------------------------------
DEPT.M        00 001 00 00         : DEPTH        - DEPTH
ILD .OHMM     00 120 00 00         : RESD         - DEEP RESISTIVITY (DIL)
DPHI.V/V      00 890 00 00         : PHID         - DENSITY POROSITY (SANDSTONE)
NPHI.V/V      00 330 00 00         : PHIN         - NEUTRON POROSITY (SANDSTONE)
GR  .API      00 310 00 00         : GR           - GAMMA RAY
~PARAMETER INFORMATION
#MNEM.UNIT           DATA             DESCRIPTION OF MNEMONIC
#---------         -----------     ------------------------------
GL  .M        644                  : gl           - GROUND LEVEL ELEVATION
EREF.M        647.2                : kb           - ELEVATION OF DEPTH REFERENCE
DATM.M        647.2                : datum        - DATUM ELEVATION
TDD .M        606                  : tdd          - TOTAL DEPTH DRILLER
RUN .         ONE                  : Run          - RUN NUMBER
ENG .         BILL                 : Engineer     - RECORDING ENGINEER
WIT .         JIM                  : Witness      - WITNESSED BY
MUD .         GEL                  : Mud_type     - MUD TYPE
MATR.         SANDSTONE            : Logunit      - NEUTRON MATRIX
TMAX.C        23                   : BHT          - MAXIMUM RECORDED TEMPERATURE
BHTD.M        606                  : BHTDEP       - MAXIMUM RECORDED TEMPERATURE
MATR.         1                    : LOGUNIT      - NEUTRON MATRIX
RMT .C        17                   : MDTP         - TEMPERATURE OF MUD
NEUT.         1                    : NEUTRON      - NEUTRON TYPE
RESI.         0                    : RESIST       - RESISTIVITY TYPE
RMC .OHMM     2.6                  : RMC          - RESISTIVITY OF MUD CAKE
RMF .OHMM     1.7                  : RMF          - RESISTIVITY OF MUD FILTRATE
SUFT.C        15                   : SUFT         - SURFACE TEMPERATURE
~A  DEPTH     RESD     PHID     PHIN       GR
# ...
  403.500    4.989    0.285    0.324   52.241
  403.750    4.555    0.275    0.323   53.426
  404.000    4.473    0.278    0.326   49.296
  404.250    4.393    0.283    0.335   48.710
  404.500    4.477    0.275    0.334   52.849
  404.750    4.479    0.207    0.317   57.580
  405.000    4.480    0.199    0.281   62.311
  405.250    4.400    0.225    0.286   66.450
  405.500    4.322    0.249    0.306   65.274
  405.750    4.168    0.268    0.336   57.600
  406.000    4.094    0.276    0.331   52.879
  406.250    3.949    0.276    0.330   49.932
  406.500    3.950    0.282    0.330   46.983
  406.750    4.024    0.289    0.331   45.807
  407.000    4.176    0.298    0.333   48.174
  407.250    4.333    0.307    0.336   51.132
  407.500    4.580    0.313    0.339   52.909
  407.750    4.582    0.318    0.337   54.687
  408.000    4.583    0.323    0.337   55.281
  408.250    4.502    0.291    0.342   57.060
  408.500    4.341    0.275    0.341   58.245
  408.750    4.187    0.246    0.342   59.431
  409.000    4.266    0.255    0.343   61.207
  409.250    4.509    0.266    0.342   62.984
  409.500    4.679    0.270    0.346   66.533
  409.750    4.680    0.237    0.358   71.263
  410.000    4.432    0.215    0.372   77.175
  410.250    4.197    0.198    0.384   90.765
  410.500    4.122    0.194    0.384  103.173
  410.750    4.602    0.189    0.344  117.946
  411.000    5.045    0.188    0.330  123.266
  411.250    5.739    0.195    0.318  113.230
  411.500    5.846    0.206    0.321  106.147
  411.750    5.957    0.227    0.324   98.473
  412.000    6.297    0.253    0.326   82.530
  412.250    6.298    0.269    0.329   53.592
  412.500    6.417    0.272    0.324   47.100
  412.750    6.420    0.266    0.314   40.608
  413.000    6.190    0.245    0.315   43.565
  413.250    5.651    0.238    0.316   51.250
  413.500    5.254    0.251    0.324   55.980
  413.750    4.885    0.261    0.332   60.119
  414.000    4.541    0.255    0.336   66.622
  414.250    4.300    0.250    0.336   72.532
  414.500    4.147    0.231    0.326   81.397
  414.750    4.148    0.202    0.327   91.443
  415.000    4.548    0.186    0.338  100.900
  415.250    4.719    0.185    0.334  105.631
  415.500    4.897    0.182    0.332  105.045
  415.750    4.811    0.184    0.328  100.914
  416.000    4.725    0.186    0.328   96.193
  416.250    4.474    0.199    0.336   99.742
  416.500    4.314    0.214    0.349  105.063
  416.750    4.161    0.220    0.357  109.203
  417.000    3.940    0.214    0.349  103.892
  417.250    3.531    0.210    0.342   99.762
  417.500    3.223    0.212    0.336   92.679
  417.750    2.996    0.215    0.335   90.321
  418.000    2.838    0.206    0.346   99.186
  418.250    2.838    0.193    0.375  108.641
  418.500    2.892    0.181    0.391  113.962
  418.750    2.946    0.152    0.430  109.241
  419.000    3.114    0.142    0.396  106.294
  419.250    3.353    0.163    0.409  116.340
  419.500    3.478    0.198    0.413  122.842
  419.750    3.676    0.210    0.387  115.759
  420.000    3.957    0.215    0.356  108.086
  420.250    4.420    0.222    0.358  110.452
  420.500    4.502    0.229    0.362  109.276
  420.750    4.672    0.245    0.351   99.830
  421.000    4.674    0.259    0.358   78.571
  421.250    4.676    0.251    0.347   60.857
  421.500    4.677    0.260    0.352   65.587
  421.750    4.595    0.279    0.356   69.136
  422.000    4.513    0.270    0.342   69.140
  422.250    4.432    0.259    0.339   66.192
  422.500    4.354    0.251    0.340   66.197
  422.750    4.356    0.258    0.348   64.431
  423.000    4.278    0.266    0.359   63.253
  423.250    4.280    0.275    0.356   72.118
  423.500    4.281    0.281    0.350   77.439
  423.750    4.282    0.272    0.345   82.169
  424.000    4.284    0.258    0.340   86.309
  424.250    4.208    0.239    0.335   83.952
  424.500    4.133    0.226    0.329   85.138
  424.750    4.060    0.216    0.340   90.458
  425.000    3.988    0.243    0.354   88.692
  425.250    3.707    0.261    0.359   84.562
  425.500    3.446    0.283    0.359   84.567
  425.750    3.204    0.263    0.358   92.250
  426.000    3.034    0.253    0.360   97.570
  426.250    2.926    0.256    0.366  101.119
  426.500    2.770    0.300    0.374  103.488
  426.750    2.623    0.332    0.386   98.766
  427.000    2.395    0.363    0.399   99.362
  427.250    2.268    0.369    0.408  102.910
  427.500    2.187    0.336    0.412  106.460
  427.750    2.071    0.313    0.406  108.828
  428.000    2.270    0.287    0.398  105.879
  428.250    2.989    0.208    0.366  102.340
  428.500    4.235    0.208    0.370   98.800
  428.750    4.905    0.213    0.371   95.261
  429.000    5.090    0.219    0.361   94.085
  429.250    4.821    0.221    0.356   91.137
  429.500    4.735    0.222    0.349   87.599
  429.750    4.483    0.222    0.350   84.059
  430.000    4.403    0.230    0.354   79.929
  430.250    4.093    0.236    0.353   75.209
  430.500    3.669    0.247    0.352   69.897
  430.750    3.670    0.255    0.354   65.177
  431.000    3.879    0.265    0.356   64.001
  431.250    4.100    0.277    0.359   64.597
  431.500    4.254    0.284    0.359   69.327
  431.750    4.497    0.292    0.361   59.881
  432.000    4.498    0.292    0.362   55.162
  432.250    4.339    0.278    0.366   56.937
  432.500    4.184    0.232    0.335   53.398
  432.750    4.034    0.215    0.291   51.040
  433.000    3.820    0.277    0.331   51.047
  433.250    3.617    0.302    0.339   51.641
  433.500    3.425    0.302    0.343   51.645
  433.750    3.303    0.295    0.348   50.470
  434.000    3.244    0.283    0.346   49.293
  434.250    3.187    0.260    0.342   48.708
  434.500    3.130    0.243    0.342   49.894
  434.750    3.131    0.332    0.349   52.263
  435.000    3.190    0.336    0.363   53.448
  435.250    3.497    0.332    0.371   54.634
  435.500    4.605    0.329    0.362   53.459
  435.750    5.846    0.327    0.350   53.461
  436.000    6.897    0.323    0.328   52.877
  436.250    7.701    0.310    0.320   51.701
  436.500    8.920    0.228    0.284   49.342
  436.750    9.602    0.165    0.200   48.166
  437.000    9.259    0.094    0.125   47.580
  437.250    8.452    0.037    0.140   45.813
  437.500    7.303    0.032    0.214   42.863
  437.750    6.310    0.200    0.250   42.278
  438.000    5.655    0.234    0.282   49.962
  438.250    4.886    0.264    0.309   55.283
  438.500    4.542    0.300    0.332   60.014
  438.750    3.997    0.311    0.356   59.428
  439.000    3.583    0.309    0.362   57.662
  439.250    3.455    0.312    0.351   57.664
  439.500    3.788    0.279    0.320   57.670
  439.750    3.931    0.113    0.282   58.266
  440.000    4.005    0.159    0.295   61.816
  440.250    3.863    0.225    0.329   67.726
  440.500    3.725    0.264    0.339   76.000
  440.750    3.592    0.286    0.353   78.958
  441.000    3.401    0.292    0.365   72.466
  441.250    3.280    0.290    0.370   71.289
  441.500    3.281    0.288    0.367   73.067
  441.750    3.343    0.281    0.368   75.433
  442.000    3.533    0.278    0.373   77.211
  442.250    3.734    0.281    0.374   78.987
  442.500    3.947    0.283    0.369   79.583
  442.750    4.022    0.286    0.371   80.178
  443.000    4.023    0.286    0.378   78.413
  443.250    3.880    0.284    0.382   77.826
  443.500    3.810    0.287    0.387   77.830
  443.750    3.675    0.294    0.388   77.246
  444.000    3.609    0.285    0.387   77.841
  444.250    3.545    0.283    0.381   78.436
  444.500    3.482    0.282    0.372   79.624
  444.750    3.484    0.287    0.370   80.219
  445.000    3.422    0.293    0.371   81.404
  445.250    3.361    0.297    0.372   81.999
  445.500    3.362    0.287    0.370   82.594
  445.750    3.554    0.278    0.367   81.418
  446.000    3.896    0.367    0.371   78.471
  446.250    4.431    0.395    0.376   74.341
  446.500    4.514    0.384    0.385   68.439
  446.750    4.600    0.365    0.388   64.309
