~VERSION INFORMATION
 VERS.                 2.0:   CWLS LOG ASCII STANDARD -VERSION 2.0
 WRAP.                  NO:   ONE LINE PER DEPTH STEP
~WELL INFORMATION BLOCK
#MNEM.UNIT           DATA                    DESCRIPTION OF MNEMONIC
#---------    -------------------            -------------------------------
# Generated from Intellog Unique Number	CS_73_76/WELL/2207
WELL.         HOUSTON OILS LIMITED           : Well_name    - WELL
LOC .         00/11-36-074-15W4/0            : Location     - LOCATION
UWI .         00/11-36-074-15W4/0            : Uwi          - UNIQUE WELL ID
ENTR.         SP                             : Entered      - ENTERED BY
SRVC.         SCHLUMBERGER                   : Scn          - SERVICE COMPANY
STRT.M        390.144                        : top_depth    - START DEPTH
STOP.M        606.394                        : bot_depth    - STOP DEPTH
STEP.M        0.25                           : increment    - STEP LENGTH
 NULL. -999.2500:NULL Value
~CURVE INFORMATION BLOCK
#MNEM UNIT       ERCB CURVE CODE    CURVE DESCRIPTION
#-----------   ------------------   ----------------------------------
DEPT.M        00 001 00 00         : DEPTH        - DEPTH
GR  .API      00 310 00 00         : GR           - GAMMA RAY
DPHI.V/V      00 890 00 00         : PHID         - DENSITY POROSITY (SANDSTONE)
NPHI.V/V      00 330 00 00         : PHIN         - NEUTRON POROSITY (SANDSTONE)
ILD .OHMM     00 120 00 00         : RESD         - DEEP RESISTIVITY (DIL)
~PARAMETER INFORMATION
#MNEM.UNIT           DATA             DESCRIPTION OF MNEMONIC
#---------         -----------     ------------------------------
GL  .M        748.589              : gl           - GROUND LEVEL ELEVATION
EREF.M        751.637              : kb           - ELEVATION OF DEPTH REFERENCE
DATM.M        748.589              : datum        - DATUM ELEVATION
TDD .M        608.99               : tdd          - TOTAL DEPTH DRILLER
RUN .         ONE                  : Run          - RUN NUMBER
ENG .         BILL                 : Engineer     - RECORDING ENGINEER
WIT .         JIM                  : Witness      - WITNESSED BY
MUD .         GEL                  : Mud_type     - MUD TYPE
MATR.         SANDSTONE            : Logunit      - NEUTRON MATRIX
TMAX.C        6.66667              : BHT          - MAXIMUM RECORDED TEMPERATURE
BHTD.M        608.99               : BHTDEP       - MAXIMUM RECORDED TEMPERATURE
MATR.         1                    : LOGUNIT      - NEUTRON MATRIX
RMT .C        25                   : MDTP         - TEMPERATURE OF MUD
NEUT.         1                    : NEUTRON      - NEUTRON TYPE
RESI.         0                    : RESIST       - RESISTIVITY TYPE
RMC .OHMM     0.25                 : RMC          - RESISTIVITY OF MUD CAKE
RMF .OHMM     0.25                 : RMF          - RESISTIVITY OF MUD FILTRATE
SUFT.C        15                   : SUFT         - SURFACE TEMPERATURE
~A  DEPTH       GR     PHID     PHIN     RESD
  390.144   99.404    0.210    0.599    2.159
  390.394  100.958    0.219    0.645    2.324
  390.644  102.822    0.228    0.663    2.499
  390.894  103.085    0.227    0.657    2.729
  391.144  101.134    0.224    0.661    2.902
  391.394  100.172    0.216    0.622    3.016
  391.644  102.204    0.200    0.570    3.109
  391.894  104.856    0.205    0.579    3.126
  392.144  106.747    0.207    0.604    3.220
  392.394  103.921    0.195    0.634    3.209
  392.644   99.664    0.182    0.646    3.275
  392.894   97.049    0.170    0.613    3.334
  393.144   93.831    0.180    0.576    3.293
  393.394   96.327    0.196    0.554    3.211
  393.644   99.525    0.199    0.583    3.096
  393.894   96.762    0.201    0.596    2.876
  394.144   98.314    0.206    0.594    2.747
  394.394  101.231    0.215    0.598    2.622
  394.644  102.004    0.222    0.619    2.541
  394.894  101.202    0.225    0.640    2.527
  395.144  100.817    0.219    0.646    2.601
  395.394   99.221    0.216    0.610    2.734
  395.644   98.335    0.217    0.611    2.871
  395.894   96.962    0.220    0.608    3.053
  396.144   95.152    0.232    0.601    3.169
  396.394   94.231    0.241    0.588    3.018
  396.644   93.540    0.237    0.551    2.936
  396.894   95.475    0.240    0.551    2.783
  397.144  102.291    0.239    0.573    2.703
  397.394  101.185    0.255    0.602    2.711
  397.644   95.015    0.266    0.648    2.999
  397.894   86.473    0.266    0.660    3.497
  398.144   80.690    0.235    0.594    4.003
  398.394   78.824    0.216    0.506    4.897
  398.644   83.800    0.253    0.462    5.609
  398.894   85.945    0.269    0.464    6.040
  399.144   90.317    0.271    0.480    5.789
  399.394   94.871    0.261    0.483    5.406
  399.644  101.620    0.269    0.503    4.842
  399.894  105.072    0.277    0.528    4.572
  400.144  100.373    0.287    0.546    4.472
  400.394   95.856    0.293    0.546    4.585
  400.644   91.583    0.304    0.559    4.793
  400.894   88.334    0.284    0.575    5.144
  401.144   85.829    0.276    0.546    5.401
  401.394   85.794    0.254    0.472    5.487
  401.644   89.367    0.246    0.466    5.221
  401.894   92.264    0.235    0.510    4.964
  402.144   97.272    0.243    0.517    4.806
  402.394  101.435    0.240    0.507    4.704
  402.644  101.501    0.277    0.545    4.805
  402.894   95.160    0.292    0.567    5.362
  403.144   86.959    0.298    0.522    5.862
  403.394   79.752    0.298    0.477    6.295
  403.644   75.118    0.296    0.485    6.633
  403.894   71.664    0.297    0.476    6.680
  404.144   71.148    0.299    0.472    6.781
  404.394   73.800    0.293    0.474    6.775
  404.644   75.034    0.286    0.489    6.771
  404.894   77.987    0.281    0.505    6.767
  405.144   81.539    0.273    0.515    6.753
  405.394   85.779    0.267    0.505    6.890
  405.644   88.766    0.261    0.482    6.880
  405.894   91.123    0.263    0.464    6.878
  406.144   90.956    0.258    0.466    6.875
  406.394   90.604    0.259    0.476    6.871
  406.644   89.415    0.269    0.470    6.869
  406.894   86.370    0.263    0.478    6.863
  407.144   86.512    0.255    0.493    6.792
  407.394   88.860    0.249    0.490    6.740
  407.644   86.793    0.243    0.472    6.635
  407.894   83.664    0.235    0.451    6.483
  408.144   80.680    0.225    0.440    6.347
  408.394   76.706    0.215    0.441    6.252
  408.644   73.758    0.211    0.451    6.122
  408.894   70.814    0.217    0.459    6.010
  409.144   72.656    0.228    0.458    5.905
  409.394   71.655    0.237    0.457    5.758
  409.644   67.939    0.251    0.462    5.582
  409.894   68.041    0.248    0.443    5.518
  410.144   75.069    0.232    0.454    5.476
  410.394   81.978    0.237    0.471    5.470
  410.644   84.614    0.243    0.459    5.458
  410.894   78.542    0.254    0.469    5.574
  411.144   73.031    0.258    0.466    5.563
  411.394   67.650    0.252    0.436    5.573
  411.644   72.502    0.208    0.414    5.336
  411.894   85.626    0.171    0.467    4.996
  412.144   95.452    0.159    0.563    4.675
  412.394  101.844    0.154    0.581    4.295
  412.644  103.918    0.157    0.608    4.042
  412.894  105.317    0.170    0.614    3.804
  413.144  108.838    0.188    0.605    3.582
  413.394  111.797    0.197    0.596    3.429
  413.644  114.772    0.184    0.579    3.435
  413.894  116.489    0.180    0.571    3.491
  414.144  109.959    0.175    0.589    3.489
  414.394  103.963    0.180    0.581    3.561
  414.644  103.492    0.191    0.572    3.396
  414.894  108.991    0.198    0.574    3.141
  415.144  113.973    0.204    0.604    2.798
  415.394  117.747    0.213    0.630    2.601
  415.644  119.368    0.223    0.646    2.441
  415.894  119.840    0.232    0.657    2.458
  416.144  118.733    0.242    0.658    2.655
  416.394  114.535    0.259    0.675    3.069
  416.644  111.737    0.272    0.596    3.637
  416.894  108.974    0.271    0.504    4.180
  417.144  108.551    0.250    0.455    4.903
  417.394  106.491    0.238    0.474    5.704
  417.644  105.518    0.241    0.515    6.367
  417.894  106.216    0.251    0.531    6.596
  418.144  106.348    0.248    0.549    6.511
  418.394  103.913    0.238    0.557    6.101
  418.644  102.051    0.232    0.540    5.789
  418.894  101.048    0.241    0.515    5.285
  419.144  100.931    0.241    0.502    4.850
  419.394  100.308    0.241    0.489    4.492
  419.644   99.647    0.231    0.527    4.295
  419.894   98.227    0.231    0.543    4.417
  420.144   96.104    0.234    0.560    4.679
  420.394   98.240    0.255    0.572    5.215
  420.644  100.483    0.284    0.499    5.824
  420.894  101.673    0.264    0.463    6.468
  421.144   98.474    0.255    0.446    7.019
  421.394   96.208    0.251    0.439    7.592
  421.644   98.659    0.247    0.454    7.718
  421.894  100.931    0.253    0.475    7.410
  422.144  102.759    0.248    0.500    6.785
  422.394  101.785    0.242    0.502    6.401
  422.644  100.806    0.239    0.535    5.915
  422.894  100.394    0.241    0.544    5.658
  423.144  102.694    0.246    0.556    5.536
  423.394  108.873    0.240    0.541    5.418
  423.644  116.443    0.239    0.518    5.425
  423.894  118.955    0.241    0.505    5.424
  424.144  118.050    0.246    0.494    5.424
  424.394  113.292    0.248    0.524    5.591
  424.644  110.242    0.261    0.551    5.751
  424.894  103.361    0.286    0.544    6.042
  425.144   94.583    0.295    0.510    6.492
  425.394   79.037    0.288    0.477    6.918
  425.644   69.612    0.283    0.466    7.493
  425.894   69.821    0.291    0.457    7.721
  426.144   71.549    0.297    0.452    7.945
  426.394   71.433    0.301    0.448    7.796
  426.644   72.015    0.298    0.451    7.778
  426.894   75.688    0.291    0.462    7.760
  427.144   79.097    0.283    0.471    7.548
  427.394   81.694    0.277    0.473    6.739
  427.644   85.738    0.280    0.467    5.983
  427.894   88.192    0.281    0.471    5.283
  428.144   89.867    0.267    0.491    4.909
  428.394   97.445    0.258    0.525    4.561
  428.644  102.759    0.263    0.595    4.247
  428.894   97.262    0.268    0.611    4.119
  429.144   89.752    0.262    0.622    3.869
  429.394   86.235    0.246    0.631    3.749
  429.644   89.926    0.247    0.611    3.636
  429.894   93.938    0.256    0.600    3.522
  430.144  100.676    0.259    0.586    3.516
  430.394  106.996    0.264    0.590    3.515
  430.644   98.845    0.272    0.566    3.570
  430.894   98.019    0.277    0.565    3.641
  431.144  100.691    0.279    0.615    3.704
  431.394  101.227    0.273    0.607    3.861
  431.644   98.411    0.271    0.583    4.128
  431.894   97.665    0.266    0.548    4.754
  432.144   98.425    0.260    0.506    5.319
  432.394   97.768    0.250    0.487    5.662
  432.644   98.318    0.248    0.495    5.735
  432.894   98.031    0.250    0.488    5.782
  433.144   96.886    0.245    0.496    5.829
  433.394   93.228    0.249    0.516    5.819
