~VERSION INFORMATION
 VERS.                 2.0:   CWLS LOG ASCII STANDARD -VERSION 2.0
 WRAP.                  NO:   ONE LINE PER DEPTH STEP
~WELL INFORMATION BLOCK
#MNEM.UNIT           DATA                    DESCRIPTION OF MNEMONIC
#---------    -------------------            -------------------------------
# Generated from Intellog Unique Number	CW_70_72/WELL/1045
NULL.         -999.25                        : NULL_VALUE
WELL.         SUNDANCE MCMORGAN SMITH 10-31  : Well_name    - WELL              
LOC .         10-31-072-24W4                 : Location     - LOCATION          
UWI .         00/10-31-072-24W4/0            : Uwi          - UNIQUE WELL ID    
ENTR.         JAYE                           : Entered      - ENTERED BY        
SRVC.         SCHLUMBERGER                   : Scn          - SERVICE COMPANY   
DATE.         20 JAN 74                      : Date         - LOG DATE          
STRT.M        399.288                        : top_depth    - START DEPTH       
STOP.M        655.288                        : bot_depth    - STOP DEPTH        
STEP.M        0.25                           : increment    - STEP LENGTH       
~CURVE INFORMATION BLOCK
#MNEM UNIT       ERCB CURVE CODE    CURVE DESCRIPTION
#-----------   ------------------   ----------------------------------
DEPT.M        00 001 00 00         : DEPTH        - DEPTH                       
CALI.MM       00 280 01 00         : CAL          - CALIPER                     
GR  .API      00 310 00 00         : GR           - GAMMA RAY                   
DPHI.V/V      00 890 00 00         : PHID         - DENSITY POROSITY (SANDSTONE)
NPHI.V/V      00 330 00 00         : PHIN         - NEUTRON POROSITY (SANDSTONE)
ILD .OHMM     00 120 00 00         : RESD         - DEEP RESISTIVITY (DIL)      
~PARAMETER INFORMATION       
#MNEM.UNIT           DATA             DESCRIPTION OF MNEMONIC
#---------         -----------     ------------------------------
GL  .M        648.767              : gl           - GROUND LEVEL ELEVATION      
EREF.M        651.815              : kb           - ELEVATION OF DEPTH REFERENCE
DATM.M        648.767              : datum        - DATUM ELEVATION             
TDD .M        664.464              : tdd          - TOTAL DEPTH DRILLER         
RUN .         ONE                  : Run          - RUN NUMBER                  
ENG .         WOON                 : Engineer     - RECORDING ENGINEER          
WIT .         TIEFENBACH           : Witness      - WITNESSED BY                
BASE.         EDM                  : Branch       - HOME BASE OF LOGGING UNIT   
MUD .         GEL CHEM             : Mud_type     - MUD TYPE                    
MATR.         SANDSTONE            : Logunit      - NEUTRON MATRIX              
TMAX.C        30                   : BHT          - MAXIMUM RECORDED TEMPERATURE
BHTD.M        663.55               : BHTDEP       - MAXIMUM RECORDED TEMPERATURE
RMT .C        15.5556              : MDTP         - TEMPERATURE OF MUD          
MUDD.KG/M     1080                 : MWT          - MUD DENSITY                 
NEUT.         1                    : NEUTRON      - NEUTRON TYPE                
RESI.         0                    : RESIST       - RESISTIVITY TYPE            
RM  .OHMM     5.63                 : RM           - RESISTIVITY OF MUD          
RMC .OHMM     0                    : RMC          - RESISTIVITY OF MUD CAKE     
RMF .OHMM     6.8                  : RMF          - RESISTIVITY OF MUD FILTRATE 
SUFT.C        -17.7778             : SUFT         - SURFACE TEMPERATURE         
~A  DEPTH      CAL       GR     PHID     PHIN     RESD
  399.288  165.501   86.876    0.236    0.468    3.594
  399.538  162.777   79.740    0.234    0.467    4.127
  399.788  160.773   75.756    0.197    0.463    4.629
  400.038  159.277   73.482    0.176    0.459    5.434
  400.288  158.517   69.019    0.193    0.451    5.950
  400.538  157.749   64.189    0.266    0.444    5.807
  400.788  157.191   59.114    0.286    0.437    5.365
  401.038  156.626   54.162    0.322    0.445    5.002
  401.288  156.177   49.092    0.320    0.462    4.713
  401.538  156.016   46.997    0.307    0.471    4.435
  401.788  155.876   50.497    0.299    0.462    4.265
  402.038  156.340   53.203    0.308    0.458    4.079
  402.288  156.908   53.782    0.309    0.464    3.995
  402.538  157.692   54.489    0.291    0.480    3.934
  402.788  158.892   56.283    0.281    0.479    3.889
  403.038  159.876   56.929    0.275    0.459    3.937
  403.288  160.344   58.233    0.263    0.450    4.029
  403.538  160.810   60.035    0.265    0.456    4.123
  403.788  160.760   63.896    0.256    0.463    4.313
  404.038  160.722   67.886    0.238    0.475    4.681
  404.288  161.395   70.352    0.225    0.503    4.834
  404.538  164.030   71.114    0.232    0.539    4.734
  404.788  169.747   71.635    0.214    0.564    4.446
  405.038  171.246   74.464    0.213    0.489    4.033
  405.288  169.455   78.146    0.236    0.454    3.678
  405.538  177.027   82.861    0.228    0.431    3.479
  405.788  174.304   88.126    0.244    0.430    3.401
  406.038  167.877   93.510    0.311    0.433    3.475
  406.288  165.253   97.253    0.311    0.448    3.655
  406.538  164.696   94.004    0.296    0.464    4.107
  406.788  164.951   84.675    0.278    0.424    4.367
  407.038  165.723   72.608    0.260    0.429    4.611
  407.288  166.299   67.354    0.257    0.441    4.807
  407.538  166.574   70.730    0.243    0.462    4.936
  407.788  167.040   76.177    0.208    0.464    5.006
  408.038  167.409   87.151    0.193    0.456    4.894
  408.288  170.653   91.140    0.187    0.443    4.707
  408.538  174.731   93.424    0.181    0.445    4.576
  408.788  173.654   94.308    0.175    0.453    4.582
  409.038  174.638   94.646    0.196    0.442    4.724
  409.288  178.505   94.678    0.204    0.443    5.033
  409.538  174.858   94.045    0.207    0.430    5.462
  409.788  169.759   90.310    0.221    0.438    5.809
  410.038  164.056   85.054    0.232    0.465    6.011
  410.288  160.921   81.134    0.227    0.481    5.930
  410.538  161.805   78.734    0.191    0.490    5.539
  410.788  163.197   76.277    0.190    0.497    5.192
  411.038  165.005   69.869    0.203    0.505    4.892
  411.288  167.739   67.593    0.218    0.514    4.595
  411.538  172.741   73.763    0.204    0.513    4.533
  411.788  178.456   77.144    0.203    0.470    4.564
  412.038  175.117   81.249    0.215    0.451    4.697
  412.288  174.974   83.716    0.206    0.445    4.868
  412.538  165.043   86.302    0.219    0.442    4.991
  412.788  162.116   89.926    0.241    0.437    5.100
  413.038  164.542   91.419    0.233    0.430    5.171
  413.288  167.171   89.992    0.230    0.425    5.255
  413.538  168.156   86.439    0.226    0.426    5.328
  413.788  168.522   78.449    0.216    0.427    5.393
  414.038  168.889   73.558    0.203    0.421    5.509
  414.288  169.564   74.806    0.220    0.412    5.435
  414.538  166.013   78.611    0.246    0.402    5.227
  414.788  163.706   83.570    0.265    0.415    5.045
  415.038  164.177   82.996    0.277    0.425    4.924
  415.288  165.772   77.919    0.269    0.434    4.993
  415.538  165.935   73.032    0.245    0.417    5.508
  415.788  165.582   65.711    0.224    0.397    6.372
  416.038  165.118   61.851    0.246    0.378    7.961
  416.288  165.183   61.825    0.254    0.392    7.878
  416.538  164.311   61.737    0.271    0.398    7.980
  416.788  163.339   58.305    0.295    0.395    9.454
  417.038  162.467   46.544    0.308    0.379   11.387
  417.288  162.016   36.731    0.304    0.381   13.344
  417.538  161.554   30.196    0.290    0.384   15.048
  417.788  161.613   27.915    0.285    0.388   16.569
  418.038  161.771   27.651    0.303    0.389   18.078
  418.288  161.421   28.049    0.308    0.403   19.335
  418.538  161.068   26.260    0.301    0.414   20.264
  418.788  161.017   23.010    0.295    0.403   21.313
  419.038  161.281   23.467    0.298    0.405   21.226
  419.288  161.649   24.051    0.301    0.413   20.010
  419.538  161.910   25.118    0.301    0.417   19.028
  419.788  161.969   25.153    0.303    0.415   17.998
  420.038  162.231   25.366    0.312    0.406   16.782
  420.288  162.484   24.971    0.310    0.403   15.728
  420.538  162.651   24.158    0.300    0.400   14.557
  420.788  162.706   22.249    0.294    0.395   13.644
  421.038  162.876   20.823    0.289    0.391   12.674
  421.288  163.237   20.915    0.289    0.384   11.923
  421.538  163.299   21.191    0.299    0.380   11.053
  421.788  163.352   22.080    0.306    0.387    9.899
  422.038  163.508   26.186    0.289    0.418    9.143
  422.288  163.670   29.685    0.267    0.434    8.430
  422.538  164.244   35.979    0.254    0.447    7.674
  422.788  164.412   41.243    0.247    0.458    6.897
  423.038  164.779   47.966    0.243    0.467    6.279
  423.288  165.351   60.464    0.238    0.473    5.864
  423.538  165.609   69.981    0.244    0.522    5.476
  423.788  166.079   76.521    0.256    0.561    5.096
  424.038  166.862   80.446    0.262    0.586    4.597
  424.288  168.050   81.269    0.240    0.605    3.975
  424.538  169.755   82.155    0.178    0.613    3.438
  424.788  173.002   84.804    0.143    0.614    3.028
  425.038  176.766   93.410    0.207    0.611    2.633
  425.288  183.002  101.165    0.197    0.604    2.451
  425.538  187.795  107.340    0.187    0.594    2.400
  425.788  186.408  112.664    0.185    0.573    2.407
  426.038  186.467  116.163    0.184    0.560    2.428
  426.288  188.689  117.170    0.185    0.540    2.512
  426.538  188.643  116.349    0.194    0.492    2.667
  426.788  187.875  116.447    0.214    0.464    2.937
  427.038  187.107  117.697    0.226    0.479    3.240
  427.288  183.769  118.400    0.233    0.486    3.554
  427.538  178.784  119.224    0.223    0.509    3.885
  427.788  183.780  115.974    0.219    0.534    4.255
  428.038  183.941  110.294    0.206    0.509    4.475
  428.288  181.941  106.677    0.190    0.433    4.606
  428.538  175.716  105.011    0.226    0.427    4.637
  428.788  168.260  101.882    0.267    0.449    4.676
  429.038  162.860   98.148    0.297    0.452    4.744
  429.288  162.610   89.306    0.291    0.460    4.775
  429.538  162.356   79.065    0.279    0.477    4.815
  429.788  161.174   64.933    0.251    0.481    4.874
  430.038  160.821   62.292    0.256    0.462    4.951
  430.288  161.087   65.301    0.293    0.459    5.059
  430.538  161.245   67.891    0.294    0.469    5.178
  430.788  160.987   70.231    0.282    0.480    5.259
  431.038  160.532   70.631    0.258    0.492    5.433
  431.288  160.375   70.183    0.247    0.505    5.611
  431.538  160.333   67.967    0.257    0.496    5.752
  431.788  160.399   69.764    0.270    0.482    5.759
  432.038  160.457   72.048    0.283    0.474    5.589
  432.288  160.619   70.741    0.294    0.477    5.269
  432.538  160.670   66.582    0.304    0.476    5.141
  432.788  160.520   61.205    0.300    0.472    5.045
  433.038  160.070   59.415    0.287    0.484    5.078
  433.288  159.921   59.691    0.295    0.493    5.159
  433.538  159.873   61.062    0.289    0.484    5.167
  433.788  159.825   62.796    0.285    0.486    5.115
  434.038  159.680   64.475    0.307    0.488    4.974
  434.288  158.199   64.022    0.332    0.480    4.722
  434.538  159.692   60.712    0.326    0.461    4.477
  434.788  161.088   58.861    0.318    0.531    4.359
  435.038  161.768   58.103    0.304    0.557    4.177
  435.288  163.886   61.969    0.271    0.543    3.980
  435.538  168.363   68.201    0.234    0.512    3.779
