~VERSION INFORMATION
 VERS.                 2.0:   CWLS LOG ASCII STANDARD -VERSION 2.0
 WRAP.                  NO:   ONE LINE PER DEPTH STEP
~WELL INFORMATION BLOCK
#MNEM.UNIT           DATA                    DESCRIPTION OF MNEMONIC
#---------    -------------------            -------------------------------
# Generated from Intellog Unique Number	CW_73_75/WELL/2748
WELL.         UNEX ET AL MITSUE 12-20        : Well_name    - WELL
LOC .         00/12-20-073-05W5/0            : Location     - LOCATION
UWI .         00/12-20-073-05W5/0            : Uwi          - UNIQUE WELL ID
ENTR.         JAYE                           : Entered      - ENTERED BY
SRVC.         SCHLUMBERGER                   : Scn          - SERVICE COMPANY
DATE.         15 JAN 77                      : Date         - LOG DATE
STRT.M        365.76                         : top_depth    - START DEPTH
STOP.M        612.76                         : bot_depth    - STOP DEPTH
STEP.M        0.25                           : increment    - STEP LENGTH
 NULL. -999.2500:NULL Value
~CURVE INFORMATION BLOCK
#MNEM UNIT       ERCB CURVE CODE    CURVE DESCRIPTION
#-----------   ------------------   ----------------------------------
DEPT.M        00 001 00 00         : DEPTH        - DEPTH
DPHI.V/V      00 890 00 00         : PHID         - DENSITY POROSITY (SANDSTONE)
NPHI.V/V      00 330 00 00         : PHIN         - NEUTRON POROSITY (SANDSTONE)
GR  .API      00 310 00 00         : GR           - GAMMA RAY
CALI.MM       00 280 01 00         : CAL          - CALIPER
ILD .OHMM     00 120 00 00         : RESD         - DEEP RESISTIVITY (DIL)
~PARAMETER INFORMATION
#MNEM.UNIT           DATA             DESCRIPTION OF MNEMONIC
#---------         -----------     ------------------------------
GL  .M        577.291              : gl           - GROUND LEVEL ELEVATION
EREF.M        581.254              : kb           - ELEVATION OF DEPTH REFERENCE
DATM.M        577.291              : datum        - DATUM ELEVATION
TDD .M        1689.2               : tdd          - TOTAL DEPTH DRILLER
RUN .         ONE                  : Run          - RUN NUMBER
BASE.         EDM                  : Branch       - HOME BASE OF LOGGING UNIT
MATR.         SANDSTONE            : Logunit      - NEUTRON MATRIX
TMAX.C        51.1111              : BHT          - MAXIMUM RECORDED TEMPERATURE
BHTD.M        1688.29              : BHTDEP       - MAXIMUM RECORDED TEMPERATURE
RMT .C        17.7778              : MDTP         - TEMPERATURE OF MUD
MUDD.KG/M     0                    : MWT          - MUD DENSITY
NEUT.         1                    : NEUTRON      - NEUTRON TYPE
RESI.         0                    : RESIST       - RESISTIVITY TYPE
RM  .OHMM     0.75                 : RM           - RESISTIVITY OF MUD
RMC .OHMM     0                    : RMC          - RESISTIVITY OF MUD CAKE
RMF .OHMM     0.55                 : RMF          - RESISTIVITY OF MUD FILTRATE
SUFT.C        0                    : SUFT         - SURFACE TEMPERATURE
~A  DEPTH     PHID     PHIN       GR      CAL     RESD
# ...
  511.760    0.223    0.444   73.531  261.516    5.361
  512.010    0.227    0.448   68.970  261.150    5.343
  512.260    0.241    0.437   69.569  259.405    5.314
  512.510    0.253    0.422   72.681  258.119    5.266
  512.760    0.263    0.428   74.571  257.295    5.229
  513.010    0.261    0.449   72.725  256.242    5.181
  513.260    0.255    0.453   66.261  255.992    5.279
  513.510    0.223    0.429   60.954  251.602    5.399
  513.760    0.187    0.386   58.497  252.962    5.593
  514.010    0.112    0.356   61.881  257.657    5.901
  514.260    0.131    0.302   62.275  261.316    6.205
  514.510    0.174    0.383   61.857  254.281    6.428
  514.760    0.221    0.404   62.252  250.234    6.037
  515.010    0.267    0.405   63.938  249.642    5.365
  515.260    0.255    0.399   69.834  250.197    4.965
  515.510    0.261    0.406   72.674  252.130    4.595
  515.760    0.219    0.419   71.711  257.629    4.332
  516.010    0.191    0.435   74.280  266.117    4.176
  516.260    0.182    0.443   71.349  268.628    4.247
  516.510    0.227    0.421   65.972  260.674    4.407
  516.760    0.247    0.408   65.008  264.448    4.720
  517.010    0.267    0.411   67.985  271.098    5.046
  517.260    0.267    0.423   70.417  274.522    5.247
  517.510    0.237    0.426   72.307  276.118    5.257
  517.760    0.241    0.420   72.635  278.742    5.268
  518.010    0.208    0.411   72.080  287.575    5.269
  518.260    0.201    0.404   71.592  295.948    5.309
  518.510    0.197    0.398   68.865  300.068    5.379
  518.760    0.191    0.396   68.649  301.198    5.440
  519.010    0.204    0.413   70.198  296.805    5.492
  519.260    0.219    0.455   71.816  293.336    5.493
  519.510    0.233    0.430   73.500  291.938    5.464
  519.760    0.230    0.405   75.188  293.412    5.424
  520.010    0.200    0.394   79.521  297.648    5.316
  520.260    0.179    0.407   83.380  304.642    5.230
  520.510    0.191    0.420   83.573  301.057    5.192
  520.760    0.193    0.407   78.944  302.645    5.155
  521.010    0.183    0.400   74.450  305.502    5.109
  521.260    0.155    0.398   72.129  305.481    5.053
  521.510    0.158    0.409   74.629  304.771    4.934
  521.760    0.189    0.427   77.604  298.772    4.836
  522.010    0.205    0.443   78.204  294.383    4.696
  522.260    0.217    0.441   74.119  299.879    4.602
  522.510    0.224    0.450   74.650  299.632    4.612
  522.760    0.229    0.431   75.725  289.723    4.698
  523.010    0.219    0.410   74.559  297.177    4.958
  523.260    0.206    0.413   74.343  291.178    5.146
  523.510    0.219    0.432   72.498  289.777    5.400
  523.760    0.227    0.421   72.214  292.057    5.646
  524.010    0.222    0.394   75.189  292.957    5.564
  524.260    0.211    0.403   78.436  307.425    5.197
  524.510    0.194    0.428   78.085  312.692    4.855
  524.760    0.213    0.415   75.223  313.936    4.552
  525.010    0.213    0.428   77.383  314.263    4.339
  525.260    0.196    0.443   80.427  314.589    4.300
  525.510    0.182    0.431   80.823  313.649    4.373
  525.760    0.196    0.436   78.978  309.373    4.606
  526.010    0.208    0.452   75.298  304.410    4.915
  526.260    0.224    0.437   77.255  299.672    5.129
  526.510    0.207    0.424   79.959  299.996    5.121
  526.760    0.208    0.431   81.103  302.969    5.009
  527.010    0.213    0.433   82.856  308.238    4.873
  527.260    0.201    0.437   84.746  311.666    4.646
  527.510    0.188    0.453   87.042  313.253    4.412
  527.760    0.182    0.463   88.863  313.698    4.292
  528.010    0.176    0.480   90.006  312.984    4.246
  528.260    0.164    0.468   89.111  310.322    4.262
  528.510    0.179    0.446   87.878  304.784    4.279
  528.760    0.195    0.428   87.052  298.784    4.360
  529.010    0.186    0.423   84.935  292.093    4.525
  529.260    0.187    0.423   80.305  285.863    4.783
  529.510    0.223    0.416   81.787  281.477    5.095
  529.760    0.223    0.421   79.059  275.360    5.337
  530.010    0.242    0.446   74.362  270.512    5.673
  530.260    0.221    0.433   69.122  265.779    6.076
  530.510    0.223    0.401   64.967  264.722    6.122
  530.760    0.227    0.374   65.428  265.623    5.761
  531.010    0.188    0.356   66.097  268.706    5.553
  531.260    0.156    0.334   66.766  270.639    5.442
  531.510    0.195    0.349   67.364  264.758    5.504
  531.760    0.248    0.400   68.710  258.299    5.577
  532.010    0.258    0.415   69.445  258.278    5.599
  532.260    0.234    0.412   70.657  265.270    5.528
  532.510    0.240    0.405   73.767  272.612    5.368
  532.760    0.218    0.428   79.053  282.018    4.832
  533.010    0.179    0.458   89.566  288.782    4.231
  533.260    0.174    0.462   82.832  295.086    3.989
  533.510    0.197    0.455   75.961  293.800    3.733
  533.760    0.182    0.465   78.122  291.826    3.506
  534.010    0.191    0.466   82.728  291.805    3.361
  534.260    0.229    0.447   83.531  293.166    3.210
  534.510    0.198    0.464   83.519  297.516    3.071
  534.760    0.190    0.492   84.523  310.835    2.911
  535.010    0.221    0.492   84.852  325.533    2.817
  535.260    0.204    0.485   84.434  338.160    2.755
  535.510    0.246    0.475   82.249  338.486    2.807
  535.760    0.181    0.460   84.002  302.705    2.855
  536.010    0.156    0.445   83.514  301.303    2.914
  536.260    0.173    0.467   80.992  303.815    2.980
  536.510    0.197    0.497   76.701  303.792    3.093
  536.760    0.230    0.521   69.832  298.140    3.240
  537.010    0.266    0.480   71.040  295.590    3.457
  537.260    0.227    0.462   73.881  298.099    3.695
  537.510    0.227    0.447   78.690  301.415    3.856
  537.760    0.173    0.464   82.685  304.728    4.017
  538.010    0.172    0.476   86.952  305.397    4.116
  538.260    0.160    0.474   86.329  304.572    4.139
  538.510    0.166    0.449   81.631  302.942    4.163
  538.760    0.183    0.430   79.854  296.713    4.218
  539.010    0.199    0.417   80.792  296.004    4.274
  539.260    0.180    0.417   82.004  297.824    4.322
  539.510    0.202    0.433   83.961  301.250    4.364
  539.760    0.202    0.447   84.696  303.875    4.372
  540.010    0.184    0.444   84.819  304.661    4.349
  540.260    0.198    0.431   84.875  304.756    4.334
  540.510    0.189    0.445   84.183  304.045    4.367
  540.760    0.195    0.469   80.846  303.568    4.352
  541.010    0.204    0.467   74.450  298.373    4.360
  541.260    0.216    0.460   71.043  283.865    4.377
  541.510    0.239    0.439   72.932  277.635    4.402
  541.760    0.242    0.429   74.618  277.154    4.469
  542.010    0.249    0.438   72.977  278.401    4.570
  542.260    0.273    0.442   65.496  275.390    4.673
  542.510    0.245    0.442   62.361  271.807    4.797
  542.760    0.220    0.446   62.008  269.141    4.969
  543.010    0.272    0.452   64.442  268.201    5.176
  543.260    0.301    0.452   67.892  269.677    5.362
  543.510    0.289    0.435   72.362  272.990    5.463
  543.760    0.247    0.411   76.493  276.420    5.276
  544.010    0.238    0.403   77.771  281.113    4.811
  544.260    0.236    0.414   78.438  285.230    4.347
  544.510    0.215    0.423   77.272  283.718    4.031
  544.760    0.204    0.428   78.414  289.101    3.914
  545.010    0.162    0.434   82.002  292.529    3.922
  545.260    0.172    0.442   83.824  292.513    3.974
  545.510    0.184    0.448   80.960  285.364    4.064
  545.760    0.190    0.435   81.490  288.445    4.163
  546.010    0.188    0.406   83.788  292.908    4.210
  546.260    0.182    0.413   86.153  295.535    4.235
  546.510    0.192    0.419   86.276  295.515    4.259
  546.760    0.210    0.426   84.566  294.918    4.268
  547.010    0.178    0.439   82.109  294.556    4.245
  547.260    0.183    0.425   80.672  293.958    4.199
  547.510    0.196    0.411   79.846  292.329    4.115
  547.760    0.185    0.406   84.655  290.471    4.026
  548.010    0.182    0.415   88.174  288.612    3.953
