~VERSION INFORMATION
 VERS.                 2.0:   CWLS LOG ASCII STANDARD -VERSION 2.0
 WRAP.                  NO:   ONE LINE PER DEPTH STEP
~WELL INFORMATION BLOCK
#MNEM.UNIT           DATA                    DESCRIPTION OF MNEMONIC
#---------    -------------------            -------------------------------
# Generated from Intellog Unique Number	CW_70_72/WELL/1052
NULL.         -999.25                        : NULL_VALUE
WELL.         G.P.D. SMITH 11-03             : Well_name    - WELL              
LOC .         11-03-072-01W5                 : Location     - LOCATION          
UWI .         00/11-03-072-01W5/0            : Uwi          - UNIQUE WELL ID    
ENTR.         JAYE                           : Entered      - ENTERED BY        
SRVC.         SCHLUMBERGER                   : Scn          - SERVICE COMPANY   
DATE.         30 JULY 76                     : Date         - LOG DATE          
STRT.M        435.864                        : top_depth    - START DEPTH       
STOP.M        694.864                        : bot_depth    - STOP DEPTH        
STEP.M        0.25                           : increment    - STEP LENGTH       
~CURVE INFORMATION BLOCK
#MNEM UNIT       ERCB CURVE CODE    CURVE DESCRIPTION
#-----------   ------------------   ----------------------------------
DEPT.M        00 001 00 00         : DEPTH        - DEPTH                       
DPHI.V/V      00 890 00 00         : PHID         - DENSITY POROSITY (SANDSTONE)
NPHI.V/V      00 330 00 00         : PHIN         - NEUTRON POROSITY (SANDSTONE)
GR  .API      00 310 00 00         : GR           - GAMMA RAY                   
CALI.MM       00 280 01 00         : CAL          - CALIPER                     
ILD .OHMM     00 120 00 00         : RESD         - DEEP RESISTIVITY (DIL)      
~PARAMETER INFORMATION       
#MNEM.UNIT           DATA             DESCRIPTION OF MNEMONIC
#---------         -----------     ------------------------------
GL  .M        635.203              : gl           - GROUND LEVEL ELEVATION      
EREF.M        638.861              : kb           - ELEVATION OF DEPTH REFERENCE
DATM.M        635.203              : datum        - DATUM ELEVATION             
TDD .M        719.328              : tdd          - TOTAL DEPTH DRILLER         
RUN .         ONE                  : Run          - RUN NUMBER                  
BASE.         EDM                  : Branch       - HOME BASE OF LOGGING UNIT   
MUD .         GEL                  : Mud_type     - MUD TYPE                    
MATR.         SANDSTONE            : Logunit      - NEUTRON MATRIX              
TMAX.C        36.1111              : BHT          - MAXIMUM RECORDED TEMPERATURE
BHTD.M        719.938              : BHTDEP       - MAXIMUM RECORDED TEMPERATURE
RMT .C        15.5556              : MDTP         - TEMPERATURE OF MUD          
MUDD.KG/M     1164                 : MWT          - MUD DENSITY                 
NEUT.         1                    : NEUTRON      - NEUTRON TYPE                
RESI.         0                    : RESIST       - RESISTIVITY TYPE            
RM  .OHMM     5.56                 : RM           - RESISTIVITY OF MUD          
RMC .OHMM     0                    : RMC          - RESISTIVITY OF MUD CAKE     
RMF .OHMM     5.16                 : RMF          - RESISTIVITY OF MUD FILTRATE 
SUFT.C        0                    : SUFT         - SURFACE TEMPERATURE         
~A  DEPTH     PHID     PHIN       GR      CAL     RESD
# ...
  654.864    0.117    0.344   80.289  169.476    8.533
  655.114    0.132    0.347   77.547  169.846    7.947
  655.364    0.152    0.335   67.599  169.560    7.071
  655.614    0.173    0.322   53.101  167.114    6.212
  655.864    0.195    0.290   39.880  164.453    5.358
  656.114    0.213    0.263   26.253  162.875    4.367
  656.364    0.135    0.231   20.189  161.838    3.547
  656.614    0.087    0.215   16.988  161.665    3.672
  656.864    0.055    0.196   15.681  162.358    4.656
  657.114    0.027    0.126   15.547  162.941    7.836
  657.364    0.007    0.094   15.618  163.523   11.970
  657.614    0.020    0.085   16.255  164.541   16.629
  657.864    0.011    0.094   16.991  165.771   24.269
  658.114   -0.009    0.110   18.133  167.763   35.291
  658.364    0.001    0.136   20.302  169.428   43.223
  658.614    0.005    0.162   22.623  169.364   39.167
  658.864    0.032    0.193   26.425  168.219   30.500
  659.114    0.070    0.229   30.228  166.962   23.322
  659.364    0.122    0.262   34.901  163.110   18.530
  659.614    0.114    0.294   41.771  159.907   15.438
  659.864    0.098    0.310   50.585  159.520   13.075
  660.114    0.080    0.334   62.874  161.296   10.619
  660.364    0.092    0.358   76.902  164.256    8.864
  660.614    0.181    0.383   88.732  167.654    7.815
  660.864    0.179    0.415   97.138  170.295    6.953
  661.114    0.144    0.413  106.102  172.072    6.335
  661.364    0.142    0.398  109.752  173.193    5.879
  661.614    0.109    0.391  108.445  173.888    5.586
  661.864    0.085    0.371  102.534  174.581    5.638
  662.114    0.061    0.350   94.937  175.054    6.010
  662.364    0.072    0.336   92.146  174.884    6.526
  662.614    0.136    0.344   91.553  174.707    6.818
  662.864    0.137    0.324   86.921  174.318    6.970
  663.114    0.137    0.288   80.500  172.417    6.882
  663.364    0.191    0.288   67.535  166.830    6.374
  663.614    0.198    0.313   67.659  163.846    5.947
  663.864    0.193    0.312   71.361  165.407    5.468
  664.114    0.170    0.309   74.705  167.391    5.065
  664.364    0.165    0.301   78.149  168.842    4.911
  664.614    0.147    0.302   82.056  169.427    5.029
  664.864    0.132    0.315   85.654  170.126    5.169
  665.114    0.131    0.327   85.726  170.597    5.362
  665.364    0.149    0.330   80.684  171.289    5.832
  665.614    0.185    0.317   70.173  170.573    6.309
  665.864    0.192    0.306   59.407  166.505    6.975
  666.114    0.198    0.305   50.021  165.470    7.657
  666.364    0.239    0.310   50.501  165.942    7.856
  666.614    0.223    0.316   52.363  166.530    7.574
  666.864    0.200    0.321   54.635  167.331    6.801
  667.114    0.215    0.325   57.518  168.240    6.063
  667.364    0.213    0.328   60.246  169.146    5.365
  667.614    0.203    0.329   62.668  169.730    4.861
  667.864    0.223    0.325   64.122  170.203    4.528
  668.114    0.211    0.323   66.240  171.013    4.232
  668.364    0.203    0.326   69.018  171.373    4.066
  668.614    0.181    0.333   74.201  171.857    4.164
  668.864    0.163    0.343   79.078  172.114    4.512
  669.114    0.134    0.354   82.779  172.377    4.980
  669.364    0.092    0.366   88.834  172.737    5.527
  669.614    0.072    0.382   92.329  173.213    6.022
  669.864    0.054    0.400   91.991  173.798    6.527
  670.114    0.028    0.412   86.285  174.274    6.920
  670.364    0.003    0.406   82.524  174.317    7.048
  670.614    0.144    0.332   88.167  174.146    6.896
  670.864    0.145    0.333   92.329  173.972    6.613
  671.114    0.142    0.346   96.184  174.012    6.318
  671.364    0.130    0.361  101.215  174.164    6.081
  671.614    0.115    0.369  104.046  174.317    5.993
  671.864    0.100    0.334  107.288  174.366    5.917
  672.114    0.105    0.329  103.319  174.401    5.832
  672.364    0.080    0.331   95.007  174.445    5.674
  672.614    0.090    0.324   93.647  174.380    5.532
  672.864    0.081    0.314   94.487  174.313    5.392
  673.114    0.082    0.324   96.295  173.821    5.315
  673.364    0.079    0.344   99.181  174.079    5.373
  673.614    0.105    0.356  100.629  175.201    5.433
  673.864    0.110    0.336  102.030  176.222    5.564
  674.114    0.115    0.322  101.539  175.504    5.814
  674.364    0.124    0.331   96.346  174.464    6.008
  674.614    0.141    0.362   91.458  174.837    6.244
  674.864    0.118    0.384   94.751  175.525    6.382
  675.114    0.113    0.416  100.806  176.112    6.441
  675.364    0.115    0.413  103.789  176.596    6.360
  675.614    0.117    0.382  104.832  176.844    6.143
  675.864    0.101    0.364  101.785  177.002    5.923
  676.114    0.076    0.378   98.688  177.259    5.753
  676.364    0.132    0.381   98.709  177.190    5.733
  676.614    0.065    0.381  101.897  176.695    5.849
  676.864    0.052    0.394  106.365  175.980    5.947
  677.114    0.047    0.421  103.013  175.270    5.936
  677.364    0.105    0.437  102.367  175.309    5.745
  677.614    0.084    0.438  103.922  175.787    5.350
  677.864    0.044    0.418  107.060  176.153    4.902
  678.114    0.113    0.396  109.892  178.145    4.598
  678.364    0.062    0.407  114.155  181.649    4.458
  678.614    0.030    0.430  116.271  185.156    4.557
  678.864    0.081    0.463  114.044  184.874    4.633
  679.114    0.122    0.438  111.611  184.592    4.693
  679.364    0.103    0.428  111.325  184.527    4.710
  679.614    0.080    0.417  109.760  177.212    4.677
  679.864    0.064    0.429  109.218  172.278    4.584
  680.114    0.110    0.447  109.545  175.567    4.468
  680.364    0.082    0.439  110.282  183.408    4.340
  680.614    0.066    0.410  110.200  185.499    4.200
  680.864    0.090    0.418  106.180  183.921    3.962
  681.114    0.083    0.419   99.914  176.604    3.697
  681.364    0.053    0.417   96.815  172.648    3.455
  681.614    0.035    0.410   96.427  172.046    3.200
  681.864    0.076    0.406   97.877  172.191    3.019
  682.114    0.058    0.403  100.403  173.756    2.938
  682.364    0.087    0.394   97.920  175.420    2.943
  682.614    0.131    0.372   89.198  176.324    3.070
  682.864    0.111    0.351   83.952  176.261    3.308
  683.114    0.088    0.327   75.333  175.545    3.712
  683.364    0.096    0.310   67.634  174.179    3.872
  683.614    0.141    0.298   47.410  172.604    3.502
  683.864    0.201    0.307   32.861  171.560    2.999
  684.114    0.259    0.324   22.964  170.849    2.544
  684.364    0.276    0.334   15.112  170.570    2.112
  684.614    0.295    0.347   17.947  170.395    1.907
  684.864    0.274    0.326   21.800  170.111    1.763
  685.114    0.239    0.323   25.704  169.722    1.856
  685.364    0.195    0.335   34.211  168.574    2.113
  685.614    0.162    0.354   40.826  166.888    2.414
  685.864    0.146    0.399   48.514  166.394    2.743
  686.114    0.068    0.451   59.117  166.323    3.056
  686.364    0.042    0.436   68.901  166.479    3.504
  686.614    0.020    0.423   79.965  167.169    3.826
  686.864   -0.003    0.427   76.764  168.186    3.947
  687.114   -0.000    0.433   67.482  169.635    3.890
  687.364   -0.010    0.411   61.468  171.951    3.792
  687.614    0.030    0.382   54.791  183.461    3.703
  687.864    0.173    0.381   48.013  199.736    3.623
  688.114    0.195    0.390   39.753  189.067    3.525
  688.364    0.200    0.354   34.915  168.010    3.443
  688.614    0.154    0.357   34.016  159.507    3.487
  688.864    0.157    0.368   35.316  159.224    3.718
  689.114    0.186    0.325   35.948  159.807    4.051
  689.364    0.176    0.308   33.515  159.744    4.655
  689.614    0.182    0.294   28.474  159.135    5.701
  689.864    0.154    0.279   21.593  159.938    6.420
  690.114    0.129    0.288   17.627  163.448    6.538
  690.364    0.133    0.309   16.678  166.517    5.101
  690.614    0.182    0.328   17.668  167.532    4.305
  690.864    0.161    0.303   20.141  167.577    3.586
  691.114    0.129    0.314   22.668  166.107    3.065
