~VERSION INFORMATION
 VERS.                 2.0:   CWLS LOG ASCII STANDARD -VERSION 2.0
 WRAP.                  NO:   ONE LINE PER DEPTH STEP
~WELL INFORMATION BLOCK
#MNEM.UNIT           DATA                    DESCRIPTION OF MNEMONIC
#---------    -------------------            -------------------------------
# Generated from Intellog Unique Number	CS_77_79/WELL/993
WELL.         BVX ET AL PORTAGE              : Well_name    - WELL
LOC .         00/11-09-079-15W4/0            : Location     - LOCATION
UWI .         00/11-09-079-15W4/0            : Uwi          - UNIQUE WELL ID
ENTR.         JHS                            : Entered      - ENTERED BY
SRVC.         SCHLUMBERGER                   : Scn          - SERVICE COMPANY
STRT.M        220                            : top_depth    - START DEPTH
STOP.M        453                            : bot_depth    - STOP DEPTH
STEP.M        0.25                           : increment    - STEP LENGTH
 NULL. -999.2500:NULL Value
~CURVE INFORMATION BLOCK
#MNEM UNIT       ERCB CURVE CODE    CURVE DESCRIPTION
#-----------   ------------------   ----------------------------------
DEPT.M        00 001 00 00         : DEPTH        - DEPTH
DPHI.V/V      00 890 00 00         : PHID         - DENSITY POROSITY (LIMESTONE)
NPHI.V/V      00 330 00 00         : PHIN         - NEUTRON POROSITY (LIMESTONE)
GR  .API      00 310 00 00         : GR           - GAMMA RAY
ILD .OHMM     00 120 00 00         : RESD         - DEEP RESISTIVITY (DIL)
RHOB.KG/M3    00 350 00 00         : DENS         - BULK DENSITY
~PARAMETER INFORMATION
#MNEM.UNIT           DATA             DESCRIPTION OF MNEMONIC
#---------         -----------     ------------------------------
GL  .M        627.7                : gl           - GROUND LEVEL ELEVATION
EREF.M        630.7                : kb           - ELEVATION OF DEPTH REFERENCE
DATM.M        630.7                : datum        - DATUM ELEVATION
TDD .M        460                  : tdd          - TOTAL DEPTH DRILLER
RUN .         ONE                  : Run          - RUN NUMBER
ENG .         BILL                 : Engineer     - RECORDING ENGINEER
WIT .         JIM                  : Witness      - WITNESSED BY
MUD .         GEL                  : Mud_type     - MUD TYPE
MATR.         LIMESTONE            : Logunit      - NEUTRON MATRIX
TMAX.C        22                   : BHT          - MAXIMUM RECORDED TEMPERATURE
BHTD.M        460                  : BHTDEP       - MAXIMUM RECORDED TEMPERATURE
MATR.         1                    : LOGUNIT      - NEUTRON MATRIX
RMT .C        25                   : MDTP         - TEMPERATURE OF MUD
NEUT.         1                    : NEUTRON      - NEUTRON TYPE
RESI.         0                    : RESIST       - RESISTIVITY TYPE
RMC .OHMM     0.25                 : RMC          - RESISTIVITY OF MUD CAKE
RMF .OHMM     0.25                 : RMF          - RESISTIVITY OF MUD FILTRATE
SUFT.C        15                   : SUFT         - SURFACE TEMPERATURE
~A  DEPTH     PHID     PHIN       GR     RESD     DENS
# ...
  402.500    0.227    0.471   81.785    5.113 2322.140
  402.750    0.181    0.496   80.583    4.320 2401.300
  403.000    0.152    0.448   69.628    4.159 2449.230
  403.250    0.132    0.324   59.284    4.826 2484.690
  403.500    0.144    0.291   53.814    7.138 2463.950
  403.750    0.184    0.295   53.835   11.591 2395.360
  404.000    0.261    0.306   53.858   18.471 2264.320
  404.250    0.301    0.301   45.343   22.671 2195.720
  404.500    0.280    0.302   45.972   26.801 2231.180
  404.750    0.270    0.310   52.700   29.405 2247.900
  405.000    0.259    0.326   62.479   30.503 2266.710
  405.250    0.243    0.344   71.033   28.828 2293.850
  405.500    0.231    0.363   83.858   24.356 2314.710
  405.750    0.207    0.382   98.514   18.742 2356.420
  406.000    0.215    0.381  106.464   17.062 2341.930
  406.250    0.238    0.366  104.655   18.032 2302.460
  406.500    0.243    0.355   97.355   20.538 2294.220
  406.750    0.226    0.351   85.791   23.832 2323.430
  407.000    0.205    0.338   78.502   26.645 2358.880
  407.250    0.182    0.326   76.685   28.695 2398.490
  407.500    0.200    0.342   77.317   29.768 2367.350
  407.750    0.232    0.361   85.267   27.091 2313.320
  408.000    0.215    0.363   91.384   26.090 2342.540
  408.250    0.214    0.369   92.621   22.879 2344.700
  408.500    0.228    0.360   92.642   20.829 2319.780
  408.750    0.214    0.345   96.323   18.962 2344.840
  409.000    0.199    0.341   98.782   17.587 2369.900
  409.250    0.187    0.333   95.145   16.619 2390.790
  409.500    0.167    0.322   87.849   17.567 2424.160
  409.750    0.155    0.286   79.942   19.638 2445.030
  410.000    0.150    0.162   70.816   24.553 2453.450
  410.250    0.264    0.197   62.304   31.281 2257.880
  410.500    0.326    0.285   63.543   40.597 2151.820
  410.750    0.296    0.329   71.489   44.538 2203.930
  411.000    0.235    0.341   78.214   43.685 2308.080
  411.250    0.226    0.348   78.852   40.519 2322.700
  411.500    0.225    0.348   76.428   36.890 2324.880
  411.750    0.230    0.349   70.961   32.961 2316.620
  412.000    0.225    0.354   69.153   31.145 2325.010
  412.250    0.203    0.352   77.101   29.993 2362.560
  412.500    0.187    0.344   82.000   28.341 2389.690
  412.750    0.170    0.343   85.678   26.784 2418.910
  413.000    0.142    0.339   89.361   23.928 2466.830
  413.250    0.119    0.328   89.378   22.617 2506.460
  413.500    0.097    0.328   83.304   20.975 2543.980
  413.750    0.095    0.359   85.759   19.452 2548.220
  414.000    0.177    0.357   90.661   18.381 2406.790
  414.250    0.183    0.353   91.291   17.369 2396.440
  414.500    0.188    0.352   87.044   17.041 2388.210
  414.750    0.184    0.355   80.969   17.028 2394.530
  415.000    0.187    0.351   77.329   17.343 2390.430
  415.250    0.209    0.345   72.472   17.988 2353.050
  415.500    0.229    0.344   71.272   18.666 2317.750
  415.750    0.242    0.351   73.128   19.730 2297.020
  416.000    0.246    0.340   73.750   21.643 2288.770
  416.250    0.241    0.335   73.172   23.307 2297.180
  416.500    0.234    0.333   72.573   24.182 2309.720
  416.750    0.226    0.336   71.984   25.561 2324.370
  417.000    0.223    0.350   71.394   27.015 2328.600
  417.250    0.235    0.358   67.756   29.092 2307.880
  417.500    0.246    0.365   67.170   30.748 2289.210
  417.750    0.251    0.359   69.628   31.903 2280.970
  418.000    0.250    0.353   71.478   31.876 2283.130
  418.250    0.250    0.349   70.890   32.463 2283.190
  418.500    0.269    0.347   67.859   33.677 2249.970
  418.750    0.290    0.342   64.833   34.944 2214.670
  419.000    0.286    0.343   64.243   37.630 2221.010
  419.250    0.287    0.352   62.434   40.519 2218.990
  419.500    0.302    0.348   60.021   42.042 2194.100
  419.750    0.307    0.342   61.870   44.438 2185.850
  420.000    0.293    0.343   61.887   46.967 2208.830
  420.250    0.282    0.354   61.304   47.824 2227.610
  420.500    0.264    0.350   60.108   46.914 2258.910
  420.750    0.254    0.343   60.732   46.888 2275.630
  421.000    0.255    0.339   63.805   47.741 2273.640
  421.250    0.277    0.320   66.869   48.611 2236.240
  421.500    0.305    0.276   69.938   52.353 2188.460
  421.750    0.333    0.191   66.912   58.518 2140.650
  422.000    0.372    0.153   61.444   69.185 2074.130
  422.250    0.402    0.147   63.299  102.336 2022.190
  422.500    0.395    0.158   60.877  169.283 2034.770
  422.750    0.386    0.177   55.406  196.420 2049.390
  423.000    0.377    0.183   53.597  211.529 2066.110
  423.250    0.370    0.195   54.844  215.400 2076.600
  423.500    0.379    0.207   50.596  211.301 2062.110
  423.750    0.364    0.230   47.566  195.971 2087.160
  424.000    0.347    0.303   45.146  181.791 2116.370
  424.250    0.322    0.387   44.555  174.974 2160.150
  424.500    0.303    0.402   40.924  181.570 2191.430
  424.750    0.296    0.405   39.113  210.680 2204.000
  425.000    0.304    0.387   42.791  438.144 2189.500
  425.250    0.291    0.391   47.688  508.501 2212.500
  425.500    0.286    0.394   48.323  579.202 2220.890
  425.750    0.285    0.370   44.678  780.784 2223.040
  426.000    0.305    0.358   35.554 1293.040 2187.740
  426.250    0.310    0.355   34.354 1198.910 2179.480
  426.500    0.314    0.371   37.427  808.523 2173.310
  426.750    0.303    0.382   40.493  823.117 2192.130
  427.000    0.299    0.382   44.174 1130.720 2198.440
  427.250    0.310    0.384   42.369 1108.840 2179.790
  427.500    0.317    0.389   39.340  936.092 2167.380
  427.750    0.309    0.382   38.747  805.172 2182.020
  428.000    0.299    0.382   37.551  705.676 2198.740
  428.250    0.292    0.383   36.959  654.443 2211.310
  428.500    0.294    0.361   36.982  552.523 2207.230
  428.750    0.292    0.349   40.661  449.348 2211.450
  429.000    0.285    0.375   42.510 1022.920 2221.940
  429.250    0.289    0.366   38.263 1328.390 2215.760
  429.500    0.302    0.362   32.793 1100.620 2192.950
  429.750    0.302    0.364   27.329  862.320 2193.030
  430.000    0.295    0.374   25.519  603.711 2205.640
  430.250    0.291    0.378   29.201  614.530 2211.920
  430.500    0.288    0.376   29.828  713.242 2218.230
  430.750    0.308    0.367   30.465  768.231 2182.930
  431.000    0.306    0.363   30.484  537.885 2187.180
  431.250    0.306    0.362   31.722  568.492 2187.250
  431.500    0.312    0.377   33.569  738.191 2176.920
  431.750    0.321    0.390   33.589  488.621 2160.350
  432.000    0.314    0.401   32.395  397.412 2172.910
  432.250    0.309    0.416   30.583  444.255 2181.320
  432.500    0.315    0.386   28.773  621.712 2170.960
  432.750    0.327    0.366   27.577  565.728 2150.230
  433.000    0.316    0.358   28.209  434.948 2169.060
  433.250    0.311    0.360   30.667  620.212 2177.430
  433.500    0.320    0.380   31.301  790.384 2162.950
  433.750    0.333    0.392   30.710 1007.220 2140.120
  434.000    0.339    0.396   30.121  746.027 2129.800
  434.250    0.332    0.407   30.750  441.394 2142.380
  434.500    0.332    0.411   31.993  297.648 2142.460
  434.750    0.342    0.407   34.450  297.440 2125.890
  435.000    0.337    0.416   33.865  372.061 2134.260
  435.250    0.321    0.421   33.277  664.092 2161.390
  435.500    0.329    0.421   33.298  830.629 2146.920
  435.750    0.341    0.408   34.538  701.285 2126.190
  436.000    0.349    0.401   36.388  259.869 2113.780
  436.250    0.341    0.403   38.232  240.910 2126.330
  436.500    0.333    0.422   40.689  245.269 2140.980
  436.750    0.327    0.437   44.373  199.456 2151.450
  437.000    0.322    0.439   46.833  192.002 2159.830
  437.250    0.312    0.439   44.411  268.674 2176.590
  437.500    0.307    0.432   37.116  383.082 2184.970
  437.750    0.309    0.402   34.088  461.467 2180.880
  438.000    0.314    0.392   32.279  461.174 2172.630
  438.250    0.314    0.386   31.080  435.689 2172.720
  438.500    0.325    0.385   29.273  389.023 2154.060
  438.750    0.319    0.385   29.290  388.661 2164.540
