~VERSION INFORMATION
 VERS.                 2.0:   CWLS LOG ASCII STANDARD -VERSION 2.0
 WRAP.                  NO:   ONE LINE PER DEPTH STEP
~WELL INFORMATION BLOCK
#MNEM.UNIT           DATA                    DESCRIPTION OF MNEMONIC
#---------    -------------------            -------------------------------
# Generated from Intellog Unique Number	CW_79_81/WELL/2492
WELL.         HB GODIN                       : Well_name    - WELL
LOC .         00/15-19-081-01W5/0            : Location     - LOCATION
UWI .         00/15-19-081-01W5/0            : Uwi          - UNIQUE WELL ID
ENTR.         MAX                            : Entered      - ENTERED BY
SRVC.         SCHLUMBERGER                   : Scn          - SERVICE COMPANY
STRT.M        243.84                         : top_depth    - START DEPTH
STOP.M        450.84                         : bot_depth    - STOP DEPTH
STEP.M        0.25                           : increment    - STEP LENGTH
 NULL. -999.2500:NULL Value
~CURVE INFORMATION BLOCK
#MNEM UNIT       ERCB CURVE CODE    CURVE DESCRIPTION
#-----------   ------------------   ----------------------------------
DEPT.M        00 001 00 00         : DEPTH        - DEPTH
ILD .OHMM     00 120 00 00         : RESD         - DEEP RESISTIVITY (DIL)
NPHI.V/V      00 330 00 00         : PHIN         - NEUTRON POROSITY (SANDSTONE)
DPHI.V/V      00 890 00 00         : PHID         - DENSITY POROSITY (SANDSTONE)
GR  .API      00 310 00 00         : GR           - GAMMA RAY
CALI.MM       00 280 01 00         : CAL          - CALIPER
~PARAMETER INFORMATION
#MNEM.UNIT           DATA             DESCRIPTION OF MNEMONIC
#---------         -----------     ------------------------------
GL  .M        586.13               : gl           - GROUND LEVEL ELEVATION
EREF.M        590.093              : kb           - ELEVATION OF DEPTH REFERENCE
DATM.M        586.13               : datum        - DATUM ELEVATION
TDD .M        501.091              : tdd          - TOTAL DEPTH DRILLER
RUN .         ONE                  : Run          - RUN NUMBER
ENG .         BILL                 : Engineer     - RECORDING ENGINEER
WIT .         JIM                  : Witness      - WITNESSED BY
MUD .         GEL                  : Mud_type     - MUD TYPE
MATR.         SANDSTONE            : Logunit      - NEUTRON MATRIX
TMAX.C        23.3333              : BHT          - MAXIMUM RECORDED TEMPERATURE
BHTD.M        501.091              : BHTDEP       - MAXIMUM RECORDED TEMPERATURE
MATR.         1                    : LOGUNIT      - NEUTRON MATRIX
RMT .C        11.1111              : MDTP         - TEMPERATURE OF MUD
NEUT.         1                    : NEUTRON      - NEUTRON TYPE
RESI.         0                    : RESIST       - RESISTIVITY TYPE
RMC .OHMM     7.55                 : RMC          - RESISTIVITY OF MUD CAKE
RMF .OHMM     3.88                 : RMF          - RESISTIVITY OF MUD FILTRATE
SUFT.C        -12.2222             : SUFT         - SURFACE TEMPERATURE
~A  DEPTH     RESD     PHIN     PHID       GR      CAL
# ...
  389.840   39.235    0.237    0.037   59.789  208.615
  390.090   35.574    0.263    0.060   60.998  207.873
  390.340   30.947    0.288    0.079   63.206  206.634
  390.590   24.220    0.289    0.065   66.478  208.768
  390.840   20.737    0.311    0.049   70.920  209.238
  391.090   19.743    0.347    0.141   78.487  208.494
  391.340   18.874    0.374    0.159   78.988  208.045
  391.590   19.150    0.368    0.152   75.372  208.303
  391.840   20.933    0.335    0.138   71.229  209.263
  392.090   24.516    0.314    0.109   71.335  210.848
  392.340   26.702    0.315    0.091   74.064  212.558
  392.590   25.208    0.357    0.146   77.155  211.814
  392.840   22.224    0.375    0.152   80.598  211.970
  393.090   17.825    0.389    0.180   84.275  213.020
  393.340   13.753    0.407    0.234   88.540  215.062
  393.590   10.412    0.433    0.264   95.600  219.314
  393.840    8.471    0.478    0.290  102.496  224.344
  394.090    7.997    0.517    0.304  104.646  227.989
  394.340    7.808    0.508    0.264  105.738  228.342
  394.590    7.845    0.495    0.223  105.653  229.192
  394.840    8.097    0.501    0.218  104.625  231.834
  395.090    8.737    0.518    0.272  103.297  236.581
  395.340    9.515    0.527    0.291  103.574  244.113
  395.590   10.534    0.524    0.318  104.782  233.005
  395.840   11.913    0.510    0.280  102.990  230.267
  396.090   13.463    0.485    0.231   99.609  230.120
  396.340   15.188    0.459    0.204   95.288  229.577
  396.590   18.206    0.445    0.214   89.571  228.450
  396.840   20.769    0.424    0.205   87.891  228.500
  397.090   21.410    0.399    0.184   90.978  228.956
  397.340   20.541    0.390    0.166   95.832  229.704
  397.590   18.369    0.394    0.163  101.516  230.952
  397.840   15.637    0.406    0.170  105.553  232.902
  398.090   12.602    0.432    0.168  103.940  235.173
  398.340   10.868    0.471    0.162  103.969  232.317
  398.590   10.186    0.464    0.164  104.707  230.378
  398.840    9.656    0.462    0.196  105.620  229.634
  399.090    9.497    0.473    0.207  106.124  229.291
  399.340    9.700    0.490    0.189  105.569  229.048
  399.590   10.120    0.492    0.177  103.055  229.025
  399.840   10.366    0.484    0.173  102.110  228.670
  400.090   10.529    0.484    0.172  105.903  228.718
  400.340   10.580    0.484    0.165  109.701  229.077
  400.590   10.554    0.484    0.171  112.440  229.329
  400.840   10.489    0.484    0.190  113.823  229.476
  401.090   10.460    0.488    0.200  113.152  230.030
  401.340   10.635    0.485    0.189  107.302  230.489
  401.590   10.959    0.479    0.178  100.984  230.946
  401.840   11.235    0.463    0.170   99.250  231.693
  402.090   11.455    0.443    0.174  100.576  232.541
  402.340   11.594    0.434    0.187  104.078  233.191
  402.590   11.611    0.459    0.192  109.331  233.340
  402.840   11.624    0.476    0.199  108.380  233.815
  403.090   11.636    0.480    0.199  105.591  233.874
  403.340   11.715    0.466    0.193  105.444  233.928
  403.590   11.771    0.454    0.181  106.651  234.177
  403.840   11.783    0.455    0.170  108.215  234.527
  404.090   11.818    0.473    0.179  109.139  234.512
  404.340   11.925    0.488    0.190  107.701  234.146
  404.590   11.936    0.498    0.197  106.556  233.408
  404.840   11.950    0.485    0.193  106.114  233.263
  405.090   11.965    0.470    0.192  107.202  233.117
  405.340   11.957    0.465    0.197  109.764  232.870
  405.590   11.870    0.471    0.203  113.108  232.847
  405.840   11.794    0.458    0.197  114.363  232.499
  406.090   11.637    0.449    0.187  116.751  232.143
  406.340   11.544    0.437    0.194  115.962  232.097
  406.590   11.389    0.430    0.207  113.756  232.750
  406.840   11.219    0.437    0.224  111.136  234.794
  407.090   11.430    0.477    0.256  107.615  238.987
  407.340   12.544    0.533    0.280  103.974  237.797
  407.590   14.690    0.488    0.313   99.058  229.882
  407.840   17.494    0.455    0.264   93.440  224.655
  408.090   20.679    0.407    0.202   90.177  220.923
  408.340   23.828    0.366    0.165   90.208  218.087
  408.590   26.262    0.403    0.168   91.826  215.745
  408.840   23.674    0.429    0.234   89.165  213.730
  409.090   21.536    0.410    0.212   86.844  212.981
  409.340   20.735    0.391    0.181   85.578  211.945
  409.590   20.387    0.369    0.140   86.666  211.400
  409.840   19.892    0.341    0.099   90.052  211.448
  410.090   18.447    0.314    0.078   94.673  211.604
  410.340   16.875    0.334    0.062   96.427  212.069
  410.590   14.572    0.388    0.111   95.747  212.515
  410.840   13.719    0.430    0.142   92.774  212.965
  411.090   13.735    0.436    0.159   86.569  213.419
  411.340   14.435    0.409    0.160   79.717  213.875
  411.590   15.904    0.382    0.125   80.647  214.669
  411.840   16.545    0.365    0.073   92.202  216.384
  412.090   16.204    0.418    0.089  100.940  217.627
  412.340   15.435    0.448    0.153  105.619  219.177
  412.590   13.684    0.463    0.197  107.533  220.033
  412.840   11.767    0.472    0.205  108.096  220.087
  413.090   10.506    0.488    0.218  108.502  220.140
  413.340    9.831    0.498    0.213  106.819  220.195
  413.590   10.061    0.503    0.208  106.377  220.259
  413.840   10.237    0.495    0.187  106.998  220.307
  414.090   10.435    0.483    0.179  106.678  220.354
  414.340   10.621    0.478    0.187  104.884  220.407
  414.590   10.667    0.489    0.187  102.465  220.388
  414.840   10.844    0.487    0.167  102.011  220.029
  415.090   11.179    0.465    0.181  103.454  220.087
  415.340   11.459    0.451    0.185  104.897  219.842
  415.590   11.642    0.451    0.189  105.046  219.895
  415.840   11.678    0.459    0.194  104.372  220.048
  416.090   11.491    0.458    0.190  105.020  219.565
  416.340   11.330    0.455    0.187  104.559  220.871
  416.590   11.018    0.453    0.182  106.002  220.919
  416.840   10.890    0.453    0.171  107.273  220.377
  417.090   10.980    0.457    0.169  106.836  220.031
  417.340   11.296    0.461    0.176  104.629  220.181
  417.590   11.944    0.456    0.176  101.194  220.566
  417.840   12.612    0.441    0.147   96.818  220.206
  418.090   13.380    0.399    0.133   97.790  220.259
  418.340   13.524    0.399    0.117   99.642  220.017
  418.590   13.195    0.421    0.121  102.142  219.871
  418.840   12.671    0.445    0.142  104.881  219.919
  419.090   12.044    0.459    0.150  107.715  219.977
  419.340   11.185    0.458    0.146  109.950  220.033
  419.590   10.560    0.443    0.145  111.864  220.091
  419.840   10.197    0.445    0.148  112.543  220.440
  420.090   10.026    0.452    0.144  109.986  220.690
  420.340    9.982    0.459    0.131  106.547  220.743
  420.590   10.011    0.464    0.115  109.480  220.891
  420.840   10.101    0.461    0.150  112.209  221.366
  421.090   10.112    0.461    0.150  110.829  221.818
  421.340   10.124    0.467    0.154  108.742  222.564
  421.590   10.283    0.469    0.155  107.125  222.617
  421.840   10.618    0.462    0.152  105.919  221.680
  422.090   11.096    0.437    0.138  103.695  220.070
  422.340   11.455    0.415    0.115  102.992  219.699
  422.590   11.550    0.408    0.132  105.141  218.960
  422.840   11.585    0.411    0.137  108.353  218.815
  423.090   11.640    0.415    0.142  111.562  219.267
  423.340   11.780    0.417    0.151  114.764  219.916
  423.590   12.113    0.419    0.155  118.842  219.975
  423.840   12.407    0.417    0.158  117.895  220.030
  424.090   12.973    0.411    0.169  110.870  219.684
  424.340   13.564    0.402    0.164  106.665  219.343
  424.590   14.236    0.396    0.154  103.869  218.599
  424.840   15.001    0.389    0.142  101.545  217.553
  425.090   15.839    0.360    0.108   99.033  216.986
  425.340   15.979    0.317    0.075   98.085  217.877
  425.590   15.537    0.354    0.119  102.358  219.120
  425.840   14.857    0.390    0.132  103.271  220.076
  426.090   13.815    0.418    0.140  103.538  220.533
