~VERSION INFORMATION
 VERS.                 2.0:   CWLS LOG ASCII STANDARD -VERSION 2.0
 WRAP.                  NO:   ONE LINE PER DEPTH STEP
~WELL INFORMATION BLOCK
#MNEM.UNIT           DATA                    DESCRIPTION OF MNEMONIC
#---------    -------------------            -------------------------------
# Generated from Intellog Unique Number	CS_67_68/WELL/800
WELL.         INTER-CITY MANUFACTURING       : Well_name    - WELL
LOC .         00/10-03-068-13W4/0            : Location     - LOCATION
UWI .         00/10-03-068-13W4/0            : Uwi          - UNIQUE WELL ID
ENTR.         SP                             : Entered      - ENTERED BY
SRVC.         SCHLUMBERGER                   : Scn          - SERVICE COMPANY
STRT.M        289.56                         : top_depth    - START DEPTH
STOP.M        463.310                        : bot_depth    - STOP DEPTH
STEP.M        0.25                           : increment    - STEP LENGTH
 NULL. -999.2500:NULL Value
~CURVE INFORMATION BLOCK
#MNEM UNIT       ERCB CURVE CODE    CURVE DESCRIPTION
#-----------   ------------------   ----------------------------------
DEPT.M        00 001 00 00         : DEPTH        - DEPTH
GR  .API      00 310 00 00         : GR           - GAMMA RAY
DPHI.V/V      00 890 00 00         : PHID         - DENSITY POROSITY (SANDSTONE)
NPHI.V/V      00 330 00 00         : PHIN         - NEUTRON POROSITY (SANDSTONE)
ILD .OHMM     00 120 00 00         : RESD         - DEEP RESISTIVITY (DIL)
~PARAMETER INFORMATION
#MNEM.UNIT           DATA             DESCRIPTION OF MNEMONIC
#---------         -----------     ------------------------------
GL  .M        582.473              : gl           - GROUND LEVEL ELEVATION
EREF.M        585.216              : kb           - ELEVATION OF DEPTH REFERENCE
DATM.M        582.473              : datum        - DATUM ELEVATION
TDD .M        466.344              : tdd          - TOTAL DEPTH DRILLER
RUN .         ONE                  : Run          - RUN NUMBER
ENG .         BILL                 : Engineer     - RECORDING ENGINEER
WIT .         JIM                  : Witness      - WITNESSED BY
MUD .         GEL                  : Mud_type     - MUD TYPE
MATR.         SANDSTONE            : Logunit      - NEUTRON MATRIX
TMAX.C        13.8889              : BHT          - MAXIMUM RECORDED TEMPERATURE
BHTD.M        466.344              : BHTDEP       - MAXIMUM RECORDED TEMPERATURE
MATR.         1                    : LOGUNIT      - NEUTRON MATRIX
RMT .C        25                   : MDTP         - TEMPERATURE OF MUD
NEUT.         1                    : NEUTRON      - NEUTRON TYPE
RESI.         0                    : RESIST       - RESISTIVITY TYPE
RMC .OHMM     0.25                 : RMC          - RESISTIVITY OF MUD CAKE
RMF .OHMM     0.25                 : RMF          - RESISTIVITY OF MUD FILTRATE
SUFT.C        15                   : SUFT         - SURFACE TEMPERATURE
~A  DEPTH       GR     PHID     PHIN     RESD
# ...
  420.060  108.094    0.209    0.518    1.847
  420.310  108.942    0.204    0.488    1.922
  420.560  111.260    0.200    0.465    2.016
  420.810  112.809    0.208    0.462    2.158
  421.060  111.482    0.198    0.467    2.314
  421.310  103.709    0.183    0.453    2.448
  421.560   92.978    0.148    0.430    2.615
  421.810   84.920    0.129    0.424    2.805
  422.060   83.353    0.139    0.423    2.996
  422.310   86.775    0.154    0.428    3.232
  422.560   84.996    0.163    0.437    3.443
  422.810   81.843    0.166    0.438    3.606
  423.060   77.664    0.106    0.388    3.732
  423.310   72.046    0.089    0.296    3.926
  423.560   68.797    0.081    0.294    4.199
  423.810   75.557    0.116    0.335    4.565
  424.060   81.960    0.156    0.375    4.776
  424.310   85.154    0.167    0.398    5.021
  424.560   88.004    0.168    0.402    4.973
  424.810   89.749    0.154    0.412    4.589
  425.060   88.678    0.169    0.421    4.262
  425.310   86.523    0.187    0.420    4.031
  425.560   85.711    0.173    0.415    3.899
  425.810   85.304    0.175    0.414    3.845
  426.060   87.524    0.187    0.413    3.840
  426.310   88.944    0.196    0.415    3.715
  426.560   85.442    0.180    0.422    3.779
  426.810   77.362    0.144    0.430    3.871
  427.060   73.499    0.036    0.422    4.268
  427.310   64.987    0.042    0.293    4.730
  427.560   71.586    0.144    0.297    5.172
  427.810   81.564    0.161    0.374    5.506
  428.060   86.133    0.158    0.383    5.664
  428.310   87.392    0.141    0.367    5.657
  428.560   83.475    0.133    0.355    5.395
  428.810   83.773    0.136    0.364    4.973
  429.060   86.794    0.156    0.381    4.650
  429.310   89.855    0.168    0.398    4.415
  429.560   89.307    0.187    0.402    4.184
  429.810   86.347    0.132    0.385    4.051
  430.060   86.710    0.157    0.388    3.950
  430.310   90.049    0.173    0.409    3.835
  430.560   92.531    0.179    0.420    3.741
  430.810   94.088    0.188    0.411    3.669
  431.060   93.690    0.193    0.408    3.610
  431.310   90.558    0.190    0.406    3.577
  431.560   85.821    0.178    0.406    3.539
  431.810   85.192    0.171    0.405    3.545
  432.060   87.954    0.160    0.413    3.581
  432.310   82.771    0.149    0.405    3.672
  432.560   83.943    0.132    0.386    3.798
  432.810   88.254    0.159    0.394    3.943
  433.060   88.865    0.189    0.415    4.053
  433.310   86.433    0.199    0.430    4.163
  433.560   89.385    0.201    0.423    4.264
  433.810   90.056    0.174    0.408    4.347
  434.060   86.111    0.164    0.412    4.410
  434.310   82.989    0.141    0.425    4.423
  434.560   81.127    0.098    0.390    4.352
  434.810   84.422    0.074    0.354    4.346
  435.060   88.183    0.137    0.379    4.418
  435.310   90.749    0.171    0.403    4.426
  435.560   92.893    0.176    0.417    4.347
  435.810   90.018    0.167    0.421    4.226
  436.060   84.870    0.151    0.402    4.125
  436.310   84.094    0.142    0.378    4.000
  436.560   87.968    0.155    0.387    3.853
  436.810   90.963    0.201    0.433    3.326
  437.060   93.828    0.215    0.467    2.835
  437.310   95.749    0.213    0.492    2.488
  437.560   97.253    0.203    0.495    2.251
  437.810   97.898    0.205    0.481    2.088
  438.060   96.781    0.217    0.472    1.996
  438.310   98.922    0.204    0.477    1.950
  438.560  102.164    0.206    0.487    1.954
  438.810  103.227    0.186    0.482    1.983
  439.060   99.570    0.185    0.490    2.028
  439.310   97.113    0.181    0.497    2.058
  439.560   98.803    0.171    0.499    2.103
  439.810   99.490    0.191    0.481    2.140
  440.060   97.949    0.208    0.478    2.180
  440.310   94.093    0.219    0.492    2.245
  440.560   88.421    0.188    0.486    2.356
  440.810   81.593    0.150    0.466    2.513
  441.060   75.333    0.107    0.409    2.746
  441.310   71.461    0.046    0.293    3.143
  441.560   76.023    0.080    0.276    3.734
  441.810   82.597    0.120    0.364    4.463
  442.060   88.511    0.151    0.415    5.057
  442.310   93.959    0.167    0.430    4.796
  442.560   93.872    0.167    0.441    4.346
  442.810   89.698    0.155    0.447    3.890
  443.060   84.456    0.149    0.431    3.448
  443.310   80.641    0.147    0.408    3.184
  443.560   77.836    0.118    0.385    3.152
  443.810   81.205    0.074    0.370    3.401
  444.060   88.298    0.084    0.384    3.645
  444.310   97.063    0.128    0.432    3.889
  444.560  102.703    0.162    0.463    4.088
  444.810  104.955    0.183    0.480    3.748
  445.060  102.601    0.169    0.489    3.393
  445.310  100.350    0.146    0.483    3.125
  445.560  101.225    0.129    0.471    2.940
  445.810  105.059    0.145    0.467    2.758
  446.060  103.804    0.176    0.461    2.816
  446.310   99.676    0.156    0.461    2.916
  446.560   99.106    0.127    0.432    3.061
  446.810  104.452    0.149    0.411    3.172
  447.060  108.398    0.179    0.417    3.285
  447.310  108.058    0.194    0.449    3.323
  447.560  104.943    0.178    0.480    3.229
  447.810  103.340    0.176    0.491    3.025
  448.060  104.160    0.179    0.502    2.827
  448.310  105.042    0.164    0.506    2.656
  448.560  105.777    0.152    0.490    2.568
  448.810  105.565    0.178    0.504    2.537
  449.060  105.889    0.188    0.503    2.564
  449.310  108.023    0.195    0.470    2.602
  449.560  108.320    0.186    0.444    2.636
  449.810  104.567    0.172    0.451    2.704
  450.060   96.416    0.191    0.463    2.816
  450.310   85.889    0.199    0.435    3.025
  450.560   76.383    0.190    0.379    3.353
  450.810   71.249    0.180    0.354    3.726
  451.060   67.075    0.152    0.329    4.317
  451.310   61.669    0.143    0.286    4.902
  451.560   57.073    0.151    0.269    5.734
  451.810   54.672    0.240    0.268    6.525
  452.060   54.241    0.267    0.273    7.339
  452.310   54.667    0.283    0.273    8.052
  452.560   57.836    0.262    0.272    8.636
  452.810   60.901    0.247    0.269    8.858
  453.060   61.840    0.239    0.269    8.873
  453.310   62.912    0.225    0.273    8.868
  453.560   61.753    0.202    0.283    8.797
  453.810   60.988    0.178    0.290    8.681
  454.060   60.508    0.159    0.295    8.646
  454.310   59.794    0.151    0.298    8.889
  454.560   62.423    0.185    0.288    8.825
  454.810   64.840    0.205    0.279    8.517
  455.060   68.040    0.230    0.287    8.045
  455.310   70.576    0.226    0.297    7.465
  455.560   74.719    0.184    0.311    6.960
  455.810   77.674    0.169    0.323    6.436
  456.060   81.539    0.156    0.333    5.944
  456.310   84.239    0.141    0.343    5.389
  456.560   86.838    0.160    0.358    5.075
  456.810   89.350    0.188    0.401    4.872
  457.060   91.065    0.204    0.430    4.782
  457.310   91.837    0.217    0.433    4.815
  457.560   88.545    0.204    0.390    4.988
  457.810   89.853    0.192    0.379    5.200
  458.060   92.531    0.200    0.370    5.457
  458.310   95.681    0.203    0.363    5.552
  458.560   98.605    0.190    0.359    5.598
  458.810   93.230    0.188    0.354    5.436
  459.060   73.837    0.193    0.358    5.177
  459.310   68.897    0.214    0.356    4.933
  459.560   67.609    0.228    0.356    4.754
  459.810   65.137    0.219    0.340    4.567
  460.060   64.228    0.190    0.325    4.507
  460.310   65.237    0.168    0.332    4.618
  460.560   65.541    0.197    0.340    5.505
  460.810   64.562    0.202    0.340    6.081
  461.060   62.541    0.193    0.324    6.652
  461.310   61.517    0.200    0.326    7.087
  461.560   61.312    0.202    0.361    7.556
  461.810   62.166    0.218    0.384    7.944
  462.060   63.010    0.244    0.391    8.318
  462.310   63.495    0.256    0.393    8.990
  462.560   63.798    0.249    0.393   10.012
  462.810   62.774    0.263    0.392   10.948
  463.060   62.037    0.256    0.392   11.907
  463.310   61.632    0.208    0.392   12.838
