~VERSION INFORMATION
 VERS.                 2.0:   CWLS LOG ASCII STANDARD -VERSION 2.0
 WRAP.                  NO:   ONE LINE PER DEPTH STEP
~WELL INFORMATION BLOCK
#MNEM.UNIT           DATA                    DESCRIPTION OF MNEMONIC
#---------    -------------------            -------------------------------
# Generated from Intellog Unique Number	CS_67_68/WELL/819
WELL.         GULF OIL CANADA LTD            : Well_name    - WELL
LOC .         00/11-07-068-17W4/0            : Location     - LOCATION
UWI .         00/11-07-068-17W4/0            : Uwi          - UNIQUE WELL ID
ENTR.         SP                             : Entered      - ENTERED BY
SRVC.         SCHLUMBERGER                   : Scn          - SERVICE COMPANY
STRT.M        298.704                        : top_depth    - START DEPTH
STOP.M        545.454                        : bot_depth    - STOP DEPTH
STEP.M        0.25                           : increment    - STEP LENGTH
 NULL. -999.2500:NULL Value
~CURVE INFORMATION BLOCK
#MNEM UNIT       ERCB CURVE CODE    CURVE DESCRIPTION
#-----------   ------------------   ----------------------------------
DEPT.M        00 001 00 00         : DEPTH        - DEPTH
GR  .API      00 310 00 00         : GR           - GAMMA RAY
DPHI.V/V      00 890 00 00         : PHID         - DENSITY POROSITY (SANDSTONE)
NPHI.V/V      00 330 00 00         : PHIN         - NEUTRON POROSITY (SANDSTONE)
ILD .OHMM     00 120 00 00         : RESD         - DEEP RESISTIVITY (DIL)
~PARAMETER INFORMATION
#MNEM.UNIT           DATA             DESCRIPTION OF MNEMONIC
#---------         -----------     ------------------------------
GL  .M        176.376              : gl           - GROUND LEVEL ELEVATION
EREF.M        177.595              : kb           - ELEVATION OF DEPTH REFERENCE
DATM.M        176.376              : datum        - DATUM ELEVATION
TDD .M        169.362              : tdd          - TOTAL DEPTH DRILLER
RUN .         ONE                  : Run          - RUN NUMBER
ENG .         BILL                 : Engineer     - RECORDING ENGINEER
WIT .         JIM                  : Witness      - WITNESSED BY
MUD .         GEL                  : Mud_type     - MUD TYPE
MATR.         SANDSTONE            : Logunit      - NEUTRON MATRIX
TMAX.C        20                   : BHT          - MAXIMUM RECORDED TEMPERATURE
BHTD.M        169.362              : BHTDEP       - MAXIMUM RECORDED TEMPERATURE
MATR.         1                    : LOGUNIT      - NEUTRON MATRIX
RMT .C        25                   : MDTP         - TEMPERATURE OF MUD
NEUT.         1                    : NEUTRON      - NEUTRON TYPE
RESI.         0                    : RESIST       - RESISTIVITY TYPE
RMC .OHMM     0.25                 : RMC          - RESISTIVITY OF MUD CAKE
RMF .OHMM     0.25                 : RMF          - RESISTIVITY OF MUD FILTRATE
SUFT.C        15                   : SUFT         - SURFACE TEMPERATURE
~A  DEPTH       GR     PHID     PHIN     RESD
# ...
  429.204   91.726    0.200    0.392    4.721
  429.454   97.745    0.219    0.405    4.791
  429.704   99.865    0.209    0.405    4.732
  429.954   98.406    0.203    0.402    4.654
  430.204   96.493    0.218    0.400    4.544
  430.454   96.934    0.213    0.403    4.485
  430.704   98.912    0.217    0.407    4.450
  430.954  100.090    0.218    0.408    4.430
  431.204  100.640    0.210    0.405    4.417
  431.454  100.963    0.204    0.409    4.416
  431.704  100.926    0.201    0.413    4.419
  431.954  100.745    0.199    0.406    4.455
  432.204   98.677    0.203    0.402    4.504
  432.454   96.267    0.212    0.407    4.586
  432.704   95.116    0.223    0.424    4.718
  432.954   95.692    0.218    0.440    4.813
  433.204   98.167    0.206    0.437    4.832
  433.454  100.445    0.192    0.428    4.752
  433.704  101.899    0.196    0.420    4.560
  433.954  104.060    0.216    0.416    4.385
  434.204  105.259    0.228    0.422    4.273
  434.454  106.498    0.226    0.429    4.158
  434.704  104.034    0.234    0.428    4.053
  434.954  100.826    0.248    0.409    3.985
  435.204   97.947    0.260    0.400    3.924
  435.454   95.835    0.275    0.390    3.871
  435.704   94.767    0.295    0.408    3.792
  435.954   94.504    0.316    0.443    3.686
  436.204   95.846    0.342    0.473    3.432
  436.454   98.206    0.358    0.501    3.050
  436.704  101.600    0.380    0.521    2.575
  436.954  103.951    0.312    0.540    2.241
  437.204  104.503    0.279    0.515    2.039
  437.454  103.178    0.228    0.471    2.284
  437.704  102.071    0.212    0.442    2.628
  437.954  102.274    0.210    0.419    2.871
  438.204  103.056    0.208    0.407    3.112
  438.454  103.672    0.210    0.423    3.323
  438.704  103.849    0.216    0.439    3.463
  438.954  103.291    0.221    0.437    3.468
  439.204  100.073    0.229    0.423    3.451
  439.454   97.268    0.234    0.414    3.453
  439.704   97.003    0.228    0.411    3.466
  439.954   97.265    0.227    0.410    3.498
  440.204   97.800    0.240    0.407    3.528
  440.454   97.974    0.243    0.404    3.561
  440.704   96.936    0.234    0.411    3.607
  440.954   95.423    0.228    0.417    3.629
  441.204   93.657    0.221    0.415    3.644
  441.454   92.812    0.217    0.409    3.627
  441.704   91.002    0.224    0.404    3.601
  441.954   87.904    0.235    0.401    3.527
  442.204   83.624    0.248    0.399    3.376
  442.454   82.562    0.263    0.400    3.151
  442.704   80.975    0.276    0.404    2.984
  442.954   76.795    0.270    0.410    2.887
  443.204   72.545    0.232    0.391    2.887
  443.454   71.014    0.223    0.378    2.825
  443.704   71.404    0.244    0.391    2.709
  443.954   73.989    0.265    0.428    2.554
  444.204   75.302    0.301    0.442    2.388
  444.454   69.549    0.324    0.435    2.168
  444.704   65.081    0.332    0.427    1.986
  444.954   62.668    0.335    0.418    1.873
  445.204   62.346    0.323    0.411    1.909
  445.454   65.254    0.315    0.400    1.977
  445.704   67.157    0.312    0.409    2.062
  445.954   68.362    0.327    0.414    2.079
  446.204   66.945    0.337    0.411    2.047
  446.454   61.875    0.321    0.404    1.983
  446.704   57.942    0.274    0.374    1.953
  446.954   56.078    0.215    0.318    2.079
  447.204   55.175    0.132    0.210    2.444
  447.454   54.888    0.028    0.177    3.095
  447.704   54.840    0.029    0.120    4.568
  447.954   54.993    0.036    0.128    5.831
  448.204   54.960    0.041    0.132    6.986
  448.454   55.195    0.048    0.134    7.824
  448.704   56.108    0.068    0.154    7.057
  448.954   57.797    0.098    0.182    5.793
  449.204   59.664    0.159    0.219    4.939
  449.454   61.537    0.224    0.257    4.243
  449.704   63.238    0.298    0.336    3.631
  449.954   63.743    0.066    0.126    3.038
  450.204   59.560    0.048    0.116    2.596
  450.454   55.416    0.034    0.115    2.993
  450.704   53.214    0.031    0.130    3.485
  450.954   52.564    0.055    0.157    4.295
  451.204   54.700    0.099    0.190    5.664
  451.454   57.778    0.194    0.271    6.953
  451.704   60.251    0.255    0.321    5.534
  451.954   62.656    0.286    0.359    4.721
  452.204   66.164    0.306    0.397    4.029
  452.454   69.718    0.318    0.408    3.474
  452.704   71.142    0.328    0.412    2.931
  452.954   72.733    0.328    0.416    2.474
  453.204   76.422    0.322    0.422    2.182
  453.454   80.046    0.312    0.413    1.992
  453.704   82.428    0.300    0.404    1.917
  453.954   84.063    0.284    0.415    1.941
  454.204   85.536    0.271    0.421    2.033
  454.454   87.662    0.258    0.402    2.115
  454.704   91.702    0.244    0.389    2.325
  454.954   95.680    0.227    0.400    2.515
  455.204   97.497    0.208    0.411    2.761
  455.454   98.164    0.191    0.412    3.018
  455.704   98.180    0.203    0.410    3.276
  455.954   98.844    0.204    0.411    3.470
  456.204  100.459    0.205    0.422    3.595
  456.454  101.798    0.209    0.425    3.642
  456.704  102.185    0.212    0.417    3.665
  456.954  101.077    0.210    0.410    3.685
  457.204   99.148    0.206    0.402    3.707
  457.454   98.023    0.203    0.399    3.705
  457.704   98.339    0.201    0.405    3.723
  457.954   98.882    0.200    0.411    3.751
  458.204   99.312    0.203    0.417    3.796
  458.454  100.116    0.209    0.418    3.862
  458.704  100.571    0.217    0.418    3.922
  458.954  101.808    0.223    0.417    4.021
  459.204  101.562    0.211    0.422    4.083
  459.454  101.375    0.198    0.420    4.163
  459.704  101.298    0.183    0.414    4.239
  459.954  100.744    0.189    0.409    4.294
  460.204   99.872    0.205    0.416    4.329
  460.454   99.419    0.206    0.417    4.318
  460.704   99.307    0.206    0.418    4.292
  460.954   99.998    0.206    0.420    4.235
  461.204  101.065    0.207    0.422    4.126
  461.454  104.148    0.209    0.425    4.055
  461.704  106.581    0.212    0.426    3.972
  461.954  108.085    0.218    0.430    3.899
  462.204  107.066    0.226    0.432    3.824
  462.454  102.953    0.232    0.440    3.705
  462.704  100.933    0.239    0.438    3.528
  462.954  106.846    0.246    0.443    3.180
  463.204  112.447    0.255    0.479    2.825
  463.454  115.928    0.261    0.524    2.667
  463.704  116.828    0.261    0.498    2.526
  463.954  116.537    0.257    0.481    2.498
  464.204  114.927    0.256    0.476    2.476
  464.454  112.983    0.258    0.496    2.464
  464.704  110.906    0.266    0.522    2.371
  464.954  109.174    0.260    0.515    2.374
  465.204  110.537    0.254    0.515    2.385
  465.454  111.062    0.255    0.513    2.467
  465.704  111.210    0.252    0.493    2.548
  465.954  110.180    0.242    0.476    2.629
  466.204  108.275    0.240    0.478    2.757
  466.454  104.968    0.243    0.493    2.924
  466.704  101.640    0.232    0.434    3.145
  466.954  100.155    0.218    0.419    3.370
  467.204  100.103    0.208    0.420    3.512
  467.454  101.809    0.206    0.431    3.492
  467.704  104.474    0.211    0.437    3.445
  467.954  105.818    0.215    0.442    3.401
  468.204  105.022    0.214    0.445    3.341
  468.454  102.344    0.212    0.436    3.299
  468.704   98.444    0.214    0.428    3.321
  468.954   95.968    0.219    0.417    3.381
  469.204   92.952    0.232    0.410    3.492
  469.454   89.047    0.245    0.417    3.585
  469.704   85.715    0.258    0.419    3.615
  469.954   83.675    0.256    0.403    3.582
  470.204   84.401    0.229    0.394    3.488
  470.454   84.703    0.208    0.393    3.354
  470.704   83.932    0.203    0.397    3.234
  470.954   80.136    0.221    0.399    3.198
  471.204   78.291    0.248    0.403    3.366
  471.454   78.279    0.218    0.406    4.011
  471.704   76.799    0.180    0.364    5.033
  471.954   72.779    0.141    0.281    6.101
  472.204   70.044    0.109    0.221    8.149
  472.454   71.212    0.072    0.209    9.953
