~VERSION INFORMATION
 VERS.                 2.0:   CWLS LOG ASCII STANDARD -VERSION 2.0
 WRAP.                  NO:   ONE LINE PER DEPTH STEP
~WELL INFORMATION BLOCK
#MNEM.UNIT           DATA                    DESCRIPTION OF MNEMONIC
#---------    -------------------            -------------------------------
# Generated from Intellog Unique Number	CW_73_75/WELL/200
WELL.         10-18-073-24W4                 : Well_name    - WELL
LOC .         00/10-18-073-24W4/0            : Location     - LOCATION
UWI .         00/10-18-073-24W4/0            : Uwi          - UNIQUE WELL ID
ENTR.         JJ                             : Entered      - ENTERED BY
SRVC.         SCHLUMBERGER                   : Scn          - SERVICE COMPANY
DATE.         21 FEB 66                      : Date         - LOG DATE
STRT.M        472.44                         : top_depth    - START DEPTH
STOP.M        600.44                         : bot_depth    - STOP DEPTH
STEP.M        0.25                           : increment    - STEP LENGTH
 NULL. -999.2500:NULL Value
~CURVE INFORMATION BLOCK
#MNEM UNIT       ERCB CURVE CODE    CURVE DESCRIPTION
#-----------   ------------------   ----------------------------------
DEPT.M        00 001 00 00         : DEPTH        - DEPTH
DELT.US/F     00 520 00 00         : DELT         - SONIC TRAVEL TIME
GR  .API      00 310 00 00         : GR           - GAMMA RAY
ILD .OHMM     00 120 00 00         : RESD         - DEEP RESISTIVITY (DIL)
~PARAMETER INFORMATION
#MNEM.UNIT           DATA             DESCRIPTION OF MNEMONIC
#---------         -----------     ------------------------------
GL  .M        636.727              : gl           - GROUND LEVEL ELEVATION
EREF.M        640.08               : kb           - ELEVATION OF DEPTH REFERENCE
DATM.M        636.727              : datum        - DATUM ELEVATION
TDD .M        611.124              : tdd          - TOTAL DEPTH DRILLER
RUN .         ONE                  : Run          - RUN NUMBER
ENG .         SWINARTON            : Engineer     - RECORDING ENGINEER
WIT .         DAWSON-GROVE         : Witness      - WITNESSED BY
BASE.         EDM                  : Branch       - HOME BASE OF LOGGING UNIT
MUD .         GEL CHEM             : Mud_type     - MUD TYPE
MATR.         SANDSTONE            : Logunit      - NEUTRON MATRIX
TMAX.C        20                   : BHT          - MAXIMUM RECORDED TEMPERATURE
BHTD.M        611.124              : BHTDEP       - MAXIMUM RECORDED TEMPERATURE
RMT .C        17.2222              : MDTP         - TEMPERATURE OF MUD
MUDD.KG/M     1092                 : MWT          - MUD DENSITY
NEUT.         1                    : NEUTRON      - NEUTRON TYPE
RESI.         0                    : RESIST       - RESISTIVITY TYPE
RM  .OHMM     4.38                 : RM           - RESISTIVITY OF MUD
RMC .OHMM     2.41                 : RMC          - RESISTIVITY OF MUD CAKE
RMF .OHMM     6.71                 : RMF          - RESISTIVITY OF MUD FILTRATE
SUFT.C        5                    : SUFT         - SURFACE TEMPERATURE
~A  DEPTH     DELT       GR     RESD
  472.440  344.230   59.527   11.602
  472.690  300.274   54.313   14.440
  472.940  279.828   49.545   17.888
  473.190  261.381   44.131   19.527
  473.440  241.202   42.640   21.565
  473.690  262.050   45.418   20.805
  473.940  296.817   56.190   17.847
  474.190  330.852   59.167   14.694
  474.440  363.689   61.449   12.930
  474.690  369.218   68.249   10.766
  474.940  367.022   70.928    9.612
  475.190  363.293   71.770    8.852
  475.440  368.756   73.258    8.097
  475.690  372.354   77.029    7.533
  475.940  374.087   76.084    7.183
  476.190  367.029   72.358    7.013
  476.440  369.628   72.555    6.662
  476.690  374.624   75.185    6.303
  476.940  379.887   74.935    6.337
  477.190  380.488   72.699    6.377
  477.440  381.289   68.328    6.427
  477.690  382.622   64.007    6.457
  477.940  381.491   67.480    6.506
  478.190  383.224   67.677    6.936
  478.440  387.022   73.286    7.585
  478.690  373.903   72.886    8.225
  478.940  365.846   68.168    9.059
  479.190  361.784   62.308   11.297
  479.440  356.924   57.589   14.145
  479.690  340.141   54.410   16.179
  479.940  330.619   52.819   18.227
  480.190  320.896   52.123   19.661
  480.440  301.650   48.943   21.300
  480.690  292.127   50.778   21.944
  480.940  318.037   50.777   17.782
  481.190  330.226   52.215   14.424
  481.440  344.014   65.419   11.470
  481.690  357.469   72.517    9.906
  481.940  371.724   75.444    9.152
  482.190  377.919   71.272    9.191
  482.440  377.122   65.610    9.036
  482.690  374.459   59.998    9.066
  482.940  373.861   63.273    8.716
  483.190  372.797   68.782    8.551
  483.440  372.065   74.192    8.391
  483.690  377.728   73.148    8.631
  483.940  380.860   66.443    8.875
  484.190  377.797   62.569    9.115
  484.440  364.678   65.298    8.960
  484.690  361.549   72.147    8.995
  484.940  367.412   76.365    8.640
  485.190  370.410   74.576    8.475
  485.440  373.742   74.624    7.920
  485.690  373.010   78.097    7.760
  485.940  373.278   79.933    7.599
  486.190  372.814   76.356    7.439
  486.440  371.749   71.688    7.284
  486.690  373.482   69.998    7.129
  486.940  378.679   75.109    6.959
  487.190  385.540   76.200    7.204
  487.440  385.875   73.269    8.048
  487.690  377.284   65.422    8.882
  487.940  373.290   55.541   10.321
  488.190  371.027   48.340   10.966
  488.440  370.762   54.991   11.200
  488.690  370.164   59.358   11.645
  488.940  364.704   59.356   12.489
  489.190  354.981   59.255   13.533
  489.440  340.130   59.551   13.968
  489.690  344.994   59.946   14.207
  489.940  355.452   61.335   13.253
  490.190  359.916   63.319   11.698
  490.440  363.780   67.040   10.134
  490.690  368.244   69.174    9.370
  490.940  371.376   73.889    8.615
  491.190  372.642   79.149    8.265
  491.440  374.575   75.871    8.090
  491.690  375.909   73.039    8.140
  491.940  377.575   73.931    8.169
  492.190  379.974   77.801    8.014
  492.440  382.839   81.076    7.859
  492.690  386.238   82.564    7.699
  492.940  385.840   81.371    7.339
  493.190  381.712   85.142    7.174
  493.440  377.317   83.700    6.614
  493.690  372.723   80.174    6.454
  493.940  374.989   81.611    6.299
  494.190  381.318   81.163    6.739
  494.440  380.320   78.828    7.588
  494.690  374.594   76.641    8.222
  494.940  363.339   75.349    8.857
  495.190  348.888   72.318    9.701
  495.440  342.429   66.656   10.945
  495.690  345.561   67.697   10.785
  495.940  350.358   70.426   10.220
  496.190  356.487   71.566    9.265
  496.440  359.951   70.174    8.306
  496.690  359.886   70.272    7.751
  496.940  359.022   71.461    7.791
  497.190  359.156   72.154    7.831
  497.440  360.690   68.677    8.065
  497.690  362.156   69.817    8.310
  497.940  363.956   72.100    8.545
  498.190  366.955   74.431    8.994
  498.440  370.086   73.734    9.029
  498.690  372.019   73.732    9.074
  498.940  371.221   75.071    9.108
  499.190  369.624   78.048    9.153
  499.440  367.827   75.862    9.593
  499.690  364.565   69.802   10.037
  499.940  360.504   72.035   11.071
  500.190  362.637   73.870   15.114
  500.440  359.308   68.655   18.751
  500.690  343.591   65.079   25.391
  500.940  320.748   61.949   35.635
  501.190  258.543   56.238   38.472
  501.440  230.839   54.449   41.915
  501.690  221.649   52.014   41.360
  501.940  222.316   49.182   36.998
  502.190  250.357   50.918   25.835
  502.440  325.952   61.839   20.678
  502.690  353.793   67.745   15.921
  502.940  353.595   68.339   12.758
  503.190  351.465   68.436   10.604
  503.440  352.199   70.371    9.839
  503.690  356.862   71.610    9.285
  503.940  357.929   72.154    9.124
  504.190  356.999   72.252    9.374
  504.440  356.733   69.371    9.404
  504.690  358.200   68.723    9.649
  504.940  359.067   70.359    9.493
  505.190  359.535   72.294    9.523
  505.440  356.872   74.477    9.368
  505.690  357.207   75.765    9.213
  505.940  359.073   77.005    9.248
  506.190  357.409   75.316    9.093
  506.440  359.542   70.845    9.132
  506.690  359.277   68.113    9.372
  506.940  357.147   68.955    9.607
  507.190  354.018   72.826    9.652
  507.440  356.284   72.675    9.696
  507.690  359.016   72.524    9.731
  507.940  357.220   70.735    9.971
  508.190  354.757   67.407   10.015
  508.440  352.427   68.596    9.855
  508.690  352.961   74.304    9.900
  508.940  354.495   79.615    9.735
  509.190  353.230   77.428    9.575
  509.440  350.835   69.383    9.420
  509.690  350.569   65.211    9.060
  509.940  351.104   61.237    8.695
  510.190  352.837   64.512    8.545
  510.440  354.969   69.078    8.390
  510.690  359.966   73.048    8.225
  510.940  370.490   74.933    8.065
  511.190  366.296   70.165    8.499
  511.440  363.633   65.347    9.738
  511.690  361.237   67.431   12.186
  511.940  357.442   81.231   14.420
  512.190  344.989   68.916   17.867
  512.440  331.470   56.006   19.501
  512.690  343.460   49.202   21.749
  512.940  352.386   44.931   22.988
  513.190  355.185   43.092   23.828
  513.440  262.010   40.260   24.672
  513.690  238.967   35.492   25.111
  513.940  240.301   35.788   25.746
  514.190  240.702   41.049   26.185
  514.440  225.052   42.884   25.830
  514.690  239.506   35.535   25.280
  514.940  261.419   36.774   24.911
  515.190  299.117   39.254   24.551
  515.440  323.961   40.097   24.595
  515.690  347.007   39.697   24.830
  515.940  355.533   38.951   24.675
  516.190  361.995   38.056   24.515
  516.440  366.060   37.855   23.350
  516.690  367.726   39.243   23.000
  516.940  366.129   43.214   22.835
  517.190  361.801   42.467   22.680
  517.440  360.737   39.039   22.920
  517.690  363.935   42.662   24.359
  517.940  361.872   48.171   26.802
  518.190  363.339   46.133   28.036
  518.440  371.133   40.472   30.284
  518.690  372.866   43.350   30.924
  518.940  371.602   47.568   30.159
  519.190  373.268   45.630   28.210
  519.440  374.335   42.401   27.046
  519.690  372.871   41.406   26.681
  519.940  369.276   41.553   26.726
  520.190  363.683   41.502   26.565
  520.440  356.825   41.698   27.605
  520.690  360.423   42.392   29.443
  520.940  370.814   43.680   31.681
  521.190  369.283   44.026   33.530
  521.440  366.288   44.719   32.366
  521.690  369.553   46.306   30.007
  521.940  373.550   46.354   29.457
  522.190  371.887   47.345   29.487
  522.440  369.158   47.194   29.927
  522.690  364.097   41.880   30.776
  522.940  364.765   42.921   31.410
  523.190  368.229   44.260   32.649
  523.440  372.160   45.846   34.088
  523.690  382.751   49.767   35.332
  523.940  375.560   52.247   34.172
  524.190  376.560   50.756   32.413
  524.440  372.898   48.074   31.054
  524.690  368.238   46.284   30.294
  524.940  366.641   46.828   30.334
  525.190  366.376   49.309   30.979
  525.440  367.110   47.967   32.822
  525.690  368.377   46.823   34.061
  525.940  370.976   46.523   34.901
  526.190  372.509   46.074   34.940
  526.440  372.444   45.874   34.985
