~VERSION INFORMATION
 VERS.                 2.0:   CWLS LOG ASCII STANDARD -VERSION 2.0
 WRAP.                  NO:   ONE LINE PER DEPTH STEP
~WELL INFORMATION BLOCK
#MNEM.UNIT           DATA                    DESCRIPTION OF MNEMONIC
#---------    -------------------            -------------------------------
# Generated from Intellog Unique Number	CX_WELLS/WELL/3184
WELL.         CHEVRON CDN-SUP ALGAR          : Well_name    - WELL
LOC .         00/11-09-083-16W4/0            : Location     - LOCATION
UWI .         00/11-09-083-16W400            : Uwi          - UNIQUE WELL ID
ENTR.         DW                             : Entered      - ENTERED BY
SRVC.         SCHLUMBERGER                   : Scn          - SERVICE COMPANY
STRT.F        300                            : top_depth    - START DEPTH
STOP.F        889.731                        : bot_depth    - STOP DEPTH
STEP.F        0.82                           : increment    - STEP LENGTH
 NULL. -999.2500:NULL Value
~CURVE INFORMATION BLOCK
#MNEM UNIT       ERCB CURVE CODE    CURVE DESCRIPTION
#-----------   ------------------   ----------------------------------
DEPT.F        00 001 00 00         : DEPTH        - DEPTH
GR  .API      00 310 00 00         : GR           - GAMMA RAY
NPHI.V/V      00 330 00 00         : PHIN         - NEUTRON POROSITY (SANDSTONE)
DPHI.V/V      00 890 00 00         : PHID         - DENSITY POROSITY (SANDSTONE)
ILD .OHMM     00 120 00 00         : RESD         - DEEP RESISTIVITY (DIL)
~PARAMETER INFORMATION
#MNEM.UNIT           DATA             DESCRIPTION OF MNEMONIC
#---------         -----------     ------------------------------
GL  .M        526.237              : gl           - GROUND LEVEL ELEVATION
EREF.M        529.438              : kb           - ELEVATION OF DEPTH REFERENCE
DATM.M        529.438              : datum        - DATUM ELEVATION
TDD .M        271.577              : tdd          - TOTAL DEPTH DRILLER
RUN .         ONE                  : Run          - RUN NUMBER
ENG .         BILL                 : Engineer     - RECORDING ENGINEER
WIT .         JIM                  : Witness      - WITNESSED BY
MUD .         GEL                  : Mud_type     - MUD TYPE
MATR.         SANDSTONE            : Logunit      - NEUTRON MATRIX
TMAX.C        22.2222              : BHT          - MAXIMUM RECORDED TEMPERATURE
BHTD.M        271.577              : BHTDEP       - MAXIMUM RECORDED TEMPERATURE
MATR.         1                    : LOGUNIT      - NEUTRON MATRIX
RMT .C        25                   : MDTP         - TEMPERATURE OF MUD
NEUT.         1                    : NEUTRON      - NEUTRON TYPE
RESI.         0                    : RESIST       - RESISTIVITY TYPE
RMC .OHMM     0.25                 : RMC          - RESISTIVITY OF MUD CAKE
RMF .OHMM     0.25                 : RMF          - RESISTIVITY OF MUD FILTRATE
SUFT.C        4                    : SUFT         - SURFACE TEMPERATURE
~A  DEPTH       GR     PHIN     PHID     RESD
# ...
  728.150   89.802    0.381    0.185    9.774
  728.970   83.887    0.391    0.186   10.138
  729.790   79.746    0.404    0.193   10.326
  730.610   82.698    0.413    0.196   10.326
  731.430   84.468    0.422    0.198    9.955
  732.251   86.828    0.434    0.203    8.760
  733.071   88.599    0.448    0.205    7.996
  733.891   91.550    0.454    0.210    7.298
  734.711   92.138    0.454    0.212    7.036
  735.531   88.588    0.449    0.221    7.166
  736.352   84.447    0.443    0.224    7.298
  737.172   80.897    0.438    0.222    7.852
  737.992   76.756    0.411    0.222    8.604
  738.812   77.934    0.400    0.223    8.924
  739.633   79.704    0.400    0.228    9.256
  740.453   79.109    0.394    0.242    9.257
  741.273   78.514    0.388    0.258    9.257
  742.093   76.145    0.385    0.271    9.257
  742.913   75.553    0.385    0.276    9.258
  743.734   74.958    0.386    0.276    9.428
  744.554   76.727    0.395    0.261    9.602
  745.374   75.541    0.406    0.240    9.780
  746.194   74.947    0.416    0.228   10.522
  747.014   75.535    0.423    0.234   10.716
  747.835   79.078    0.424    0.224   10.522
  748.655   82.621    0.419    0.212   10.145
  749.475   80.844    0.410    0.212    9.961
  750.295   78.477    0.406    0.218    9.781
  751.115   73.743    0.411    0.232    9.782
  751.936   71.375    0.405    0.245    9.782
  752.756   71.372    0.398    0.253    9.605
  753.576   71.368    0.392    0.259    9.605
  754.396   71.365    0.398    0.253    9.432
  755.217   70.770    0.407    0.247    9.432
  756.037   69.585    0.409    0.245    9.606
  756.857   69.582    0.380    0.240    9.964
  757.677   68.986    0.362    0.239   10.720
  758.497   68.984    0.342    0.239   11.745
  759.318   68.980    0.320    0.224   13.594
  760.138   67.794    0.299    0.186   14.626
  760.958   66.017    0.273    0.137   15.735
  761.778   64.832    0.252    0.062   16.321
  762.598   62.463    0.222    0.064   14.896
  763.419   60.687    0.269    0.114   13.108
  764.239   61.865    0.318    0.160   10.920
  765.059   63.636    0.380    0.228    8.932
  765.879   65.997    0.417    0.238    7.577
  766.699   70.131    0.425    0.238    7.174
  767.520   73.083    0.404    0.232    7.044
  768.340   74.262    0.403    0.224    7.306
  769.160   73.667    0.410    0.221    7.718
  769.980   73.663    0.415    0.219    7.718
  770.801   73.660    0.422    0.217    7.719
  771.621   73.657    0.423    0.215    7.719
  772.441   73.062    0.427    0.205    7.579
  773.261   73.649    0.434    0.201    7.175
  774.081   73.646    0.442    0.204    7.045
  774.902   74.233    0.448    0.211    6.918
  775.722   76.003    0.452    0.219    7.046
  776.542   77.774    0.458    0.227    7.046
  777.362   81.316    0.466    0.230    6.919
  778.182   84.269    0.467    0.217    6.670
  779.003   86.630    0.471    0.215    6.315
  779.823   87.808    0.476    0.213    6.088
  780.643   89.578    0.477    0.215    5.764
  781.463   90.757    0.477    0.216    5.457
  782.283   91.936    0.477    0.215    5.261
  783.104   93.706    0.482    0.214    5.072
  783.924   95.475    0.489    0.215    4.981
  784.744   97.835    0.484    0.216    4.981
  785.564   99.606    0.448    0.214    4.981
  786.385   99.012    0.403    0.209    5.359
  787.205   95.462    0.386    0.195    6.317
  788.025   92.503    0.384    0.186    7.723
  788.845   85.406    0.388    0.184    9.103
  789.665   82.445    0.397    0.180   10.929
  790.486   85.398    0.419    0.173   13.120
  791.306   87.168    0.417    0.178   13.362
  792.126   87.165    0.423    0.197   13.121
  792.946   87.162    0.429    0.199   12.884
  793.766   86.567    0.425    0.193   12.650
  794.587   85.382    0.421    0.180   12.197
  795.407   84.194    0.422    0.181   12.197
  796.227   84.193    0.422    0.182   11.977
  797.047   84.189    0.416    0.180   11.977
  797.867   84.185    0.404    0.178   11.977
  798.688   84.182    0.384    0.173   11.978
  799.508   84.768    0.382    0.172   11.548
  800.328   84.766    0.380    0.171   11.549
  801.148   84.763    0.378    0.174   11.134
  801.969   82.986    0.374    0.180   11.135
  802.789   80.027    0.373    0.187   11.340
  803.609   74.703    0.373    0.197   11.980
  804.429   67.016    0.372    0.204   12.888
  805.249   59.328    0.370    0.223   14.917
  806.070   49.275    0.370    0.241   17.908
  806.890   45.724    0.370    0.259   21.895
  807.710   46.312    0.381    0.265   26.286
  808.530   46.899    0.401    0.269   24.884
  809.350   46.896    0.407    0.276   22.301
  810.171   48.074    0.407    0.277   21.112
  810.991   49.252    0.399    0.260   19.625
  811.811   49.842    0.386    0.254   18.578
  812.631   51.020    0.390    0.259   17.270
  813.451   52.199    0.388    0.262   15.197
  814.272   53.377    0.388    0.264   13.372
  815.092   54.556    0.396    0.260   11.554
  815.912   55.734    0.398    0.256    9.625
  816.732   55.732    0.405    0.252    8.316
  817.552   57.502    0.415    0.252    7.453
  818.373   59.862    0.423    0.248    6.679
  819.193   62.814    0.424    0.240    5.986
  820.013   66.357    0.424    0.231    5.771
  820.833   69.309    0.424    0.217    5.365
  821.654   70.489    0.425    0.204    4.987
  822.474   74.623    0.430    0.196    4.721
  823.294   81.712    0.439    0.184    4.552
  824.114   83.482    0.440    0.189    4.469
  824.934   84.661    0.448    0.195    4.309
  825.755   85.248    0.453    0.203    4.079
  826.575   85.837    0.454    0.208    4.006
  827.395   86.425    0.457    0.208    3.792
  828.215   91.150    0.461    0.205    3.723
  829.035   95.875    0.472    0.205    3.656
  829.856   96.463    0.484    0.203    3.656
  830.676   95.277    0.506    0.192    3.792
  831.496   92.909    0.525    0.172    3.934
  832.316   89.359    0.544    0.159    4.155
  833.136   86.991    0.531    0.147    4.155
  833.957   83.441    0.422    0.145    4.156
  834.777   85.802    0.448    0.180    4.232
  835.597   95.257    0.480    0.214    4.390
  836.417   96.434    0.497    0.214    4.554
  837.238   95.840    0.512    0.215    5.081
  838.058   94.063    0.519    0.214    5.175
  838.878   91.695    0.527    0.211    5.467
  839.698   89.327    0.523    0.208    5.568
  840.518   88.142    0.507    0.204    5.882
  841.339   84.591    0.484    0.197    6.213
  842.159   82.815    0.459    0.188    6.684
  842.979   79.856    0.442    0.179    7.879
  843.799   76.305    0.429    0.174    9.811
  844.619   74.529    0.416    0.177   13.143
  845.440   69.796    0.408    0.186   16.668
  846.260   66.837    0.417    0.203   16.976
  847.080   63.286    0.430    0.227   11.151
  847.900   59.736    0.458    0.240    9.813
  848.720   56.778    0.470    0.261    8.174
  849.541   53.228    0.431    0.269    6.330
  850.361   50.859    0.428    0.277    5.370
  851.181   52.038    0.439    0.277    4.640
  852.001   52.626    0.421    0.281    4.725
  852.822   54.987    0.411    0.276    5.084
  853.642   57.940    0.418    0.271    5.778
  854.462   63.255    0.436    0.271    6.936
  855.282   66.799    0.458    0.270   10.952
  856.102   71.524    0.489    0.269   16.075
  856.923   73.294    0.508    0.267   18.606
  857.743   75.656    0.526    0.264   21.145
  858.563   78.607    0.549    0.261   21.146
  859.383   82.741    0.477    0.258   20.388
  860.203   86.284    0.437    0.252   19.657
  861.024   88.054    0.411    0.223   19.301
  861.844   85.686    0.397    0.219   17.941
  862.664   84.501    0.384    0.213   17.298
  863.484   81.542    0.367    0.210   16.678
  864.304   78.582    0.353    0.220   15.789
  865.125   76.806    0.350    0.208   15.789
  865.945   75.621    0.357    0.202   16.081
  866.765   75.617    0.360    0.197   16.987
  867.585   76.795    0.365    0.191   17.945
  868.406   77.974    0.367    0.186   19.306
  869.226   81.517    0.369    0.184   20.394
  870.046   85.061    0.380    0.189   22.758
