~VERSION INFORMATION
 VERS.                 2.0:   CWLS LOG ASCII STANDARD -VERSION 2.0
 WRAP.                  NO:   ONE LINE PER DEPTH STEP
~WELL INFORMATION BLOCK
#MNEM.UNIT           DATA                    DESCRIPTION OF MNEMONIC
#---------    -------------------            -------------------------------
# Generated from Intellog Unique Number	CW_82_90/WELL/3444
WELL.         SHERRIT LIEGE 10-34            : Well_name    - WELL
LOC .         00/10-34-089-20W4/0            : Location     - LOCATION
UWI .         00/10-34-089-20W4/0            : Uwi          - UNIQUE WELL ID
ENTR.         JJ                             : Entered      - ENTERED BY
SRVC.         WESTERN ATLAS                  : Scn          - SERVICE COMPANY
DATE.         13 FEB 89                      : Date         - LOG DATE
STRT.M        100                            : top_depth    - START DEPTH
STOP.M        240                            : bot_depth    - STOP DEPTH
STEP.M        0.25                           : increment    - STEP LENGTH
 NULL. -999.2500:NULL Value
~CURVE INFORMATION BLOCK
#MNEM UNIT       ERCB CURVE CODE    CURVE DESCRIPTION
#-----------   ------------------   ----------------------------------
DEPT.M        00 001 00 00         : DEPTH        - DEPTH
DPHI.V/V      00 890 00 00         : PHID         - DENSITY POROSITY (SANDSTONE)
NPHI.V/V      00 330 00 00         : PHIN         - NEUTRON POROSITY (SANDSTONE)
GR  .API      00 310 00 00         : GR           - GAMMA RAY
CALI.MM       00 280 01 00         : CAL          - CALIPER
ILD .OHMM     00 120 00 00         : RESD         - DEEP RESISTIVITY (DIL)
~PARAMETER INFORMATION
#MNEM.UNIT           DATA             DESCRIPTION OF MNEMONIC
#---------         -----------     ------------------------------
GL  .M        518.3                : gl           - GROUND LEVEL ELEVATION
EREF.M        522.6                : kb           - ELEVATION OF DEPTH REFERENCE
DATM.M        522.6                : datum        - DATUM ELEVATION
TDD .M        243.72               : tdd          - TOTAL DEPTH DRILLER
RUN .         ONE                  : Run          - RUN NUMBER
ENG .         TAMBLYN              : Engineer     - RECORDING ENGINEER
WIT .         WILLIAMS             : Witness      - WITNESSED BY
BASE.         MED. HAT             : Branch       - HOME BASE OF LOGGING UNIT
MUD .         GEL-CAUSTIC          : Mud_type     - MUD TYPE
MATR.         SANDSTONE            : Logunit      - NEUTRON MATRIX
TMAX.C        22                   : BHT          - MAXIMUM RECORDED TEMPERATURE
BHTD.M        243.5                : BHTDEP       - MAXIMUM RECORDED TEMPERATURE
RMT .C        15                   : MDTP         - TEMPERATURE OF MUD
MUDD.KG/M     1170                 : MWT          - MUD DENSITY
NEUT.         1                    : NEUTRON      - NEUTRON TYPE
RESI.         0                    : RESIST       - RESISTIVITY TYPE
RM  .OHMM     5.3                  : RM           - RESISTIVITY OF MUD
RMC .OHMM     5.3                  : RMC          - RESISTIVITY OF MUD CAKE
RMF .OHMM     5                    : RMF          - RESISTIVITY OF MUD FILTRATE
SUFT.C        5                    : SUFT         - SURFACE TEMPERATURE
~A  DEPTH     PHID     PHIN       GR      CAL     RESD
  100.000    0.346    0.288   51.164  207.357   39.626
  100.250    0.343    0.325   46.600  212.670   39.093
  100.500    0.359    0.324   45.210  213.409   37.303
  100.750    0.391    0.308   47.486  202.850   35.340
  101.000    0.424    0.342   47.988  184.052   33.410
  101.250    0.451    0.359   44.341  173.595   32.479
  101.500    0.457    0.374   38.007  160.495   31.575
  101.750    0.491    0.360   39.305  163.370   30.012
  102.000    0.490    0.373   47.318  172.151   26.499
  102.250    0.477    0.359   64.185  172.478   23.093
  102.500    0.438    0.360   80.623  161.312   18.937
  102.750    0.346    0.379   98.222  158.389   15.270
  103.000    0.302    0.392  105.501  158.311   13.284
  103.250    0.283    0.387  103.808  162.202   11.578
  103.500    0.270    0.414   94.603  167.214   10.568
  103.750    0.292    0.422   88.512  169.272    9.682
  104.000    0.304    0.421   95.671  160.951    9.343
  104.250    0.316    0.422  102.525  155.380    9.217
  104.500    0.352    0.402  101.808  155.509    9.229
  104.750    0.322    0.372   93.093  158.383    9.590
  105.000    0.298    0.360   89.443  164.615   10.055
  105.250    0.339    0.381   89.764  172.885   10.743
  105.500    0.339    0.371   93.382  175.759   11.119
  105.750    0.321    0.372   98.037  174.359   10.747
  106.000    0.301    0.392  104.587  174.690   10.427
  106.250    0.298    0.414  105.395  178.990   10.402
  106.500    0.337    0.426  101.318  191.123   10.808
  106.750    0.350    0.410   95.964  193.696   11.418
  107.000    0.328    0.415   91.339  183.542   12.062
  107.250    0.286    0.412   87.993  170.442   12.650
  107.500    0.283    0.400   83.675  161.919   12.596
  107.750    0.271    0.393   81.920  159.400   11.864
  108.000    0.235    0.373   89.871  157.498   11.258
  108.250    0.260    0.378   94.161  156.501   10.985
  108.500    0.274    0.394   91.550  156.835   10.738
  108.750    0.294    0.409   94.070  157.880   10.343
  109.000    0.285    0.394   90.299  158.713    9.978
  109.250    0.223    0.379   85.492  159.451    9.192
  109.500    0.293    0.388   91.122  156.529    8.597
  109.750    0.303    0.407  101.394  155.127    8.607
  110.000    0.313    0.413   97.869  155.054    9.059
  110.250    0.315    0.362   80.117  156.402   10.595
  110.500    0.327    0.374   70.732  159.477   13.898
  110.750    0.356    0.390   74.226  165.711   18.027
  111.000    0.378    0.368   60.016  169.397   23.087
  111.250    0.394    0.333   51.057  171.259   31.018
  111.500    0.394    0.353   45.516  172.504   37.650
  111.750    0.364    0.356   42.234  174.868   40.814
  112.000    0.335    0.335   40.845  179.573   43.601
  112.250    0.398    0.353   42.814  180.819   45.472
  112.500    0.419    0.373   44.661  174.434   46.804
  112.750    0.413    0.387   44.553  165.304   46.518
  113.000    0.407    0.381   45.120  162.477   44.644
  113.250    0.404    0.340   47.882  165.660   42.682
  113.500    0.395    0.354   51.379  169.753   41.721
  113.750    0.385    0.369   50.295  172.527   42.004
  114.000    0.363    0.382   44.997  168.686   42.440
  114.250    0.322    0.384   43.363  159.251   43.216
  114.500    0.316    0.361   47.348  156.933   44.484
  114.750    0.325    0.313   48.157  158.484   47.517
  115.000    0.265    0.251   46.095  163.398   52.086
  115.250    0.194    0.226   43.547  165.454   59.362
  115.500    0.291    0.294   44.784  164.465   58.672
  115.750    0.353    0.356   46.935  161.027   54.763
  116.000    0.331    0.370   50.002  158.509   49.798
  116.250    0.322    0.350   49.102  157.318   45.209
  116.500    0.337    0.361   44.477  157.445   45.438
  116.750    0.353    0.354   41.319  161.741   46.359
  117.000    0.354    0.357   40.113  168.893   47.097
  117.250    0.345    0.358   40.434  172.375   47.681
  117.500    0.343    0.359   42.953  174.542   47.730
  117.750    0.346    0.364   39.609  175.890   47.711
  118.000    0.346    0.368   39.257  176.621   47.765
  118.250    0.342    0.369   41.714  177.976   48.007
  118.500    0.345    0.355   40.569  178.912   49.231
  118.750    0.355    0.342   44.007  180.774   49.942
  119.000    0.363    0.330   44.751  182.731   49.909
  119.250    0.373    0.341   44.158  184.385   50.063
  119.500    0.383    0.356   42.830  186.652   49.854
  119.750    0.380    0.365   41.625  189.114   49.188
  120.000    0.373    0.366   40.783  196.158   48.348
  120.250    0.379    0.385   40.188  206.563   47.696
  120.500    0.389    0.406   40.691  215.241   46.707
  120.750    0.399    0.386   42.479  221.268   45.897
  121.000    0.419    0.375   44.875  226.685   45.204
  121.250    0.425    0.362   48.186  245.332   44.850
  121.500    0.397    0.347   49.910  215.137   44.648
  121.750    0.362    0.335   42.111  199.596   45.121
  122.000    0.355    0.327   40.905  196.668   45.522
  122.250    0.418    0.327   45.011  194.963   45.825
  122.500    0.448    0.364   49.728  192.037   45.881
  122.750    0.435    0.355   47.972  190.641   45.765
  123.000    0.429    0.350   48.723  186.087   45.485
  123.250    0.422    0.350   46.721  180.614   45.560
  123.500    0.408    0.359   46.188  172.703   45.601
  123.750    0.396    0.371   50.050  164.589   45.583
  124.000    0.391    0.363   51.530  163.291   45.724
  124.250    0.389    0.362   49.590  165.056   45.783
  124.500    0.388    0.387   47.407  165.382   45.517
  124.750    0.385    0.397   48.584  164.998   45.385
  125.000    0.380    0.377   45.973  164.411   44.942
  125.250    0.363    0.360   41.897  161.790   44.014
  125.500    0.369    0.365   44.111  161.311   42.632
  125.750    0.374    0.354   47.544  163.470   41.889
  126.000    0.375    0.347   45.179  168.789   41.101
  126.250    0.373    0.351   44.339  166.781   40.176
  126.500    0.372    0.366   46.676  157.543   39.706
  126.750    0.378    0.364   50.780  153.195   39.765
  127.000    0.381    0.350   51.101  151.695   39.884
  127.250    0.373    0.367   47.331  156.400   40.228
  127.500    0.359    0.381   47.227  163.141   39.834
  127.750    0.385    0.365   47.975  172.832   38.934
  128.000    0.414    0.354   48.784  184.254   37.298
  128.250    0.409    0.358   49.346  196.392   36.115
  128.500    0.389    0.361   48.994  205.373   34.343
  128.750    0.385    0.360   48.774  206.511   33.316
  129.000    0.385    0.368   49.086  182.321   32.143
  129.250    0.282    0.386   58.870  161.280   30.959
  129.500    0.314    0.380   53.878  162.936   30.037
  129.750    0.359    0.399   49.072  177.510   29.036
  130.000    0.356    0.397   48.231  185.474   26.213
  130.250    0.368    0.400   51.240  191.200   21.453
  130.500    0.386    0.381   56.809  189.901   13.780
  130.750    0.342    0.404   69.584  174.458   10.092
  131.000    0.303    0.425  100.309  163.905    7.461
  131.250    0.273    0.445  117.665  161.288    5.495
  131.500    0.260    0.457  123.236  160.907    4.582
  131.750    0.256    0.454  124.532  161.339    4.128
  132.000    0.260    0.448  122.411  162.076    3.910
  132.250    0.259    0.439  127.375  162.507    3.944
  132.500    0.250    0.425  125.922  163.340    4.015
  132.750    0.259    0.407  119.650  163.878    4.134
  133.000    0.274    0.421  122.171  163.801    4.311
  133.250    0.286    0.441  125.540  164.034    4.480
  133.500    0.276    0.435  126.349  163.751    4.560
  133.750    0.256    0.429  126.490  162.963    4.625
  134.000    0.251    0.424  126.870  162.480    4.709
  134.250    0.229    0.414  123.525  161.993    4.750
  134.500    0.206    0.434  119.573  161.311    4.747
  134.750    0.239    0.452  119.771  161.130    4.701
  135.000    0.261    0.466  120.398  162.073    4.671
  135.250    0.264    0.466  120.902  163.116    4.668
  135.500    0.246    0.457  119.756  163.241    4.771
  135.750    0.213    0.430  111.894  161.026    4.903
  136.000    0.237    0.417  109.226  158.816    4.991
  136.250    0.275    0.424  111.621  157.622    5.081
