~VERSION INFORMATION
 VERS.                 2.0:   CWLS LOG ASCII STANDARD -VERSION 2.0
 WRAP.                  NO:   ONE LINE PER DEPTH STEP
~WELL INFORMATION BLOCK
#MNEM.UNIT           DATA                    DESCRIPTION OF MNEMONIC
#---------    -------------------            -------------------------------
# Generated from Intellog Unique Number	CS_71_72/WELL/849
WELL.         PEX PHILLIPS AEC WIAU          : Well_name    - WELL
LOC .         00/10-01-072-07W4/0            : Location     - LOCATION
UWI .         00/10-01-072-07W4/0            : Uwi          - UNIQUE WELL ID
ENTR.         SP                             : Entered      - ENTERED BY
SRVC.         SCHLUMBERGER                   : Scn          - SERVICE COMPANY
STRT.M        300                            : top_depth    - START DEPTH
STOP.M        525                            : bot_depth    - STOP DEPTH
STEP.M        0.25                           : increment    - STEP LENGTH
 NULL. -999.2500:NULL Value
~CURVE INFORMATION BLOCK
#MNEM UNIT       ERCB CURVE CODE    CURVE DESCRIPTION
#-----------   ------------------   ----------------------------------
DEPT.M        00 001 00 00         : DEPTH        - DEPTH
ILD .OHMM     00 120 00 00         : RESD         - DEEP RESISTIVITY (DIL)
DPHI.V/V      00 890 00 00         : PHID         - DENSITY POROSITY (LIMESTONE)
NPHI.V/V      00 330 00 00         : PHIN         - NEUTRON POROSITY (LIMESTONE)
GR  .API      00 310 00 00         : GR           - GAMMA RAY
~PARAMETER INFORMATION
#MNEM.UNIT           DATA             DESCRIPTION OF MNEMONIC
#---------         -----------     ------------------------------
GL  .M        664.2                : gl           - GROUND LEVEL ELEVATION
EREF.M        667.1                : kb           - ELEVATION OF DEPTH REFERENCE
DATM.M        664.2                : datum        - DATUM ELEVATION
TDD .M        536                  : tdd          - TOTAL DEPTH DRILLER
RUN .         ONE                  : Run          - RUN NUMBER
ENG .         BILL                 : Engineer     - RECORDING ENGINEER
WIT .         JIM                  : Witness      - WITNESSED BY
MUD .         GEL                  : Mud_type     - MUD TYPE
MATR.         LIMESTONE            : Logunit      - NEUTRON MATRIX
TMAX.C        19                   : BHT          - MAXIMUM RECORDED TEMPERATURE
BHTD.M        536                  : BHTDEP       - MAXIMUM RECORDED TEMPERATURE
MATR.         1                    : LOGUNIT      - NEUTRON MATRIX
RMT .C        25                   : MDTP         - TEMPERATURE OF MUD
NEUT.         1                    : NEUTRON      - NEUTRON TYPE
RESI.         0                    : RESIST       - RESISTIVITY TYPE
RMC .OHMM     0.25                 : RMC          - RESISTIVITY OF MUD CAKE
RMF .OHMM     0.25                 : RMF          - RESISTIVITY OF MUD FILTRATE
SUFT.C        15                   : SUFT         - SURFACE TEMPERATURE
~A  DEPTH     RESD     PHID     PHIN       GR
# ...
  430.500    6.444    0.222    0.447   85.843
  430.750    6.211    0.242    0.458   87.667
  431.000    5.987    0.243    0.468   90.100
  431.250    5.772    0.243    0.482   92.532
  431.500    5.667    0.243    0.473   93.747
  431.750    5.364    0.257    0.469   95.567
  432.000    5.267    0.266    0.475   91.296
  432.250    5.077    0.271    0.451   84.582
  432.500    4.894    0.277    0.419   82.136
  432.750    4.896    0.279    0.446   82.129
  433.000    4.991    0.288    0.457   81.515
  433.250    5.183    0.306    0.480   80.288
  433.500    5.284    0.290    0.456   78.454
  433.750    5.386    0.297    0.433   79.057
  434.000    5.192    0.300    0.432   80.877
  434.250    4.313    0.284    0.482   80.872
  434.500    4.080    0.318    0.501   80.868
  434.750    3.518    0.308    0.519   79.032
  435.000    3.328    0.299    0.505   77.808
  435.250    2.977    0.289    0.498   77.802
  435.500    2.615    0.282    0.521   80.231
  435.750    2.568    0.274    0.543   81.446
  436.000    2.476    0.270    0.557   82.052
  436.250    2.619    0.268    0.543   82.044
  436.500    2.720    0.259    0.534   82.039
  436.750    2.878    0.253    0.530   83.252
  437.000    3.102    0.248    0.567   84.464
  437.250    3.343    0.247    0.548   85.071
  437.500    3.884    0.248    0.491   84.455
  437.750    4.033    0.249    0.463   81.400
  438.000    4.428    0.233    0.447   78.954
  438.250    4.773    0.229    0.429   77.119
  438.500    4.957    0.225    0.433   78.939
  438.750    4.869    0.222    0.447   80.763
  439.000    4.608    0.226    0.466   81.975
  439.250    4.609    0.235    0.460   81.971
  439.500    4.787    0.239    0.444   81.967
  439.750    5.160    0.239    0.438   80.131
  440.000    5.666    0.233    0.428   77.684
  440.250    6.580    0.229    0.415   75.239
  440.500    7.091    0.237    0.405   73.405
  440.750    8.236    0.243    0.396   69.130
  441.000    9.216    0.273    0.390   66.686
  441.250    9.748    0.292    0.394   63.631
  441.500   10.908    0.265    0.400   62.406
  441.750   11.757    0.217    0.391   60.569
  442.000   12.912    0.121    0.341   59.346
  442.250   13.917    0.080    0.267   55.071
  442.500   15.001    0.173    0.332   49.577
  442.750   15.871    0.229    0.369   53.837
  443.000   16.791    0.240    0.411   56.271
  443.250   18.103    0.169    0.433   58.704
  443.500   18.797    0.146    0.363   51.989
  443.750   19.521    0.131    0.299   50.766
  444.000   19.897    0.122    0.269   49.541
  444.250   18.830    0.153    0.274   52.582
  444.500   17.161    0.196    0.345   53.797
  444.750   15.938    0.218    0.398   55.621
  445.000   16.863    0.224    0.416   56.224
  445.250   18.179    0.201    0.395   56.216
  445.500   18.527    0.190    0.338   56.211
  445.750   19.605    0.174    0.316   57.421
  446.000   19.613    0.196    0.340   58.026
  446.250   18.216    0.245    0.381   58.632
  446.500   16.918    0.270    0.407   59.236
  446.750   16.007    0.292    0.431   59.227
  447.000   14.868    0.293    0.439   59.222
  447.250   13.554    0.301    0.449   57.997
  447.500   12.821    0.314    0.456   56.162
  447.750   10.650    0.314    0.437   56.155
  448.000    8.681    0.300    0.443   56.758
  448.250    6.329    0.283    0.439   57.364
  448.500    5.065    0.254    0.441   60.406
  448.750    4.532    0.240    0.448   65.886
  449.000    4.450    0.230    0.456   68.321
  449.250    5.266    0.225    0.431   72.584
  449.500    5.675    0.236    0.412   75.626
  449.750    6.715    0.257    0.394   67.693
  450.000    7.375    0.276    0.394   63.418
  450.250    7.949    0.248    0.395   62.803
  450.500    8.254    0.223    0.398   65.844
  450.750    8.416    0.241    0.406   68.275
  451.000    8.418    0.259    0.409   70.097
  451.250    7.674    0.262    0.443   68.261
  451.500    6.740    0.241    0.432   75.576
  451.750    5.810    0.232    0.419   79.228
  452.000    5.396    0.222    0.430   81.053
  452.250    5.928    0.211    0.447   87.143
  452.500    6.389    0.232    0.458   87.138
  452.750    6.885    0.244    0.430   79.815
  453.000    7.704    0.251    0.408   73.712
  453.250    8.149    0.264    0.388   69.435
  453.500    9.119    0.267    0.369   67.602
  453.750    9.828    0.261    0.366   66.375
  454.000   11.416    0.256    0.377   67.588
  454.250   12.535    0.232    0.380   66.363
  454.500   13.509    0.079    0.383   65.749
  454.750   15.399    0.014    0.364   60.254
  455.000   16.293    0.054    0.281   57.809
  455.250   16.919    0.112    0.301   57.193
  455.500   14.861    0.194    0.347   59.627
  455.750   13.801    0.217    0.367   65.108
  456.000   13.306    0.233    0.380   68.760
  456.250   13.561    0.240    0.394   71.190
  456.500   14.085    0.246    0.402   72.405
  456.750   14.904    0.261    0.410   73.621
  457.000   14.908    0.272    0.413   75.444
  457.250   15.197    0.281    0.411   75.437
  457.500   14.650    0.285    0.412   72.992
  457.750   13.606    0.281    0.417   70.547
  458.000   12.638    0.272    0.423   74.198
  458.250   12.408    0.258    0.414   76.632
  458.500   12.188    0.264    0.434   73.577
  458.750   12.424    0.284    0.442   70.523
  459.000   12.901    0.292    0.447   70.517
  459.250   13.652    0.268    0.430   74.170
  459.500   14.441    0.245    0.415   75.383
  459.750   15.860    0.252    0.440   69.275
  460.000   16.777    0.277    0.447   66.832
  460.250   18.774    0.300    0.451   64.389
  460.500   19.865    0.309    0.445   61.334
  460.750   20.245    0.314    0.442   60.717
  461.000   21.028    0.314    0.453   60.100
  461.250   21.036    0.314    0.467   61.316
  461.500   19.905    0.313    0.458   64.967
  461.750   16.841    0.277    0.447   68.010
  462.000   15.934    0.261    0.433   71.053
  462.250   17.828    0.249    0.430   75.923
  462.500   21.892    0.265    0.434   78.358
  462.750   26.386    0.289    0.424   72.254
  463.000   31.218    0.308    0.418   67.368
  463.250   33.650    0.302    0.407   64.315
  463.500   35.605    0.293    0.403   60.042
  463.750   36.290    0.290    0.393   69.182
  464.000   30.709    0.264    0.381   68.562
  464.250   25.035    0.251    0.369   68.555
  464.500   21.580    0.227    0.363   69.160
  464.750   18.261    0.204    0.355   71.596
  465.000   17.603    0.185    0.349   75.247
  465.250   20.066    0.238    0.345   76.462
  465.500   25.108    0.270    0.357   69.748
  465.750   27.570    0.324    0.374   63.644
  466.000   28.631    0.320    0.389   64.858
  466.250   29.183    0.306    0.400   71.555
  466.500   26.111    0.293    0.400   74.597
  466.750   20.128    0.282    0.393   72.765
  467.000   15.809    0.265    0.388   75.809
  467.250   11.527    0.250    0.385   78.853
  467.500    9.937    0.247    0.382   81.895
  467.750    9.059    0.244    0.380   81.888
  468.000    8.731    0.238    0.377   78.221
  468.250    8.417    0.233    0.375   79.437
  468.500    8.421    0.229    0.376   83.699
  468.750    8.748    0.223    0.371   86.743
  469.000    9.084    0.220    0.373   87.346
  469.250    9.431    0.276    0.363   80.632
  469.500   10.167    0.282    0.359   75.138
  469.750   10.558    0.255    0.351   71.474
  470.000   10.563    0.227    0.346   71.467
  470.250   10.570    0.214    0.397   77.556
  470.500   10.577    0.246    0.407   81.209
  470.750   10.582    0.221    0.416   83.644
  471.000   10.586    0.229    0.416   85.469
  471.250   10.793    0.253    0.408   80.584
  471.500   10.599    0.235    0.402   73.869
  471.750   10.216    0.206    0.399   73.255
  472.000    9.313    0.184    0.404   80.565
  472.250   10.617    0.176    0.375   87.266
  472.500   10.820    0.248    0.338   92.138
  472.750   12.105    0.307    0.321   87.254
  473.000   17.908    0.316    0.306   75.663
  473.250   22.823    0.309    0.315   67.731
  473.500   29.090    0.307    0.334   62.237
  473.750   38.486    0.321    0.312   58.571
