~VERSION INFORMATION
 VERS.                 2.0:   CWLS LOG ASCII STANDARD -VERSION 2.0
 WRAP.                  NO:   ONE LINE PER DEPTH STEP
~WELL INFORMATION BLOCK
#MNEM.UNIT           DATA                    DESCRIPTION OF MNEMONIC
#---------    -------------------            -------------------------------
# Generated from Intellog Unique Number	CS_73_76/WELL/3278
WELL.         BOW VALLEY EXPLORATION         : Well_name    - WELL
LOC .         00/15-06-075-13W4/0            : Location     - LOCATION
UWI .         00/15-06-075-13W4/0            : Uwi          - UNIQUE WELL ID
ENTR.         SP                             : Entered      - ENTERED BY
SRVC.         SCHLUMBERGER                   : Scn          - SERVICE COMPANY
STRT.M        375                            : top_depth    - START DEPTH
STOP.M        615                            : bot_depth    - STOP DEPTH
STEP.M        0.25                           : increment    - STEP LENGTH
 NULL. -999.2500:NULL Value
~CURVE INFORMATION BLOCK
#MNEM UNIT       ERCB CURVE CODE    CURVE DESCRIPTION
#-----------   ------------------   ----------------------------------
DEPT.M        00 001 00 00         : DEPTH        - DEPTH
ILD .OHMM     00 120 00 00         : RESD         - DEEP RESISTIVITY (DIL)
DPHI.V/V      00 890 00 00         : PHID         - DENSITY POROSITY (LIMESTONE)
NPHI.V/V      00 330 00 00         : PHIN         - NEUTRON POROSITY (LIMESTONE)
GR  .API      00 310 00 00         : GR           - GAMMA RAY
~PARAMETER INFORMATION
#MNEM.UNIT           DATA             DESCRIPTION OF MNEMONIC
#---------         -----------     ------------------------------
GL  .M        742.4                : gl           - GROUND LEVEL ELEVATION
EREF.M        745.6                : kb           - ELEVATION OF DEPTH REFERENCE
DATM.M        742.4                : datum        - DATUM ELEVATION
TDD .M        636                  : tdd          - TOTAL DEPTH DRILLER
RUN .         ONE                  : Run          - RUN NUMBER
ENG .         BILL                 : Engineer     - RECORDING ENGINEER
WIT .         JIM                  : Witness      - WITNESSED BY
MUD .         GEL                  : Mud_type     - MUD TYPE
MATR.         LIMESTONE            : Logunit      - NEUTRON MATRIX
TMAX.C        14                   : BHT          - MAXIMUM RECORDED TEMPERATURE
BHTD.M        636                  : BHTDEP       - MAXIMUM RECORDED TEMPERATURE
MATR.         1                    : LOGUNIT      - NEUTRON MATRIX
RMT .C        25                   : MDTP         - TEMPERATURE OF MUD
NEUT.         1                    : NEUTRON      - NEUTRON TYPE
RESI.         0                    : RESIST       - RESISTIVITY TYPE
RMC .OHMM     0.25                 : RMC          - RESISTIVITY OF MUD CAKE
RMF .OHMM     0.25                 : RMF          - RESISTIVITY OF MUD FILTRATE
SUFT.C        15                   : SUFT         - SURFACE TEMPERATURE
~A  DEPTH     RESD     PHID     PHIN       GR
# ...
  505.500    5.227    0.214    0.345   52.718
  505.750    5.129    0.256    0.386   56.331
  506.000    5.033    0.303    0.399   57.534
  506.250    4.848    0.340    0.411   56.929
  506.500    4.669    0.343    0.397   56.928
  506.750    4.497    0.346    0.386   58.131
  507.000    4.496    0.355    0.407   59.333
  507.250    4.330    0.364    0.417   59.332
  507.500    4.329    0.353    0.413   59.331
  507.750    4.328    0.359    0.420   58.727
  508.000    4.246    0.355    0.416   58.725
  508.250    4.245    0.353    0.405   58.121
  508.500    4.244    0.351    0.403   59.926
  508.750    4.243    0.348    0.411   61.732
  509.000    4.163    0.346    0.412   64.139
  509.250    4.085    0.349    0.425   65.945
  509.500    4.084    0.354    0.435   67.750
  509.750    4.159    0.353    0.440   69.555
  510.000    4.237    0.346    0.442   71.361
  510.250    4.314    0.333    0.449   73.769
  510.500    4.395    0.322    0.440   75.575
  510.750    4.476    0.303    0.433   76.778
  511.000    4.559    0.290    0.426   76.174
  511.250    4.643    0.269    0.429   77.978
  511.500    4.729    0.265    0.440   77.977
  511.750    4.816    0.277    0.439   77.374
  512.000    4.815    0.282    0.426   73.155
  512.250    4.904    0.288    0.420   70.743
  512.500    4.903    0.306    0.430   69.537
  512.750    4.993    0.311    0.436   67.728
  513.000    4.992    0.313    0.440   63.510
  513.250    4.991    0.319    0.424   61.099
  513.500    4.897    0.329    0.413   59.892
  513.750    4.805    0.335    0.430   61.697
  514.000    4.715    0.331    0.441   64.708
  514.250    4.627    0.323    0.440   65.308
  514.500    4.456    0.320    0.450   66.511
  514.750    4.455    0.320    0.446   68.317
  515.000    4.372    0.314    0.456   68.316
  515.250    4.290    0.307    0.463   70.121
  515.500    4.289    0.308    0.472   67.106
  515.750    4.208    0.307    0.462   65.901
  516.000    4.286    0.300    0.453   64.694
  516.250    4.285    0.306    0.451   66.499
  516.500    4.283    0.301    0.451   66.498
  516.750    4.282    0.304    0.445   65.291
  517.000    4.361    0.302    0.434   64.084
  517.250    4.360    0.284    0.436   63.480
  517.500    4.441    0.249    0.443   63.479
  517.750    4.439    0.249    0.435   64.682
  518.000    4.522    0.265    0.431   65.885
  518.250    4.605    0.282    0.436   67.087
  518.500    4.604    0.295    0.446   68.291
  518.750    4.603    0.307    0.442   68.892
  519.000    4.601    0.311    0.440   68.288
  519.250    4.600    0.304    0.452   67.684
  519.500    4.598    0.299    0.458   67.079
  519.750    4.512    0.305    0.460   67.078
  520.000    4.511    0.306    0.452   67.076
  520.250    4.510    0.299    0.453   67.075
  520.500    4.508    0.293    0.462   69.482
  520.750    4.507    0.290    0.447   70.686
  521.000    4.506    0.295    0.439   71.889
  521.250    4.504    0.306    0.437   71.284
  521.500    4.588    0.312    0.446   70.680
  521.750    4.587    0.298    0.435   71.883
  522.000    4.585    0.295    0.423   72.484
  522.250    4.584    0.300    0.430   72.482
  522.500    4.583    0.304    0.438   70.071
  522.750    4.667    0.289    0.440   68.262
  523.000    4.666    0.284    0.429   70.669
  523.250    4.665    0.276    0.425   72.475
  523.500    4.663    0.272    0.422   72.473
  523.750    4.750    0.270    0.429   71.869
  524.000    4.748    0.283    0.433   73.072
  524.250    4.746    0.273    0.435   73.674
  524.500    4.745    0.264    0.441   73.069
  524.750    4.744    0.261    0.442   70.658
  525.000    4.743    0.276    0.435   71.259
  525.250    4.742    0.281    0.433   74.269
  525.500    4.829    0.290    0.444   75.472
  525.750    4.827    0.300    0.445   68.844
  526.000    4.917    0.307    0.440   65.830
  526.250    5.102    0.309    0.436   62.214
  526.500    5.598    0.293    0.425   57.995
  526.750    6.143    0.248    0.434   53.175
  527.000   10.342    0.197    0.438   47.752
  527.250   11.561    0.010    0.284   42.328
  527.500   12.452    0.014    0.165   42.928
  527.750   12.681    0.043    0.158   47.746
  528.000   11.989    0.070    0.169   53.165
  528.250   10.920    0.111    0.201   55.574
  528.500    9.582    0.156    0.239   60.994
  528.750    8.568    0.230    0.292   65.209
  529.000    7.519    0.282    0.319   68.219
  529.250    6.476    0.294    0.363   68.216
  529.500    5.899    0.278    0.409   67.613
  529.750    5.577    0.266    0.403   68.213
  530.000    5.372    0.263    0.376   69.416
  530.250    5.173    0.294    0.421   70.018
  530.500    5.172    0.292    0.444   73.028
  530.750    5.075    0.281    0.442   74.231
  531.000    4.980    0.266    0.435   70.013
  531.250    4.886    0.271    0.427   68.204
  531.500    4.795    0.283    0.445   68.804
  531.750    4.705    0.282    0.455   70.007
  532.000    4.617    0.275    0.450   70.006
  532.250    4.616    0.263    0.442   70.004
  532.500    4.530    0.260    0.433   72.412
  532.750    4.613    0.266    0.445   73.615
  533.000    4.612    0.254    0.452   73.011
  533.250    4.697    0.243    0.452   73.009
  533.500    4.784    0.234    0.446   73.610
  533.750    4.872    0.245    0.436   73.608
  534.000    4.962    0.254    0.432   74.209
  534.250    5.149    0.237    0.441   74.810
  534.500    5.148    0.219    0.438   76.013
  534.750    5.341    0.201    0.443   77.818
  535.000    5.441    0.151    0.449   71.189
  535.250    5.541    0.103    0.413   67.574
  535.500    5.644    0.150    0.406   71.789
  535.750    5.642    0.215    0.416   79.016
  536.000    5.746    0.236    0.424   82.629
  536.250    5.744    0.246    0.432   85.037
  536.500    5.743    0.243    0.438   87.445
  536.750    5.635    0.214    0.417   83.225
  537.000    5.634    0.213    0.406   82.019
  537.250    5.632    0.208    0.416   80.813
  537.500    5.527    0.203    0.423   78.402
  537.750    5.423    0.199    0.423   83.821
  538.000    5.422    0.218    0.421   89.241
  538.250    5.320    0.226    0.424   93.457
  538.500    5.318    0.245    0.428   92.250
  538.750    5.316    0.242    0.432   90.441
  539.000    5.416    0.228    0.435   89.837
  539.250    5.516    0.218    0.421   92.245
  539.500    5.617    0.208    0.404   96.460
  539.750    5.616    0.218    0.395   98.868
  540.000    5.614    0.228    0.397   98.264
  540.250    5.509    0.239    0.397   97.057
  540.500    5.306    0.211    0.414   94.043
  540.750    5.111    0.197    0.421   89.222
  541.000    4.922    0.207    0.421   85.003
  541.250    4.741    0.216    0.411   83.195
  541.500    4.652    0.202    0.404   80.182
  541.750    4.565    0.193    0.398   77.168
  542.000    4.397    0.208    0.401   77.768
  542.250    4.157    0.236    0.411   78.972
  542.500    3.857    0.251    0.418   81.982
  542.750    3.514    0.276    0.429   84.992
  543.000    3.141    0.298    0.454   87.400
  543.250    2.607    0.300    0.497   85.591
  543.500    2.204    0.286    0.531   84.987
  543.750    1.971    0.280    0.564   84.985
  544.000    1.863    0.284    0.554   83.779
  544.250    1.794    0.273    0.539   82.572
  544.500    1.794    0.267    0.522   84.377
  544.750    1.827    0.262    0.504   86.785
  545.000    1.827    0.274    0.496   88.590
  545.250    1.931    0.287    0.493   89.191
  545.500    2.004    0.277    0.502   87.985
  545.750    2.158    0.267    0.508   85.574
  546.000    2.368    0.252    0.514   84.367
  546.250    2.905    0.246    0.509   84.366
  546.500    4.136    0.231    0.463   82.557
  546.750    4.624    0.201    0.437   81.350
  547.000    5.073    0.187    0.420   83.156
  547.250    5.265    0.202    0.408   87.973
  547.500    5.362    0.202    0.416   87.369
  547.750    5.165    0.161    0.421   84.958
  548.000    4.974    0.088    0.412   80.137
  548.250    4.791    0.109    0.376   80.738
  548.500    4.529    0.158    0.353   86.157
  548.750    4.444    0.196    0.381   87.361
