~VERSION INFORMATION
 VERS.                 2.0:   CWLS LOG ASCII STANDARD -VERSION 2.0
 WRAP.                  NO:   ONE LINE PER DEPTH STEP
~WELL INFORMATION BLOCK
#MNEM.UNIT           DATA                    DESCRIPTION OF MNEMONIC
#---------    -------------------            -------------------------------
# Generated from Intellog Unique Number	CW_70_72/WELL/1063
NULL.         -999.25                        : NULL_VALUE
WELL.         JOFFRE ET AL CALLW 11-35       : Well_name    - WELL              
LOC .         11-35-072-20W4                 : Location     - LOCATION          
UWI .         00/11-35-072-20W4/0            : Uwi          - UNIQUE WELL ID    
ENTR.         JAYE                           : Entered      - ENTERED BY        
SRVC.         SCHLUMBERGER                   : Scn          - SERVICE COMPANY   
DATE.         5 JAN 79                       : Date         - LOG DATE          
STRT.M        355                            : top_depth    - START DEPTH       
STOP.M        565                            : bot_depth    - STOP DEPTH        
STEP.M        0.25                           : increment    - STEP LENGTH       
~CURVE INFORMATION BLOCK
#MNEM UNIT       ERCB CURVE CODE    CURVE DESCRIPTION
#-----------   ------------------   ----------------------------------
DEPT.M        00 001 00 00         : DEPTH        - DEPTH                       
DPHI.V/V      00 890 00 00         : PHID         - DENSITY POROSITY (SANDSTONE)
NPHI.V/V      00 330 00 00         : PHIN         - NEUTRON POROSITY (SANDSTONE)
GR  .API      00 310 00 00         : GR           - GAMMA RAY                   
CALI.MM       00 280 01 00         : CAL          - CALIPER                     
ILD .OHMM     00 120 00 00         : RESD         - DEEP RESISTIVITY (DIL)      
~PARAMETER INFORMATION       
#MNEM.UNIT           DATA             DESCRIPTION OF MNEMONIC
#---------         -----------     ------------------------------
GL  .M        643.2                : gl           - GROUND LEVEL ELEVATION      
EREF.M        646.5                : kb           - ELEVATION OF DEPTH REFERENCE
DATM.M        643.2                : datum        - DATUM ELEVATION             
TDD .M        605                  : tdd          - TOTAL DEPTH DRILLER         
RUN .         ONE                  : Run          - RUN NUMBER                  
WIT .         O'REILY              : Witness      - WITNESSED BY                
BASE.         LLOYD                : Branch       - HOME BASE OF LOGGING UNIT   
MUD .         GEL CHEM             : Mud_type     - MUD TYPE                    
MATR.         SANDSTONE            : Logunit      - NEUTRON MATRIX              
TMAX.C        0                    : BHT          - MAXIMUM RECORDED TEMPERATURE
BHTD.M        604.5                : BHTDEP       - MAXIMUM RECORDED TEMPERATURE
RMT .C        10                   : MDTP         - TEMPERATURE OF MUD          
MUDD.KG/M     1102                 : MWT          - MUD DENSITY                 
NEUT.         1                    : NEUTRON      - NEUTRON TYPE                
RESI.         0                    : RESIST       - RESISTIVITY TYPE            
RM  .OHMM     5.21                 : RM           - RESISTIVITY OF MUD          
RMC .OHMM     0                    : RMC          - RESISTIVITY OF MUD CAKE     
RMF .OHMM     3.6                  : RMF          - RESISTIVITY OF MUD FILTRATE 
SUFT.C        0                    : SUFT         - SURFACE TEMPERATURE         
~A  DEPTH     PHID     PHIN       GR      CAL     RESD
# ...
  537.500    0.241    0.363   93.214  168.100   11.989
  537.750    0.248    0.362   89.396  170.683   12.831
  538.000    0.227    0.354   84.222  171.928   13.282
  538.250    0.214    0.349   83.304  169.575   13.401
  538.500    0.244    0.348   84.052  167.530   13.152
  538.750    0.272    0.352   84.059  165.590   13.046
  539.000    0.249    0.366   78.453  164.368   13.091
  539.250    0.255    0.383   78.707  165.511   13.378
  539.500    0.266    0.394   77.604  167.372   13.953
  539.750    0.267    0.383   73.355  169.029   14.713
  540.000    0.270    0.377   69.107  169.247   16.016
  540.250    0.295    0.370   70.101  168.333   16.731
  540.500    0.309    0.358   75.043  163.618   17.711
  540.750    0.292    0.373   79.675  160.649   18.955
  541.000    0.283    0.356   85.233  159.220   20.025
  541.250    0.270    0.345   91.222  161.493   19.835
  541.500    0.227    0.341  100.667  167.879   18.241
  541.750    0.216    0.346  105.176  172.722   15.991
  542.000    0.231    0.356  100.003  173.042   13.412
  542.250    0.251    0.364  102.662  168.119   11.757
  542.500    0.272    0.370  109.762  165.769   10.594
  542.750    0.270    0.375  119.637  167.321    9.946
  543.000    0.233    0.391  121.680  170.520    9.705
  543.250    0.225    0.414  105.713  172.896    9.648
  543.500    0.282    0.406  109.605  172.293    9.786
  543.750    0.268    0.353  118.495  169.529   10.057
  544.000    0.242    0.324  127.938  165.428    9.978
  544.250    0.219    0.323  136.704  164.000    9.418
  544.500    0.205    0.337  142.323  170.900    8.678
  544.750    0.212    0.346  147.450  174.714    7.722
  545.000    0.212    0.349  151.836  173.596    7.168
  545.250    0.190    0.356  150.178  172.785    6.691
  545.500    0.230    0.361  153.393  173.619    6.269
  545.750    0.219    0.339  158.767  174.557    5.886
  546.000    0.180    0.322  163.152  172.821    5.681
  546.250    0.165    0.313  169.944  171.188    5.543
  546.500    0.160    0.302  177.415  169.966    5.470
  546.750    0.156    0.309  177.113  168.334    5.417
  547.000    0.159    0.324  173.604  167.112    5.413
  547.250    0.183    0.330  167.814  169.076    5.441
  547.500    0.159    0.321  161.961  171.865    5.479
  547.750    0.187    0.307  156.355  175.165    5.557
  548.000    0.172    0.308  151.120  177.644    5.690
  548.250    0.136    0.321  145.145  175.911    5.913
  548.500    0.098    0.330  142.005  176.950    6.178
  548.750    0.054    0.302  149.969  176.755    6.432
  549.000    0.046    0.275  163.299  175.225    6.660
  549.250    0.086    0.307  172.990  176.779    6.817
  549.500    0.156    0.331  174.909  180.388    6.980
  549.750    0.172    0.347  161.347  174.644    7.055
  550.000    0.138    0.335  151.239  171.778    7.065
  550.250    0.093    0.310  142.734  171.070    7.036
  550.500    0.092    0.290  135.772  171.287    7.058
  550.750    0.102    0.267  134.052  169.962    7.389
  551.000    0.090    0.273  133.565  170.077    7.967
  551.250    0.084    0.303  125.616  173.687    8.623
  551.500    0.063    0.300  124.204  175.549    9.400
  551.750    0.044    0.279  132.600  168.365    9.987
  552.000    0.074    0.274  151.296  170.536    9.837
  552.250    0.103    0.327  159.507  174.352    8.948
  552.500    0.134    0.361  164.633  176.936    7.772
  552.750    0.208    0.390  170.190  177.666    6.282
  553.000    0.290    0.402  150.522  166.266    5.526
  553.250    0.292    0.386  145.102  162.577    4.669
  553.500    0.253    0.371  144.493  162.593    3.981
  553.750    0.240    0.372  145.918  163.013    3.634
  554.000    0.239    0.379  142.656  165.593    3.468
  554.250    0.225    0.386  137.358  165.914    3.397
  554.500    0.238    0.399  132.864  161.403    3.460
  554.750    0.273    0.376  127.813  159.566    3.537
  555.000    0.269    0.350  121.775  160.811    3.633
  555.250    0.216    0.371  110.927  162.364    3.824
  555.500    0.183    0.367   95.021  164.021    3.930
  555.750    0.126    0.334   84.728  165.266    4.496
  556.000    0.081    0.293   80.356  165.688    5.248
  556.250    0.095    0.284   84.434  162.205    6.265
  556.500    0.095    0.326   92.891  157.077    7.673
  556.750    0.107    0.342  103.753  161.304    8.894
  557.000    0.135    0.347  110.977  164.297    9.308
  557.250    0.154    0.339  100.437  165.748    9.254
  557.500    0.160    0.326   99.951  165.967    7.890
  557.750    0.185    0.334  102.734  166.082    6.854
  558.000    0.221    0.359  108.476  166.196    6.293
  558.250    0.190    0.367  107.312  166.105    6.027
  558.500    0.151    0.362  102.446  166.116    5.870
  558.750    0.132    0.352   97.025  166.336    5.869
  559.000    0.123    0.336   92.838  166.450    5.975
  559.250    0.112    0.356   84.395  166.255    6.300
  559.500    0.133    0.367   82.059  166.267    7.062
  559.750    0.109    0.292   89.653  166.484    7.449
  560.000    0.155    0.305   98.973  166.498    7.460
  560.250    0.165    0.321  100.954  166.508    7.105
  560.500    0.179    0.314  104.045  166.315    6.525
  560.750    0.188    0.317  109.788  166.018    6.194
  561.000    0.233    0.332  123.734  165.520    5.964
  561.250    0.240    0.354  123.001  165.013    5.588
  561.500    0.229    0.365  118.815  164.819    4.757
  561.750    0.254    0.380  115.800  164.833    4.086
  562.000    0.292    0.391  112.599  164.639    3.655
  562.250    0.298    0.397  108.597  164.548    3.246
  562.500    0.289    0.397  108.790  164.559    3.098
  562.750    0.269    0.394  109.722  164.468    3.243
  563.000    0.244    0.382  111.641  165.815    3.676
  563.250    0.218    0.372  113.868  167.576    4.260
  563.500    0.159    0.335  115.788  167.998    4.757
  563.750    0.142    0.301  116.658  167.805    5.351
  564.000    0.129    0.300  115.740  167.714    6.236
  564.250    0.125    0.312  101.315  167.519    7.186
  564.500    0.144    0.330   81.399  167.122    8.025
  564.750    0.150    0.346   70.859  166.928    8.495
  565.000    0.104    0.310   63.403  166.528    8.943
