~VERSION INFORMATION
 VERS.                 2.0:   CWLS LOG ASCII STANDARD -VERSION 2.0
 WRAP.                  NO:   ONE LINE PER DEPTH STEP
~WELL INFORMATION BLOCK
#MNEM.UNIT           DATA                    DESCRIPTION OF MNEMONIC
#---------    -------------------            -------------------------------
# Generated from Intellog Unique Number	CS_69_70/WELL/894
WELL.         UNIVERSAL EXPLORATIONS         : Well_name    - WELL
LOC .         00/11-23-069-10W4/0            : Location     - LOCATION
UWI .         00/11-23-069-10W4/0            : Uwi          - UNIQUE WELL ID
ENTR.         SP                             : Entered      - ENTERED BY
SRVC.         SCHLUMBERGER                   : Scn          - SERVICE COMPANY
STRT.M        390                            : top_depth    - START DEPTH
STOP.M        610                            : bot_depth    - STOP DEPTH
STEP.M        0.25                           : increment    - STEP LENGTH
 NULL. -999.2500:NULL Value
~CURVE INFORMATION BLOCK
#MNEM UNIT       ERCB CURVE CODE    CURVE DESCRIPTION
#-----------   ------------------   ----------------------------------
DEPT.M        00 001 00 00         : DEPTH        - DEPTH
ILD .OHMM     00 120 00 00         : RESD         - DEEP RESISTIVITY (DIL)
DPHI.V/V      00 890 00 00         : PHID         - DENSITY POROSITY (LIMESTONE)
NPHI.V/V      00 330 00 00         : PHIN         - NEUTRON POROSITY (LIMESTONE)
GR  .API      00 310 00 00         : GR           - GAMMA RAY
~PARAMETER INFORMATION
#MNEM.UNIT           DATA             DESCRIPTION OF MNEMONIC
#---------         -----------     ------------------------------
GL  .M        716.4                : gl           - GROUND LEVEL ELEVATION
EREF.M        719.75               : kb           - ELEVATION OF DEPTH REFERENCE
DATM.M        716.4                : datum        - DATUM ELEVATION
TDD .M        625                  : tdd          - TOTAL DEPTH DRILLER
RUN .         ONE                  : Run          - RUN NUMBER
ENG .         BILL                 : Engineer     - RECORDING ENGINEER
WIT .         JIM                  : Witness      - WITNESSED BY
MUD .         GEL                  : Mud_type     - MUD TYPE
MATR.         LIMESTONE            : Logunit      - NEUTRON MATRIX
TMAX.C        27                   : BHT          - MAXIMUM RECORDED TEMPERATURE
BHTD.M        625                  : BHTDEP       - MAXIMUM RECORDED TEMPERATURE
MATR.         1                    : LOGUNIT      - NEUTRON MATRIX
RMT .C        25                   : MDTP         - TEMPERATURE OF MUD
NEUT.         1                    : NEUTRON      - NEUTRON TYPE
RESI.         0                    : RESIST       - RESISTIVITY TYPE
RMC .OHMM     0.25                 : RMC          - RESISTIVITY OF MUD CAKE
RMF .OHMM     0.25                 : RMF          - RESISTIVITY OF MUD FILTRATE
SUFT.C        15                   : SUFT         - SURFACE TEMPERATURE
~A  DEPTH     RESD     PHID     PHIN       GR
# ...
  477.000    7.882    0.211    0.420   60.474
  477.250    8.109    0.209    0.391   56.253
  477.500    8.486    0.246    0.354   58.575
  477.750    8.863    0.263    0.412   63.403
  478.000    9.153    0.274    0.436   65.235
  478.250    9.523    0.284    0.439   66.211
  478.500    9.910    0.278    0.449   66.025
  478.750   10.176    0.272    0.466   64.372
  479.000   10.450    0.273    0.462   63.942
  479.250   10.671    0.274    0.434   63.511
  479.500   11.042    0.273    0.420   63.081
  479.750   11.085    0.276    0.429   63.140
  480.000   11.171    0.283    0.436   64.972
  480.250   11.047    0.291    0.409   66.254
  480.500   10.925    0.298    0.412   67.903
  480.750   10.907    0.293    0.422   68.329
  481.000   11.054    0.279    0.423   68.326
  481.250   11.501    0.270    0.431   70.342
  481.500   12.081    0.271    0.444   72.663
  481.750   12.713    0.274    0.425   73.945
  482.000   13.080    0.278    0.410   67.094
  482.250   13.107    0.281    0.402   63.362
  482.500   12.577    0.280    0.430   65.316
  482.750   11.934    0.233    0.455   69.166
  483.000   11.802    0.163    0.351   71.977
  483.250   12.656    0.078    0.262   61.885
  483.500   14.040    0.066    0.242   56.257
  483.750   15.692    0.079    0.281   62.492
  484.000   17.051    0.100    0.368   66.954
  484.250   17.444    0.124    0.319   66.645
  484.500   14.617    0.092    0.269   69.762
  484.750   11.796    0.103    0.300   72.878
  485.000   10.110    0.170    0.373   74.160
  485.250    8.361    0.262    0.419   73.363
  485.500    7.413    0.286    0.447   71.710
  485.750    6.968    0.299    0.459   72.991
  486.000    6.904    0.298    0.458   74.395
  486.250    6.997    0.292    0.451   75.616
  486.500    7.012    0.287    0.449   76.225
  486.750    7.000    0.284    0.457   76.040
  487.000    7.041    0.281    0.467   73.775
  487.250    7.069    0.277    0.474   71.449
  487.500    7.097    0.273    0.475   70.957
  487.750    7.125    0.280    0.454   74.196
  488.000    7.140    0.287    0.443   75.906
  488.250    7.141    0.274    0.435   69.972
  488.500    7.129    0.269    0.436   71.927
  488.750    7.091    0.270    0.449   74.554
  489.000    7.078    0.278    0.454   71.677
  489.250    7.053    0.255    0.442   75.100
  489.500    7.015    0.236    0.430   79.561
  489.750    7.016    0.234    0.446   80.415
  490.000    7.031    0.244    0.465   74.848
  490.250    7.098    0.251    0.458   75.090
  490.500    7.235    0.243    0.451   76.617
  490.750    7.443    0.243    0.462   72.579
  491.000    7.601    0.253    0.450   71.720
  491.250    7.761    0.255    0.440   73.981
  491.500    7.866    0.240    0.435   76.546
  491.750    7.957    0.228    0.445   77.217
  492.000    8.003    0.225    0.451   77.581
  492.250    8.050    0.232    0.440   79.964
  492.500    8.097    0.241    0.425   82.591
  492.750    8.114    0.239    0.416   85.646
  493.000    8.085    0.222    0.416   86.989
  493.250    8.026    0.214    0.434   85.397
  493.500    7.833    0.226    0.448   86.251
  493.750    7.602    0.236    0.457   84.965
  494.000    7.434    0.231    0.456   79.826
  494.250    7.283    0.230    0.459   80.863
  494.500    7.230    0.213    0.467   82.450
  494.750    7.191    0.194    0.448   83.671
  495.000    7.192    0.177    0.433   84.708
  495.250    7.220    0.163    0.444   85.684
  495.500    7.222    0.154    0.462   84.276
  495.750    7.223    0.153    0.450   84.396
  496.000    7.197    0.153    0.447   85.189
  496.250    7.253    0.153    0.443   86.287
  496.500    7.323    0.156    0.432   87.813
  496.750    7.325    0.159    0.418   85.426
  497.000    7.326    0.165    0.406   83.284
  497.250    7.342    0.156    0.398   84.932
  497.500    7.330    0.151    0.404   87.987
  497.750    7.317    0.159    0.428   89.820
  498.000    7.263    0.171    0.461   90.918
  498.250    6.662    0.183    0.478   90.855
  498.500    6.053    0.193    0.461   91.342
  498.750    5.754    0.190    0.453   91.523
  499.000    5.512    0.186    0.458   91.215
  499.250    5.440    0.179    0.444   92.252
  499.500    5.370    0.176    0.438   93.901
  499.750    5.321    0.173    0.457   95.427
  500.000    5.312    0.168    0.468   93.651
  500.250    5.223    0.172    0.427   92.182
  500.500    4.649    0.195    0.404   90.528
  500.750    4.248    0.217    0.447   89.915
  501.000    3.731    0.231    0.494   91.380
  501.250    3.365    0.236    0.542   92.356
  501.500    2.989    0.219    0.579   93.577
  501.750    2.665    0.207    0.580   94.308
  502.000    2.505    0.198    0.560   95.040
  502.250    2.617    0.189    0.535   93.876
  502.500    2.774    0.182    0.517   95.707
  502.750    2.936    0.175    0.504   97.968
  503.000    3.131    0.198    0.499   96.009
  503.250    3.506    0.214    0.494   89.708
  503.500    3.919    0.220    0.487   83.591
  503.750    4.250    0.208    0.478   82.305
  504.000    4.464    0.196    0.470   82.853
  504.250    4.671    0.188    0.475   85.541
  504.500    4.797    0.196    0.471   87.924
  504.750    4.889    0.219    0.471   82.846
  505.000    4.992    0.241    0.477   78.074
  505.250    5.031    0.256    0.487   74.158
  505.500    5.032    0.275    0.502   73.116
  505.750    4.976    0.272    0.515   78.556
  506.000    4.695    0.280    0.518   79.838
  506.250    4.557    0.289    0.517   72.131
  506.500    4.575    0.299    0.503   65.585
  506.750    4.654    0.301    0.486   59.468
  507.000    4.752    0.297    0.469   56.592
  507.250    4.898    0.293    0.464   58.180
  507.500    4.983    0.292    0.466   62.397
  507.750    5.079    0.282    0.469   67.469
  508.000    5.128    0.269    0.461   71.626
  508.250    5.217    0.258    0.450   76.393
  508.500    5.237    0.251    0.443   80.427
  508.750    5.238    0.259    0.430   76.327
  509.000    5.180    0.267    0.417   70.699
  509.250    5.094    0.272    0.417   65.438
  509.500    4.981    0.278    0.425   63.479
  509.750    4.917    0.283    0.423   65.678
  510.000    4.808    0.290    0.434   67.510
  510.250    4.728    0.269    0.459   71.116
  510.500    4.685    0.229    0.488   74.354
  510.750    4.686    0.189    0.523   76.126
  511.000    4.885    0.138    0.431   70.559
  511.250    5.595    0.071    0.358   58.877
  511.500    6.301    0.008    0.265   50.436
  511.750    6.937   -0.007    0.226   50.128
  512.000    7.481    0.140    0.383   58.870
  512.250    7.888    0.131    0.423   67.796
  512.500    7.830    0.098    0.377   69.322
  512.750    7.402    0.097    0.344   67.607
  513.000    6.970    0.120    0.320   68.033
  513.250    6.490    0.145    0.321   70.110
  513.500    6.323    0.169    0.369   75.672
  513.750    6.124    0.192    0.399   80.684
  514.000    5.866    0.203    0.428   84.963
  514.250    5.483    0.202    0.458   86.000
  514.500    5.067    0.195    0.452   84.224
  514.750    4.754    0.192    0.441   84.589
  515.000    4.536    0.190    0.445   85.871
  515.250    4.469    0.194    0.439   86.969
  515.500    4.420    0.201    0.441   87.150
  515.750    4.355    0.202    0.460   84.947
  516.000    4.339    0.204    0.453   83.293
  516.250    4.373    0.210    0.443   82.007
  516.500    4.431    0.218    0.449   82.861
  516.750    4.534    0.200    0.462   84.509
  517.000    4.621    0.184    0.458   85.485
  517.250    4.648    0.200    0.452   85.361
  517.500    4.657    0.213    0.447   84.808
  517.750    4.685    0.211    0.443   84.683
  518.000    4.677    0.204    0.440   85.048
  518.250    4.669    0.199    0.436   85.657
  518.500    4.652    0.196    0.432   86.083
  518.750    4.671    0.194    0.430   86.998
  519.000    4.689    0.194    0.434   87.485
  519.250    4.743    0.192    0.440   87.850
  519.500    4.817    0.194    0.433   88.398
  519.750    4.854    0.201    0.436   88.945
  520.000    4.882    0.205    0.446   89.310
  520.250    4.957    0.199    0.436   89.369
