~VERSION INFORMATION
 VERS.                 2.0:   CWLS LOG ASCII STANDARD -VERSION 2.0
 WRAP.                  NO:   ONE LINE PER DEPTH STEP
~WELL INFORMATION BLOCK
#MNEM.UNIT           DATA                    DESCRIPTION OF MNEMONIC
#---------    -------------------            -------------------------------
# Generated from Intellog Unique Number	CX_WELLS/WELL/2829
WELL.         BANKENO THORDARY               : Well_name    - WELL
LOC .         00/10-28-081-12W4/0            : Location     - LOCATION
UWI .         00/10-28-081-12W400            : Uwi          - UNIQUE WELL ID
ENTR.         T                              : Entered      - ENTERED BY
SRVC.         SCHLUMBERGER                   : Scn          - SERVICE COMPANY
STRT.M        300                            : top_depth    - START DEPTH
STOP.M        525                            : bot_depth    - STOP DEPTH
STEP.M        0.25                           : increment    - STEP LENGTH
 NULL. -999.2500:NULL Value
~CURVE INFORMATION BLOCK
#MNEM UNIT       ERCB CURVE CODE    CURVE DESCRIPTION
#-----------   ------------------   ----------------------------------
DEPT.M        00 001 00 00         : DEPTH        - DEPTH
GR  .API      00 310 00 00         : GR           - GAMMA RAY
NPHI.V/V      00 330 00 00         : PHIN         - NEUTRON POROSITY (SANDSTONE)
DPHI.V/V      00 890 00 00         : PHID         - DENSITY POROSITY (SANDSTONE)
ILD .OHMM     00 120 00 00         : RESD         - DEEP RESISTIVITY (OTHER)
~PARAMETER INFORMATION
#MNEM.UNIT           DATA             DESCRIPTION OF MNEMONIC
#---------         -----------     ------------------------------
GL  .M        732.4                : gl           - GROUND LEVEL ELEVATION
EREF.M        750.3                : kb           - ELEVATION OF DEPTH REFERENCE
DATM.M        750.3                : datum        - DATUM ELEVATION
TDD .M        637                  : tdd          - TOTAL DEPTH DRILLER
RUN .         ONE                  : Run          - RUN NUMBER
ENG .         BILL                 : Engineer     - RECORDING ENGINEER
WIT .         JIM                  : Witness      - WITNESSED BY
MUD .         GEL                  : Mud_type     - MUD TYPE
MATR.         SANDSTONE            : Logunit      - NEUTRON MATRIX
TMAX.C        22                   : BHT          - MAXIMUM RECORDED TEMPERATURE
BHTD.M        642                  : BHTDEP       - MAXIMUM RECORDED TEMPERATURE
MATR.         1                    : LOGUNIT      - NEUTRON MATRIX
RMT .C        22                   : MDTP         - TEMPERATURE OF MUD
NEUT.         1                    : NEUTRON      - NEUTRON TYPE
RESI.         0.3                  : RESIST       - RESISTIVITY TYPE
RMC .OHMM     0.25                 : RMC          - RESISTIVITY OF MUD CAKE
RMF .OHMM     0.25                 : RMF          - RESISTIVITY OF MUD FILTRATE
SUFT.C        4                    : SUFT         - SURFACE TEMPERATURE
~A  DEPTH       GR     PHIN     PHID     RESD
# ...
  343.500   91.193    0.456    0.267    9.470
  343.750   91.234    0.445    0.262    9.149
  344.000   91.286    0.440    0.257    8.831
  344.250   91.909    0.438    0.251    8.527
  344.500   93.178    0.444    0.254    8.085
  344.750   93.823    0.450    0.259    7.807
  345.000   95.070    0.455    0.252    7.971
  345.250   95.122    0.451    0.247    8.283
  345.500   95.756    0.445    0.250    8.767
  345.750   95.787    0.440    0.256    9.278
  346.000   95.828    0.441    0.262    9.820
  346.250   95.870    0.445    0.270   10.393
  346.500   95.911    0.441    0.279   10.799
  346.750   95.963    0.424    0.289   11.222
  347.000   96.004    0.417    0.292   11.882
  347.250   96.045    0.420    0.295   12.117
  347.500   95.483    0.426    0.296   12.824
  347.750   90.085    0.432    0.302   13.331
  348.000   79.870    0.427    0.308   14.109
  348.250   74.482    0.415    0.317   14.674
  348.500   69.094    0.416    0.324   14.693
  348.750   60.086    0.419    0.327   14.718
  349.000   54.094    0.415    0.329   15.022
  349.250   51.723    0.411    0.330   15.035
  349.500   49.954    0.408    0.333   15.060
  349.750   49.995    0.414    0.334   15.092
  350.000   51.243    0.422    0.336   15.118
  350.250   51.888    0.418    0.337   15.144
  350.500   51.326    0.412    0.337   15.163
  350.750   50.160    0.408    0.338   15.196
  351.000   50.202    0.408    0.339   15.241
  351.250   50.243    0.416    0.339   15.248
  351.500   50.284    0.426    0.339   15.274
  351.750   50.336    0.421    0.338   15.300
  352.000   49.774    0.418    0.337   15.332
  352.250   49.805    0.406    0.335   15.358
  352.500   49.243    0.401    0.337   15.384
  352.750   47.485    0.399    0.338   15.696
  353.000   47.516    0.399    0.341   15.723
  353.250   48.784    0.404    0.346   15.743
  353.500   49.418    0.400    0.353   15.790
  353.750   50.666    0.386    0.351   15.810
  354.000   50.718    0.397    0.344   15.844
  354.250   51.362    0.411    0.340   15.864
  354.500   52.610    0.410    0.339   15.891
  354.750   54.461    0.398    0.341   15.911
  355.000   55.106    0.389    0.343   15.945
  355.250   53.347    0.394    0.343   15.966
  355.500   53.368    0.401    0.343   15.702
  355.750   52.213    0.414    0.342   15.729
  356.000   52.255    0.423    0.340   15.470
  356.250   52.899    0.422    0.340   15.221
  356.500   53.544    0.422    0.341   14.710
  356.750   54.188    0.422    0.342   14.723
  357.000   54.833    0.413    0.347   14.486
  357.250   54.874    0.397    0.350   14.241
  357.500   54.333    0.400    0.354   14.018
  357.750   54.364    0.412    0.357   14.036
  358.000   54.405    0.422    0.361   13.805
  358.250   55.642    0.428    0.361   13.822
  358.500   56.911    0.436    0.361   13.852
  358.750   57.545    0.439    0.355   13.869
  359.000   57.597    0.429    0.351   13.893
  359.250   57.014    0.419    0.345   13.917
  359.500   55.849    0.421    0.340   13.958
  359.750   54.090    0.425    0.333   13.976
  360.000   53.539    0.437    0.326   14.253
  360.250   54.163    0.444    0.230   14.024
  360.500   55.421    0.431    0.226   14.048
  360.750   56.669    0.417    0.258   13.816
  361.000   58.520    0.414    0.307   13.588
  361.250   57.958    0.420    0.366   13.611
  361.500   55.596    0.427    0.369   13.629
  361.750   53.224    0.446    0.367   13.404
  362.000   52.059    0.456    0.363   13.427
  362.250   52.694    0.456    0.367   13.222
  362.500   52.735    0.454    0.373   13.233
  362.750   52.173    0.452    0.374   13.261
  363.000   51.621    0.447    0.371   13.290
  363.250   51.652    0.443    0.368   13.307
  363.500   51.693    0.438    0.365   13.324
  363.750   51.755    0.433    0.362   13.352
  364.000   51.786    0.428    0.364   13.375
  364.250   51.817    0.428    0.365   13.403
  364.500   52.472    0.434    0.364   13.421
  364.750   53.137    0.442    0.362   13.438
  365.000   53.168    0.446    0.357   13.227
  365.250   53.199    0.450    0.357   13.244
  365.500   52.034    0.447    0.357   13.026
  365.750   50.879    0.442    0.357   13.059
  366.000   49.714    0.441    0.355   13.076
  366.250   49.745    0.440    0.353   13.098
  366.500   49.796    0.439    0.350   13.120
  366.750   50.441    0.437    0.349   12.898
  367.000   50.472    0.435    0.349   12.926
  367.250   49.306    0.427    0.348   12.718
  367.500   47.538    0.424    0.347   12.734
  367.750   48.193    0.424    0.347   12.751
  368.000   50.044    0.422    0.347   12.783
  368.250   51.281    0.420    0.348   12.800
  368.500   54.963    0.422    0.348   12.832
  368.750   56.200    0.427    0.348   12.849
  369.000   55.045    0.434    0.348   12.865
  369.250   53.870    0.441    0.348   13.131
  369.500   51.508    0.441    0.348   13.645
  369.750   51.560    0.445    0.348   14.185
  370.000   52.184    0.437    0.345   14.460
  370.250   53.442    0.422    0.341   15.038
  370.500   54.087    0.418    0.334   15.626
  370.750   54.128    0.421    0.330   15.943
  371.000   54.159    0.427    0.327   15.970
  371.250   55.407    0.438    0.329   15.141
  371.500   56.654    0.438    0.332   14.885
  371.750   57.320    0.433    0.338   14.112
  372.000   57.371    0.430    0.341   13.879
  372.250   56.789    0.427    0.339   13.656
  372.500   56.237    0.434    0.337   13.674
  372.750   56.278    0.441    0.334   13.709
  373.000   56.923    0.435    0.326   13.726
  373.250   57.578    0.426    0.323   13.750
  373.500   57.598    0.416    0.323   13.779
  373.750   57.640    0.416    0.321   13.802
  374.000   57.702    0.420    0.314   13.820
  374.250   57.722    0.426    0.313   14.100
  374.500   58.367    0.434    0.314   14.385
  374.750   59.022    0.435    0.313   15.231
  375.000   59.063    0.432    0.311   15.820
  375.250   57.898    0.429    0.304   16.453
  375.500   56.732    0.425    0.306   15.895
  375.750   54.371    0.338    0.310   15.056
  376.000   56.815    0.202    0.172   14.275
  376.250   59.873    0.245    0.184   13.790
  376.500   63.544    0.291    0.198   13.563
  376.750   64.188    0.423    0.250   13.345
  377.000   62.420    0.429    0.261   13.119
  377.250   61.244    0.429    0.281   13.136
  377.500   60.682    0.427    0.314   12.930
  377.750   59.538    0.422    0.314   12.941
  378.000   58.955    0.419    0.309   12.733
  378.250   60.816    0.417    0.307   12.523
  378.500   63.874    0.418    0.302   12.316
  378.750   66.339    0.426    0.303   12.108
  379.000   66.994    0.435    0.309   11.697
  379.250   67.014    0.428    0.309   11.095
  379.500   67.680    0.432    0.311   10.718
  379.750   67.700    0.443    0.316   10.537
  380.000   68.355    0.456    0.321    9.990
  380.250   70.216    0.466    0.323    9.650
  380.500   70.851    0.469    0.323    9.483
  380.750   72.088    0.466    0.325    8.995
  381.000   73.346    0.461    0.325    8.686
  381.250   73.981    0.457    0.321    8.539
  381.500   75.249    0.465    0.314    8.398
  381.750   75.280    0.474    0.322    8.109
  382.000   76.538    0.464    0.324    7.834
  382.250   78.400    0.454    0.320    7.705
  382.500   79.023    0.452    0.317    7.574
  382.750   79.668    0.447    0.312    7.453
  383.000   79.106    0.441    0.303    7.333
  383.250   78.565    0.436    0.297    7.206
  383.500   78.585    0.431    0.290    6.958
  383.750   79.230    0.431    0.285    6.600
  384.000   81.684    0.434    0.277    6.149
  384.250   83.535    0.439    0.272    5.935
  384.500   84.793    0.441    0.265    5.731
  384.750   84.835    0.444    0.260    5.952
  385.000   83.680    0.445    0.252    6.419
  385.250   82.504    0.446    0.255    7.178
  385.500   80.132    0.457    0.260    7.877
  385.750   75.347    0.439    0.273    9.314
  386.000   67.546    0.428    0.282   10.040
  386.250   64.581    0.424    0.293    9.515
  386.500   65.226    0.420    0.295    8.081
  386.750   65.871    0.418    0.297    6.378
