~VERSION INFORMATION
 VERS.                 2.0:   CWLS LOG ASCII STANDARD -VERSION 2.0
 WRAP.                  NO:   ONE LINE PER DEPTH STEP
~WELL INFORMATION BLOCK
#MNEM.UNIT           DATA                    DESCRIPTION OF MNEMONIC
#---------    -------------------            -------------------------------
# Generated from Intellog Unique Number	CW_70_72/WELL/3021
NULL.         -999.25                        : NULL_VALUE
WELL.         MANNVILLE ET AL HONDO 10-11    : Well_name    - WELL              
LOC .         10-11-070-02W5                 : Location     - LOCATION          
UWI .         00/10-11-070-02W5/0            : Uwi          - UNIQUE WELL ID    
ENTR.         JAYE                           : Entered      - ENTERED BY        
SRVC.         SCHLUMBERGER                   : Scn          - SERVICE COMPANY   
DATE.         26 MAR 80                      : Date         - LOG DATE          
STRT.M        440                            : top_depth    - START DEPTH       
STOP.M        655                            : bot_depth    - STOP DEPTH        
STEP.M        0.25                           : increment    - STEP LENGTH       
~CURVE INFORMATION BLOCK
#MNEM UNIT       ERCB CURVE CODE    CURVE DESCRIPTION
#-----------   ------------------   ----------------------------------
DEPT.M        00 001 00 00         : DEPTH        - DEPTH                       
ILD .OHMM     00 120 00 00         : RESD         - DEEP RESISTIVITY (DIL)      
CALI.MM       00 280 01 00         : CAL          - CALIPER                     
GR  .API      00 310 00 00         : GR           - GAMMA RAY                   
NPHI.V/V      00 330 00 00         : PHIN         - NEUTRON POROSITY (SANDSTONE)
DPHI.V/V      00 890 00 00         : PHID         - DENSITY POROSITY (SANDSTONE)
~PARAMETER INFORMATION       
#MNEM.UNIT           DATA             DESCRIPTION OF MNEMONIC
#---------         -----------     ------------------------------
GL  .M        593.3                : gl           - GROUND LEVEL ELEVATION      
EREF.M        598.2                : kb           - ELEVATION OF DEPTH REFERENCE
DATM.M        593.3                : datum        - DATUM ELEVATION             
TDD .M        669                  : tdd          - TOTAL DEPTH DRILLER         
RUN .         ONE                  : Run          - RUN NUMBER                  
ENG .         DECKER/MCEWEN        : Engineer     - RECORDING ENGINEER          
WIT .         CONLEY               : Witness      - WITNESSED BY                
BASE.         EDM                  : Branch       - HOME BASE OF LOGGING UNIT   
MUD .         GEL CHEM             : Mud_type     - MUD TYPE                    
MATR.         SANDSTONE            : Logunit      - NEUTRON MATRIX              
TMAX.C        23.3                 : BHT          - MAXIMUM RECORDED TEMPERATURE
BHTD.M        666.5                : BHTDEP       - MAXIMUM RECORDED TEMPERATURE
RMT .C        14.4                 : MDTP         - TEMPERATURE OF MUD          
MUDD.KG/M     1095                 : MWT          - MUD DENSITY                 
NEUT.         1                    : NEUTRON      - NEUTRON TYPE                
RESI.         0                    : RESIST       - RESISTIVITY TYPE            
RM  .OHMM     3.21                 : RM           - RESISTIVITY OF MUD          
RMC .OHMM     0.25                 : RMC          - RESISTIVITY OF MUD CAKE     
RMF .OHMM     3.02                 : RMF          - RESISTIVITY OF MUD FILTRATE 
SUFT.C        0                    : SUFT         - SURFACE TEMPERATURE         
~A  DEPTH     RESD      CAL       GR     PHIN     PHID
  440.000    2.519  190.507  103.902    0.454    0.182
  440.250    2.513  190.281  108.685    0.451    0.170
  440.500    2.480  189.946  113.344    0.452    0.175
  440.750    2.483  190.030  112.336    0.467    0.169
  441.000    2.478  189.800  107.962    0.477    0.151
  441.250    2.440  190.198  105.397    0.491    0.152
  441.500    2.389  190.903  104.077    0.476    0.167
  441.750    2.388  192.024  101.011    0.469    0.182
  442.000    2.483  194.286   97.697    0.469    0.183
  442.250    2.592  195.303  101.112    0.483    0.186
  442.500    2.675  195.597  102.467    0.478    0.192
  442.750    2.664  195.160  101.709    0.475    0.184
  443.000    2.603  194.101   99.765    0.478    0.190
  443.250    2.647  193.562  101.559    0.470    0.191
  443.500    2.826  193.334  100.427    0.478    0.183
  443.750    3.121  194.248   95.866    0.460    0.181
  444.000    3.640  194.019   89.937    0.451    0.172
  444.250    3.564  189.222   77.716    0.432    0.158
  444.500    3.425  179.443   70.976    0.382    0.138
  444.750    3.260  167.689   72.023    0.328    0.092
  445.000    3.086  164.557   77.428    0.386    0.117
  445.250    2.839  166.404   75.921    0.411    0.207
  445.500    2.593  169.495   74.913    0.424    0.206
  445.750    2.373  172.587   79.510    0.443    0.191
  446.000    2.143  174.855   78.626    0.459    0.206
  446.250    1.998  177.534   81.354    0.478    0.202
  446.500    2.085  182.806   86.760    0.497    0.210
  446.750    2.235  187.461   90.860    0.533    0.216
  447.000    2.390  194.600   90.038    0.560    0.242
  447.250    2.523  190.429   84.791    0.472    0.266
  447.500    2.614  175.147   80.109    0.448    0.238
  447.750    2.755  172.528   74.176    0.429    0.223
  448.000    2.936  171.576   69.929    0.418    0.211
  448.250    3.329  164.391   66.117    0.422    0.223
  448.500    3.697  160.323   63.114    0.402    0.235
  448.750    4.014  160.089   60.735    0.391    0.222
  449.000    4.043  162.356   58.667    0.376    0.153
  449.250    3.892  165.653   58.781    0.351    0.098
  449.500    3.650  167.193   66.057    0.359    0.076
  449.750    3.358  168.317   81.553    0.374    0.119
  450.000    3.155  169.751   84.344    0.399    0.202
  450.250    3.083  173.355   85.828    0.416    0.199
  450.500    3.123  174.899   91.483    0.438    0.188
  450.750    3.064  177.057   94.400    0.442    0.197
  451.000    2.862  178.179   93.016    0.426    0.190
  451.250    2.638  175.148   93.376    0.422    0.185
  451.500    2.652  173.364   95.730    0.408    0.201
  451.750    2.805  174.069   99.954    0.424    0.198
  452.000    3.018  181.107  105.736    0.448    0.182
  452.250    3.246  188.354  112.763    0.483    0.163
  452.500    3.331  187.089  111.755    0.434    0.195
  452.750    3.387  174.195  100.716    0.398    0.214
  453.000    3.405  163.688   88.681    0.371    0.210
  453.250    3.429  159.617   85.243    0.364    0.217
  453.500    3.441  157.622   88.093    0.374    0.219
  453.750    3.426  158.124   88.829    0.360    0.218
  454.000    3.393  159.036   90.749    0.358    0.217
  454.250    3.366  160.879   98.897    0.369    0.203
  454.500    3.346  163.564  103.557    0.392    0.156
  454.750    3.320  173.510  102.049    0.416    0.132
  455.000    3.300  173.489   98.362    0.431    0.090
  455.250    3.380  169.421  103.582    0.423    0.122
  455.500    3.482  171.270  107.557    0.406    0.192
  455.750    3.520  165.953  101.564    0.387    0.216
  456.000    3.499  164.166   97.316    0.392    0.207
  456.250    3.324  165.913   97.926    0.395    0.201
  456.500    2.935  166.304   91.000    0.375    0.189
  456.750    2.363  165.037   78.342    0.353    0.194
  457.000    2.047  162.526   72.162    0.333    0.205
  457.250    2.012  160.842   65.547    0.330    0.216
  457.500    2.088  159.889   61.112    0.348    0.239
  457.750    2.217  159.455   62.782    0.346    0.259
  458.000    2.336  159.116   71.240    0.335    0.254
  458.250    2.452  158.789   78.143    0.341    0.222
  458.500    2.589  158.770   81.431    0.347    0.203
  458.750    2.764  159.060   79.925    0.329    0.196
  459.000    2.901  159.765   85.082    0.343    0.220
  459.250    2.994  160.785   92.919    0.349    0.207
  459.500    2.965  163.255  102.936    0.382    0.176
  459.750    2.770  167.700  109.402    0.410    0.163
  460.000    2.657  173.701  111.382    0.442    0.154
  460.250    2.696  183.539  113.363    0.474    0.179
  460.500    2.788  192.135  112.228    0.502    0.188
  460.750    2.599  194.400  108.479    0.478    0.198
  461.000    2.308  193.655  101.303    0.446    0.214
  461.250    1.944  186.885   95.001    0.415    0.231
  461.500    1.598  168.280   82.716    0.370    0.239
  461.750    1.408  163.483   67.504    0.343    0.216
  462.000    1.325  161.178   55.220    0.358    0.235
  462.250    1.288  160.218   44.994    0.355    0.265
  462.500    1.270  159.998   48.407    0.351    0.294
  462.750    1.289  159.759   53.004    0.374    0.271
  463.000    1.371  159.639   51.933    0.377    0.274
  463.250    1.469  159.624   46.936    0.358    0.278
  463.500    1.611  160.122   48.294    0.340    0.274
  463.750    1.772  160.721   55.819    0.348    0.266
  464.000    1.976  161.222   61.787    0.375    0.255
  464.250    2.170  161.824   61.088    0.380    0.265
  464.500    2.365  162.320   70.047    0.365    0.260
  464.750    2.568  162.607   76.949    0.351    0.244
  465.000    2.742  162.591   85.407    0.345    0.215
  465.250    2.868  162.572   92.184    0.350    0.198
  465.500    3.033  162.862   95.537    0.368    0.186
  465.750    3.184  162.844   93.843    0.375    0.178
  466.000    3.444  162.824   96.010    0.376    0.184
  466.250    3.726  163.526  100.048    0.378    0.194
  466.500    3.948  166.206  106.140    0.384    0.189
  466.750    3.976  170.963  110.675    0.394    0.169
  467.000    3.764  176.757  109.043    0.385    0.162
  467.250    3.255  174.867  105.666    0.372    0.162
  467.500    2.596  172.769  105.218    0.363    0.159
  467.750    2.357  172.644  107.758    0.437    0.163
  468.000    2.361  174.491  110.924    0.508    0.139
  468.250    2.387  178.728  114.959    0.516    0.148
  468.500    2.496  184.727  117.191    0.510    0.163
  468.750    2.394  189.070  112.693    0.491    0.198
  469.000    2.178  192.580  104.769    0.469    0.223
  469.250    1.997  183.734   81.461    0.447    0.232
  469.500    1.908  170.528   61.515    0.419    0.242
  469.750    1.868  161.059   51.038    0.415    0.260
  470.000    1.888  159.480   51.212    0.394    0.283
  470.250    1.931  159.874   55.497    0.388    0.286
  470.500    2.012  160.474   60.158    0.387    0.277
  470.750    2.120  161.185   63.880    0.385    0.274
  471.000    2.408  161.892   63.992    0.390    0.264
  471.250    2.983  162.700   61.739    0.396    0.264
  471.500    3.787  162.882   63.970    0.396    0.229
  471.750    4.484  163.176   63.831    0.380    0.196
  472.000    4.316  163.776   60.643    0.348    0.148
  472.250    4.124  165.109   56.956    0.304    0.079
  472.500    3.889  167.890   60.431    0.321    0.112
  472.750    3.626  171.920   70.572    0.417    0.180
  473.000    3.419  175.638   77.599    0.491    0.223
  473.250    3.164  179.043   75.468    0.546    0.334
  473.500    2.917  177.775   66.674    0.583    0.407
  473.750    2.725  163.429   66.598    0.549    0.427
  474.000    2.565  159.045   72.567    0.396    0.297
  474.250    2.423  157.672   75.233    0.392    0.261
  474.500    2.259  157.031   75.719    0.416    0.258
  474.750    2.106  156.906   74.148    0.430    0.254
  475.000    1.994  156.990   69.715    0.439    0.246
  475.250    1.916  157.178   62.289    0.435    0.245
  475.500    1.827  157.669   58.163    0.420    0.271
  475.750    1.772  157.753   55.847    0.407    0.287
  476.000    1.722  157.944   53.279    0.393    0.300
  476.250    1.709  158.129   51.151    0.385    0.292
