~VERSION INFORMATION
 VERS.                 2.0:   CWLS LOG ASCII STANDARD -VERSION 2.0
 WRAP.                  NO:   ONE LINE PER DEPTH STEP
~WELL INFORMATION BLOCK
#MNEM.UNIT           DATA                    DESCRIPTION OF MNEMONIC
#---------    -------------------            -------------------------------
# Generated from Intellog Unique Number	CW_76_78/WELL/995
WELL.         GULF POC DROWNED 11-17         : Well_name    - WELL
LOC .         00/11-17-076-20W4/0            : Location     - LOCATION
UWI .         00/11-17-076-20W4/0            : Uwi          - UNIQUE WELL ID
ENTR.         JAYE                           : Entered      - ENTERED BY
SRVC.         SCHLUMBERGER                   : Scn          - SERVICE COMPANY
DATE.         19 MAR 78                      : Date         - LOG DATE
STRT.M        277.368                        : top_depth    - START DEPTH
STOP.M        455.118                        : bot_depth    - STOP DEPTH
STEP.M        0.25                           : increment    - STEP LENGTH
 NULL. -999.2500:NULL Value
~CURVE INFORMATION BLOCK
#MNEM UNIT       ERCB CURVE CODE    CURVE DESCRIPTION
#-----------   ------------------   ----------------------------------
DEPT.M        00 001 00 00         : DEPTH        - DEPTH
ILD .OHMM     00 120 00 00         : RESD         - DEEP RESISTIVITY (DIL)
NPHI.V/V      00 330 00 00         : PHIN         - NEUTRON POROSITY (SANDSTONE)
DPHI.V/V      00 890 00 00         : PHID         - DENSITY POROSITY (SANDSTONE)
GR  .API      00 310 00 00         : GR           - GAMMA RAY
CALI.MM       00 280 01 00         : CAL          - CALIPER
~PARAMETER INFORMATION
#MNEM.UNIT           DATA             DESCRIPTION OF MNEMONIC
#---------         -----------     ------------------------------
GL  .M        604.114              : gl           - GROUND LEVEL ELEVATION
EREF.M        608.228              : kb           - ELEVATION OF DEPTH REFERENCE
DATM.M        604.114              : datum        - DATUM ELEVATION
TDD .M        461.772              : tdd          - TOTAL DEPTH DRILLER
RUN .         ONE                  : Run          - RUN NUMBER
ENG .         DEROCHIE             : Engineer     - RECORDING ENGINEER
WIT .         ROY/ROZENHART        : Witness      - WITNESSED BY
BASE.         EDM                  : Branch       - HOME BASE OF LOGGING UNIT
MUD .         GEL CHEM             : Mud_type     - MUD TYPE
MATR.         SANDSTONE            : Logunit      - NEUTRON MATRIX
TMAX.C        18.3333              : BHT          - MAXIMUM RECORDED TEMPERATURE
BHTD.M        461.162              : BHTDEP       - MAXIMUM RECORDED TEMPERATURE
RMT .C        16.6667              : MDTP         - TEMPERATURE OF MUD
MUDD.KG/M     1116                 : MWT          - MUD DENSITY
NEUT.         1                    : NEUTRON      - NEUTRON TYPE
RESI.         0                    : RESIST       - RESISTIVITY TYPE
RM  .OHMM     5.43                 : RM           - RESISTIVITY OF MUD
RMC .OHMM     0                    : RMC          - RESISTIVITY OF MUD CAKE
RMF .OHMM     5.39                 : RMF          - RESISTIVITY OF MUD FILTRATE
SUFT.C        -17.7778             : SUFT         - SURFACE TEMPERATURE
~A  DEPTH     RESD     PHIN     PHID       GR      CAL
# ...
  386.868    4.324    0.444    0.259   86.088  140.268
  387.118    4.145    0.450    0.248   88.299  146.364
  387.368    4.103    0.472    0.233   83.941  150.964
  387.618    4.083    0.478    0.259   84.068  152.676
  387.868    4.125    0.471    0.275   86.721  153.211
  388.118    4.167    0.456    0.271   88.616  153.319
  388.368    4.241    0.450    0.249   89.817  153.427
  388.618    4.317    0.444    0.260   91.712  153.641
  388.868    4.368    0.436    0.276   90.702  153.642
  389.118    4.421    0.451    0.284   88.808  153.322
  389.368    4.458    0.463    0.284   89.692  152.467
  389.618    4.487    0.470    0.275   88.366  152.147
  389.868    4.499    0.465    0.251   85.967  151.613
  390.118    4.537    0.453    0.249   84.199  151.507
  390.368    4.583    0.446    0.273   83.315  151.401
  390.618    4.604    0.449    0.277   84.263  151.401
  390.868    4.651    0.443    0.261   87.169  151.723
  391.118    4.689    0.429    0.245   90.832  152.258
  391.368    4.728    0.431    0.245   95.506  153.008
  391.618    4.786    0.439    0.234   97.402  153.329
  391.868    4.861    0.452    0.207   98.602  153.651
  392.118    4.957    0.451    0.195  100.750  154.186
  392.368    5.027    0.442    0.209  101.698  154.615
  392.618    5.068    0.435    0.217  103.845  155.257
  392.868    5.091    0.417    0.206  109.277  156.007
  393.118    5.096    0.427    0.193  113.383  156.008
  393.368    5.109    0.439    0.192  115.531  151.303
  393.618    5.104    0.438    0.203  113.005  147.453
  393.868    5.108    0.436    0.193  110.732  149.807
  394.118    5.132    0.437    0.183  106.185  151.626
  394.368    5.174    0.440    0.180  106.185  153.017
  394.618    5.237    0.445    0.173  108.775  153.659
  394.868    5.330    0.436    0.174  110.607  154.088
  395.118    5.364    0.432    0.182  111.113  154.409
  395.368    5.279    0.430    0.186  111.808  154.731
  395.618    5.118    0.428    0.193  111.619  154.839
  395.868    4.898    0.433    0.208  110.483  154.946
  396.118    4.732    0.442    0.216  109.599  155.054
  396.368    4.727    0.422    0.210  110.105  155.162
  396.618    4.811    0.413    0.186  110.484  155.056
  396.868    4.970    0.429    0.179  108.906  154.842
  397.118    5.125    0.429    0.197  104.295  154.629
  397.368    5.285    0.437    0.195  102.022  154.309
  397.618    5.419    0.435    0.189  103.475  154.096
  397.868    5.515    0.420    0.181  106.128  153.883
  398.118    5.592    0.418    0.182  108.718  153.884
  398.368    5.649    0.418    0.208  111.687  154.098
  398.618    5.739    0.420    0.201  114.340  154.313
  398.868    5.798    0.423    0.201  113.835  154.421
  399.118    5.846    0.431    0.205  110.046  154.207
  399.368    5.840    0.431    0.219  107.268  154.315
  399.618    5.823    0.426    0.210  104.931  154.423
  399.868    5.850    0.417    0.202  103.985  154.744
  400.118    5.876    0.414    0.199  106.953  155.173
  400.368    5.959    0.415    0.196  108.722  155.388
  400.618    5.996    0.421    0.192  107.523  155.602
  400.868    6.002    0.415    0.201  105.249  155.603
  401.118    6.007    0.406    0.198  104.871  155.604
  401.368    6.011    0.413    0.194  105.503  155.284
  401.618    6.028    0.413    0.191  105.946  155.284
  401.868    6.022    0.407    0.198  105.378  154.643
  402.118    6.015    0.426    0.203  106.957  152.933
  402.368    6.021    0.440    0.211  112.642  151.222
  402.618    6.003    0.422    0.206  111.505  150.689
  402.868    5.974    0.403    0.195  107.400  151.652
  403.118    5.934    0.388    0.200  103.296  152.936
  403.368    5.884    0.410    0.202  100.959  153.899
  403.618    5.835    0.413    0.201  103.675  154.862
  403.868    5.721    0.390    0.195  106.644  155.505
  404.118    5.630    0.392    0.196  108.350  156.147
  404.368    5.479    0.403    0.219  110.119  156.576
  404.618    5.312    0.411    0.227  112.140  156.684
  404.868    5.141    0.421    0.209  114.857  157.005
  405.118    5.013    0.425    0.189  115.678  157.006
  405.368    4.860    0.428    0.175  112.457  157.007
  405.618    4.783    0.428    0.172  111.258  157.007
  405.868    4.841    0.424    0.160  110.437  156.794
  406.118    5.162    0.422    0.199  105.890  156.795
  406.368    5.779    0.431    0.210  101.343  156.582
  406.618    7.061    0.442    0.216   99.575  156.369
  406.868    8.725    0.449    0.220   98.060  156.370
  407.118   12.172    0.430    0.226   94.271  156.050
  407.368   15.996    0.402    0.213   90.419  156.050
  407.618   19.256    0.334    0.175   84.167  156.051
  407.868   16.446    0.281    0.150   78.988  155.945
  408.118   11.898    0.252    0.111   78.989  155.731
  408.368    9.789    0.260    0.127   80.757  155.625
  408.618    7.949    0.292    0.201   82.526  155.519
  408.868    6.590    0.325    0.232   82.337  155.306
  409.118    5.875    0.379    0.270   84.422  155.200
  409.368    5.508    0.463    0.302   87.707  155.094
  409.618    5.361    0.488    0.288   88.654  154.880
  409.868    5.285    0.494    0.278   88.528  154.774
  410.118    5.135    0.484    0.274   88.718  154.561
  410.368    4.941    0.460    0.241   91.561  153.813
  410.618    4.650    0.438    0.249   95.161  152.958
  410.868    4.352    0.434    0.261   99.014  152.531
  411.118    4.080    0.445    0.243  102.868  152.211
  411.368    3.948    0.461    0.234  106.468  151.998
  411.618    3.974    0.478    0.250  106.216  152.320
  411.868    4.067    0.482    0.253  103.058  152.534
  412.118    4.163    0.474    0.236  102.617  153.177
  412.368    4.269    0.462    0.242  102.617  153.498
  412.618    4.344    0.459    0.250  100.597  153.927
  412.868    4.422    0.456    0.230  102.050  154.141
  413.118    4.467    0.445    0.240  102.808  154.463
  413.368    4.513    0.424    0.256  100.850  154.464
  413.618    4.541    0.437    0.254   99.272  154.785
  413.868    4.691    0.453    0.234   97.693  155.000
  414.118    4.883    0.446    0.214   97.062  155.215
  414.368    5.111    0.438    0.209   97.757  155.215
  414.618    5.379    0.436    0.208   95.168  155.216
  414.868    5.620    0.436    0.192   90.748  155.217
  415.118    5.773    0.409    0.168   83.927  155.218
  415.368    5.876    0.388    0.180   85.822  155.005
  415.618    5.969    0.393    0.195   88.349  154.898
  415.868    6.052    0.416    0.225   90.434  154.472
  416.118    6.171    0.415    0.212   90.750  154.472
  416.368    6.680    0.390    0.201   87.529  154.366
  416.618    7.163    0.372    0.187   87.088  154.153
  416.868    6.971    0.366    0.171   87.657  153.512
  417.118    6.647    0.401    0.197   88.352  151.801
  417.368    6.209    0.413    0.218   90.058  147.952
  417.618    5.953    0.419    0.227   93.026  145.600
  417.868    5.825    0.416    0.223   93.595  144.103
  418.118    5.798    0.408    0.240   93.596  145.601
  418.368    5.770    0.406    0.227   94.417  148.383
  418.618    5.786    0.412    0.220   95.744  151.378
  418.868    5.812    0.428    0.220   96.755  152.983
  419.118    5.796    0.441    0.210   92.650  154.160
  419.368    5.779    0.445    0.209   94.166  154.589
  419.618    5.762    0.441    0.238   95.619  155.017
  419.868    5.756    0.433    0.245   95.178  155.232
  420.118    5.739    0.424    0.237   97.010  155.126
  420.368    5.929    0.416    0.222   99.537  154.913
  420.618    6.358    0.406    0.194  100.863  154.806
  420.868    7.170    0.400    0.184   97.011  154.486
  421.118    8.026    0.392    0.178   94.864  154.166
  421.368    8.687    0.386    0.159   96.570  154.167
  421.618    8.662    0.355    0.143   97.076  154.168
  421.868    7.766    0.336    0.129   96.381  154.275
  422.118    6.559    0.348    0.146   97.708  154.383
  422.368    6.035    0.381    0.136   99.730  154.491
  422.618    5.841    0.404    0.167  104.340  154.705
  422.868    5.792    0.424    0.200   99.730  154.920
  423.118    5.884    0.414    0.221   98.152  155.028
