~VERSION INFORMATION
 VERS.                 2.0:   CWLS LOG ASCII STANDARD -VERSION 2.0
 WRAP.                  NO:   ONE LINE PER DEPTH STEP
~WELL INFORMATION BLOCK
#MNEM.UNIT           DATA                    DESCRIPTION OF MNEMONIC
#---------    -------------------            -------------------------------
# Generated from Intellog Unique Number	CW_73_75/WELL/1051
WELL.         CHIEFCO LILY LAKE 13-07        : Well_name    - WELL
LOC .         00/13-07-075-05W5/0            : Location     - LOCATION
UWI .         00/13-07-075-05W5/0            : Uwi          - UNIQUE WELL ID
ENTR.         JAYE                           : Entered      - ENTERED BY
SRVC.         SCHLUMBERGER                   : Scn          - SERVICE COMPANY
DATE.         14 JAN 84                      : Date         - LOG DATE
STRT.M        625                            : top_depth    - START DEPTH
STOP.M        870                            : bot_depth    - STOP DEPTH
STEP.M        0.25                           : increment    - STEP LENGTH
 NULL. -999.2500:NULL Value
~CURVE INFORMATION BLOCK
#MNEM UNIT       ERCB CURVE CODE    CURVE DESCRIPTION
#-----------   ------------------   ----------------------------------
DEPT.M        00 001 00 00         : DEPTH        - DEPTH
ILD .OHMM     00 120 00 00         : RESD         - DEEP RESISTIVITY (DIL)
NPHI.V/V      00 330 00 00         : PHIN         - NEUTRON POROSITY (SANDSTONE)
DPHI.V/V      00 890 00 00         : PHID         - DENSITY POROSITY (SANDSTONE)
GR  .API      00 310 00 00         : GR           - GAMMA RAY
CALI.MM       00 280 01 00         : CAL          - CALIPER
~PARAMETER INFORMATION
#MNEM.UNIT           DATA             DESCRIPTION OF MNEMONIC
#---------         -----------     ------------------------------
GL  .M        873.9                : gl           - GROUND LEVEL ELEVATION
EREF.M        876                  : kb           - ELEVATION OF DEPTH REFERENCE
DATM.M        873.9                : datum        - DATUM ELEVATION
TDD .M        889                  : tdd          - TOTAL DEPTH DRILLER
RUN .         ONE                  : Run          - RUN NUMBER
ENG .         BRANDSTROM           : Engineer     - RECORDING ENGINEER
WIT .         KUCHINSKI            : Witness      - WITNESSED BY
BASE.         5202                 : Branch       - HOME BASE OF LOGGING UNIT
MUD .         GEL CHEM             : Mud_type     - MUD TYPE
MATR.         SANDSTONE            : Logunit      - NEUTRON MATRIX
TMAX.C        31                   : BHT          - MAXIMUM RECORDED TEMPERATURE
BHTD.M        890.5                : BHTDEP       - MAXIMUM RECORDED TEMPERATURE
RMT .C        31                   : MDTP         - TEMPERATURE OF MUD
MUDD.KG/M     1110                 : MWT          - MUD DENSITY
NEUT.         1                    : NEUTRON      - NEUTRON TYPE
RESI.         0                    : RESIST       - RESISTIVITY TYPE
RM  .OHMM     7.829                : RM           - RESISTIVITY OF MUD
RMC .OHMM     0                    : RMC          - RESISTIVITY OF MUD CAKE
RMF .OHMM     8.115                : RMF          - RESISTIVITY OF MUD FILTRATE
SUFT.C        0                    : SUFT         - SURFACE TEMPERATURE
~A  DEPTH     RESD     PHIN     PHID       GR      CAL
# ...
  844.000    1.071    0.584    0.234   91.622  204.820
  844.250    1.045    0.602    0.245   95.597  204.641
  844.500    1.065    0.613    0.248  100.685  204.362
  844.750    1.228    0.573    0.236  103.362  204.083
  845.000    1.530    0.551    0.223  100.722  203.802
  845.250    1.847    0.547    0.207   96.656  203.418
  845.500    2.208    0.456    0.188   87.950  203.237
  845.750    2.835    0.408    0.171   86.608  203.162
  846.000    3.539    0.412    0.152   90.769  203.197
  846.250    4.279    0.411    0.128   91.032  203.221
  846.500    4.745    0.395    0.121   80.783  203.565
  846.750    4.843    0.360   -0.010   84.325  203.597
  847.000    4.587    0.312    0.068   91.888  203.614
  847.250    4.401    0.348    0.108   97.596  204.056
  847.500    4.215    0.381    0.134   94.212  204.086
  847.750    4.105    0.396    0.134   96.457  204.116
  848.000    4.112    0.411    0.129  101.050  204.451
  848.250    4.143    0.417    0.138  100.758  205.613
  848.500    4.206    0.404    0.150   99.475  207.086
  848.750    4.286    0.395    0.138  100.606  208.769
  849.000    4.285    0.407    0.132   99.757  210.132
  849.250    4.222    0.384    0.124   92.290  211.603
  849.500    4.035    0.358    0.108   92.431  212.868
  849.750    3.828    0.371    0.131   94.118  213.935
  850.000    3.625    0.403    0.160   94.321  214.574
  850.250    3.445    0.432    0.151   99.782  215.431
  850.500    3.238    0.434    0.143  110.190  216.282
  850.750    3.043    0.434    0.149  115.033  216.928
  851.000    2.662    0.426    0.165  106.822  217.370
  851.250    2.330    0.416    0.149   99.171  218.228
  851.500    2.113    0.455    0.147  100.733  218.974
  851.750    2.035    0.509    0.162   99.266  219.832
  852.000    2.085    0.503    0.176   98.481  220.683
  852.250    2.173    0.480    0.175   98.867  221.126
  852.500    2.235    0.473    0.166  100.369  221.463
  852.750    2.273    0.482    0.149  103.231  221.699
  853.000    2.286    0.470    0.148  103.248  222.036
  853.250    2.303    0.451    0.160   98.318  222.166
  853.500    2.338    0.461    0.158   94.870  222.196
  853.750    2.391    0.487    0.165   91.671  222.222
  854.000    2.460    0.476    0.165   93.546  222.148
  854.250    2.525    0.468    0.163   96.283  222.282
  854.500    2.588    0.453    0.162   99.639  222.202
  854.750    2.642    0.435    0.163  103.491  222.028
  855.000    2.687    0.437    0.155  105.117  221.744
  855.250    2.682    0.444    0.144  103.218  221.468
  855.500    2.656    0.449    0.140  101.378  221.390
  855.750    2.593    0.471    0.135  100.344  221.215
  856.000    2.487    0.483    0.138   99.805  221.135
  856.250    2.364    0.508    0.164  101.554  220.342
  856.500    2.192    0.506    0.177  105.963  219.234
  856.750    2.026    0.492    0.183  110.371  217.614
  857.000    1.879    0.496    0.194  115.274  215.788
  857.250    1.727    0.530    0.206  120.797  214.376
  857.500    1.679    0.563    0.208  106.403  213.579
  857.750    1.694    0.544    0.216  109.450  213.605
  858.000    1.824    0.519    0.210  114.727  213.944
  858.250    1.962    0.499    0.195  115.361  214.588
  858.500    2.254    0.458    0.183  119.399  215.236
  858.750    2.586    0.467    0.167  131.106  215.987
  859.000    3.121    0.497    0.148  131.617  215.500
  859.250    3.696    0.504    0.131  110.790  210.892
  859.500    5.116    0.402    0.145   81.798  207.418
  859.750    9.266    0.366    0.174   71.485  205.278
  860.000   10.591    0.361    0.188   73.790  203.448
  860.250   10.549    0.354    0.193   73.003  201.522
  860.500    9.895    0.311    0.173   71.845  201.342
  860.750    8.339    0.349    0.208   79.037  202.093
  861.000    6.871    0.456    0.255   93.095  204.182
  861.250    5.845    0.322    0.218  105.051  206.788
  861.500    5.251    0.401    0.145  117.748  202.282
  861.750    5.261    0.458    0.166  116.095  198.288
  862.000    5.390    0.504    0.190   86.793  206.564
  862.250    5.726    0.357    0.159   54.213  201.233
  862.500    6.149    0.264    0.145   43.407  197.343
  862.750    6.629    0.262    0.192   38.351  194.591
  863.000    6.817    0.304    0.214   41.647  195.854
  863.250    6.804    0.303    0.242   53.477  204.027
  863.500    6.337    0.284    0.197  110.277  204.778
  863.750    5.799    0.292    0.163  124.892  204.809
  864.000    5.046    0.364    0.155  138.270  205.041
  864.250    4.415    0.462    0.164  149.112  206.307
  864.500    4.325    0.550    0.168  134.592  206.437
  864.750    4.619    0.523    0.154  109.744  206.366
  865.000    5.259    0.318    0.147   77.845  206.082
  865.250    5.941    0.305    0.140   78.047  205.288
  865.500    6.766    0.353    0.130   84.931  204.285
  865.750    7.445    0.397    0.094   51.856  203.798
  866.000    8.162    0.208    0.053   39.934  204.343
  866.250    8.783    0.176    0.016   44.715  204.372
  866.500    9.103    0.169   -0.014   46.279  204.400
  866.750    9.292    0.182    0.013   45.863  204.019
  867.000    9.241    0.198    0.031   46.562  204.044
  867.250    9.052    0.212    0.034   47.011  203.972
  867.500    8.800    0.221    0.040   47.710  200.509
  867.750    8.571    0.212    0.047   49.147  201.036
  868.000    8.426    0.204    0.036   57.020  197.767
  868.250    8.349    0.205    0.073   63.842  197.794
  868.500    8.379    0.238    0.116   66.890  197.825
  868.750    8.473    0.271    0.107   66.968  198.677
  869.000    8.585    0.249    0.074   67.233  200.460
  869.250    8.882    0.227    0.110   71.023  203.578
  869.500    9.116    0.233    0.141   76.422  205.875
  869.750    9.378    0.376    0.203   77.428  206.831
  870.000    9.483    0.397    0.192   67.981  204.798
