~VERSION INFORMATION
 VERS.                 2.0:   CWLS LOG ASCII STANDARD -VERSION 2.0
 WRAP.                  NO:   ONE LINE PER DEPTH STEP
~WELL INFORMATION BLOCK
#MNEM.UNIT           DATA                    DESCRIPTION OF MNEMONIC
#---------    -------------------            -------------------------------
# Generated from Intellog Unique Number	CW_82_90/WELL/3441
WELL.         CDN SUP CHIP                   : Well_name    - WELL
LOC .         00/10-23-090-24W4/0            : Location     - LOCATION
UWI .         00/10-23-090-24W4/0            : Uwi          - UNIQUE WELL ID
ENTR.         MAX                            : Entered      - ENTERED BY
SRVC.         SCHLUMBERGER                   : Scn          - SERVICE COMPANY
STRT.M        165                            : top_depth    - START DEPTH
STOP.M        256                            : bot_depth    - STOP DEPTH
STEP.M        0.25                           : increment    - STEP LENGTH
 NULL. -999.2500:NULL Value
~CURVE INFORMATION BLOCK
#MNEM UNIT       ERCB CURVE CODE    CURVE DESCRIPTION
#-----------   ------------------   ----------------------------------
DEPT.M        00 001 00 00         : DEPTH        - DEPTH
CALI.MM       00 280 01 00         : CAL          - CALIPER
GR  .API      00 310 00 00         : GR           - GAMMA RAY
ILD .OHMM     00 120 00 00         : RESD         - DEEP RESISTIVITY (DIL)
NPHI.V/V      00 330 00 00         : PHIN         - NEUTRON POROSITY (SANDSTONE)
DPHI.V/V      00 890 00 00         : PHID         - DENSITY POROSITY (SANDSTONE)
~PARAMETER INFORMATION
#MNEM.UNIT           DATA             DESCRIPTION OF MNEMONIC
#---------         -----------     ------------------------------
GL  .M        505.6                : gl           - GROUND LEVEL ELEVATION
EREF.M        509                  : kb           - ELEVATION OF DEPTH REFERENCE
DATM.M        509                  : datum        - DATUM ELEVATION
TDD .M        255.6                : tdd          - TOTAL DEPTH DRILLER
RUN .         ONE                  : Run          - RUN NUMBER
ENG .         BILL                 : Engineer     - RECORDING ENGINEER
WIT .         JIM                  : Witness      - WITNESSED BY
MUD .         GEL                  : Mud_type     - MUD TYPE
MATR.         SANDSTONE            : Logunit      - NEUTRON MATRIX
TMAX.C        18                   : BHT          - MAXIMUM RECORDED TEMPERATURE
BHTD.M        255.6                : BHTDEP       - MAXIMUM RECORDED TEMPERATURE
MATR.         1                    : LOGUNIT      - NEUTRON MATRIX
RMT .C        4                    : MDTP         - TEMPERATURE OF MUD
NEUT.         1                    : NEUTRON      - NEUTRON TYPE
RESI.         0                    : RESIST       - RESISTIVITY TYPE
RMC .OHMM     5                    : RMC          - RESISTIVITY OF MUD CAKE
RMF .OHMM     5                    : RMF          - RESISTIVITY OF MUD FILTRATE
SUFT.C        -15                  : SUFT         - SURFACE TEMPERATURE
~A  DEPTH      CAL       GR     RESD     PHIN     PHID
  165.000  229.731   84.953    5.204    0.543    0.300
  165.250  234.066   84.061    5.018    0.543    0.235
  165.500  233.551   87.536    4.711    0.549    0.170
  165.750  234.980   94.207    4.344    0.560    0.181
  166.000  238.345   94.481    4.006    0.543    0.226
  166.250  234.436   93.879    3.694    0.522    0.205
  166.500  226.156   96.191    3.499    0.491    0.248
  166.750  227.581  101.409    3.375    0.519    0.257
  167.000  230.942  107.503    3.168    0.557    0.264
  167.250  234.795  108.940    3.110    0.572    0.275
  167.500  235.251  107.466    3.054    0.582    0.285
  167.750  234.733  106.573    3.080    0.559    0.263
  168.000  233.737  106.844    3.079    0.557    0.253
  168.250  232.257  108.865    3.023    0.597    0.276
  168.500  230.773  112.338    2.995    0.602    0.284
  168.750  228.804  111.157    2.994    0.602    0.275
  169.000  225.865  107.357    3.019    0.602    0.287
  169.250  227.771  108.505    3.128    0.599    0.261
  169.500  224.344  107.903    3.330    0.548    0.256
  169.750  223.348  106.140    3.673    0.534    0.278
  170.000  225.743  102.922    4.125    0.537    0.274
  170.250  229.104   98.539    4.759    0.534    0.269
  170.500  232.953   95.323    5.251    0.517    0.282
  170.750  232.435   91.230    5.950    0.524    0.298
  171.000  229.989   88.305    7.180    0.539    0.301
  171.250  229.959   81.885    8.210    0.523    0.293
  171.500  229.926   78.086    9.996    0.497    0.280
  171.750  229.415   75.159   11.532    0.512    0.296
  172.000  228.412   69.611   12.385    0.524    0.290
  172.250  225.470   67.848   12.832    0.512    0.333
  172.500  224.956   67.535   12.712    0.492    0.347
  172.750  224.922   67.522   12.481    0.475    0.345
  173.000  224.415   68.665   12.037    0.480    0.338
  173.250  223.901   70.395   11.924    0.475    0.325
  173.500  223.383   73.576   11.814    0.469    0.309
  173.750  222.384   75.885   11.704    0.465    0.307
  174.000  222.354   78.488   11.698    0.470    0.304
  174.250  222.328   81.959   11.282    0.468    0.298
  174.500  223.750   85.726   10.127    0.471    0.291
  174.750  227.114   92.108    6.643    0.481    0.274
  175.000  231.933   99.364    5.600    0.534    0.253
  175.250  232.873  100.798    4.982    0.529    0.189
  175.500  232.840   97.871    4.200    0.505    0.195
  175.750  233.292  101.638    4.015    0.515    0.240
  176.000  234.721  108.891    4.049    0.529    0.266
  176.250  236.627  109.166    4.158    0.529    0.269
  176.500  236.601  106.239    4.308    0.516    0.267
  176.750  237.541  103.599    4.626    0.512    0.258
  177.000  238.481  103.295    5.058    0.499    0.262
  177.250  239.425  101.238    5.580    0.489    0.264
  177.500  241.335   99.184    5.833    0.476    0.270
  177.750  237.912   96.255    5.626    0.486    0.274
  178.000  235.450   97.985    5.234    0.517    0.267
  178.250  235.417  101.165    4.827    0.513    0.277
  178.500  235.391  102.022    4.451    0.518    0.286
  178.750  235.358  101.421    4.292    0.515    0.283
  179.000  234.355  100.821    4.368    0.513    0.271
  179.250  233.367  100.513    4.649    0.517    0.274
  179.500  232.364   99.913    4.860    0.511    0.280
  179.750  231.361   99.025    5.127    0.516    0.288
  180.000  229.400   91.730    5.605    0.518    0.292
  180.250  227.904   84.150    6.296    0.496    0.260
  180.500  226.909   79.475    8.235    0.484    0.237
  180.750  225.425   75.387    9.004    0.473    0.210
  181.000  223.941   73.326    8.302    0.463    0.230
  181.250  223.907   74.186    6.813    0.464    0.242
  181.500  223.397   78.823    5.492    0.485    0.292
  181.750  221.909   85.496    3.976    0.507    0.297
  182.000  222.368   89.258    3.234    0.539    0.303
  182.250  224.281   89.534    2.982    0.555    0.310
  182.500  228.612   92.134    2.750    0.584    0.313
  182.750  226.643   97.642    2.468    0.597    0.314
  183.000  225.159   99.954    2.359    0.582    0.311
  183.250  226.095   97.609    2.488    0.572    0.304
  183.500  229.460   93.807    2.721    0.589    0.277
  183.750  236.222   89.427    3.656    0.575    0.250
  184.000  237.159   83.298    4.655    0.540    0.234
  184.250  236.163   83.862    5.719    0.511    0.242
  184.500  234.191   88.501    6.086    0.495    0.258
  184.750  234.650   93.720    5.870    0.485    0.263
  185.000  235.590   96.898    6.192    0.493    0.269
  185.250  235.560   96.883    6.770    0.508    0.272
  185.500  232.614   95.120    7.270    0.532    0.273
  185.750  230.164   91.902    7.532    0.537    0.259
  186.000  230.134   89.847    7.666    0.524    0.242
  186.250  234.950   88.373    7.731    0.504    0.232
  186.500  235.894   84.282    7.728    0.488    0.234
  186.750  233.921   83.685    7.725    0.483    0.272
  187.000  233.895   85.704    7.652    0.478    0.266
  187.250  230.957   89.177    7.582    0.474    0.251
  187.500  232.866   90.321    7.511    0.476    0.244
  187.750  230.409   87.389    7.576    0.480    0.272
  188.000  227.959   85.338    7.991    0.482    0.287
  188.250  226.471   83.868    8.429    0.484    0.288
  188.500  226.438   81.231    8.971    0.495    0.271
  188.750  226.408   78.886    9.295    0.504    0.232
  189.000  226.375   77.412    9.718    0.485    0.284
  189.250  225.383   78.560   10.250    0.482    0.306
  189.500  226.320   78.249    9.201    0.482    0.318
  189.750  225.809   78.231    8.040    0.478    0.301
  190.000  225.294   83.741    6.718    0.488    0.298
  190.250  225.261   90.415    5.464    0.504    0.293
  190.500  224.747   95.634    4.137    0.525    0.284
  190.750  225.687   97.650    3.275    0.554    0.294
  191.000  227.597   94.144    2.940    0.557    0.312
  191.250  229.992   90.053    2.639    0.576    0.321
  191.500  231.413   85.962    2.912    0.554    0.317
  191.750  231.872   83.324    3.741    0.533    0.315
  192.000  228.445   81.272    4.596    0.517    0.322
  192.250  223.082   75.434    5.496    0.490    0.322
  192.500  221.601   73.380    6.455    0.474    0.313
  192.750  223.027   74.233    7.720    0.494    0.295
  193.000  224.448   73.633    9.067    0.487    0.243
  193.250  225.877   71.872    9.228    0.461    0.181
  193.500  227.294   66.909    9.061    0.447    0.126
  193.750  227.261   65.723    8.817    0.479    0.176
  194.000  226.750   69.487    8.893    0.503    0.266
  194.250  225.755   73.544    8.809    0.490    0.295
  194.500  225.237   74.686    8.649    0.479    0.289
  194.750  226.666   74.088    8.802    0.476    0.297
  195.000  228.572   74.362    9.537    0.483    0.301
  195.250  229.516   74.346    9.707    0.489    0.296
  195.500  229.967   75.199    9.967    0.492    0.287
  195.750  229.938   76.636   10.143    0.461    0.264
  196.000  229.423   76.327   10.322    0.412    0.232
  196.250  228.909   76.312   11.186    0.362    0.106
  196.500  226.940   73.967   12.905    0.348    0.109
  196.750  224.971   71.331   15.024    0.382    0.157
  197.000  216.699   73.925   16.874    0.424    0.263
  197.250  206.487   75.946   14.483    0.474    0.246
  197.500  196.760   78.839    9.500    0.472    0.231
  197.750  198.663   82.022    7.589    0.475    0.273
  198.000  208.819   86.368    7.863    0.476    0.280
  198.250  219.460   92.462    8.674    0.480    0.264
  198.500  231.068   93.605    9.150    0.487    0.251
  198.750  231.523   91.840    9.566    0.475    0.238
  199.000  230.031   91.824    9.735    0.456    0.227
  199.250  229.521   91.514    9.907    0.429    0.201
  199.500  229.972   88.878    9.903    0.438    0.204
  199.750  230.913   87.405    9.550    0.455    0.259
  200.000  231.368   88.263    9.209    0.434    0.251
  200.250  232.308   88.243    8.962    0.457    0.238
  200.500  232.767   91.718    9.038    0.476    0.256
  200.750  233.223   91.119    9.117    0.487    0.254
  201.000  233.189   89.930    9.195    0.481    0.257
  201.250  233.641   91.079    9.275    0.466    0.264
