~VERSION INFORMATION
 VERS.                 2.0:   CWLS LOG ASCII STANDARD -VERSION 2.0
 WRAP.                  NO:   ONE LINE PER DEPTH STEP
~WELL INFORMATION BLOCK
#MNEM.UNIT           DATA                    DESCRIPTION OF MNEMONIC
#---------    -------------------            -------------------------------
# Generated from Intellog Unique Number	CW_79_81/WELL/2464
WELL.         TEXEX WABASCA                  : Well_name    - WELL
LOC .         00/10-07-081-24W4/0            : Location     - LOCATION
UWI .         00/10-07-081-24W4/0            : Uwi          - UNIQUE WELL ID
ENTR.         MAX                            : Entered      - ENTERED BY
SRVC.         WESTERN ATLAS                  : Scn          - SERVICE COMPANY
STRT.M        243.84                         : top_depth    - START DEPTH
STOP.M        453.84                         : bot_depth    - STOP DEPTH
STEP.M        0.25                           : increment    - STEP LENGTH
 NULL. -999.2500:NULL Value
~CURVE INFORMATION BLOCK
#MNEM UNIT       ERCB CURVE CODE    CURVE DESCRIPTION
#-----------   ------------------   ----------------------------------
DEPT.M        00 001 00 00         : DEPTH        - DEPTH
ILD .OHMM     00 120 00 00         : RESD         - DEEP RESISTIVITY (DIL)
NPHI.V/V      00 330 00 00         : PHIN         - NEUTRON POROSITY (SANDSTONE)
DPHI.V/V      00 890 00 00         : PHID         - DENSITY POROSITY (SANDSTONE)
GR  .API      00 310 00 00         : GR           - GAMMA RAY
CALI.MM       00 280 01 00         : CAL          - CALIPER
~PARAMETER INFORMATION
#MNEM.UNIT           DATA             DESCRIPTION OF MNEMONIC
#---------         -----------     ------------------------------
GL  .M        600.761              : gl           - GROUND LEVEL ELEVATION
EREF.M        604.418              : kb           - ELEVATION OF DEPTH REFERENCE
DATM.M        600.761              : datum        - DATUM ELEVATION
TDD .M        457.2                : tdd          - TOTAL DEPTH DRILLER
RUN .         ONE                  : Run          - RUN NUMBER
ENG .         BILL                 : Engineer     - RECORDING ENGINEER
WIT .         JIM                  : Witness      - WITNESSED BY
MUD .         GEL                  : Mud_type     - MUD TYPE
MATR.         SANDSTONE            : Logunit      - NEUTRON MATRIX
TMAX.C        26.6667              : BHT          - MAXIMUM RECORDED TEMPERATURE
BHTD.M        457.2                : BHTDEP       - MAXIMUM RECORDED TEMPERATURE
MATR.         1                    : LOGUNIT      - NEUTRON MATRIX
RMT .C        18.3333              : MDTP         - TEMPERATURE OF MUD
NEUT.         1                    : NEUTRON      - NEUTRON TYPE
RESI.         0                    : RESIST       - RESISTIVITY TYPE
RMC .OHMM     11                   : RMC          - RESISTIVITY OF MUD CAKE
RMF .OHMM     11                   : RMF          - RESISTIVITY OF MUD FILTRATE
SUFT.C        -20.5556             : SUFT         - SURFACE TEMPERATURE
~A  DEPTH     RESD     PHIN     PHID       GR      CAL
# ...
  389.840    7.442    0.375    0.162   62.654  241.161
  390.090    7.797    0.374    0.167   63.108  240.939
  390.340    8.216    0.374    0.181   65.609  241.110
  390.590    8.771    0.367    0.218   67.998  241.868
  390.840    9.106    0.366    0.209   64.815  241.839
  391.090    9.300    0.360    0.180   60.587  241.025
  391.340    9.346    0.363    0.156   59.694  239.907
  391.590    9.306    0.367    0.138   61.317  238.891
  391.840    9.232    0.372    0.129   64.519  238.372
  392.090    9.157    0.377    0.140   67.852  238.897
  392.340    9.150    0.371    0.162   65.889  239.699
  392.590    9.144    0.362    0.175   61.190  240.072
  392.840    9.138    0.356    0.177   61.762  239.252
  393.090    9.165    0.359    0.170   65.140  238.630
  393.340    9.243    0.367    0.159   68.341  238.506
  393.590    9.427    0.371    0.153   67.418  237.750
  393.840    9.711    0.367    0.152   65.207  236.066
  394.090   10.064    0.358    0.171   64.725  235.250
  394.340   10.262    0.360    0.183   65.120  235.324
  394.590   10.254    0.364    0.182   66.625  236.487
  394.840   10.100    0.364    0.173   68.306  238.046
  395.090    9.961    0.363    0.167   67.953  238.243
  395.340   10.029    0.361    0.168   67.453  237.390
  395.590    9.949    0.360    0.167   66.500  238.160
  395.840    9.870    0.360    0.160   68.181  237.738
  396.090    9.756    0.361    0.157   67.933  236.920
  396.340    9.591    0.364    0.158   65.637  236.497
  396.590    9.362    0.366    0.155   66.447  237.176
  396.840    9.285    0.372    0.146   70.573  236.736
  397.090    9.278    0.366    0.144   65.178  237.506
  397.340    9.271    0.363    0.146   64.870  237.675
  397.590    9.333    0.364    0.148   66.025  237.646
  397.840    9.446    0.367    0.151   66.243  237.621
  398.090    9.508    0.369    0.153   64.401  237.592
  398.340    9.500    0.371    0.151   64.626  237.562
  398.590    9.356    0.374    0.145   65.314  237.932
  398.840    9.317    0.378    0.139   67.406  238.604
  399.090    9.310    0.379    0.135   70.200  238.975
  399.340    9.303    0.373    0.131   72.115  238.749
  399.590    9.281    0.368    0.134   70.691  237.592
  399.840    9.204    0.362    0.167   70.676  235.914
  400.090    9.199    0.360    0.155   69.256  232.721
  400.340    9.193    0.362    0.147   70.468  230.118
  400.590    9.253    0.365    0.141   72.092  230.289
  400.840    9.348    0.367    0.139   72.663  232.740
  401.090    9.355    0.368    0.141   70.694  234.293
  401.340    9.420    0.361    0.147   66.778  234.263
  401.590    9.551    0.360    0.150   67.931  234.242
  401.840    9.632    0.364    0.151   69.085  234.214
  402.090    9.767    0.367    0.152   70.239  234.187
  402.340    9.977    0.364    0.154   71.161  234.162
  402.590   10.235    0.356    0.150   70.743  234.129
  402.840   10.463    0.366    0.150   67.560  234.108
  403.090   10.382    0.372    0.159   64.971  233.686
  403.340   10.186    0.375    0.161   67.471  233.559
  403.590    9.885    0.371    0.159   70.847  233.533
  403.840    9.507    0.362    0.155   73.053  233.508
  404.090    9.010    0.354    0.152   74.403  233.639
  404.340    8.604    0.355    0.144   75.360  234.438
  404.590    8.350    0.358    0.140   72.773  235.999
  404.840    8.058    0.360    0.151   70.008  238.451
  405.090    7.822    0.361    0.161   69.758  240.406
  405.340    7.691    0.361    0.160   72.141  241.173
  405.590    7.788    0.364    0.135   74.598  240.498
  405.840    8.336    0.364    0.131   74.095  239.232
  406.090    9.214    0.357    0.136   70.571  238.414
  406.340   10.777    0.347    0.147   67.397  236.407
  406.590   13.250    0.335    0.162   65.976  233.211
  406.840   16.982    0.327    0.173   66.778  229.520
  407.090   23.194    0.325    0.166   68.460  227.622
  407.340   29.489    0.330    0.152   64.056  232.133
  407.590   29.682    0.333    0.151   60.297  233.692
  407.840   27.314    0.328    0.156   55.132  234.360
  408.090   23.883    0.324    0.173   51.372  233.741
  408.340   20.803    0.323    0.193   51.298  232.528
  408.590   18.377    0.331    0.188   56.712  232.661
  408.840   16.529    0.331    0.180   56.940  233.457
  409.090   15.806    0.331    0.174   58.561  232.641
  409.340   15.287    0.323    0.166   58.430  233.012
  409.590   14.948    0.318    0.170   57.829  234.967
  409.840   14.775    0.320    0.192   57.403  237.120
  410.090   14.763    0.330    0.221   57.151  236.046
  410.340   14.752    0.338    0.203   57.135  234.781
  410.590   14.851    0.338    0.191   56.185  233.569
  410.840   15.938    0.333    0.172   54.356  232.650
  411.090   17.152    0.326    0.147   53.404  232.821
  411.340   17.913    0.317    0.119   53.682  233.985
  411.590   18.380    0.303    0.096   53.498  234.896
  411.840   18.791    0.306    0.114   50.310  233.626
  412.090   18.505    0.317    0.138   46.786  232.807
  412.340   17.624    0.330    0.168   47.122  233.179
  412.590   16.677    0.339    0.177   48.977  233.948
  412.840   16.134    0.340    0.164   50.598  234.618
  413.090   16.697    0.335    0.150   50.914  234.983
  413.340   17.877    0.330    0.142   51.382  234.956
  413.590   19.761    0.321    0.132   51.370  235.324
  413.840   22.083    0.316    0.124   51.355  235.693
  414.090   24.385    0.315    0.111   51.106  235.867
  414.340   26.460    0.315    0.091   50.739  236.040
  414.590   29.268    0.313    0.054   50.914  236.879
  414.840   31.328    0.309    0.017   51.873  237.267
  415.090   30.855    0.306    0.007   50.688  238.036
  415.340   29.224    0.311    0.065   50.206  238.208
  415.590   26.506    0.326    0.118   49.841  238.182
  415.840   23.658    0.342    0.138   49.532  238.157
  416.090   21.544    0.337    0.142   50.185  238.124
  416.340   20.887    0.337    0.123   52.363  238.099
  416.590   20.421    0.339    0.114   52.816  238.470
  416.840   19.744    0.336    0.126   51.689  238.838
  417.090   18.953    0.335    0.146   51.674  239.009
  417.340   18.061    0.338    0.165   54.059  238.983
  417.590   16.951    0.344    0.164   59.210  238.952
  417.840   16.559    0.352    0.133   61.631  238.928
  418.090   16.545    0.342    0.124   61.148  239.296
  418.340   16.444    0.330    0.140   58.734  239.370
  418.590   15.954    0.324    0.162   55.792  239.346
  418.840   14.975    0.330    0.181   54.078  239.320
  419.090   13.254    0.356    0.189   56.430  239.289
  419.340   11.660    0.355    0.162   60.073  239.262
  419.590   10.428    0.357    0.150   65.206  238.837
  419.840    9.823    0.360    0.143   64.899  238.119
  420.090    9.432    0.363    0.137   63.712  237.102
  420.340    9.122    0.368    0.132   63.404  235.391
  420.590    8.917    0.376    0.126   64.040  232.189
  420.840    8.911    0.375    0.122   69.630  232.162
  421.090    8.905    0.378    0.114   74.295  234.120
  421.340    8.899    0.379    0.117   72.818  236.373
  421.590    8.926    0.375    0.125   69.877  237.733
  421.840    8.969    0.371    0.137   68.280  238.101
  422.090    8.961    0.371    0.148   68.964  238.549
  422.340    8.954    0.369    0.136   68.948  238.935
  422.590    8.948    0.366    0.133   69.867  239.302
  422.840    8.942    0.362    0.130   70.790  239.676
  423.090    8.936    0.363    0.134   69.489  240.048
  423.340    8.914    0.371    0.140   67.658  240.416
  423.590    8.828    0.379    0.133   70.577  240.781
  423.840    8.756    0.382    0.123   68.853  240.754
  424.090    8.622    0.377    0.115   70.475  240.731
  424.340    8.538    0.368    0.111   69.642  240.406
  424.590    8.439    0.366    0.102   69.978  240.181
  424.840    8.342    0.369    0.094   71.541  240.055
  425.090    8.335    0.365    0.111   70.480  239.626
  425.340    8.328    0.364    0.118   68.757  239.605
  425.590    8.323    0.361    0.133   67.807  239.579
  425.840    8.318    0.358    0.130   70.366  239.252
  426.090    8.373    0.353    0.123   72.340  239.027
