~VERSION INFORMATION
 VERS.                 2.0:   CWLS LOG ASCII STANDARD -VERSION 2.0
 WRAP.                  NO:   ONE LINE PER DEPTH STEP
~WELL INFORMATION BLOCK
#MNEM.UNIT           DATA                    DESCRIPTION OF MNEMONIC
#---------    -------------------            -------------------------------
# Generated from Intellog Unique Number	CS_77_79/WELL/997
WELL.         HOME OIL COMPANY LIMITED       : Well_name    - WELL
LOC .         00/11-21-077-07W4/0            : Location     - LOCATION
UWI .         00/11-21-077-07W4/0            : Uwi          - UNIQUE WELL ID
ENTR.         SP                             : Entered      - ENTERED BY
SRVC.         SCHLUMBERGER                   : Scn          - SERVICE COMPANY
STRT.M        124.968                        : top_depth    - START DEPTH
STOP.M        354.218                        : bot_depth    - STOP DEPTH
STEP.M        0.25                           : increment    - STEP LENGTH
 NULL. -999.2500:NULL Value
~CURVE INFORMATION BLOCK
#MNEM UNIT       ERCB CURVE CODE    CURVE DESCRIPTION
#-----------   ------------------   ----------------------------------
DEPT.M        00 001 00 00         : DEPTH        - DEPTH
RHOB.KG/M3    00 350 00 00         : DENS         - BULK DENSITY
GR  .API      00 310 00 00         : GR           - GAMMA RAY
DPHI.V/V      00 890 00 00         : PHID         - DENSITY POROSITY (SANDSTONE)
NPHI.V/V      00 330 00 00         : PHIN         - NEUTRON POROSITY (SANDSTONE)
ILD .OHMM     00 120 00 00         : RESD         - DEEP RESISTIVITY (DIL)
~PARAMETER INFORMATION
#MNEM.UNIT           DATA             DESCRIPTION OF MNEMONIC
#---------         -----------     ------------------------------
GL  .M        556.4                : gl           - GROUND LEVEL ELEVATION
EREF.M        560.4                : kb           - ELEVATION OF DEPTH REFERENCE
DATM.M        571.652              : datum        - DATUM ELEVATION
TDD .M        389.534              : tdd          - TOTAL DEPTH DRILLER
RUN .         ONE                  : Run          - RUN NUMBER
ENG .         BILL                 : Engineer     - RECORDING ENGINEER
WIT .         JIM                  : Witness      - WITNESSED BY
MUD .         GEL                  : Mud_type     - MUD TYPE
MATR.         SANDSTONE            : Logunit      - NEUTRON MATRIX
TMAX.C        23.3333              : BHT          - MAXIMUM RECORDED TEMPERATURE
BHTD.M        389.534              : BHTDEP       - MAXIMUM RECORDED TEMPERATURE
MATR.         1                    : LOGUNIT      - NEUTRON MATRIX
RMT .C        25                   : MDTP         - TEMPERATURE OF MUD
NEUT.         1                    : NEUTRON      - NEUTRON TYPE
RESI.         0                    : RESIST       - RESISTIVITY TYPE
RMC .OHMM     0.25                 : RMC          - RESISTIVITY OF MUD CAKE
RMF .OHMM     0.25                 : RMF          - RESISTIVITY OF MUD FILTRATE
SUFT.C        15                   : SUFT         - SURFACE TEMPERATURE
~A  DEPTH     DENS       GR     PHID     PHIN     RESD
# ...
  307.468 2545.050  101.302    0.096    0.422    6.995
  307.718 2555.330  100.407    0.090    0.422    7.298
  307.968 2528.150   97.058    0.106    0.383    7.485
  308.218 2503.290   91.830    0.121    0.370    7.708
  308.468 2489.160   83.943    0.129    0.370    7.698
  308.718 2490.060   78.215    0.129    0.371    7.696
  308.968 2545.660   82.745    0.096    0.359    7.694
  309.218 2532.740   90.621    0.104    0.369    7.684
  309.468 2499.910   92.689    0.123    0.385    7.842
  309.718 2525.270   90.358    0.108    0.398    7.820
  309.968 2510.670   88.367    0.117    0.392    7.960
  310.218 2504.490   85.226    0.120    0.379    8.025
  310.468 2483.950   82.156    0.132    0.387    8.272
  310.718 2445.120   81.164    0.155    0.373    8.391
  310.968 2428.970   80.569    0.164    0.362    8.394
  311.218 2435.740   81.661    0.160    0.369    8.571
  311.468 2472.680   82.252    0.139    0.390    8.392
  311.718 2494.080   82.367    0.126    0.409    8.322
  311.968 2459.970   83.402    0.146    0.423    7.801
  312.218 2423.620   86.810    0.167    0.429    7.397
  312.468 2495.170   92.953    0.126    0.435    7.338
  312.718 2524.080   96.793    0.109    0.424    7.227
  312.968 2517.260   94.447    0.113    0.412    7.211
  313.218 2513.260   93.650    0.115    0.400    7.371
  313.468 2492.040   93.212    0.127    0.393    7.356
  313.718 2466.590   90.909    0.142    0.408    7.357
  313.968 2468.920   89.328    0.141    0.415    7.365
  314.218 2482.260   89.258    0.133    0.400    7.480
  314.468 2481.960   89.557    0.133    0.389    7.638
  314.718 2492.970   90.612    0.127    0.383    7.619
  314.968 2504.290   90.040    0.120    0.386    7.478
  315.218 2527.530   91.511    0.107    0.410    7.279
  315.468 2553.210   91.782    0.092    0.424    7.200
  315.718 2520.890   93.480    0.111    0.430    6.965
  315.968 2540.420   95.820    0.099    0.423    6.902
  316.218 2534.820   98.301    0.102    0.418    6.803
  316.468 2542.620   99.936    0.098    0.419    6.722
  316.718 2544.620  101.538    0.097    0.427    6.789
  316.968 2538.520  101.496    0.100    0.431    6.793
  317.218 2549.220   99.176    0.094    0.421    6.843
  317.468 2547.830   95.823    0.095    0.411    6.911
  317.718 2589.130   95.431    0.071    0.404    6.910
  317.968 2573.960   97.951    0.080    0.404    6.907
  318.218 2525.300   97.150    0.108    0.403    6.904
  318.468 2524.000   95.560    0.109    0.398    6.900
  318.718 2502.920   93.865    0.121    0.399    6.890
  318.968 2503.480   96.327    0.121    0.412    7.019
  319.218 2499.380  100.268    0.123    0.425    7.022
  319.468 2517.750   98.224    0.112    0.438    7.037
  319.718 2532.540   95.365    0.104    0.433    7.274
  319.968 2536.060   93.890    0.102    0.402    7.334
  320.218 2555.870   94.751    0.090    0.408    7.572
  320.468 2527.200   95.300    0.107    0.411    7.820
  320.718 2509.010   93.987    0.118    0.408    7.892
  320.968 2558.470   90.888    0.089    0.411    7.980
  321.218 2544.320   86.220    0.097    0.411    7.979
  321.468 2541.500   84.168    0.099    0.388    7.977
  321.718 2533.870   81.333    0.103    0.380    7.969
  321.968 2499.920   73.703    0.123    0.386    8.135
  322.218 2462.180   69.141    0.145    0.399    8.152
  322.468 2426.570   62.876    0.166    0.411    8.259
  322.718 2408.130   60.202    0.177    0.415    8.417
  322.968 2417.930   71.191    0.171    0.397    8.584
  323.218 2444.100   80.882    0.155    0.391    8.567
  323.468 2427.800   81.189    0.165    0.385    8.577
  323.718 2476.900   80.551    0.136    0.411    8.389
  323.968 2480.380   82.525    0.134    0.433    8.120
  324.218 2465.800   84.666    0.143    0.442    8.085
  324.468 2474.560   86.013    0.138    0.443    8.241
  324.718 2499.910   87.189    0.123    0.431    8.362
  324.968 2459.800   78.854    0.146    0.422    8.718
  325.218 2374.500   74.084    0.196    0.418    9.018
  325.468 2377.250   73.871    0.195    0.386    9.127
  325.718 2478.440   79.317    0.135    0.374    9.222
  325.968 2513.030   79.805    0.115    0.381    9.375
  326.218 2529.130   81.517    0.106    0.406    9.456
  326.468 2498.960   85.568    0.123    0.434    9.550
  326.718 2475.510   87.044    0.137    0.456    9.822
  326.968 2447.990   83.447    0.153    0.466   10.615
  327.218 2400.840   69.639    0.181    0.462   11.742
  327.468 2374.270   59.413    0.196    0.447   13.922
  327.718 2326.160   49.642    0.224    0.447   18.425
  327.968 2300.790   40.364    0.239    0.442   22.013
  328.218 2297.960   44.043    0.241    0.421   23.930
  328.468 2327.360   52.668    0.224    0.411   20.136
  328.718 2367.800   63.947    0.200    0.409   18.053
  328.968 2395.770   67.589    0.184    0.411   15.838
  329.218 2341.420   70.762    0.216    0.443   13.501
  329.468 2367.860   75.152    0.200    0.439   11.048
  329.718 2427.510   79.649    0.165    0.434    9.846
  329.968 2457.490   83.323    0.148    0.421    9.275
  330.218 2446.470   80.339    0.154    0.405    9.242
  330.468 2443.920   80.596    0.156    0.408    9.491
  330.718 2456.550   80.309    0.148    0.393    9.474
  330.968 2458.370   78.753    0.147    0.385    9.788
  331.218 2455.610   73.362    0.149    0.400    9.861
  331.468 2422.120   73.520    0.168    0.419   10.184
  331.718 2459.800   73.874    0.146    0.422   10.495
  331.968 2475.900   71.327    0.137    0.407   10.819
  332.218 2445.730   64.964    0.155    0.407   11.139
  332.468 2408.640   60.927    0.176    0.399   11.825
  332.718 2379.910   62.747    0.193    0.400   12.566
  332.968 2413.650   69.048    0.173    0.386   13.144
  333.218 2446.880   63.185    0.154    0.383   13.925
  333.468 2397.850   58.717    0.183    0.398   14.785
  333.718 2362.190   52.166    0.203    0.415   15.218
  333.968 2332.550   45.788    0.221    0.425   15.561
  334.218 2326.900   52.808    0.224    0.443   14.749
  334.468 2392.330   62.966    0.186    0.461   13.871
  334.718 2431.800   69.434    0.163    0.436   13.086
  334.968 2427.060   67.108    0.165    0.402   12.692
  335.218 2403.670   62.625    0.179    0.358   11.812
  335.468 2458.750   64.033    0.147    0.349   11.082
  335.718 2481.290   68.712    0.134    0.359   10.885
  335.968 2454.260   69.637    0.150    0.370   10.847
  336.218 2466.060   68.172    0.143    0.358   11.320
  336.468 2458.550   69.197    0.147    0.357   11.263
  336.718 2443.160   70.483    0.156    0.354   11.513
  336.968 2485.780   72.543    0.131    0.348   11.486
  337.218 2491.090   75.828    0.128    0.366   11.261
  337.468 2439.590   78.245    0.158    0.380   11.315
  337.718 2406.850   73.977    0.177    0.394   11.672
  337.968 2376.440   66.166    0.195    0.389   12.385
  338.218 2338.660   63.132    0.217    0.384   13.068
  338.468 2380.110   61.689    0.193    0.381   13.499
  338.718 2414.640   60.205    0.173    0.373   13.567
  338.968 2436.450   60.351    0.160    0.365   12.955
  339.218 2472.270   63.435    0.139    0.354   12.146
  339.468 2480.680   66.378    0.134    0.361   11.977
  339.718 2427.800   63.058    0.165    0.376   12.083
  339.968 2392.130   59.071    0.186    0.384   12.377
  340.218 2381.890   55.862    0.192    0.390   13.237
  340.468 2366.610   54.138    0.201    0.384   14.530
  340.718 2337.190   53.428    0.218    0.376   15.423
  340.968 2313.320   48.508    0.232    0.374   19.626
  341.218 2289.430   45.758    0.246    0.384   24.261
  341.468 2249.690   41.931    0.269    0.390   27.241
  341.718 2257.890   40.404    0.264    0.396   29.135
  341.968 2265.150   38.180    0.260    0.401   30.516
  342.218 2273.950   39.637    0.255    0.404   30.486
  342.468 2274.070   38.768    0.255    0.407   31.171
  342.718 2282.320   37.763    0.250    0.418   32.511
  342.968 2263.940   36.763    0.261    0.412   35.521
  343.218 2276.000   35.755    0.254    0.416   38.912
  343.468 2277.530   34.306    0.253    0.411   42.514
  343.718 2254.920   33.114    0.266    0.403   44.352
