~VERSION INFORMATION
 VERS.                 2.0:   CWLS LOG ASCII STANDARD -VERSION 2.0
 WRAP.                  NO:   ONE LINE PER DEPTH STEP
~WELL INFORMATION BLOCK
#MNEM.UNIT           DATA                    DESCRIPTION OF MNEMONIC
#---------    -------------------            -------------------------------
# Generated from Intellog Unique Number	CC_80_83/WELL/2400
NULL.         -999.25                        : NULL_VALUE
WELL.         AMOCO HANGINGSTONE             : Well_name    - WELL
LOC .         11-17-083-09W4                 : Location     - LOCATION          
UWI .         00/11-17-083-09W400            : Uwi          - UNIQUE WELL ID    
ENTR.         DW                             : Entered      - ENTERED BY        
SRVC.         WELEX                          : Scn          - SERVICE COMPANY   
DATE.         28 FEB 74                      : Date         - LOG DATE
STRT.M        259.08                         : top_depth    - START DEPTH       
STOP.M        493.783                        : bot_depth    - STOP DEPTH        
STEP.M        0.305                          : increment    - STEP LENGTH       
~CURVE INFORMATION BLOCK
#MNEM UNIT       ERCB CURVE CODE    CURVE DESCRIPTION
#-----------   ------------------   ----------------------------------
DEPT.M        00 001 00 00         : DEPTH        - DEPTH                       
ILD .OHMM     00 120 00 00         : RESD         - DEEP RESISTIVITY (DIL)      
GR  .API      00 310 00 00         : GR           - GAMMA RAY                   
NPHI.V/V      00 330 00 00         : PHIN         - NEUTRON POROSITY (LIMESTONE)
DPHI.V/V      00 890 00 00         : PHID         - DENSITY POROSITY (LIMESTONE)
~PARAMETER INFORMATION       
#MNEM.UNIT           DATA             DESCRIPTION OF MNEMONIC
#---------         -----------     ------------------------------
GL  .M        730.27               : gl           - GROUND LEVEL ELEVATION      
EREF.M        733.471              : kb           - ELEVATION OF DEPTH REFERENCE
DATM.M        733.471              : datum        - DATUM ELEVATION             
TDD .M        502.615              : tdd          - TOTAL DEPTH DRILLER         
RUN .         ONE                  : Run          - RUN NUMBER                  
ENG .         BILL                 : Engineer     - RECORDING ENGINEER          
WIT .         JIM                  : Witness      - WITNESSED BY                
MUD .         GEL                  : Mud_type     - MUD TYPE                    
MATR.         LIMESTONE            : Logunit      - NEUTRON MATRIX              
TMAX.C        21.6667              : BHT          - MAXIMUM RECORDED TEMPERATURE
BHTD.M        502.006              : BHTDEP       - MAXIMUM RECORDED TEMPERATURE
MATR.         1                    : LOGUNIT      - NEUTRON MATRIX              
RMT .C        25                   : MDTP         - TEMPERATURE OF MUD          
NEUT.         1                    : NEUTRON      - NEUTRON TYPE                
RESI.         0                    : RESIST       - RESISTIVITY TYPE            
RMC .OHMM     0.25                 : RMC          - RESISTIVITY OF MUD CAKE     
RMF .OHMM     0.25                 : RMF          - RESISTIVITY OF MUD FILTRATE 
SUFT.C        15                   : SUFT         - SURFACE TEMPERATURE         
~A  DEPTH     RESD       GR     PHIN     PHID
# ...
  365.154   53.134   75.050    0.245    0.433
  365.459   52.169   71.363    0.245    0.434
  365.763   46.632   70.754    0.251    0.428
  366.068   38.661   73.232    0.267    0.422
  366.373   31.455   74.479    0.299    0.391
  366.678   22.020   73.871    0.379    0.360
  366.983   17.584   75.734    0.452    0.328
  367.287   14.043   80.060    0.463    0.318
  367.592   13.032   80.072    0.465    0.315
  367.897   12.095   68.371    0.469    0.313
  368.202   11.440   67.763    0.472    0.306
  368.507   11.443   69.007    0.491    0.301
  368.811   11.448   70.253    0.496    0.301
  369.116   12.121   70.879    0.491    0.303
  369.421   12.355   67.811    0.485    0.308
  369.726   12.598   65.972    0.465    0.316
  370.031   12.602   63.516    0.457    0.319
  370.335   12.610   65.378    0.459    0.319
  370.640   12.614   67.854    0.461    0.314
  370.945   12.389   69.100    0.463    0.300
  371.250   12.394   68.493    0.465    0.292
  371.555   12.635   66.655    0.465    0.292
  371.860   12.641   67.283    0.462    0.306
  372.164   12.890   69.764    0.458    0.309
  372.469   12.895   69.156    0.457    0.308
  372.774   13.144   67.316    0.460    0.303
  373.079   13.655   66.095    0.462    0.296
  373.384   13.920   66.107    0.461    0.285
  373.688   14.194   66.737    0.458    0.277
  373.993   13.937   66.745    0.450    0.270
  374.298   13.682   63.056    0.445    0.261
  374.603   13.437   63.068    0.399    0.252
  374.908   13.442   66.779    0.363    0.241
  375.212   14.230   70.490    0.356    0.231
  375.517   14.234   71.736    0.435    0.265
  375.822   14.244   70.513    0.454    0.287
  376.127   13.471   69.907    0.453    0.294
  376.432   12.739   71.153    0.451    0.289
  376.736   12.506   73.014    0.448    0.283
  377.041   12.282   72.409    0.451    0.282
  377.346   12.057   70.569    0.460    0.288
  377.651   12.293   68.113    0.465    0.294
  377.956   12.533   69.358    0.465    0.295
  378.261   13.019   71.220    0.457    0.292
  378.565   14.043   68.764    0.453    0.280
  378.870   15.145   66.926    0.443    0.274
  379.175   16.645   64.471    0.427    0.264
  379.480   18.641   63.251    0.396    0.243
  379.785   21.273   58.944    0.348    0.173
  380.089   23.826   55.874    0.331    0.145
  380.394   24.749   60.817    0.328    0.148
  380.699   23.849   70.077    0.439    0.242
  381.004   18.343   76.873    0.453    0.274
  381.309   15.207   72.570    0.456    0.280
  381.613   12.848   70.113    0.455    0.280
  381.918   11.704   73.208    0.456    0.280
  382.223   11.491   73.832    0.463    0.283
  382.528   11.281   73.845    0.465    0.289
  382.833   11.286   74.471    0.459    0.295
  383.137   11.291   73.252    0.448    0.284
  383.442   11.300   73.881    0.445    0.275
  383.747   11.307   75.124    0.449    0.275
  384.052   11.311   74.521    0.460    0.281
  384.357   11.106   73.916    0.466    0.285
  384.662   11.111   72.076    0.464    0.293
  384.966   11.115   70.853    0.462    0.298
  385.271   11.333   70.864    0.457    0.303
  385.576   11.552   67.793    0.456    0.306
  385.881   12.003   66.572    0.455    0.311
  386.186   12.236   68.430    0.452    0.314
  386.490   12.473   70.909    0.451    0.302
  386.795   12.959   72.154    0.461    0.286
  387.100   13.212   73.400    0.466    0.285
  387.405   12.973   70.944    0.471    0.291
  387.710   12.500   69.104    0.473    0.299
  388.014   11.820   68.499    0.463    0.293
  388.319   11.391   69.744    0.468    0.275
  388.624   11.183   69.140    0.466    0.277
  388.929   11.404   69.152    0.461    0.291
  389.234   11.623   69.778    0.471    0.292
  389.538   11.852   71.639    0.480    0.289
  389.843   12.081   72.267    0.482    0.276
  390.148   11.864   72.894    0.475    0.277
  390.453   11.431   76.606    0.470    0.282
  390.758   10.610   82.167    0.469    0.281
  391.063   10.222   88.343    0.481    0.267
  391.367    9.309   93.904    0.494    0.252
  391.672    7.027   95.147    0.511    0.239
  391.977    6.280   90.226    0.504    0.229
  392.282    5.720   87.772    0.494    0.225
  392.587    5.513   88.400    0.494    0.220
  392.891    5.515   91.494    0.504    0.214
  393.196    5.517   97.670    0.510    0.211
  393.501    5.520   99.531    0.511    0.217
  393.806    4.935   94.609    0.511    0.233
  394.111    4.755   95.857    0.508    0.241
  394.415    4.496   99.567    0.503    0.241
  394.720    4.332  100.196    0.497    0.236
  395.025    4.673   96.504    0.495    0.241
  395.330    5.136   94.053    0.486    0.241
  395.635    6.085   94.682    0.470    0.235
  395.939    7.076   94.072    0.465    0.228
  396.244    7.778   92.233    0.466    0.232
  396.549    7.929   91.016    0.472    0.232
  396.854    7.642   91.026    0.485    0.222
  397.159    7.363   92.268    0.491    0.216
  397.464    6.963   93.512    0.492    0.218
  397.768    6.967   92.291    0.491    0.212
  398.073    7.102   98.468    0.487    0.212
  398.378    7.240  101.564    0.493    0.212
  398.683    7.110  102.809    0.502    0.213
  398.988    6.849  101.590    0.501    0.213
  399.292    6.009  100.982    0.501    0.215
  399.597    5.473  101.611    0.502    0.216
  399.902    5.273  101.625    0.504    0.218
  400.207    4.894  102.247    0.509    0.221
  400.512    4.628  105.342    0.530    0.221
  400.816    4.215  107.819    0.548    0.223
  401.121    3.495  111.529    0.553    0.233
  401.426    3.124  114.625    0.555    0.240
  401.731    3.067  114.019    0.543    0.239
  402.036    3.128  106.015    0.515    0.227
  402.340    3.249  103.559    0.506    0.209
  402.645    3.374  103.571    0.504    0.211
  402.950    3.779  108.518    0.504    0.217
  403.255    4.649  109.760    0.500    0.215
  403.560    5.509  101.141    0.485    0.199
  403.865    6.054   98.686    0.472    0.193
  404.169    6.654   98.077    0.468    0.202
  404.474    7.739  103.021    0.472    0.204
  404.779    8.505  106.116    0.466    0.191
  405.084    9.347  104.278    0.461    0.180
  405.389   10.273  101.825    0.448    0.179
  405.693   10.875  100.600    0.419    0.186
  405.998   11.299   98.766    0.451    0.189
  406.303   11.516   99.391    0.458    0.189
  406.608   11.741  100.639    0.453    0.188
  406.913   11.315  101.262    0.449    0.184
  407.217   10.904  104.357    0.449    0.181
  407.522   10.311  108.068    0.451    0.183
  407.827    9.391  113.011    0.460    0.185
  408.132    8.553  109.940    0.478    0.192
  408.437    7.645  106.251    0.473    0.198
  408.741    6.963  108.112    0.460    0.201
  409.046    6.835  108.741    0.454    0.185
  409.351    7.103   94.572    0.445    0.191
  409.656    7.806   89.649    0.431    0.198
  409.961    8.741   92.745    0.422    0.200
  410.266   10.164  100.773    0.431    0.205
  410.570   11.385  103.864    0.442    0.214
  410.875   11.605   94.629    0.460    0.216
  411.180   11.398   95.874    0.469    0.209
  411.485   11.189   95.885    0.479    0.204
  411.790   10.192   99.593    0.461    0.200
  412.094    9.636  103.308    0.462    0.196
  412.399    8.614  103.933    0.470    0.194
  412.704    7.994  103.330    0.473    0.189
  413.009    7.702  102.722    0.466    0.181
  413.314    7.706   95.335    0.460    0.175
  413.618    7.859   95.964    0.457    0.181
  413.923    8.011   95.975    0.459    0.189
  414.228    8.320   95.986    0.462    0.198
  414.533    8.807   97.847    0.462    0.202
  414.838    8.812   97.858    0.461    0.203
  415.142    8.817   95.402    0.462    0.208
  415.447    8.498   88.015    0.471    0.213
  415.752    8.501   84.328    0.465    0.218
  416.057    8.665   84.341    0.463    0.218
  416.362    9.002   84.353    0.465    0.218
  416.667    9.006   84.976    0.469    0.219
  416.971    8.051   88.071    0.478    0.220
  417.276    6.674   94.249    0.495    0.220
  417.581    5.230   98.575    0.509    0.218
  417.886    4.336  100.438    0.526    0.217
