~VERSION INFORMATION
 VERS.                 2.0:   CWLS LOG ASCII STANDARD -VERSION 2.0
 WRAP.                  NO:   ONE LINE PER DEPTH STEP
~WELL INFORMATION BLOCK
#MNEM.UNIT           DATA                    DESCRIPTION OF MNEMONIC
#---------    -------------------            -------------------------------
# Generated from Intellog Unique Number	CW_79_81/WELL/694
WELL.         10-04-079-25W4                 : Well_name    - WELL
LOC .         00/10-04-079-25W4/0            : Location     - LOCATION
UWI .         00/10-04-079-25W4/0            : Uwi          - UNIQUE WELL ID
ENTR.         MAX                            : Entered      - ENTERED BY
SRVC.         SCHLUMBERGER                   : Scn          - SERVICE COMPANY
STRT.M        274.32                         : top_depth    - START DEPTH
STOP.M        502.82                         : bot_depth    - STOP DEPTH
STEP.M        0.25                           : increment    - STEP LENGTH
 NULL. -999.2500:NULL Value
~CURVE INFORMATION BLOCK
#MNEM UNIT       ERCB CURVE CODE    CURVE DESCRIPTION
#-----------   ------------------   ----------------------------------
DEPT.M        00 001 00 00         : DEPTH        - DEPTH
ILD .OHMM     00 120 00 00         : RESD         - DEEP RESISTIVITY (DIL)
NPHI.V/V      00 330 00 00         : PHIN         - NEUTRON POROSITY (SANDSTONE)
DPHI.V/V      00 890 00 00         : PHID         - DENSITY POROSITY (SANDSTONE)
CALI.MM       00 280 01 00         : CAL          - CALIPER
GR  .API      00 310 00 00         : GR           - GAMMA RAY
~PARAMETER INFORMATION
#MNEM.UNIT           DATA             DESCRIPTION OF MNEMONIC
#---------         -----------     ------------------------------
GL  .M        587.35               : gl           - GROUND LEVEL ELEVATION
EREF.M        590.855              : kb           - ELEVATION OF DEPTH REFERENCE
DATM.M        587.35               : datum        - DATUM ELEVATION
TDD .M        502.006              : tdd          - TOTAL DEPTH DRILLER
RUN .         ONE                  : Run          - RUN NUMBER
ENG .         BILL                 : Engineer     - RECORDING ENGINEER
WIT .         JIM                  : Witness      - WITNESSED BY
MUD .         GEL                  : Mud_type     - MUD TYPE
MATR.         SANDSTONE            : Logunit      - NEUTRON MATRIX
TMAX.C        21.6667              : BHT          - MAXIMUM RECORDED TEMPERATURE
BHTD.M        502.006              : BHTDEP       - MAXIMUM RECORDED TEMPERATURE
RMT .C        17.7778              : MDTP         - TEMPERATURE OF MUD
MUDD.KG/M     9800                 : MWT          - MUD DENSITY
NEUT.         1                    : NEUTRON      - NEUTRON TYPE
RESI.         0                    : RESIST       - RESISTIVITY TYPE
RM  .OHMM     4.66                 : RM           - RESISTIVITY OF MUD
RMC .OHMM     0                    : RMC          - RESISTIVITY OF MUD CAKE
RMF .OHMM     4.56                 : RMF          - RESISTIVITY OF MUD FILTRATE
SUFT.C        -20.5556             : SUFT         - SURFACE TEMPERATURE
~A  DEPTH     RESD     PHIN     PHID      CAL       GR
# ...
  310.820   19.955    0.485    0.327  228.896   63.141
  311.070   22.523    0.491    0.341  227.886   57.799
  311.320   26.548    0.499    0.355  226.878   56.610
  311.570   29.443    0.500    0.353  226.371   56.904
  311.820   30.984    0.495    0.343  226.869   57.495
  312.070   30.957    0.486    0.345  227.369   55.712
  312.320   30.957    0.473    0.348  227.865   54.820
  312.570   30.625    0.462    0.349  227.863   54.818
  312.820   30.067    0.479    0.352  228.361   53.035
  313.070   30.018    0.480    0.356  228.860   50.659
  313.320   29.744    0.479    0.353  228.855   50.064
  313.570   29.744    0.476    0.350  228.349   49.468
  313.820   29.674    0.468    0.347  227.842   49.763
  314.070   29.140    0.468    0.340  227.336   50.057
  314.320   29.090    0.472    0.337  227.332   50.351
  314.570   28.578    0.480    0.355  227.328   50.645
  314.820   27.814    0.486    0.358  227.826   51.236
  315.070   27.814    0.471    0.355  228.325   52.124
  315.320   27.266    0.468    0.354  228.321   54.495
  315.570   26.314    0.472    0.345  228.317   56.273
  315.820   26.314    0.478    0.351  228.312   55.677
  316.070   26.018    0.472    0.354  228.308   55.377
  316.320   25.783    0.471    0.355  228.807   56.859
  316.570   25.304    0.485    0.344  229.808   57.747
  316.820   25.285    0.486    0.341  230.306   57.744
  317.070   25.042    0.481    0.336  229.799   58.335
  317.320   25.008    0.475    0.343  229.795   58.332
  317.570   24.986    0.482    0.353  229.289   56.254
  317.820   24.962    0.483    0.351  229.285   55.658
  318.070   24.934    0.479    0.358  229.281   57.732
  318.320   24.910    0.478    0.351  229.779   58.916
  318.570   24.666    0.478    0.350  229.776   57.431
  318.820   24.666    0.483    0.348  230.274   55.945
  319.070   24.392    0.490    0.354  230.270   58.613
  319.320   24.166    0.487    0.356  230.767   61.873
  319.570   23.729    0.481    0.354  230.764   62.761
  319.820   23.091    0.481    0.347  231.263   64.836
  320.070   22.474    0.478    0.340  231.761   69.283
  320.320   21.495    0.471    0.345  232.259   69.578
  320.570   20.202    0.463    0.344  232.254   70.762
  320.820   18.824    0.466    0.339  232.252   71.353
  321.070   18.158    0.488    0.334  232.247   68.680
  321.320   18.158    0.507    0.318  232.243   68.678
  321.570   18.111    0.507    0.317  232.239   69.863
  321.820   18.422    0.509    0.325  232.235   73.124
  322.070   19.223    0.504    0.310  232.230   70.154
  322.320   20.408    0.492    0.298  232.227   64.812
  322.570   21.670    0.473    0.305  232.222   61.546
  322.820   23.210    0.478    0.327  231.716   61.247
  323.070   25.293    0.486    0.329  231.210   60.651
  323.320   26.856    0.489    0.323  230.704   59.165
  323.570   28.268    0.449    0.309  231.203   58.867
  323.820   28.733    0.386    0.281  234.212   57.678
  324.070   28.456    0.310    0.168  234.209   53.522
  324.320   27.217    0.180    0.061  233.701   51.146
  324.570   25.361    0.207    0.062  233.196   53.517
  324.820   21.843    0.295    0.076  232.689   53.218
  325.070   18.988    0.354    0.102  231.681   54.996
  325.320   17.846    0.418    0.126  230.169   60.630
  325.570   16.772    0.490    0.279  229.662   67.154
  325.820   16.324    0.510    0.307  229.662   68.042
  326.070   16.296    0.513    0.316  230.155   68.040
  326.320   16.150    0.499    0.319  230.655   69.224
  326.570   16.702    0.494    0.322  230.651   70.111
  326.820   16.979    0.489    0.328  230.648   69.813
  327.070   17.106    0.479    0.332  230.644   70.700
  327.320   16.799    0.459    0.329  230.137   74.554
  327.570   16.347    0.473    0.317  230.133   73.959
  327.820   15.768    0.503    0.317  230.129   72.177
  328.070   15.768    0.493    0.315  230.124   73.361
  328.320   15.464    0.497    0.314  230.120   76.622
  328.570   14.924    0.486    0.314  230.117   78.103
  328.820   14.650    0.492    0.317  230.111   78.101
  329.070   14.383    0.496    0.314  230.612   75.428
  329.320   14.121    0.490    0.307  230.606   76.019
  329.570   14.121    0.487    0.308  230.603   78.094
  329.820   13.848    0.482    0.310  230.599   78.684
  330.070   13.242    0.487    0.305  231.097   77.792
  330.320   12.888    0.487    0.305  231.094   79.866
  330.570   12.545    0.505    0.297  231.592   78.381
  330.820   12.545    0.508    0.289  231.588   78.675
  331.070   12.302    0.506    0.291  231.584   77.189
  331.320   11.561    0.500    0.290  232.083   76.890
  331.570   11.254    0.496    0.269  234.087   78.668
  331.820   10.857    0.493    0.271  236.595   80.445
  332.070   10.383    0.484    0.271  238.098   81.926
  332.320   10.015    0.470    0.263  239.100   82.221
  332.570   10.015    0.473    0.254  241.104   82.218
  332.820    9.823    0.479    0.254  242.106   83.403
  333.070    9.396    0.502    0.251  243.608   87.257
  333.320    9.396    0.509    0.251  244.609   85.475
  333.570    9.131    0.502    0.252  244.605   86.065
  333.820    9.047    0.504    0.246  244.600   88.140
  334.070    9.047    0.504    0.242  244.095   89.918
  334.320    8.869    0.502    0.246  242.584   91.992
  334.570    8.787    0.507    0.254  241.072   91.989
  334.820    8.700    0.488    0.256  240.064   90.207
  335.070    8.691    0.480    0.252  239.055   88.127
  335.320    8.684    0.472    0.251  239.051   87.829
  335.570    8.750    0.471    0.254  239.046   87.826
  335.820    8.895    0.475    0.255  239.044   87.824
  336.070    9.122    0.474    0.248  239.038   87.822
  336.320    9.353    0.473    0.240  239.035   86.336
  336.570    9.424    0.480    0.246  239.031   87.520
  336.820    9.414    0.494    0.246  239.026   91.375
  337.070    9.399    0.490    0.247  239.023   92.262
  337.320    9.395    0.490    0.243  239.019   89.887
  337.570    9.224    0.482    0.232  239.517   86.621
  337.820    9.055    0.485    0.238  240.016   86.025
  338.070    8.890    0.504    0.245  240.514   89.583
  338.320    8.728    0.510    0.245  240.510   92.844
  338.570    8.570    0.506    0.245  240.506   93.435
  338.820    8.558    0.512    0.244  241.004   94.322
  339.070    8.702    0.510    0.240  241.000   92.837
  339.320    9.157    0.491    0.243  241.499   88.978
  339.570    9.894    0.484    0.247  241.495   93.129
  339.820   10.783    0.488    0.249  240.988   99.060
  340.070   11.550    0.524    0.254  239.477   95.794
  340.320   12.050    0.545    0.277  235.956   87.782
  340.570   12.030    0.529    0.298  232.938   79.472
  340.820   12.130    0.526    0.307  231.929   73.537
  341.070   12.118    0.507    0.312  231.925   70.567
  341.320   12.318    0.492    0.313  231.925   72.345
  341.570   12.523    0.489    0.313  231.918   74.419
  341.820   13.066    0.501    0.315  232.918   72.934
  342.070   13.873    0.503    0.318  232.914   70.854
  342.320   14.605    0.514    0.319  232.910   70.852
  342.570   15.918    0.530    0.314  233.409   74.707
  342.820   17.500    0.524    0.313  234.409   73.518
  343.070   18.742    0.531    0.310  235.410   73.218
  343.320   19.382    0.520    0.227  235.406   73.216
  343.570   19.366    0.491    0.140  235.904   67.874
  343.820   18.520    0.504    0.132  234.895   66.685
  344.070   17.110    0.520    0.147  233.385   68.759
  344.320   14.739    0.519    0.185  232.375   72.317
  344.570   13.494    0.503    0.193  231.366   75.281
  344.820   13.494    0.495    0.240  231.363   76.168
  345.070   13.352    0.499    0.276  231.359   76.760
  345.320   12.660    0.496    0.300  231.354   75.274
  345.570   12.212    0.492    0.302  231.853   76.162
  345.820   11.680    0.482    0.296  232.352   76.159
  346.070   11.075    0.492    0.294  233.855   76.750
  346.320   10.410    0.512    0.300  234.353   77.045
  346.570    9.947    0.493    0.302  234.349   75.558
  346.820    9.774    0.478    0.293  235.350   76.149
  347.070    8.871    0.460    0.265  236.350   80.894
