~VERSION INFORMATION
 VERS.                 2.0:   CWLS LOG ASCII STANDARD -VERSION 2.0
 WRAP.                  NO:   ONE LINE PER DEPTH STEP
~WELL INFORMATION BLOCK
#MNEM.UNIT           DATA                    DESCRIPTION OF MNEMONIC
#---------    -------------------            -------------------------------
# Generated from Intellog Unique Number	CS_77_79/WELL/1014
WELL.         ICGR CHARD                     : Well_name    - WELL
LOC .         00/12-20-079-05W4/0            : Location     - LOCATION
UWI .         00/12-20-079-05W4/0            : Uwi          - UNIQUE WELL ID
ENTR.         JHS                            : Entered      - ENTERED BY
SRVC.         SCHLUMBERGER                   : Scn          - SERVICE COMPANY
STRT.M        105                            : top_depth    - START DEPTH
STOP.M        325                            : bot_depth    - STOP DEPTH
STEP.M        0.25                           : increment    - STEP LENGTH
 NULL. -999.2500:NULL Value
~CURVE INFORMATION BLOCK
#MNEM UNIT       ERCB CURVE CODE    CURVE DESCRIPTION
#-----------   ------------------   ----------------------------------
DEPT.M        00 001 00 00         : DEPTH        - DEPTH
DPHI.V/V      00 890 00 00         : PHID         - DENSITY POROSITY (LIMESTONE)
NPHI.V/V      00 330 00 00         : PHIN         - NEUTRON POROSITY (LIMESTONE)
GR  .API      00 310 00 00         : GR           - GAMMA RAY
ILD .OHMM     00 120 00 00         : RESD         - DEEP RESISTIVITY (DIL)
RHOB.KG/M3    00 350 00 00         : DENS         - BULK DENSITY
~PARAMETER INFORMATION
#MNEM.UNIT           DATA             DESCRIPTION OF MNEMONIC
#---------         -----------     ------------------------------
GL  .M        478.6                : gl           - GROUND LEVEL ELEVATION
EREF.M        481.6                : kb           - ELEVATION OF DEPTH REFERENCE
DATM.M        481.6                : datum        - DATUM ELEVATION
TDD .M        335                  : tdd          - TOTAL DEPTH DRILLER
RUN .         ONE                  : Run          - RUN NUMBER
ENG .         BILL                 : Engineer     - RECORDING ENGINEER
WIT .         JIM                  : Witness      - WITNESSED BY
MUD .         GEL                  : Mud_type     - MUD TYPE
MATR.         LIMESTONE            : Logunit      - NEUTRON MATRIX
TMAX.C        25                   : BHT          - MAXIMUM RECORDED TEMPERATURE
BHTD.M        335                  : BHTDEP       - MAXIMUM RECORDED TEMPERATURE
MATR.         1                    : LOGUNIT      - NEUTRON MATRIX
RMT .C        25                   : MDTP         - TEMPERATURE OF MUD
NEUT.         1                    : NEUTRON      - NEUTRON TYPE
RESI.         0                    : RESIST       - RESISTIVITY TYPE
RMC .OHMM     0.25                 : RMC          - RESISTIVITY OF MUD CAKE
RMF .OHMM     0.25                 : RMF          - RESISTIVITY OF MUD FILTRATE
SUFT.C        15                   : SUFT         - SURFACE TEMPERATURE
~A  DEPTH     PHID     PHIN       GR     RESD     DENS
# ...
  178.000    0.239    0.477   91.284    6.336    0.000
  178.250    0.243    0.496   96.761    5.993    0.000
  178.500    0.257    0.509  101.025    5.565    0.000
  178.750    0.257    0.508   96.214    5.166    0.000
  179.000    0.246    0.505   90.198    4.534    0.000
  179.250    0.250    0.527   88.415    3.906    0.000
  179.500    0.274    0.565   95.704    3.302    0.000
  179.750    0.291    0.607   97.559    2.740    0.000
  180.000    0.294    0.607   96.379    2.592    0.000
  180.250    0.288    0.598   95.795    2.498    0.000
  180.500    0.281    0.587   93.407    2.548    0.000
  180.750    0.279    0.567   89.206    2.597    0.000
  181.000    0.271    0.559   90.448    2.749    0.000
  181.250    0.260    0.556   92.287    3.021    0.000
  181.500    0.255    0.549   97.157    3.137    0.000
  181.750    0.274    0.552   96.581    3.383    0.000
  182.000    0.276    0.547   93.599    3.788    0.000
  182.250    0.269    0.528   90.597    4.085    0.000
  182.500    0.264    0.498   84.583    4.748    0.000
  182.750    0.273    0.459   85.819    5.217    0.000
  183.000    0.273    0.448   81.622    5.733    0.000
  183.250    0.254    0.469   81.052    5.955    0.000
  183.500    0.254    0.480   83.494    6.303    0.000
  183.750    0.270    0.491   87.760    6.671    0.000
  184.000    0.279    0.498   82.348    7.329    0.000
  184.250    0.246    0.443   70.278    8.519    0.000
  184.500    0.159    0.334   57.003    9.901    0.000
  184.750    0.071    0.267   51.596   10.678    0.000
  185.000    0.073    0.245   53.444   10.887    0.000
  185.250    0.159    0.251   61.332   10.691    0.000
  185.500    0.252    0.285   70.433    9.385    0.000
  185.750    0.308    0.451   76.520    8.550    0.000
  186.000    0.307    0.473   78.970    7.368    0.000
  186.250    0.287    0.482   78.994    7.235    0.000
  186.500    0.280    0.490   74.189    7.238    0.000
  186.750    0.293    0.466   69.989    7.519    0.000
  187.000    0.309    0.442   73.648    7.811    0.000
  187.250    0.307    0.469   73.679    8.113    0.000
  187.500    0.310    0.502   71.892    8.119    0.000
  187.750    0.319    0.475   74.947    8.124    0.000
  188.000    0.319    0.480   78.001    7.978    0.000
  188.250    0.291    0.498   76.826    7.835    0.000
  188.500    0.300    0.476   69.598    7.695    0.000
  188.750    0.332    0.452   65.996    7.844    0.000
  189.000    0.336    0.463   67.239    7.849    0.000
  189.250    0.310    0.470   69.688    8.005    0.000
  189.500    0.293    0.474   75.160    8.010    0.000
  189.750    0.282    0.458   80.640    7.864    0.000
  190.000    0.277    0.444   80.672    7.868    0.000
  190.250    0.297    0.462   79.502    8.174    0.000
  190.500    0.295    0.481   77.106    8.493    0.000
  190.750    0.291    0.460   73.513    8.496    0.000
  191.000    0.306    0.452   73.534    8.504    0.000
  191.250    0.297    0.451   74.778    8.349    0.000
  191.500    0.286    0.468   78.432    8.051    0.000
  191.750    0.290    0.480   81.494    8.053    0.000
  192.000    0.290    0.462   81.527    7.763    0.000
  192.250    0.294    0.450   84.582    7.622    0.000
  192.500    0.280    0.480   89.451    7.485    0.000
  192.750    0.265    0.462   94.323    7.215    0.000
  193.000    0.249    0.448   96.765    7.085    0.000
  193.250    0.243    0.467   96.192    6.958    0.000
  193.500    0.264    0.452   91.393    6.962    0.000
  193.750    0.262    0.441   88.397    6.837    0.000
  194.000    0.254    0.452   87.815    7.237    0.000
  194.250    0.259    0.467   83.616    7.518    0.000
  194.500    0.282    0.477   80.625    7.522    0.000
  194.750    0.289    0.487   80.048    7.387    0.000
  195.000    0.280    0.481   77.661    6.858    0.000
  195.250    0.264    0.481   76.475    6.020    0.000
  195.500    0.245    0.509   82.559    5.384    0.000
  195.750    0.253    0.551   89.240    4.907    0.000
  196.000    0.253    0.527   90.480    4.728    0.000
  196.250    0.254    0.495   85.075    4.731    0.000
  196.500    0.258    0.501   82.684    4.824    0.000
  196.750    0.257    0.480   80.900    5.106    0.000
  197.000    0.260    0.463   81.532    5.303    0.000
  197.250    0.269    0.478   85.195    5.509    0.000
  197.500    0.265    0.503   87.644    5.411    0.000
  197.750    0.254    0.523   89.488    5.215    0.000
  198.000    0.258    0.547   90.129    4.933    0.000
  198.250    0.261    0.559   94.389    4.667    0.000
  198.500    0.269    0.548   98.048    4.583    0.000
  198.750    0.282    0.515   95.664    4.672    0.000
  199.000    0.310    0.475   84.201    4.945    0.000
  199.250    0.332    0.452   76.371    5.137    0.000
  199.500    0.310    0.448   75.201    4.952    0.000
  199.750    0.291    0.458   75.822    4.597    0.000
  200.000    0.283    0.544   79.482    4.515    0.000
  200.250    0.273    0.560   87.381    4.434    0.000
  200.500    0.266    0.506   87.407    4.436    0.000
  200.750    0.270    0.453   82.003    4.785    0.000
  201.000    0.286    0.439   81.427    5.063    0.000
  201.250    0.276    0.461   83.272    5.997    0.000
  201.500    0.246    0.473   82.694    6.713    0.000
  201.750    0.248    0.480   83.329    7.105    0.000
  202.000    0.248    0.458   85.179    7.522 2285.680
  202.250    0.244    0.441   81.582    7.813 2292.050
  202.500    0.248    0.431   71.932    8.269 2285.870
  202.750    0.214    0.410   65.310    8.590 2344.490
  203.000    0.199    0.409   66.546    8.596 2369.660
  203.250    0.266    0.423   72.037    8.286 2254.840
  203.500    0.289    0.447   71.450    7.986 2215.240
  203.750    0.266    0.454   69.673    7.841 2255.040
  204.000    0.266    0.453   68.497    7.700 2255.150
  204.250    0.295    0.450   67.918    7.706 2205.120
  204.500    0.309    0.441   71.575    7.566 2182.250
  204.750    0.296    0.442   86.725    6.398 2203.220
  205.000    0.262    0.477   92.198    5.309 2261.830
  205.250    0.244    0.510   97.075    4.489 2293.270
  205.500    0.261    0.531   98.915    4.090 2264.110
  205.750    0.268    0.542   97.733    3.869 2251.690
  206.000    0.241    0.500   88.692    4.020 2297.770
  206.250    0.251    0.457   83.887    4.097 2281.170
  206.500    0.259    0.455   85.135    4.503 2266.630
  206.750    0.265    0.488   85.160    4.856 2256.280
  207.000    0.271    0.506   83.976    4.858 2245.920
  207.250    0.260    0.517   80.386    4.954 2264.840
  207.500    0.263    0.527   78.597    5.050 2260.760
  207.750    0.265    0.478   91.326    5.445 2256.700
  208.000    0.255    0.437   92.567    6.098 2273.500
  208.250    0.259    0.427   85.956    6.453 2267.360
  208.500    0.288    0.436   84.784    6.959 2217.290
  208.750    0.320    0.436   84.193    7.229 2163.070
  209.000    0.326    0.446   81.204    7.099 2152.730
  209.250    0.311    0.458   80.631    6.469 2177.900
  209.500    0.281    0.439   82.477    5.785 2230.230
  209.750    0.256    0.441   84.928    4.984 2272.120
  210.000    0.238    0.458   86.170    4.293 2303.560
  210.250    0.229    0.462   84.386    3.768 2318.310
  210.500    0.244    0.479   80.186    3.069 2293.320
  210.750    0.313    0.517   76.582    2.694 2174.340
  211.000    0.300    0.531   75.398    2.501 2197.420
  211.250    0.296    0.545   77.851    2.366 2203.790
  211.500    0.302    0.559   76.068    2.324 2193.470
  211.750    0.302    0.581   74.281    2.325 2193.530
  212.000    0.292    0.560   73.712    2.326 2210.360
  212.250    0.282    0.552   74.346    2.372 2227.170
  212.500    0.288    0.585   74.375    2.418 2216.860
  212.750    0.296    0.618   78.639    2.559 2204.400
  213.000    0.296    0.617   81.695    2.709 2204.530
  213.250    0.283    0.589   78.102    2.867 2225.500
  213.500    0.262    0.533   78.733    3.091 2261.140
  213.750    0.249    0.481   81.788    3.662 2284.210
  214.000    0.238    0.477   84.843    4.023 2303.130
  214.250    0.233    0.496   85.478    4.504 2311.560
