~VERSION INFORMATION
 VERS.                 2.0:   CWLS LOG ASCII STANDARD -VERSION 2.0
 WRAP.                  NO:   ONE LINE PER DEPTH STEP
~WELL INFORMATION BLOCK
#MNEM.UNIT           DATA                    DESCRIPTION OF MNEMONIC
#---------    -------------------            -------------------------------
# Generated from Intellog Unique Number	CW_79_81/WELL/2467
WELL.         10-15-081-19W4                 : Well_name    - WELL
LOC .         00/10-15-081-19W4/0            : Location     - LOCATION
UWI .         00/10-15-081-19W400            : Uwi          - UNIQUE WELL ID
ENTR.         MAX                            : Entered      - ENTERED BY
SRVC.         SCHLUMBERGER                   : Scn          - SERVICE COMPANY
STRT.M        167.64                         : top_depth    - START DEPTH
STOP.M        365.64                         : bot_depth    - STOP DEPTH
STEP.M        0.25                           : increment    - STEP LENGTH
 NULL. -999.2500:NULL Value
~CURVE INFORMATION BLOCK
#MNEM UNIT       ERCB CURVE CODE    CURVE DESCRIPTION
#-----------   ------------------   ----------------------------------
DEPT.M        00 001 00 00         : DEPTH        - DEPTH
ILD .OHMM     00 120 00 00         : RESD         - DEEP RESISTIVITY (DIL)
NPHI.V/V      00 330 00 00         : PHIN         - NEUTRON POROSITY (SANDSTONE)
DPHI.V/V      00 890 00 00         : PHID         - DENSITY POROSITY (SANDSTONE)
GR  .API      00 310 00 00         : GR           - GAMMA RAY
CALI.MM       00 280 01 00         : CAL          - CALIPER
~PARAMETER INFORMATION
#MNEM.UNIT           DATA             DESCRIPTION OF MNEMONIC
#---------         -----------     ------------------------------
GL  .M        576.377              : gl           - GROUND LEVEL ELEVATION
EREF.M        578.815              : kb           - ELEVATION OF DEPTH REFERENCE
DATM.M        576.377              : datum        - DATUM ELEVATION
TDD .M        373.99               : tdd          - TOTAL DEPTH DRILLER
RUN .         ONE                  : Run          - RUN NUMBER
ENG .         BILL                 : Engineer     - RECORDING ENGINEER
WIT .         JIM                  : Witness      - WITNESSED BY
MUD .         GEL                  : Mud_type     - MUD TYPE
MATR.         SANDSTONE            : Logunit      - NEUTRON MATRIX
TMAX.C        20                   : BHT          - MAXIMUM RECORDED TEMPERATURE
BHTD.M        373.99               : BHTDEP       - MAXIMUM RECORDED TEMPERATURE
MATR.         1                    : LOGUNIT      - NEUTRON MATRIX
RMT .C        15.5556              : MDTP         - TEMPERATURE OF MUD
NEUT.         1                    : NEUTRON      - NEUTRON TYPE
RESI.         0                    : RESIST       - RESISTIVITY TYPE
RMC .OHMM     7.16                 : RMC          - RESISTIVITY OF MUD CAKE
RMF .OHMM     8.11                 : RMF          - RESISTIVITY OF MUD FILTRATE
SUFT.C        -20                  : SUFT         - SURFACE TEMPERATURE
~A  DEPTH     RESD     PHIN     PHID       GR      CAL
# ...
  204.140    8.986    0.431    0.228   98.808  162.252
  204.390    8.657    0.423    0.225  100.747  161.813
  204.640    8.113    0.419    0.225  103.029  161.966
  204.890    6.998    0.432    0.211  105.935  164.765
  205.140    5.689    0.451    0.190  109.040  169.208
  205.390    4.906    0.477    0.184  112.252  171.114
  205.640    4.459    0.506    0.180  116.156  172.142
  205.890    4.241    0.533    0.174  121.331  172.291
  206.140    4.185    0.556    0.165  126.216  171.854
  206.390    4.254    0.572    0.162  127.926  171.249
  206.640    4.317    0.551    0.179  131.992  170.389
  206.890    4.377    0.544    0.191  132.427  175.819
  207.140    4.341    0.535    0.209  129.393  177.439
  207.390    4.245    0.534    0.214  128.441  175.828
  207.640    4.059    0.541    0.201  131.246  173.138
  207.890    3.686    0.558    0.191  135.413  172.918
  208.140    3.521    0.569    0.208  134.424  172.049
  208.390    3.545    0.555    0.226  131.162  175.912
  208.640    3.724    0.546    0.239  128.067  181.258
  208.890    4.213    0.535    0.252  125.264  186.695
  209.140    5.132    0.519    0.262  122.521  189.286
  209.390    6.433    0.494    0.255  118.767  183.399
  209.640    7.434    0.470    0.233  116.332  177.641
  209.890    7.924    0.460    0.231  113.068  182.287
  210.140    7.966    0.473    0.224  110.497  189.290
  210.390    7.673    0.482    0.231  111.742  193.164
  210.640    7.332    0.485    0.245  117.207  190.281
  210.890    7.391    0.503    0.224  124.281  179.028
  211.140    8.030    0.503    0.208  122.807  179.795
  211.390    8.869    0.485    0.221  121.161  179.362
  211.640    9.853    0.462    0.255  117.089  174.223
  211.890   10.867    0.443    0.269  109.202  166.537
  212.140   11.792    0.435    0.257   98.538  159.144
  212.390   12.711    0.435    0.253   87.306  155.398
  212.640   13.394    0.430    0.282   81.012  154.543
  212.890   14.076    0.424    0.299   76.826  154.492
  213.140   14.329    0.421    0.309   72.117  154.745
  213.390   14.887    0.435    0.318   66.425  155.483
  213.640   16.052    0.471    0.328   59.922  157.195
  213.890   17.817    0.519    0.337   52.882  160.907
  214.140   19.505    0.479    0.314   50.201  162.081
  214.390   20.648    0.446    0.277   51.563  161.256
  214.640   22.438    0.447    0.284   52.752  161.015
  214.890   24.469    0.458    0.300   54.111  161.166
  215.140   26.490    0.461    0.305   55.700  161.123
  215.390   29.346    0.443    0.294   57.527  159.321
  215.640   33.133    0.438    0.293   58.705  156.418
  215.890   37.640    0.434    0.298   58.675  159.102
  216.140   43.243    0.435    0.299   57.608  161.213
  216.390   48.812    0.451    0.293   56.312  162.737
  216.640   53.086    0.473    0.290   55.708  163.570
  216.890   56.150    0.470    0.312   57.071  162.856
  217.140   57.832    0.458    0.318   58.243  159.539
  217.390   59.913    0.459    0.321   58.447  157.143
  217.640   62.070    0.453    0.317   59.171  155.925
  217.890   63.857    0.443    0.309   58.565  155.687
  218.140   64.750    0.431    0.301   56.169  155.939
  218.390   64.134    0.419    0.293   53.044  155.887
  218.640   63.573    0.421    0.296   53.732  155.838
  218.890   61.285    0.432    0.293   56.022  155.400
  219.140   56.798    0.443    0.304   58.310  155.255
  219.390   49.606    0.445    0.318   60.710  155.404
  219.640   42.699    0.447    0.326   63.051  155.649
  219.890   38.933    0.470    0.324   65.060  155.584
  220.140   39.199    0.488    0.340   65.994  155.540
  220.390   42.687    0.477    0.337   63.888  155.890
  220.640   47.723    0.477    0.333   61.778  156.236
  220.890   53.226    0.479    0.333   59.439  156.580
  221.140   57.274    0.475    0.334   56.522  156.926
  221.390   57.204    0.461    0.335   52.652  157.428
  221.640   55.054    0.450    0.330   53.105  158.190
  221.890   48.916    0.450    0.329   54.698  158.926
  222.140   43.493    0.457    0.324   55.596  159.666
  222.390   39.764    0.466    0.325   55.916  160.209
  222.640   37.661    0.479    0.333   55.945  160.553
  222.890   36.881    0.500    0.335   56.189  160.802
  223.140   37.136    0.482    0.326   56.404  160.351
  223.390   36.049    0.478    0.316   56.841  159.129
  223.640   32.523    0.484    0.321   57.617  157.031
  223.890   28.163    0.495    0.331   57.588  155.616
  224.140   23.982    0.503    0.341   56.930  155.275
  224.390   18.783    0.495    0.346   57.565  155.218
  224.640   13.538    0.492    0.340   59.706  155.164
  224.890   10.908    0.490    0.334   64.534  155.905
  225.140    8.810    0.485    0.322   69.364  156.635
  225.390    7.816    0.484    0.296   71.534  157.565
  225.640    7.590    0.483    0.262   70.639  158.797
  225.890    7.797    0.450    0.230   69.197  160.152
  226.140    8.342    0.398    0.200   72.543  159.288
  226.390    9.021    0.426    0.224   72.050  158.449
  226.640    9.453    0.469    0.260   70.001  158.501
  226.890    9.863    0.489    0.288   68.467  158.851
  227.140   10.442    0.481    0.303   68.377  159.198
  227.390   11.506    0.470    0.313   69.312  159.610
  227.640   12.598    0.468    0.322   68.320  159.969
  227.890   14.012    0.482    0.343   60.897  161.493
  228.140   14.723    0.506    0.381   48.787  162.719
  228.390   14.438    0.551    0.480   39.856  164.239
  228.640   13.442    0.597    0.540   38.095  165.759
  228.890   12.154    0.596    0.311   45.107  165.853
  229.140   11.352    0.588    0.297   52.544  164.576
  229.390   10.860    0.533    0.267   57.375  162.572
  229.640   10.563    0.465    0.278   58.735  159.690
  229.890   10.443    0.440    0.293   58.592  158.077
  230.140   10.492    0.456    0.298   58.333  158.322
  230.390   10.763    0.458    0.296   58.714  159.770
  230.640   11.002    0.464    0.299   58.444  161.347
  230.890   11.315    0.470    0.301   58.874  160.527
  231.140   11.639    0.465    0.301   60.178  159.699
  231.390   11.931    0.461    0.308   60.964  159.063
  231.640   12.185    0.463    0.323   60.707  158.425
  231.890   12.535    0.467    0.339   59.990  156.950
  232.140   13.008    0.466    0.331   61.165  155.677
  232.390   13.190    0.456    0.329   60.672  155.635
  232.640   13.517    0.446    0.334   61.222  155.296
  232.890   13.756    0.442    0.335   62.234  154.855
  233.140   13.847    0.447    0.329   63.072  154.511
  233.390   13.936    0.458    0.324   62.900  154.456
  233.640   13.926    0.458    0.329   62.149  154.412
  233.890   13.917    0.469    0.325   60.271  153.974
  234.140   13.907    0.478    0.330   60.130  153.833
  234.390   13.846    0.479    0.338   61.029  153.786
  234.640   13.761    0.475    0.341   61.521  153.737
  234.890   13.709    0.474    0.339   59.308  153.765
  235.140   13.493    0.469    0.350   58.800  154.120
  235.390   13.289    0.460    0.356   56.461  154.460
  235.640   13.305    0.459    0.353   57.413  155.100
  235.890   13.393    0.460    0.348   58.309  155.646
  236.140   13.358    0.458    0.344   57.877  155.897
  236.390   12.889    0.450    0.344   56.967  156.007
  236.640   12.498    0.442    0.345   57.179  156.769
  236.890   12.309    0.450    0.339   57.845  157.119
  237.140   12.257    0.459    0.337   58.169  157.171
  237.390   12.380    0.463    0.337   56.986  156.926
  237.640   12.643    0.461    0.338   54.819  156.584
  237.890   12.950    0.457    0.340   53.862  156.531
  238.140   13.139    0.465    0.347   53.831  156.477
  238.390   13.034    0.467    0.352   54.266  156.430
  238.640   12.860    0.476    0.350   54.529  156.384
  238.890   12.573    0.485    0.351   54.270  156.537
  239.140   12.183    0.492    0.355   53.720  156.887
  239.390   11.688    0.493    0.357   53.687  157.214
  239.640   11.420    0.492    0.357   53.658  157.175
  239.890   11.329    0.487    0.356   53.633  156.723
  240.140   11.363    0.490    0.355   53.951  156.585
  240.390   11.479    0.490    0.354   54.617  157.130
