~VERSION INFORMATION
 VERS.                 2.0:   CWLS LOG ASCII STANDARD -VERSION 2.0
 WRAP.                  NO:   ONE LINE PER DEPTH STEP
~WELL INFORMATION BLOCK
#MNEM.UNIT           DATA                    DESCRIPTION OF MNEMONIC
#---------    -------------------            -------------------------------
# Generated from Intellog Unique Number	CS_77_79/WELL/996
WELL.         NORTHSTAR ET AL THORNBURY      : Well_name    - WELL
LOC .         00/11-18-079-12W4/0            : Location     - LOCATION
UWI .         00/11-18-079-12W4/0            : Uwi          - UNIQUE WELL ID
ENTR.         JHS                            : Entered      - ENTERED BY
SRVC.         SCHLUMBERGER                   : Scn          - SERVICE COMPANY
STRT.M        275                            : top_depth    - START DEPTH
STOP.M        520                            : bot_depth    - STOP DEPTH
STEP.M        0.25                           : increment    - STEP LENGTH
 NULL. -999.2500:NULL Value
~CURVE INFORMATION BLOCK
#MNEM UNIT       ERCB CURVE CODE    CURVE DESCRIPTION
#-----------   ------------------   ----------------------------------
DEPT.M        00 001 00 00         : DEPTH        - DEPTH
DPHI.V/V      00 890 00 00         : PHID         - DENSITY POROSITY (LIMESTONE)
NPHI.V/V      00 330 00 00         : PHIN         - NEUTRON POROSITY (LIMESTONE)
GR  .API      00 310 00 00         : GR           - GAMMA RAY
ILD .OHMM     00 120 00 00         : RESD         - DEEP RESISTIVITY (DIL)
RHOB.KG/M3    00 350 00 00         : DENS         - BULK DENSITY
~PARAMETER INFORMATION
#MNEM.UNIT           DATA             DESCRIPTION OF MNEMONIC
#---------         -----------     ------------------------------
GL  .M        707.3                : gl           - GROUND LEVEL ELEVATION
EREF.M        711.3                : kb           - ELEVATION OF DEPTH REFERENCE
DATM.M        711.3                : datum        - DATUM ELEVATION
TDD .M        526.6                : tdd          - TOTAL DEPTH DRILLER
RUN .         ONE                  : Run          - RUN NUMBER
ENG .         BILL                 : Engineer     - RECORDING ENGINEER
WIT .         JIM                  : Witness      - WITNESSED BY
MUD .         GEL                  : Mud_type     - MUD TYPE
MATR.         LIMESTONE            : Logunit      - NEUTRON MATRIX
TMAX.C        25.1                 : BHT          - MAXIMUM RECORDED TEMPERATURE
BHTD.M        526.6                : BHTDEP       - MAXIMUM RECORDED TEMPERATURE
MATR.         1                    : LOGUNIT      - NEUTRON MATRIX
RMT .C        25                   : MDTP         - TEMPERATURE OF MUD
NEUT.         1                    : NEUTRON      - NEUTRON TYPE
RESI.         0                    : RESIST       - RESISTIVITY TYPE
RMC .OHMM     0.25                 : RMC          - RESISTIVITY OF MUD CAKE
RMF .OHMM     0.25                 : RMF          - RESISTIVITY OF MUD FILTRATE
SUFT.C        15                   : SUFT         - SURFACE TEMPERATURE
~A  DEPTH     PHID     PHIN       GR     RESD     DENS
  275.000    0.255    0.571  114.347    3.327    0.000
  275.250    0.255    0.569  114.349    3.330    0.000
  275.500    0.262    0.553  112.507    3.332    0.000
  275.750    0.249    0.536  110.051    3.336    0.000
  276.000    0.225    0.525  111.284    3.339    0.000
  276.250    0.223    0.538  111.901    3.341    0.000
  276.500    0.250    0.572  110.674    3.345    0.000
  276.750    0.256    0.578  108.832    3.349    0.000
  277.000    0.229    0.583  108.220    3.351    0.000
  277.250    0.230    0.580  106.993    3.355    0.000
  277.500    0.246    0.557  107.610    3.357    0.000
  277.750    0.246    0.546  111.916    3.361    0.000
  278.000    0.241    0.553  113.149    3.364    0.000
  278.250    0.245    0.535  113.151    3.368    0.000
  278.500    0.230    0.530  111.309    3.371    0.000
  278.750    0.234    0.536  108.239    3.438    0.000
  279.000    0.244    0.557  107.012    3.442    0.000
  279.250    0.267    0.569  105.785    3.381    0.000
  279.500    0.278    0.551  103.943    3.383    0.000
  279.750    0.262    0.550  109.479    3.387    0.000
  280.000    0.244    0.553  111.325    3.328    0.000
  280.250    0.241    0.546  108.869    3.268    0.000
  280.500    0.250    0.535  103.953    3.152    0.000
  280.750    0.261    0.520  102.112    2.982    0.000
  281.000    0.272    0.519  100.271    2.875    0.000
  281.250    0.255    0.539  100.888    2.772    0.000
  281.500    0.259    0.544  105.194    2.722    0.000
  281.750    0.251    0.558  106.426    2.674    0.000
  282.000    0.253    0.578  106.428    2.676    0.000
  282.250    0.267    0.585  105.817    2.630    0.000
  282.500    0.259    0.577  105.204    2.632    0.000
  282.750    0.262    0.531  105.206    2.586    0.000
  283.000    0.267    0.528  105.824    2.589    0.000
  283.250    0.272    0.541  107.056    2.590    0.000
  283.500    0.258    0.558  107.059    2.642    0.000
  283.750    0.253    0.577  104.603    2.695    0.000
  284.000    0.259    0.588  102.761    2.698    0.000
  284.250    0.258    0.596   99.689    2.700    0.000
  284.500    0.257    0.583  101.536    2.653    0.000
  284.750    0.263    0.541  105.843    2.656    0.000
  285.000    0.261    0.550  105.845    2.657    0.000
  285.250    0.261    0.553  104.003    2.711    0.000
  285.500    0.261    0.548  100.932    2.764    0.000
  285.750    0.269    0.545  102.165    2.873    0.000
  286.000    0.258    0.531  104.011    2.930    0.000
  286.250    0.232    0.545  108.317    2.988    0.000
  286.500    0.262    0.530  111.394    3.106    0.000
  286.750    0.262    0.530  112.626    3.108    0.000
  287.000    0.262    0.548  110.170    3.231    0.000
  287.250    0.236    0.536  105.869    3.359    0.000
  287.500    0.250    0.520  105.256    3.424    0.000
  287.750    0.243    0.513  105.259    3.559    0.000
  288.000    0.257    0.526  103.417    3.770    0.000
  288.250    0.237    0.551  104.035    3.843    0.000
  288.500    0.229    0.562  104.653    3.921    0.000
  288.750    0.248    0.525  103.425    3.925    0.000
  289.000    0.234    0.501  102.813    3.784    0.000
  289.250    0.219    0.496  104.661    3.648    0.000
  289.500    0.221    0.518  105.278    3.517    0.000
  289.750    0.234    0.527  104.050    3.520    0.000
  290.000    0.240    0.532  105.282    3.658    0.000
  290.250    0.227    0.515  108.359    3.802    0.000
  290.500    0.235    0.503  107.133    3.879    0.000
  290.750    0.231    0.503  107.135    3.881    0.000
  291.000    0.241    0.513  109.597    3.886    0.000
  291.250    0.237    0.509  113.288    3.817    0.000
  291.500    0.214    0.489  113.291    3.751    0.000
  291.750    0.219    0.481  112.064    3.683    0.000
  292.000    0.238    0.489  108.992    3.618    0.000
  292.250    0.245    0.521  104.077    3.691    0.000
  292.500    0.224    0.526  101.621    3.693    0.000
  292.750    0.215    0.510  103.468    3.839    0.000
  293.000    0.226    0.504  105.314    3.990    0.000
  293.250    0.224    0.503  102.858    4.068    0.000
  293.500    0.210    0.485   94.868    4.228    0.000
  293.750    0.214    0.466   94.257    4.478    0.000
  294.000    0.246    0.464   91.800    4.654    0.000
  294.250    0.254    0.453   84.425    4.927    0.000
  294.500    0.219    0.433   83.814    5.626    0.000
  294.750    0.193    0.436   79.513    6.303    0.000
  295.000    0.161    0.465   74.597    6.929    0.000
  295.250    0.142    0.407   71.525    8.062    0.000
  295.500    0.165    0.390   77.062    8.535    0.000
  295.750    0.216    0.407   79.524    9.038    0.000
  296.000    0.243    0.426   81.371    8.877    0.000
  296.250    0.236    0.438   81.988    8.889    0.000
  296.500    0.218    0.448   80.146    9.062    0.000
  296.750    0.199    0.449   75.845    9.244    0.000
  297.000    0.221    0.428   75.233    9.606    0.000
  297.250    0.266    0.422   74.621   10.174    0.000
  297.500    0.284    0.413   75.853   10.571    0.000
  297.750    0.266    0.417   77.085   11.197    0.000
  298.000    0.259    0.422   73.399   11.638    0.000
  298.250    0.259    0.421   72.172   12.094    0.000
  298.500    0.276    0.427   70.946   11.878    0.000
  298.750    0.297    0.427   67.259   11.669    0.000
  299.000    0.293    0.411   69.721   11.252    0.000
  299.250    0.277    0.399   75.871   10.846    0.000
  299.500    0.260    0.408   78.948   10.657    0.000
  299.750    0.260    0.415   76.491   10.668    0.000
  300.000    0.253    0.418   71.576   10.876    0.000
  300.250    0.271    0.423   67.890   12.188    0.000
  300.500    0.262    0.427   66.049   12.903    0.000
  300.750    0.162    0.411   61.133   13.926    0.000
  301.000    0.137    0.363   58.061   13.939    0.000
  301.250    0.138    0.351   60.523   13.693    0.000
  301.500    0.203    0.386   67.288   13.202    0.000
  301.750    0.276    0.424   67.906   12.967    0.000
  302.000    0.277    0.412   66.065   12.980    0.000
  302.250    0.261    0.410   64.223   13.491    0.000
  302.500    0.263    0.405   62.995   13.760    0.000
  302.750    0.286    0.396   61.153   13.516    0.000
  303.000    0.291    0.394   63.615   13.028    0.000
  303.250    0.276    0.399   72.839   11.436    0.000
  303.500    0.220    0.412   77.760   10.422    0.000
  303.750    0.220    0.428   77.148   10.236    0.000
  304.000    0.223    0.451   73.462   10.444    0.000
  304.250    0.212    0.446   70.391   10.648    0.000
  304.500    0.225    0.426   68.549   11.068    0.000
  304.750    0.260    0.410   71.626   10.873    0.000
  305.000    0.242    0.408   77.776   10.482    0.000
  305.250    0.231    0.424   77.779   10.296    0.000
  305.500    0.231    0.417   76.551    9.741    0.000
  305.750    0.245    0.410   82.088    9.393    0.000
  306.000    0.264    0.423   83.320    9.057    0.000
  306.250    0.255    0.423   87.011    8.734    0.000
  306.500    0.239    0.422   96.849    8.575    0.000
  306.750    0.212    0.428  103.614    8.746    0.000
  307.000    0.205    0.445  102.388    9.616    0.000
  307.250    0.223    0.438   93.784   11.399    0.000
  307.500    0.250    0.439   81.490   13.257    0.000
  307.750    0.290    0.427   74.732   15.714    0.000
  308.000    0.313    0.432   74.119   17.605    0.000
  308.250    0.320    0.444   77.196   18.298    0.000
  308.500    0.324    0.435   78.427   18.657    0.000
  308.750    0.320    0.422   79.045   18.329    0.000
  309.000    0.302    0.421   83.351   18.003    0.000
  309.250    0.292    0.432   90.116   17.360    0.000
  309.500    0.298    0.428   88.889   17.055    0.000
  309.750    0.285    0.433   91.966   16.757    0.000
  310.000    0.281    0.436   95.042   16.767    0.000
  310.250    0.287    0.444   90.742   17.437    0.000
  310.500    0.298    0.431   88.899   17.448    0.000
  310.750    0.291    0.419   88.903   17.460    0.000
  311.000    0.294    0.412   90.135   17.154    0.000
  311.250    0.305    0.402   93.212   15.928    0.000
