~VERSION INFORMATION
 VERS.                 2.0:   CWLS LOG ASCII STANDARD -VERSION 2.0
 WRAP.                  NO:   ONE LINE PER DEPTH STEP
~WELL INFORMATION BLOCK
#MNEM.UNIT           DATA                    DESCRIPTION OF MNEMONIC
#---------    -------------------            -------------------------------
# Generated from Intellog Unique Number	CS_69_70/WELL/878
NULL.         -999.25                        : NULL_VALUE
WELL.         SULPETRO LIMITED               : Well_name    - WELL              
LOC .         00/10-32-070-10W4/0            : Location     - LOCATION          
UWI .         00/10-32-070-10W4/0            : Uwi          - UNIQUE WELL ID    
ENTR.         SP                             : Entered      - ENTERED BY        
SRVC.         SCHLUMBERGER                   : Scn          - SERVICE COMPANY   
STRT.M        315                            : top_depth    - START DEPTH       
STOP.M        540                            : bot_depth    - STOP DEPTH        
STEP.M        0.25                           : increment    - STEP LENGTH       
~CURVE INFORMATION BLOCK
#MNEM UNIT       ERCB CURVE CODE    CURVE DESCRIPTION
#-----------   ------------------   ----------------------------------
DEPT.M        00 001 00 00         : DEPTH        - DEPTH                       
DPHI.V/V      00 890 00 00         : PHID         - DENSITY POROSITY (LIMESTONE)
NPHI.V/V      00 330 00 00         : PHIN         - NEUTRON POROSITY (LIMESTONE)
GR  .API      00 310 00 00         : GR           - GAMMA RAY                   
ILD .OHMM     00 120 00 00         : RESD         - DEEP RESISTIVITY (DIL)      
~PARAMETER INFORMATION       
#MNEM.UNIT           DATA             DESCRIPTION OF MNEMONIC
#---------         -----------     ------------------------------
GL  .M        657.1                : gl           - GROUND LEVEL ELEVATION      
EREF.M        660.4                : kb           - ELEVATION OF DEPTH REFERENCE
DATM.M        657.1                : datum        - DATUM ELEVATION             
TDD .M        545                  : tdd          - TOTAL DEPTH DRILLER         
RUN .         ONE                  : Run          - RUN NUMBER                  
ENG .         BILL                 : Engineer     - RECORDING ENGINEER          
WIT .         JIM                  : Witness      - WITNESSED BY                
MUD .         GEL                  : Mud_type     - MUD TYPE                    
MATR.         LIMESTONE            : Logunit      - NEUTRON MATRIX              
TMAX.C        15                   : BHT          - MAXIMUM RECORDED TEMPERATURE
BHTD.M        545                  : BHTDEP       - MAXIMUM RECORDED TEMPERATURE
MATR.         1                    : LOGUNIT      - NEUTRON MATRIX              
RMT .C        25                   : MDTP         - TEMPERATURE OF MUD          
NEUT.         1                    : NEUTRON      - NEUTRON TYPE                
RESI.         0                    : RESIST       - RESISTIVITY TYPE            
RMC .OHMM     0.25                 : RMC          - RESISTIVITY OF MUD CAKE     
RMF .OHMM     0.25                 : RMF          - RESISTIVITY OF MUD FILTRATE 
SUFT.C        15                   : SUFT         - SURFACE TEMPERATURE         
~A  DEPTH     PHID     PHIN       GR     RESD
  315.000    0.263    0.567  100.525    2.903
  315.250    0.258    0.543   99.677    2.931
  315.500    0.257    0.532  100.343    3.004
  315.750    0.232    0.524  100.888    3.304
  316.000    0.218    0.514   99.434    3.496
  316.250    0.230    0.503   97.920    3.650
  316.500    0.224    0.494   97.799    3.840
  316.750    0.222    0.488   97.920    3.994
  317.000    0.220    0.484   95.861    4.186
  317.250    0.217    0.485   94.589    4.290
  317.500    0.221    0.500   96.708    4.315
  317.750    0.230    0.509   98.222    4.228
  318.000    0.235    0.518   98.888    3.954
  318.250    0.244    0.528   99.312    3.754
  318.500    0.256    0.521   99.675    3.544
  318.750    0.258    0.514  100.281    3.434
  319.000    0.244    0.516  100.644    3.315
  319.250    0.234    0.530  101.068    3.248
  319.500    0.245    0.540  101.431    3.249
  319.750    0.238    0.539  101.552    3.298
  320.000    0.227    0.525  102.763    3.380
  320.250    0.230    0.519  101.854    3.464
  320.500    0.237    0.512  100.280    3.557
  320.750    0.242    0.506   99.189    3.638
  321.000    0.237    0.504   97.494    3.666
  321.250    0.234    0.505   95.011    3.722
  321.500    0.223    0.509   92.528    3.793
  321.750    0.208    0.509   90.045    3.844
  322.000    0.199    0.499   89.136    3.881
  322.250    0.120    0.491   89.499    3.824
  322.500    0.100    0.466   90.589    3.644
  322.750    0.214    0.470   90.408    3.531
  323.000    0.240    0.481   87.561    3.506
  323.250    0.253    0.457   83.564    3.600
  323.500    0.267    0.382   79.507    3.751
  323.750    0.292    0.357   73.936    4.332
  324.000    0.324    0.302   68.304    6.120
  324.250    0.359    0.248   65.276    8.454
  324.500    0.350    0.264   68.061   11.593
  324.750    0.342    0.267   72.300   14.974
  325.000    0.379    0.235   69.635   17.358
  325.250    0.402    0.229   66.123   18.603
  325.500    0.420    0.263   64.851   19.642
  325.750    0.401    0.284   67.273   20.585
  326.000    0.347    0.310   69.271   19.984
  326.250    0.289    0.329   72.118   16.741
  326.500    0.243    0.345   82.473   13.791
  326.750    0.219    0.389   89.921   11.726
  327.000    0.201    0.429   96.400   10.140
  327.250    0.203    0.430   98.701    8.867
  327.500    0.210    0.422   99.307    8.417
  327.750    0.237    0.417  100.336    8.172
  328.000    0.221    0.418  101.971    7.993
  328.250    0.219    0.431  104.817    7.891
  328.500    0.229    0.450  107.906    7.848
  328.750    0.237    0.437  110.025    7.777
  329.000    0.224    0.429  104.998    7.707
  329.250    0.214    0.425  102.637    7.637
  329.500    0.222    0.432  101.970    7.304
  329.750    0.235    0.437   96.944    7.171
  330.000    0.247    0.428   87.860    7.432
  330.250    0.268    0.405   76.778    8.283
  330.500    0.293    0.375   66.483    9.655
  330.750    0.321    0.333   54.675   10.863
  331.000    0.342    0.331   50.980   11.862
  331.250    0.317    0.385   48.800   12.642
  331.500    0.304    0.402   42.805   13.225
  331.750    0.304    0.386   37.839   13.603
  332.000    0.321    0.377   34.387   13.992
  332.250    0.327    0.371   31.056   14.555
  332.500    0.332    0.371   28.150   14.889
  332.750    0.337    0.384   32.389   15.230
  333.000    0.346    0.396   34.811   15.290
  333.250    0.350    0.404   32.630   15.208
  333.500    0.351    0.395   30.692   15.014
  333.750    0.344    0.390   30.450   14.906
  334.000    0.338    0.383   30.632   14.881
  334.250    0.331    0.380   30.692   14.941
  334.500    0.338    0.394   31.055   15.057
  334.750    0.351    0.406   32.811   15.060
  335.000    0.336    0.393   35.112   15.036
  335.250    0.340    0.394   37.656   14.871
  335.500    0.333    0.403   39.957   14.545
  335.750    0.327    0.399   42.560   12.185
  336.000    0.326    0.411   48.253    9.526
  336.250    0.303    0.406   71.204    7.121
  336.500    0.269    0.452   83.436    5.516
  336.750    0.234    0.491  108.628    4.147
  337.000    0.209    0.515  116.197    3.599
  337.250    0.220    0.537  118.074    3.195
  337.500    0.230    0.553  114.986    2.988
  337.750    0.238    0.564  109.596    2.950
  338.000    0.248    0.564  103.056    3.227
  338.250    0.272    0.519   96.516    4.122
  338.500    0.291    0.457   89.672    6.147
  338.750    0.281    0.436   83.980    9.270
  339.000    0.261    0.432   79.317   11.996
  339.250    0.245    0.432   75.199   14.167
  339.500    0.265    0.428   77.803   15.155
  339.750    0.280    0.430   83.132   15.103
  340.000    0.292    0.442   86.826   13.916
  340.250    0.279    0.454   90.338   12.918
  340.500    0.231    0.469   92.275   11.792
  340.750    0.208    0.480   93.426   11.131
  341.000    0.192    0.473   95.969    9.752
  341.250    0.189    0.466   99.905    8.885
  341.500    0.220    0.461  105.173    7.946
  341.750    0.240    0.453  110.684    7.321
  342.000    0.219    0.453  114.983    6.670
  342.250    0.207    0.456  118.435    6.157
  342.500    0.201    0.460  120.009    5.663
  342.750    0.195    0.472  120.857    5.306
  343.000    0.189    0.482  120.009    5.084
  343.250    0.202    0.487  120.009    4.871
  343.500    0.224    0.493  124.006    4.668
  343.750    0.240    0.498  126.367    4.523
  344.000    0.227    0.482  124.005    4.524
  344.250    0.231    0.477  118.555    4.689
  344.500    0.245    0.468  108.745    4.868
  344.750    0.260    0.458   99.722    5.590
  345.000    0.288    0.440   88.761    7.075
  345.250    0.309    0.414   86.096    7.870
  345.500    0.322    0.409   84.521    9.329
  345.750    0.319    0.416   82.826   10.998
  346.000    0.314    0.425   80.524   11.764
  346.250    0.311    0.433   78.647   12.057
  346.500    0.313    0.444   77.920   11.902
  346.750    0.324    0.448   79.797   11.426
  347.000    0.307    0.455   85.853   10.450
  347.250    0.291    0.453   89.425    8.969
  347.500    0.276    0.454   93.059    8.248
  347.750    0.267    0.458   94.512    7.376
  348.000    0.263    0.459   93.301    6.720
  348.250    0.280    0.446   90.333    6.285
  348.500    0.292    0.432   86.458    6.901
  348.750    0.308    0.419   82.642    7.579
  349.000    0.314    0.411   79.433    8.047
  349.250    0.305    0.404   76.041    8.481
  349.500    0.295    0.409   78.463    8.707
  349.750    0.295    0.421   79.674    8.807
  350.000    0.318    0.431   80.098    8.646
  350.250    0.335    0.431   79.553    8.254
  350.500    0.320    0.440   82.036    8.014
  350.750    0.295    0.453   89.121    7.941
  351.000    0.307    0.462   96.206    7.957
  351.250    0.318    0.457  101.474    8.263
  351.500    0.327    0.450  102.261    8.531
  351.750    0.333    0.440   99.657    8.791
  352.000    0.339    0.434   98.446    9.110
  352.250    0.341    0.433   98.627    9.284
  352.500    0.324    0.434  101.776    9.098
  352.750    0.313    0.444  105.712    8.816
  353.000    0.309    0.456  108.135    8.291
  353.250    0.308    0.467  109.891    7.959
  353.500    0.300    0.463  110.254    7.570
  353.750    0.290    0.452  108.619    7.267
  354.000    0.298    0.452  104.561    7.082
  354.250    0.317    0.457   97.294    7.123
  354.500    0.340    0.462   91.481    7.424
  354.750    0.363    0.470   87.181    7.636
  355.000    0.370    0.495   84.637    7.943
  355.250    0.352    0.511   84.577    8.186
  355.500    0.332    0.502   85.303    8.420
  355.750    0.318    0.458   86.454    8.613
  356.000    0.319    0.458   88.755    8.679
  356.250    0.330    0.460   90.511    8.569
  356.500    0.328    0.476   90.934    8.288
  356.750    0.337    0.487   90.208    8.136
  357.000    0.345    0.469   89.239    8.002
  357.250    0.346    0.461   88.572    7.975
  357.500    0.336    0.472   88.633    7.902
  357.750    0.326    0.471   89.238    7.744
  358.000    0.318    0.464   90.025    7.504
  358.250    0.312    0.472   90.691    7.340
