~VERSION INFORMATION
 VERS.                 2.0:   CWLS LOG ASCII STANDARD -VERSION 2.0
 WRAP.                  NO:   ONE LINE PER DEPTH STEP
~WELL INFORMATION BLOCK
#MNEM.UNIT           DATA                    DESCRIPTION OF MNEMONIC
#---------    -------------------            -------------------------------
# Generated from Intellog Unique Number	CW_76_78/WELL/1030
WELL.         PCP MARTIN HILLS 11-33         : Well_name    - WELL
LOC .         00/11-33-076-04W5/0            : Location     - LOCATION
UWI .         00/11-33-076-04W5/0            : Uwi          - UNIQUE WELL ID
ENTR.         JAYE                           : Entered      - ENTERED BY
SRVC.         SCHLUMBERGER                   : Scn          - SERVICE COMPANY
DATE.         11 FEB 74                      : Date         - LOG DATE
STRT.M        426.72                         : top_depth    - START DEPTH
STOP.M        670.47                         : bot_depth    - STOP DEPTH
STEP.M        0.25                           : increment    - STEP LENGTH
 NULL. -999.2500:NULL Value
~CURVE INFORMATION BLOCK
#MNEM UNIT       ERCB CURVE CODE    CURVE DESCRIPTION
#-----------   ------------------   ----------------------------------
DEPT.M        00 001 00 00         : DEPTH        - DEPTH
ILD .OHMM     00 120 00 00         : RESD         - DEEP RESISTIVITY (DIL)
NPHI.V/V      00 330 00 00         : PHIN         - NEUTRON POROSITY (SANDSTONE)
DPHI.V/V      00 890 00 00         : PHID         - DENSITY POROSITY (SANDSTONE)
GR  .API      00 310 00 00         : GR           - GAMMA RAY
CALI.MM       00 280 01 00         : CAL          - CALIPER
~PARAMETER INFORMATION
#MNEM.UNIT           DATA             DESCRIPTION OF MNEMONIC
#---------         -----------     ------------------------------
GL  .M        741.578              : gl           - GROUND LEVEL ELEVATION
EREF.M        745.541              : kb           - ELEVATION OF DEPTH REFERENCE
DATM.M        741.578              : datum        - DATUM ELEVATION
TDD .M        684.276              : tdd          - TOTAL DEPTH DRILLER
RUN .         ONE                  : Run          - RUN NUMBER
MATR.         SANDSTONE            : Logunit      - NEUTRON MATRIX
TMAX.C        26.6667              : BHT          - MAXIMUM RECORDED TEMPERATURE
BHTD.M        684.276              : BHTDEP       - MAXIMUM RECORDED TEMPERATURE
RMT .C        16.6667              : MDTP         - TEMPERATURE OF MUD
MUDD.KG/M     0                    : MWT          - MUD DENSITY
NEUT.         1                    : NEUTRON      - NEUTRON TYPE
RESI.         0                    : RESIST       - RESISTIVITY TYPE
RM  .OHMM     5.95                 : RM           - RESISTIVITY OF MUD
RMC .OHMM     0                    : RMC          - RESISTIVITY OF MUD CAKE
RMF .OHMM     4.61                 : RMF          - RESISTIVITY OF MUD FILTRATE
SUFT.C        -17.7778             : SUFT         - SURFACE TEMPERATURE
~A  DEPTH     RESD     PHIN     PHID       GR      CAL
# ...
  572.720    7.748    0.236    0.081   58.188  203.016
  572.970    8.960    0.243    0.095   57.349  203.495
  573.220    9.317    0.267    0.138   58.128  204.087
  573.470    8.839    0.315    0.160   59.715  204.132
  573.720    7.215    0.411    0.194   62.295  203.978
  573.970    5.503    0.445    0.260   65.933  203.609
  574.220    4.677    0.444    0.284   69.071  202.926
  574.470    4.286    0.440    0.288   71.154  203.199
  574.720    4.081    0.437    0.249   71.807  203.043
  574.970    3.972    0.444    0.232   71.963  203.310
  575.220    3.909    0.449    0.237   72.184  203.884
  575.470    3.940    0.461    0.226   72.527  204.369
  575.720    4.022    0.469    0.217   71.440  204.524
  575.970    4.099    0.460    0.239   70.852  204.698
  576.220    4.184    0.449    0.252   73.183  204.425
  576.470    4.280    0.441    0.258   77.878  203.434
  576.720    4.369    0.451    0.226   76.668  202.542
  576.970    4.436    0.463    0.228   73.157  202.066
  577.220    4.430    0.455    0.264   69.405  202.016
  577.470    4.368    0.448    0.262   67.570  202.598
  577.720    4.306    0.441    0.247   67.044  203.821
  577.970    4.223    0.440    0.251   68.445  204.497
  578.220    4.178    0.450    0.247   71.332  205.187
  578.470    4.142    0.453    0.224   74.657  205.251
  578.720    4.130    0.443    0.219   76.928  205.395
  578.970    4.139    0.438    0.227   77.707  205.661
  579.220    4.179    0.446    0.232   78.052  205.928
  579.470    4.212    0.456    0.238   77.897  205.879
  579.720    4.261    0.463    0.245   77.679  205.629
  579.970    4.318    0.469    0.238   77.029  205.578
  580.220    4.376    0.477    0.212   77.124  206.261
  580.470    4.402    0.489    0.203   80.578  207.363
  580.720    4.421    0.480    0.190   80.734  208.683
  580.970    4.431    0.462    0.216   80.391  209.372
  581.220    4.450    0.461    0.225   79.056  209.421
  581.470    4.469    0.455    0.183   77.100  209.058
  581.720    4.529    0.450    0.196   73.468  207.014
  581.970    4.779    0.445    0.195   70.455  203.591
  582.220    5.005    0.424    0.184   67.012  198.811
  582.470    5.398    0.371    0.184   61.139  197.293
  582.720    6.029    0.310    0.145   62.478  197.353
  582.970    6.361    0.369    0.160   69.095  197.401
  583.220    6.192    0.392    0.237   74.906  197.877
  583.470    5.842    0.419    0.252   76.744  198.457
  583.720    5.482    0.435    0.236   76.837  199.149
  583.970    5.268    0.428    0.187   76.685  199.829
  584.220    5.165    0.417    0.194   76.221  200.301
  584.470    5.103    0.411    0.190   76.188  200.784
  584.720    5.086    0.404    0.198   78.086  200.951
  584.970    5.117    0.399    0.205   77.003  201.208
  585.220    5.148    0.411    0.206   74.737  201.051
  585.470    5.188    0.408    0.203   76.443  201.209
  585.720    5.182    0.414    0.203   81.384  202.638
  585.970    5.175    0.426    0.187   83.655  205.115
  586.220    5.149    0.439    0.181   84.123  207.164
  586.470    5.133    0.426    0.141   84.341  208.798
  586.720    5.107    0.433    0.167   84.435  209.384
  586.970    5.082    0.445    0.167   84.282  209.233
  587.220    5.066    0.437    0.153   85.122  209.279
  587.470    5.050    0.425    0.169   84.471  209.769
  587.720    5.025    0.437    0.159   85.249  210.027
  587.970    5.000    0.446    0.174   86.773  210.086
  588.220    5.002    0.483    0.160   85.253  209.614
  588.470    5.014    0.470    0.173   83.611  208.822
  588.720    5.091    0.436    0.198   82.275  206.463
  588.970    5.303    0.423    0.182   80.193  204.095
  589.220    5.668    0.417    0.176   79.232  204.367
  589.470    5.969    0.417    0.180   78.772  204.938
  589.720    5.768    0.454    0.193   79.237  205.729
  589.970    5.170    0.465    0.188   81.134  207.363
  590.220    4.642    0.446    0.237   81.788  208.892
  590.470    4.222    0.440    0.223   81.010  204.003
  590.720    4.005    0.460    0.213   79.989  201.110
  590.970    4.089    0.470    0.216   79.895  201.065
  591.220    4.354    0.456    0.244   79.496  201.122
  591.470    4.487    0.443    0.242   78.967  201.068
  591.720    4.497    0.437    0.231   78.010  201.444
  591.970    4.458    0.456    0.219   77.169  201.817
  592.220    4.396    0.461    0.214   73.910  202.495
  592.470    4.247    0.442    0.194   69.219  203.710
  592.720    4.119    0.420    0.191   68.264  204.817
  592.970    4.024    0.442    0.167   69.658  208.659
  593.220    4.078    0.468    0.172   75.407  214.615
  593.470    4.217    0.478    0.210   78.174  218.131
  593.720    4.524    0.464    0.219   74.044  214.508
  593.970    5.080    0.426    0.240   67.862  209.624
  594.220    5.612    0.412    0.275   60.377  205.683
  594.470    6.153    0.400    0.267   58.361  203.414
  594.720    7.129    0.389    0.240   58.020  201.576
  594.970    8.937    0.355    0.203   58.926  201.421
  595.220   11.121    0.312    0.172   60.573  201.688
  595.470   13.538    0.284    0.145   62.967  201.956
  595.720   15.485    0.271    0.123   66.912  201.595
  595.970   15.184    0.296    0.126   65.577  201.444
  596.220   14.274    0.320    0.140   61.633  201.390
  596.470   12.446    0.354    0.145   59.803  201.561
  596.720   10.598    0.380    0.182   59.837  201.399
  596.970    9.241    0.404    0.217   61.174  201.660
  597.220    7.767    0.435    0.240   61.829  201.930
  597.470    6.663    0.459    0.267   62.793  201.767
  597.720    5.906    0.458    0.269   62.452  201.522
  597.970    5.284    0.456    0.276   60.122  201.150
  598.220    4.931    0.448    0.276   58.664  201.201
  598.470    4.961    0.428    0.263   58.015  201.147
  598.720    5.055    0.410    0.243   57.923  201.303
  598.970    5.383    0.396    0.219   58.701  201.692
  599.220    5.816    0.385    0.204   59.416  202.151
  599.470    6.274    0.370    0.195   59.762  202.206
  599.720    6.440    0.411    0.186   59.985  201.951
  599.970    6.444    0.440    0.224   60.453  201.581
  600.220    6.341    0.433    0.271   60.418  201.426
  600.470    6.218    0.397    0.234   60.387  201.272
  600.720    6.120    0.366    0.177   60.359  201.330
  600.970    6.022    0.402    0.231   60.269  201.281
  601.220    5.884    0.421    0.262   59.926  201.129
  601.470    5.737    0.418    0.264   60.207  200.861
  601.720    5.503    0.436    0.266   63.535  200.820
  601.970    5.318    0.461    0.247   66.118  200.985
  602.220    5.147    0.458    0.245   66.954  201.246
  602.470    5.011    0.444    0.262   67.112  201.414
  602.720    4.886    0.437    0.250   66.585  201.566
  602.970    4.818    0.426    0.250   66.432  201.723
  603.220    4.785    0.417    0.235   66.338  201.987
  603.470    4.813    0.412    0.241   67.677  202.043
  603.720    4.887    0.399    0.245   68.393  202.421
  603.970    5.035    0.409    0.237   68.425  202.473
  604.220    5.391    0.388    0.200   67.836  202.528
  604.470    5.890    0.362    0.157   65.694  202.591
  604.720    6.353    0.360    0.117   65.665  202.637
  604.970    6.642    0.388    0.182   69.863  202.700
  605.220    6.670    0.433    0.224   71.073  202.752
  605.470    6.410    0.442    0.252   70.921  202.909
  605.720    6.004    0.421    0.248   71.762  202.975
  605.970    5.727    0.409    0.242   73.409  202.916
  606.220    5.585    0.407    0.230   75.678  202.974
  606.470    5.517    0.407    0.210   77.761  203.137
  606.720    5.519    0.408    0.208   79.658  203.508
  606.970    5.472    0.416    0.188   79.257  203.769
  607.220    5.434    0.428    0.192   79.350  203.936
  607.470    5.358    0.452    0.188   76.463  204.405
  607.720    5.283    0.461    0.203   77.056  205.097
  607.970    5.170    0.449    0.192   79.262  205.879
  608.220    5.088    0.459    0.195   79.295  206.887
  608.470    5.054    0.443    0.210   78.707  207.462
  608.720    5.066    0.417    0.225   77.682  207.630
  608.970    5.125    0.411    0.213   77.591  207.472
