~VERSION INFORMATION
 VERS.                 2.0:   CWLS LOG ASCII STANDARD -VERSION 2.0
 WRAP.                  NO:   ONE LINE PER DEPTH STEP
~WELL INFORMATION BLOCK
#MNEM.UNIT           DATA                    DESCRIPTION OF MNEMONIC
#---------    -------------------            -------------------------------
# Generated from Intellog Unique Number	CS_71_72/WELL/926
WELL.         CAVALIER ET AL NIXON           : Well_name    - WELL
LOC .         00/15-17-072-14W4/0            : Location     - LOCATION
UWI .         00/15-17-072-14W4/0            : Uwi          - UNIQUE WELL ID
ENTR.         SP                             : Entered      - ENTERED BY
SRVC.         SCHLUMBERGER                   : Scn          - SERVICE COMPANY
STRT.M        285                            : top_depth    - START DEPTH
STOP.M        485                            : bot_depth    - STOP DEPTH
STEP.M        0.25                           : increment    - STEP LENGTH
 NULL. -999.2500:NULL Value
~CURVE INFORMATION BLOCK
#MNEM UNIT       ERCB CURVE CODE    CURVE DESCRIPTION
#-----------   ------------------   ----------------------------------
DEPT.M        00 001 00 00         : DEPTH        - DEPTH
ILD .OHMM     00 120 00 00         : RESD         - DEEP RESISTIVITY (DIL)
DPHI.V/V      00 890 00 00         : PHID         - DENSITY POROSITY (LIMESTONE)
NPHI.V/V      00 330 00 00         : PHIN         - NEUTRON POROSITY (LIMESTONE)
GR  .API      00 310 00 00         : GR           - GAMMA RAY
~PARAMETER INFORMATION
#MNEM.UNIT           DATA             DESCRIPTION OF MNEMONIC
#---------         -----------     ------------------------------
GL  .M        614.5                : gl           - GROUND LEVEL ELEVATION
EREF.M        618                  : kb           - ELEVATION OF DEPTH REFERENCE
DATM.M        614.5                : datum        - DATUM ELEVATION
TDD .M        491                  : tdd          - TOTAL DEPTH DRILLER
RUN .         ONE                  : Run          - RUN NUMBER
ENG .         BILL                 : Engineer     - RECORDING ENGINEER
WIT .         JIM                  : Witness      - WITNESSED BY
MUD .         GEL                  : Mud_type     - MUD TYPE
MATR.         LIMESTONE            : Logunit      - NEUTRON MATRIX
TMAX.C        20                   : BHT          - MAXIMUM RECORDED TEMPERATURE
BHTD.M        491                  : BHTDEP       - MAXIMUM RECORDED TEMPERATURE
MATR.         1                    : LOGUNIT      - NEUTRON MATRIX
RMT .C        25                   : MDTP         - TEMPERATURE OF MUD
NEUT.         1                    : NEUTRON      - NEUTRON TYPE
RESI.         0                    : RESIST       - RESISTIVITY TYPE
RMC .OHMM     0.25                 : RMC          - RESISTIVITY OF MUD CAKE
RMF .OHMM     0.25                 : RMF          - RESISTIVITY OF MUD FILTRATE
SUFT.C        15                   : SUFT         - SURFACE TEMPERATURE
~A  DEPTH     RESD     PHID     PHIN       GR
# ...
  459.000   16.927    0.237    0.356   92.625
  459.250   13.783    0.226    0.356   93.223
  459.500   12.092    0.212    0.354   96.271
  459.750   11.222    0.196    0.360   98.098
  460.000   10.609    0.193    0.370   95.002
  460.250    9.845    0.212    0.376  102.965
  460.500    9.484    0.222    0.385  108.478
  460.750    9.135    0.195    0.386  108.455
  461.000    9.134    0.187    0.388  102.901
  461.250    9.659    0.170    0.383   97.349
  461.500   10.407    0.180    0.371   97.324
  461.750   11.425    0.189    0.353   96.076
  462.000   13.018    0.199    0.350   88.682
  462.250   14.026    0.208    0.344   76.982
  462.500   14.559    0.217    0.351   67.740
  462.750   15.686    0.259    0.368   64.034
  463.000   16.282    0.261    0.391   74.458
  463.250   16.900    0.247    0.394   79.971
  463.500   16.898    0.258    0.385   85.481
  463.750   15.680    0.235    0.371   84.232
  464.000   14.281    0.238    0.360   76.220
  464.250   13.502    0.227    0.356   72.510
  464.500   12.766    0.193    0.351   79.251
  464.750   11.627    0.174    0.345   85.361
  465.000   11.200    0.178    0.343   84.736
  465.250   10.392    0.179    0.348   86.562
  465.500   10.200    0.179    0.355   96.374
  465.750   10.010    0.186    0.362  103.111
  466.000    9.642    0.192    0.358  106.163
  466.250    9.463    0.183    0.358  104.301
  466.500    9.462    0.162    0.365   95.060
  466.750    9.821    0.167    0.369  101.796
  467.000   10.386    0.174    0.372  101.159
  467.250   10.780    0.168    0.369   91.921
  467.500   11.834    0.154    0.360   85.754
  467.750   13.739    0.160    0.343   78.353
  468.000   15.082    0.134    0.341   73.419
  468.250   16.556    0.120    0.354   66.636
  468.500   18.174    0.170    0.366   69.687
  468.750   18.864    0.220    0.369   64.133
  469.000   17.181    0.254    0.369   67.795
  469.250   16.244    0.267    0.367   73.305
  469.500   15.647    0.228    0.361   75.744
  469.750   15.646    0.218    0.357   77.561
  470.000   15.939    0.225    0.353   78.163
  470.250   17.497    0.199    0.350   78.756
  470.500   21.086    0.188    0.346   81.194
  470.750   24.481    0.190    0.345   75.640
  471.000   30.058    0.288    0.353   43.655
  471.250   32.387    0.317    0.371   43.015
  471.500   34.249    0.343    0.379   52.219
  471.750   34.891    0.315    0.375   58.341
  472.000   30.047    0.293    0.363   60.779
  472.250   26.860    0.252    0.360   61.374
  472.500   25.396    0.320    0.366   58.894
  472.750   21.870    0.292    0.367   67.474
  473.000   20.295    0.240    0.365   77.291
  473.250   18.832    0.211    0.356   82.188
  473.500   18.831    0.200    0.349   79.092
  473.750   19.545    0.205    0.337   71.694
  474.000   22.272    0.298    0.364   61.217
  474.250   24.448    0.322    0.372   57.512
  474.500   26.837    0.308    0.382   64.868
  474.750   26.836    0.256    0.378   67.917
  475.000   26.337    0.223    0.376   64.819
  475.250   24.900    0.206    0.383   62.346
  475.500   22.679    0.206    0.388   75.843
  475.750   19.169    0.256    0.383   83.817
  476.000   15.609    0.272    0.370   93.007
  476.250   13.696    0.229    0.357   98.514
  476.500   12.474    0.195    0.348  100.962
  476.750   10.742    0.175    0.346  109.544
  477.000   10.348    0.167    0.351  105.826
  477.250    9.967    0.164    0.356   99.046
  477.500    9.966    0.174    0.361   93.499
  477.750    9.781    0.182    0.351   89.792
  478.000    9.780    0.194    0.345   97.140
  478.250    9.963    0.177    0.340  103.262
  478.500   10.150    0.163    0.347  108.161
  478.750   10.536    0.167    0.346  112.446
  479.000   11.351    0.170    0.346  103.815
  479.250   11.782    0.176    0.355   95.190
  479.500   12.695    0.196    0.352   89.028
  479.750   12.933    0.185    0.343   82.243
  480.000   12.457    0.169    0.338   75.457
  480.250   11.999    0.209    0.340   72.366
  480.500   11.776    0.232    0.344   70.500
  480.750   11.775    0.226    0.345   72.935
  481.000   11.556    0.217    0.345   74.759
  481.250   11.556    0.196    0.344   74.740
  481.500   11.341    0.191    0.341   73.483
  481.750   11.771    0.212    0.339   78.998
  482.000   12.448    0.217    0.339   76.519
  482.250   12.921    0.238    0.344   82.024
  482.500   13.411    0.241    0.349   85.081
  482.750   13.662    0.225    0.346   83.825
  483.000   14.180    0.230    0.345   79.496
  483.250   14.179    0.232    0.348   76.404
  483.500   14.178    0.238    0.351   75.161
  483.750   14.177    0.251    0.354   75.138
  484.000   13.656    0.244    0.353   75.733
  484.250   13.155    0.229    0.351   81.243
  484.500   11.981    0.233    0.348   84.909
  484.750   11.118    0.234    0.346   79.964
  485.000    9.938    0.135    0.347   78.106
