~VERSION INFORMATION
 VERS.                 2.0:   CWLS LOG ASCII STANDARD -VERSION 2.0
 WRAP.                  NO:   ONE LINE PER DEPTH STEP
~WELL INFORMATION BLOCK
#MNEM.UNIT           DATA                    DESCRIPTION OF MNEMONIC
#---------    -------------------            -------------------------------
# Generated from Intellog Unique Number	CW_82_90/WELL/3448
WELL.         NUMAC LIEGE                    : Well_name    - WELL
LOC .         00/11-14-088-21W4/0            : Location     - LOCATION
UWI .         00/11-14-088-21W4/0            : Uwi          - UNIQUE WELL ID
ENTR.         MAX                            : Entered      - ENTERED BY
SRVC.         WESTERN ATLAS                  : Scn          - SERVICE COMPANY
STRT.M        125                            : top_depth    - START DEPTH
STOP.M        303                            : bot_depth    - STOP DEPTH
STEP.M        0.25                           : increment    - STEP LENGTH
 NULL. -999.2500:NULL Value
~CURVE INFORMATION BLOCK
#MNEM UNIT       ERCB CURVE CODE    CURVE DESCRIPTION
#-----------   ------------------   ----------------------------------
DEPT.M        00 001 00 00         : DEPTH        - DEPTH
ILD .OHMM     00 120 00 00         : RESD         - DEEP RESISTIVITY (DIL)
NPHI.V/V      00 330 00 00         : PHIN         - NEUTRON POROSITY (SANDSTONE)
DPHI.V/V      00 890 00 00         : PHID         - DENSITY POROSITY (SANDSTONE)
CALI.MM       00 280 01 00         : CAL          - CALIPER
GR  .API      00 310 00 00         : GR           - GAMMA RAY
~PARAMETER INFORMATION
#MNEM.UNIT           DATA             DESCRIPTION OF MNEMONIC
#---------         -----------     ------------------------------
GL  .M        529.86               : gl           - GROUND LEVEL ELEVATION
EREF.M        532.96               : kb           - ELEVATION OF DEPTH REFERENCE
DATM.M        529.86               : datum        - DATUM ELEVATION
TDD .M        304                  : tdd          - TOTAL DEPTH DRILLER
RUN .         ONE                  : Run          - RUN NUMBER
ENG .         BILL                 : Engineer     - RECORDING ENGINEER
WIT .         JIM                  : Witness      - WITNESSED BY
MUD .         GEL                  : Mud_type     - MUD TYPE
MATR.         SANDSTONE            : Logunit      - NEUTRON MATRIX
TMAX.C        18                   : BHT          - MAXIMUM RECORDED TEMPERATURE
BHTD.M        304                  : BHTDEP       - MAXIMUM RECORDED TEMPERATURE
MATR.         1                    : LOGUNIT      - NEUTRON MATRIX
RMT .C        18                   : MDTP         - TEMPERATURE OF MUD
NEUT.         1                    : NEUTRON      - NEUTRON TYPE
RESI.         0                    : RESIST       - RESISTIVITY TYPE
RMC .OHMM     2.5                  : RMC          - RESISTIVITY OF MUD CAKE
RMF .OHMM     1                    : RMF          - RESISTIVITY OF MUD FILTRATE
SUFT.C        -1                   : SUFT         - SURFACE TEMPERATURE
~A  DEPTH     RESD     PHIN     PHID      CAL       GR
# ...
  271.000   10.444    0.353    0.146  220.514  116.375
  271.250   11.178    0.365    0.167  223.031  119.680
  271.500   12.164    0.385    0.159  224.060  114.322
  271.750   13.687    0.378    0.161  223.595  102.095
  272.000   16.058    0.363    0.201  219.153   91.663
  272.250   19.160    0.360    0.235  218.191   85.411
  272.500   23.636    0.360    0.259  218.220   81.250
  272.750   31.440    0.383    0.283  217.265   75.894
  273.000   38.141    0.368    0.310  214.802   67.254
  273.250   40.150    0.363    0.316  213.839   65.783
  273.500   39.183    0.378    0.291  209.393   67.299
  273.750   35.477    0.398    0.232  212.910   66.716
  274.000   29.548    0.383    0.229  216.933   63.750
  274.250   28.843    0.385    0.291  216.468   60.484
  274.500   31.917    0.388    0.297  216.506   67.375
  274.750   33.868    0.387    0.290  217.028   72.176
  275.000   32.512    0.380    0.262  217.559   68.610
  275.250   26.405    0.353    0.233  217.592   62.657
  275.500   18.918    0.346    0.195  216.630   59.690
  275.750   14.013    0.351    0.175  217.658   57.918
  276.000   11.670    0.346    0.177  219.184   71.081
  276.250   11.299    0.411    0.204  219.226   84.539
  276.500   10.754    0.405    0.175  219.255   92.622
  276.750    9.657    0.393    0.153  219.785   98.017
  277.000    8.526    0.379    0.166  219.321   95.053
  277.250    7.404    0.380    0.180  218.860  104.629
  277.500    6.647    0.400    0.178  218.893  104.052
  277.750    5.772    0.374    0.182  218.424  102.280
  278.000    5.139    0.403    0.173  218.466  106.481
  278.250    4.811    0.433    0.158  217.503  110.684
  278.500    4.618    0.423    0.147  217.031  107.717
  278.750    4.584    0.422    0.140  217.068  105.047
  279.000    4.825    0.427    0.132  217.097  100.886
  279.250    5.339    0.404    0.132  217.134   97.024
  279.500    6.531    0.394    0.158  215.674   95.254
  279.750    8.333    0.423    0.169  217.204   97.362
  280.000    9.940    0.509    0.178  217.731   94.993
  280.250   14.019    0.520    0.454  219.261   88.741
  280.500   17.007    0.506    0.451  220.783   78.906
  280.750   19.625    0.469    0.396  220.820   60.112
  281.000   21.361    0.370    0.346  219.360   53.263
  281.250   22.476    0.321    0.317  219.398   67.617
  281.500   24.871    0.329    0.290  220.422   97.802
  281.750   27.068    0.397    0.271  220.957  100.211
  282.000   30.208    0.402    0.270  219.994   87.091
  282.250   32.328    0.368    0.281  218.530   66.801
  282.500   32.354    0.359    0.266  216.577   50.993
  282.750   31.848    0.350    0.256  215.610   58.777
  283.000   27.887    0.354    0.259  217.140   69.252
  283.250   24.623    0.356    0.271  217.671   62.105
  283.500   23.640    0.354    0.291  219.691   53.765
  283.750   23.864    0.332    0.251  223.710   64.533
  284.000   23.682    0.332    0.220  224.734  126.674
  284.250   23.512    0.350    0.205  224.282  144.612
  284.500   23.529    0.411    0.348  223.809  148.816
  284.750   22.973    0.445    0.340  223.851  139.876
  285.000   22.431    0.440    0.308  223.880  126.754
  285.250   22.257    0.390    0.276  223.908  100.491
  285.500   22.278    0.344    0.202  223.448   85.880
  285.750   22.304    0.305    0.149  221.984   86.793
  286.000   22.137    0.291    0.135  219.030   84.126
  286.250   21.609    0.297    0.152  216.081   83.847
  286.500   21.091    0.325    0.182  215.119   85.965
  286.750   20.763    0.333    0.207  215.650   88.371
  287.000   20.436    0.330    0.203  218.669   93.167
  287.250   19.782    0.320    0.187  221.199  107.521
  287.500   19.310    0.313    0.172  223.215  126.656
  287.750   18.234    0.314    0.139  223.750  131.753
  288.000   17.212    0.327    0.125  224.778  121.320
  288.250   16.525    0.333    0.119  225.807  113.576
  288.500   15.994    0.335    0.113  225.840  111.505
  288.750   15.098    0.311    0.116  225.873  115.108
  289.000   13.900    0.298    0.117  226.901  124.388
  289.250   12.376    0.291    0.113  226.433  118.734
  289.500   11.207    0.286    0.110  223.492  114.272
  289.750   10.667    0.284    0.107  223.516  132.810
  290.000   10.329    0.351    0.132  225.043  143.580
  290.250   10.258    0.355    0.147  225.582  146.589
  290.500   10.091    0.341    0.148  226.108  145.718
  290.750   10.184    0.345    0.159  226.639  146.930
  291.000   10.452    0.350    0.178  226.672  145.158
  291.250   11.096    0.384    0.181  226.705  143.386
  291.500   11.386    0.389    0.181  226.738  141.612
  291.750   11.687    0.351    0.181  226.274  135.659
  292.000   11.797    0.331    0.180  225.809  128.810
  292.250   11.808    0.323    0.174  225.842  128.531
  292.500   11.819    0.320    0.158  224.884  121.384
  292.750   12.030    0.341    0.151  223.917  130.064
  293.000   11.843    0.360    0.166  223.453  138.147
  293.250   11.559    0.358    0.185  222.988  144.142
  293.500   11.282    0.337    0.188  221.030  139.685
  293.750   10.740    0.325    0.186  219.570  141.200
  294.000   10.140    0.351    0.180  218.110  139.724
  294.250    9.336    0.337    0.177  217.152  143.328
  294.500    8.174    0.345    0.174  216.189  146.630
  294.750    6.261    0.364    0.171  215.725  145.458
  295.000    3.891    0.338    0.165  215.260  142.788
  295.250    3.407    0.349    0.151  213.800  139.824
  295.500    3.616    0.381    0.134  213.833  134.167
  295.750    4.932    0.379    0.093  215.363  117.165
  296.000    6.343    0.317   -0.132  216.886  107.036
  296.250    8.509    0.304   -0.038  217.416  110.037
  296.500   10.946    0.297    0.050  213.969  109.462
  296.750   13.390    0.328    0.128  210.025   91.561
  297.000   15.323    0.334    0.176  208.059   92.178
  297.250   16.261    0.321    0.238  205.607   91.601
  297.500   17.260    0.311    0.223  202.654   82.662
  297.750   18.015    0.302    0.202  200.198   71.035
  298.000   18.800    0.295    0.189  197.739   67.468
  298.250   19.296    0.289    0.178  195.283   71.074
  298.500   19.639    0.289    0.193  194.325   74.678
  298.750   19.655    0.284    0.182  192.363   75.001
  299.000   19.029    0.281    0.171  191.405   73.822
  299.250   18.573    0.278    0.156  191.935   72.948
  299.500   17.830    0.284    0.145  192.466   72.674
  299.750   17.116    0.302    0.171  192.499   74.182
  300.000   16.862    0.314    0.195  192.541   76.887
  300.250   16.588    0.334    0.226  192.072   80.792
  300.500   17.752    0.361    0.263  192.101   82.305
  300.750   19.155    0.370    0.286  192.134   83.221
  301.000   21.201    0.368    0.295  191.673   84.141
  301.250   22.689    0.344    0.297  191.702   85.353
  301.500   23.876    0.336    0.297  191.242   86.568
  301.750   24.301    0.331    0.298  189.782   87.483
  302.000   23.137    0.377    0.301  189.321   87.799
  302.250   22.397    0.362    0.303  189.354   87.822
  302.500   22.796    0.354    0.306  189.885   87.847
  302.750   23.593    0.363    0.308  191.411   87.568
  303.000   24.623    0.382    0.310  193.431   87.289
