~VERSION INFORMATION
 VERS.                 2.0:   CWLS LOG ASCII STANDARD -VERSION 2.0
 WRAP.                  NO:   ONE LINE PER DEPTH STEP
~WELL INFORMATION BLOCK
#MNEM.UNIT           DATA                    DESCRIPTION OF MNEMONIC
#---------    -------------------            -------------------------------
# Generated from Intellog Unique Number	CS_77_79/WELL/3304
WELL.         NUMAC OIL & GAS LTD.           : Well_name    - WELL
LOC .         00/12-23-079-14W4/0            : Location     - LOCATION
UWI .         00/12-23-079-14W4/0            : Uwi          - UNIQUE WELL ID
ENTR.         JOETTE                         : Entered      - ENTERED BY
SRVC.         SCHLUMBERGER                   : Scn          - SERVICE COMPANY
DATE.         08/24/92                       : Date         - LOG DATE
STRT.M        275                            : top_depth    - START DEPTH
STOP.M        500                            : bot_depth    - STOP DEPTH
STEP.M        0.25                           : increment    - STEP LENGTH
 NULL. -999.2500:NULL Value
~CURVE INFORMATION BLOCK
#MNEM UNIT       ERCB CURVE CODE    CURVE DESCRIPTION
#-----------   ------------------   ----------------------------------
DEPT.M        00 001 00 00         : DEPTH        - DEPTH
NPHI.V/V      00 330 00 00         : PHIN         - NEUTRON POROSITY (SANDSTONE)
DPHI.V/V      00 890 00 00         : PHID         - DENSITY POROSITY (SANDSTONE)
ILD .OHMM     00 120 00 00         : RESD         - DEEP RESISTIVITY (DIL)
GR  .API      00 310 00 00         : GR           - GAMMA RAY
~PARAMETER INFORMATION
#MNEM.UNIT           DATA             DESCRIPTION OF MNEMONIC
#---------         -----------     ------------------------------
GL  .M        695.8                : gl           - GROUND LEVEL ELEVATION
EREF.M        699.2                : kb           - ELEVATION OF DEPTH REFERENCE
DATM.M        699.2                : datum        - DATUM ELEVATION
TDD .M        512                  : tdd          - TOTAL DEPTH DRILLER
RUN .         ONE                  : Run          - RUN NUMBER
ENG .         BILL                 : Engineer     - RECORDING ENGINEER
WIT .         JIM                  : Witness      - WITNESSED BY
MUD .         GEL                  : Mud_type     - MUD TYPE
MATR.         SANDSTONE            : Logunit      - NEUTRON MATRIX
TMAX.C        12                   : BHT          - MAXIMUM RECORDED TEMPERATURE
BHTD.M        512                  : BHTDEP       - MAXIMUM RECORDED TEMPERATURE
RMT .C        12                   : MDTP         - TEMPERATURE OF MUD
MUDD.KG/M     1080                 : MWT          - MUD DENSITY
NEUT.         1                    : NEUTRON      - NEUTRON TYPE
RESI.         0                    : RESIST       - RESISTIVITY TYPE
RM  .OHMM     2.3                  : RM           - RESISTIVITY OF MUD
RMC .OHMM     2.3                  : RMC          - RESISTIVITY OF MUD CAKE
RMF .OHMM     4                    : RMF          - RESISTIVITY OF MUD FILTRATE
SUFT.C        4                    : SUFT         - SURFACE TEMPERATURE
~A  DEPTH     PHIN     PHID     RESD       GR
# ...
  362.000    0.480    0.220   33.368   63.457
  362.250    0.487    0.266   28.244   61.633
  362.500    0.479    0.262   24.803   61.628
  362.750    0.474    0.262   20.227   61.623
  363.000    0.477    0.255   17.115   62.222
  363.250    0.480    0.264   16.187   61.612
  363.500    0.474    0.270   15.305   59.790
  363.750    0.457    0.264   14.744   62.812
  364.000    0.457    0.259   14.733   64.017
  364.250    0.459    0.262   15.005   61.588
  364.500    0.460    0.264   15.852   59.767
  364.750    0.465    0.258   16.440   62.790
  365.000    0.471    0.250   16.740   69.442
  365.250    0.486    0.266   16.424   67.621
  365.500    0.476    0.287   16.117   67.010
  365.750    0.451    0.282   15.238   70.033
  366.000    0.468    0.271   14.411   68.815
  366.250    0.468    0.260   13.376   65.177
  366.500    0.474    0.253   12.416   62.751
  366.750    0.485    0.248   11.961   63.955
  367.000    0.492    0.255   11.735   65.767
  367.250    0.494    0.265   11.515   68.184
  367.500    0.497    0.263   11.508   69.389
  367.750    0.498    0.264   11.717   63.329
  368.000    0.481    0.265   11.931   54.847
  368.250    0.462    0.270   13.321   49.391
  368.500    0.434    0.271   13.818   49.991
  368.750    0.434    0.267   14.333   51.802
  369.000    0.447    0.269   15.141   52.402
  369.250    0.453    0.278   15.706   49.974
  369.500    0.450    0.286   15.991   51.180
  369.750    0.445    0.283   16.282   52.991
  370.000    0.441    0.277   16.575   52.985
  370.250    0.447    0.271   16.567   52.373
  370.500    0.447    0.275   16.256   52.976
  370.750    0.455    0.270   16.248   54.181
  371.000    0.456    0.272   16.240   57.808
  371.250    0.427    0.255   16.230   62.645
  371.500    0.443    0.247   16.224   60.824
  371.750    0.458    0.258   16.219   56.579
  372.000    0.463    0.259   16.209   54.154
  372.250    0.468    0.257   16.203   53.543
  372.500    0.472    0.260   15.897   55.353
  372.750    0.479    0.268   15.891   55.951
  373.000    0.479    0.268   15.590   55.945
  373.250    0.478    0.268   15.297   57.756
  373.500    0.478    0.268   14.735   57.145
  373.750    0.479    0.269   14.192   56.534
  374.000    0.473    0.266   13.927   58.346
  374.250    0.464    0.262   13.413   63.184
  374.500    0.457    0.251   12.920   69.232
  374.750    0.452    0.233   12.443   72.857
  375.000    0.450    0.222   12.213   75.276
  375.250    0.450    0.218   10.924   72.848
  375.500    0.485    0.280   10.329   77.687
  375.750    0.497    0.305    9.590   84.947
  376.000    0.527    0.292    8.577   86.757
  376.250    0.520    0.280    8.112   86.751
  376.500    0.568    0.247    6.994   87.957
  376.750    0.601    0.241    5.599   91.585
  377.000    0.635    0.248    4.566   86.734
  377.250    0.649    0.240    3.724   83.703
  377.500    0.641    0.264    3.271   81.275
  377.750    0.652    0.291    3.036   81.270
  378.000    0.675    0.306    2.979   83.079
  378.250    0.666    0.299    3.033   82.466
  378.500    0.659    0.289    3.325   80.646
  378.750    0.686    0.291    3.578   80.034
  379.000    0.686    0.299    3.996   80.031
  379.250    0.660    0.289    4.463   81.842
  379.500    0.628    0.260    5.172   84.257
  379.750    0.521    0.233    5.993   84.251
  380.000    0.468    0.216    6.818   84.244
  380.250    0.459    0.212    7.614   83.635
  380.500    0.483    0.205    8.662   85.445
  380.750    0.503    0.197    9.322   85.441
  381.000    0.535    0.204    9.317   85.436
  381.250    0.553    0.210    8.648   84.219
  381.500    0.567    0.212    8.179   84.214
  381.750    0.531    0.211    7.317   84.814
  382.000    0.518    0.209    6.545   87.230
  382.250    0.515    0.204    6.422   90.856
  382.500    0.526    0.205    6.539   89.640
  382.750    0.531    0.200    6.781   87.212
  383.000    0.524    0.210    6.777   86.600
  383.250    0.536    0.229    6.651   85.989
  383.500    0.553    0.245    6.287   84.772
  383.750    0.535    0.253    6.170   83.558
  384.000    0.517    0.245    6.055   82.342
  384.250    0.508    0.227    6.164   80.520
  384.500    0.515    0.224    6.277   76.276
  384.750    0.520    0.230    6.754   76.876
  385.000    0.514    0.228    7.006   80.504
  385.250    0.509    0.224    7.401   82.920
  385.500    0.503    0.226    7.676   79.887
  385.750    0.495    0.239    7.674   75.644
  386.000    0.488    0.234    7.669   78.060
  386.250    0.479    0.232    7.666   79.871
  386.500    0.517    0.245    7.521   78.654
  386.750    0.538    0.319    7.380   75.016
  387.000    0.548    0.327    6.977   78.038
  387.250    0.545    0.308    6.847   78.033
  387.500    0.510    0.264    6.971   72.577
  387.750    0.493    0.262    7.099   76.204
  388.000    0.489    0.254    7.362   80.435
  388.250    0.502    0.249    7.497   79.824
  388.500    0.489    0.274    7.354   81.636
  388.750    0.533    0.273    6.955   88.289
  389.000    0.565    0.314    5.996   88.889
  389.250    0.545    0.291    4.981   85.857
  389.500    0.549    0.281    2.913   83.431
  389.750    0.593    0.313    1.903   80.398
  390.000    0.624    0.309    1.221   82.209
  390.250    0.649    0.343    1.052   85.231
  390.500    0.680    0.349    1.132   83.409
  390.750    0.670    0.341    1.387   82.798
  391.000    0.636    0.324    1.898   84.003
  391.250    0.628    0.302    2.200   83.998
  391.500    0.635    0.324    2.457   82.782
  391.750    0.643    0.327    2.693   81.565
  392.000    0.629    0.322    2.898   80.348
  392.250    0.615    0.320    3.006   81.553
  392.500    0.606    0.312    3.117   85.784
  392.750    0.610    0.306    3.174   87.595
  393.000    0.622    0.307    3.232   84.564
  393.250    0.591    0.319    3.352   83.347
  393.500    0.560    0.243    3.675   85.763
  393.750    0.556    0.215    4.029   89.389
  394.000    0.569    0.208    4.583   90.595
  394.250    0.569    0.222    5.024   93.011
  394.500    0.594    0.237    5.116   92.401
  394.750    0.587    0.246    5.114   85.736
  395.000    0.565    0.242    5.207   80.281
  395.250    0.564    0.233    5.301   79.671
  395.500    0.553    0.253    5.397   76.032
  395.750    0.524    0.262    5.597   71.184
  396.000    0.509    0.251    6.023   66.335
  396.250    0.505    0.262    6.365   60.276
  396.500    0.499    0.291    7.241   56.636
  396.750    0.487    0.290    8.086   53.605
  397.000    0.466    0.291    8.863   56.625
  397.250    0.456    0.297    9.025   59.647
  397.500    0.449    0.291    9.020   62.063
  397.750    0.448    0.265    9.017   62.663
  398.000    0.383    0.167    9.012   60.841
  398.250    0.353    0.092    9.177   62.045
  398.500    0.341    0.120    9.516   66.279
  398.750    0.353    0.221    9.690   74.144
  399.000    0.384    0.247    9.684   74.139
  399.250    0.433    0.260    9.504   73.528
  399.500    0.468    0.227    8.821   74.733
  399.750    0.483    0.209    8.343   78.966
  400.000    0.491    0.223    7.742   82.591
  400.250    0.502    0.229    7.598   81.982
  400.500    0.508    0.233    7.454   84.398
  400.750    0.517    0.239    7.591   83.787
  401.000    0.540    0.236    7.871   81.964
  401.250    0.516    0.236    8.015   83.169
  401.500    0.506    0.260    8.011   81.349
  401.750    0.515    0.301    7.860   77.711
  402.000    0.506    0.320    7.571   77.704
  402.250    0.480    0.235    7.293   80.119
  402.500    0.499    0.240    7.156   80.720
  402.750    0.499    0.242    7.153   80.715
  403.000    0.499    0.237    7.418   79.499
  403.250    0.487    0.224    7.694   71.017
  403.500    0.467    0.203    7.834   68.587
  403.750    0.461    0.172    7.976   67.979
  404.000    0.470    0.147    7.973   69.184
  404.250    0.477    0.203    7.822   75.837
  404.500    0.475    0.218    7.396   80.070
  404.750    0.468    0.229    7.125   78.853
  405.000    0.462    0.271    6.613   78.847
  405.250    0.463    0.259    6.253   79.449
