~VERSION INFORMATION
 VERS.                 2.0:   CWLS LOG ASCII STANDARD -VERSION 2.0
 WRAP.                  NO:   ONE LINE PER DEPTH STEP
~WELL INFORMATION BLOCK
#MNEM.UNIT           DATA                    DESCRIPTION OF MNEMONIC
#---------    -------------------            -------------------------------
# Generated from Intellog Unique Number	CS_69_70/WELL/2886
NULL.         -999.25                        : NULL_VALUE
WELL.         AEC PRIMROSE                   : Well_name    - WELL              
LOC .         00/11-30-070-04W4/0            : Location     - LOCATION          
UWI .         00/11-30-070-04W4/0            : Uwi          - UNIQUE WELL ID    
ENTR.         TIM                            : Entered      - ENTERED BY        
SRVC.         SCHLUMBERGER                   : Scn          - SERVICE COMPANY   
DATE.         02/05/92                       : Date         - LOG DATE          
STRT.M        300                            : top_depth    - START DEPTH       
STOP.M        520                            : bot_depth    - STOP DEPTH        
STEP.M        0.25                           : increment    - STEP LENGTH       
~CURVE INFORMATION BLOCK
#MNEM UNIT       ERCB CURVE CODE    CURVE DESCRIPTION
#-----------   ------------------   ----------------------------------
DEPT.M        00 001 00 00         : DEPTH        - DEPTH                       
ILD .OHMM     00 120 00 00         : RESD         - DEEP RESISTIVITY (DIL)      
DPHI.V/V      00 890 00 00         : PHID         - DENSITY POROSITY (SANDSTONE)
NPHI.V/V      00 330 00 00         : PHIN         - NEUTRON POROSITY (SANDSTONE)
GR  .API      00 310 00 00         : GR           - GAMMA RAY                   
~PARAMETER INFORMATION       
#MNEM.UNIT           DATA             DESCRIPTION OF MNEMONIC
#---------         -----------     ------------------------------
GL  .M        673                  : gl           - GROUND LEVEL ELEVATION      
EREF.M        676.8                : kb           - ELEVATION OF DEPTH REFERENCE
DATM.M        676.8                : datum        - DATUM ELEVATION             
TDD .M        531                  : tdd          - TOTAL DEPTH DRILLER         
RUN .         ONE                  : Run          - RUN NUMBER                  
ENG .         BILL                 : Engineer     - RECORDING ENGINEER          
WIT .         JIM                  : Witness      - WITNESSED BY                
MUD .         GEL                  : Mud_type     - MUD TYPE                    
MATR.         SANDSTONE            : Logunit      - NEUTRON MATRIX              
TMAX.C        27                   : BHT          - MAXIMUM RECORDED TEMPERATURE
BHTD.M        531                  : BHTDEP       - MAXIMUM RECORDED TEMPERATURE
RMT .C        14                   : MDTP         - TEMPERATURE OF MUD          
MUDD.KG/M     1130                 : MWT          - MUD DENSITY                 
NEUT.         1                    : NEUTRON      - NEUTRON TYPE                
RESI.         0                    : RESIST       - RESISTIVITY TYPE            
RM  .OHMM     6.97                 : RM           - RESISTIVITY OF MUD          
RMC .OHMM     6.97                 : RMC          - RESISTIVITY OF MUD CAKE     
RMF .OHMM     6.97                 : RMF          - RESISTIVITY OF MUD FILTRATE 
SUFT.C        4                    : SUFT         - SURFACE TEMPERATURE         
~A  DEPTH     RESD     PHID     PHIN       GR
# ...
  343.500    7.579    0.255    0.424   83.058
  343.750    7.711    0.250    0.415   76.644
  344.000    7.704    0.244    0.391   70.229
  344.250    7.695    0.251    0.381   65.558
  344.500    7.691    0.265    0.396   67.282
  344.750    7.543    0.271    0.408   74.238
  345.000    7.534    0.262    0.419   77.706
  345.250    7.393    0.255    0.415   76.518
  345.500    7.250    0.247    0.413   78.237
  345.750    7.114    0.250    0.413   77.059
  346.000    6.979    0.267    0.413   73.546
  346.250    6.846    0.282    0.411   70.624
  346.500    6.839    0.292    0.406   65.372
  346.750    6.833    0.301    0.394   60.115
  347.000    6.701    0.319    0.387   56.031
  347.250    6.695    0.328    0.381   51.360
  347.500    6.568    0.335    0.387   44.359
  347.750    6.326    0.344    0.395   43.753
  348.000    6.095    0.350    0.409   44.890
  348.250    5.454    0.349    0.418   46.038
  348.500    5.157    0.349    0.434   47.180
  348.750    5.155    0.349    0.432   48.328
  349.000    5.057    0.349    0.408   50.623
  349.250    5.049    0.350    0.396   52.347
  349.500    5.140    0.350    0.401   54.076
  349.750    5.230    0.345    0.409   57.543
  350.000    5.225    0.338    0.409   59.272
  350.250    5.317    0.327    0.414   62.159
  350.500    5.408    0.323    0.422   65.621
  350.750    5.404    0.321    0.416   68.513
  351.000    5.496    0.328    0.385   71.976
  351.250    5.493    0.326    0.382   73.700
  351.500    5.589    0.320    0.389   73.684
  351.750    5.582    0.316    0.400   72.502
  352.000    5.681    0.315    0.407   70.156
  352.250    5.674    0.316    0.406   68.382
  352.500    5.669    0.315    0.406   68.362
  352.750    5.767    0.315    0.405   68.342
  353.000    5.764    0.318    0.400   66.578
  353.250    5.759    0.323    0.397   65.400
  353.500    5.859    0.331    0.392   63.055
  353.750    5.851    0.335    0.394   63.029
  354.000    5.847    0.325    0.406   63.596
  354.250    5.734    0.316    0.414   66.477
  354.500    5.523    0.312    0.414   67.625
  354.750    5.520    0.308    0.413   71.674
  355.000    5.514    0.303    0.413   73.974
  355.250    5.611    0.301    0.419   73.372
  355.500    5.708    0.300    0.432   71.027
  355.750    5.807    0.299    0.442   70.431
  356.000    5.909    0.301    0.445   67.494
  356.250    6.012    0.304    0.454   65.730
  356.500    5.791    0.306    0.459   62.808
  356.750    5.682    0.313    0.449   58.719
  357.000    5.472    0.318    0.431   55.792
  357.250    5.368    0.327    0.410   55.181
  357.500    5.460    0.330    0.412   56.328
  357.750    5.455    0.333    0.417   57.465
  358.000    5.449    0.335    0.419   58.032
  358.250    5.547    0.333    0.422   58.007
  358.500    5.540    0.332    0.427   57.996
  358.750    5.536    0.328    0.433   58.558
  359.000    5.530    0.325    0.441   59.700
  359.250    5.328    0.321    0.449   61.414
  359.500    5.037    0.316    0.442   61.975
  359.750    4.943    0.314    0.434   61.374
  360.000    5.028    0.309    0.425   60.762
  360.250    5.404    0.296    0.406   60.747
  360.500    5.703    0.205    0.395   60.737
  360.750    6.130    0.234    0.388   60.717
  361.000    6.589    0.253    0.389   60.697
  361.250    6.954    0.253    0.390   58.351
  361.500    7.474    0.217    0.324   53.094
  361.750    7.886    0.129    0.224   48.429
  362.000    7.879    0.038    0.217   50.734
  362.250    7.315    0.057    0.261   54.197
  362.500    7.179    0.085    0.338   51.270
  362.750    6.311    0.132    0.400   46.599
  363.000    5.548    0.333    0.393   41.347
  363.250    4.788    0.338    0.387   40.746
  363.500    4.527    0.343    0.394   41.307
  363.750    4.361    0.346    0.393   42.434
  364.000    4.201    0.349    0.375   43.001
  364.250    4.121    0.349    0.366   43.567
  364.500    3.968    0.350    0.379   44.128
  364.750    3.893    0.350    0.395   44.694
  365.000    3.890    0.349    0.390   45.255
  365.250    3.814    0.348    0.383   45.225
  365.500    3.743    0.348    0.378   45.210
  365.750    3.738    0.347    0.373   45.185
  366.000    3.736    0.343    0.378   45.746
  366.250    3.664    0.336    0.393   46.307
  366.500    3.660    0.333    0.399   46.292
  366.750    3.657    0.328    0.388   46.262
  367.000    3.654    0.325    0.377   46.247
  367.250    3.584    0.323    0.382   46.222
  367.500    3.581    0.323    0.391   46.212
  367.750    3.643    0.323    0.399   46.187
  368.000    3.708    0.325    0.398   45.585
  368.250    3.772    0.325    0.391   44.989
  368.500    3.839    0.325    0.379   43.801
  368.750    3.834    0.323    0.370   43.781
  369.000    3.901    0.326    0.372   43.761
  369.250    3.968    0.328    0.384   43.746
  369.500    4.038    0.335    0.393   43.129
  369.750    4.035    0.339    0.403   41.951
  370.000    4.029    0.347    0.390   41.355
  370.250    4.027    0.349    0.390   41.335
  370.500    4.023    0.355    0.402   40.137
  370.750    4.020    0.318    0.429   40.127
  371.000    4.164    0.283    0.429   39.530
  371.250    4.162    0.165    0.420   39.500
  371.500    4.311    0.085    0.414   39.490
  371.750    4.387    0.119    0.200   41.795
  372.000    4.546    0.216    0.297   45.258
  372.250    4.711    0.324    0.404   46.395
  372.500    4.882    0.365    0.419   46.375
  372.750    4.967    0.365    0.427   46.350
  373.000    5.054    0.363    0.433   46.335
  373.250    4.958    0.362    0.439   46.320
  373.500    4.689    0.361    0.445   46.295
  373.750    4.353    0.363    0.445   46.280
  374.000    3.969    0.364    0.441   46.260
  374.250    3.754    0.363    0.434   46.234
  374.500    3.683    0.360    0.422   46.219
  374.750    3.679    0.357    0.420   46.194
  375.000    3.744    0.353    0.421   46.760
  375.250    4.025    0.344    0.424   48.479
  375.500    4.325    0.296    0.415   50.208
  375.750    4.481    0.242    0.395   53.090
  376.000    4.560    0.294    0.394   58.306
  376.250    4.472    0.323    0.400   65.843
  376.500    4.306    0.324    0.425   73.380
  376.750    4.226    0.325    0.441   83.243
  377.000    4.145    0.335    0.433   91.361
  377.250    4.066    0.344    0.421   91.341
  377.500    3.989    0.350    0.423   88.409
  377.750    3.913    0.344    0.427   86.645
  378.000    3.909    0.334    0.429   87.787
  378.250    3.836    0.321    0.429   91.260
  378.500    3.830    0.298    0.427   94.728
  378.750    3.828    0.312    0.422  105.743
  379.000    3.894    0.337    0.420  103.984
  379.250    3.891    0.344    0.416  101.062
  379.500    3.887    0.339    0.418   96.391
  379.750    3.953    0.339    0.421   89.390
  380.000    3.951    0.344    0.427   86.464
  380.250    4.020    0.346    0.429   91.675
  380.500    4.016    0.346    0.426   97.468
  380.750    4.013    0.343    0.423  117.218
  381.000    4.008    0.345    0.424  118.937
  381.250    4.006    0.347    0.424  106.128
  381.500    3.927    0.350    0.426   91.575
  381.750    3.924    0.345    0.435   84.579
  382.000    3.920    0.340    0.446   75.258
  382.250    3.917    0.334    0.437   74.070
  382.500    3.913    0.321    0.426   78.119
  382.750    3.909    0.302    0.418   81.587
  383.000    3.631    0.296    0.412   82.148
  383.250    3.763    0.301    0.438   82.709
  383.500    3.828    0.303    0.450   76.876
  383.750    3.825    0.306    0.450   69.880
  384.000    3.962    0.304    0.438   64.628
  384.250    3.960    0.306    0.427   62.864
  384.500    4.028    0.313    0.425   61.676
  384.750    4.099    0.319    0.425   60.488
  385.000    4.170    0.325    0.425   59.897
  385.250    4.242    0.337    0.431   57.546
  385.500    4.317    0.344    0.437   55.777
  385.750    4.391    0.349    0.444   54.594
  386.000    4.388    0.352    0.440   54.574
  386.250    4.383    0.354    0.437   55.141
  386.500    4.380    0.357    0.445   56.283
  386.750    4.457    0.358    0.449   56.263
