~VERSION INFORMATION
 VERS.                 2.0:   CWLS LOG ASCII STANDARD -VERSION 2.0
 WRAP.                  NO:   ONE LINE PER DEPTH STEP
~WELL INFORMATION BLOCK
#MNEM.UNIT           DATA                    DESCRIPTION OF MNEMONIC
#---------    -------------------            -------------------------------
# Generated from Intellog Unique Number	CS_67_68/WELL/2204
WELL.         11-05-067-07W4                 : Well_name    - WELL
LOC .         00/11-05-067-07W4/0            : Location     - LOCATION
UWI .         00/11-05-067-07W4/0            : Uwi          - UNIQUE WELL ID
ENTR.         SP                             : Entered      - ENTERED BY
SRVC.         SCHLUMBERGER                   : Scn          - SERVICE COMPANY
STRT.M        315                            : top_depth    - START DEPTH
STOP.M        540                            : bot_depth    - STOP DEPTH
STEP.M        0.25                           : increment    - STEP LENGTH
 NULL. -999.2500:NULL Value
~CURVE INFORMATION BLOCK
#MNEM UNIT       ERCB CURVE CODE    CURVE DESCRIPTION
#-----------   ------------------   ----------------------------------
DEPT.M        00 001 00 00         : DEPTH        - DEPTH
ILD .OHMM     00 120 00 00         : RESD         - DEEP RESISTIVITY (DIL)
DPHI.V/V      00 890 00 00         : PHID         - DENSITY POROSITY (LIMESTONE)
NPHI.V/V      00 330 00 00         : PHIN         - NEUTRON POROSITY (LIMESTONE)
GR  .API      00 310 00 00         : GR           - GAMMA RAY
CALI.MM       00 280 01 00         : CAL          - CALIPER
~PARAMETER INFORMATION
#MNEM.UNIT           DATA             DESCRIPTION OF MNEMONIC
#---------         -----------     ------------------------------
GL  .M        621.33               : gl           - GROUND LEVEL ELEVATION
EREF.M        625.23               : kb           - ELEVATION OF DEPTH REFERENCE
DATM.M        625.23               : datum        - DATUM ELEVATION
TDD .M        550                  : tdd          - TOTAL DEPTH DRILLER
RUN .         ONE                  : Run          - RUN NUMBER
ENG .         BILL                 : Engineer     - RECORDING ENGINEER
WIT .         JIM                  : Witness      - WITNESSED BY
MUD .         GEL                  : Mud_type     - MUD TYPE
MATR.         LIMESTONE            : Logunit      - NEUTRON MATRIX
TMAX.C        25                   : BHT          - MAXIMUM RECORDED TEMPERATURE
BHTD.M        549.5                : BHTDEP       - MAXIMUM RECORDED TEMPERATURE
MATR.         1                    : LOGUNIT      - NEUTRON MATRIX
RMT .C        25                   : MDTP         - TEMPERATURE OF MUD
NEUT.         1                    : NEUTRON      - NEUTRON TYPE
RESI.         0                    : RESIST       - RESISTIVITY TYPE
RMC .OHMM     0.25                 : RMC          - RESISTIVITY OF MUD CAKE
RMF .OHMM     0.25                 : RMF          - RESISTIVITY OF MUD FILTRATE
SUFT.C        15                   : SUFT         - SURFACE TEMPERATURE
~A  DEPTH     RESD     PHID     PHIN       GR      CAL
# ...
  388.000    5.145    0.254    0.407   71.019  165.914
  388.250    4.986    0.268    0.424   63.725  166.474
  388.500    4.877    0.279    0.431   56.605  164.988
  388.750    4.890    0.284    0.423   59.324  164.331
  389.000    5.053    0.292    0.415   62.226  163.863
  389.250    5.220    0.276    0.426   66.710  163.509
  389.500    5.344    0.255    0.438   70.465  163.459
  389.750    5.378    0.244    0.444   74.218  163.204
  390.000    5.350    0.245    0.437   76.571  163.561
  390.250    5.253    0.245    0.441   78.559  164.430
  390.500    5.052    0.243    0.436   81.093  166.821
  390.750    4.823    0.228    0.439   84.662  169.922
  391.000    4.569    0.221    0.446   87.929  172.926
  391.250    4.427    0.224    0.452   90.282  172.362
  391.500    4.274    0.221    0.458   92.083  169.255
  391.750    4.188    0.215    0.473   92.235  171.038
  392.000    4.082    0.252    0.485   93.297  185.030
  392.250    4.001    0.280    0.474   94.493  200.044
  392.500    4.033    0.282    0.470   96.167  201.821
  392.750    4.082    0.248    0.487   97.911  182.841
  393.000    4.038    0.229    0.501  101.178  173.121
  393.250    3.877    0.242    0.513  104.436  169.708
  393.500    3.735    0.235    0.523  101.909  166.704
  393.750    3.552    0.231    0.512   92.413  164.924
  394.000    3.284    0.238    0.498   89.388  165.787
  394.250    3.110    0.232    0.478   96.135  167.555
  394.500    2.980    0.219    0.497  100.625  168.941
  394.750    2.850    0.214    0.515  105.415  168.992
  395.000    2.670    0.230    0.531   98.607  167.710
  395.250    2.515    0.240    0.518   89.355  166.948
  395.500    2.303    0.244    0.503   82.297  166.493
  395.750    2.202    0.262    0.527   77.934  165.422
  396.000    2.082    0.276    0.499   83.579  167.609
  396.250    2.033    0.265    0.502   97.836  174.161
  396.500    2.034    0.249    0.528  104.284  177.381
  396.750    2.094    0.241    0.543  109.684  180.179
  397.000    2.221    0.251    0.527  109.830  179.306
  397.250    2.504    0.255    0.538  109.550  179.047
  397.500    2.806    0.259    0.544  109.471  178.488
  397.750    3.216    0.261    0.554  109.683  177.629
  398.000    3.510    0.270    0.573   95.240  169.935
  398.250    4.046    0.288    0.553   81.652  165.404
  398.500    4.317    0.290    0.484   76.125  162.507
  398.750    4.528    0.277    0.461   74.505  161.035
  399.000    4.652    0.274    0.447   73.192  160.068
  399.250    4.699    0.265    0.463   75.355  161.128
  399.500    4.783    0.243    0.475   78.932  162.605
  399.750    4.840    0.229    0.488   83.237  164.187
  400.000    4.862    0.241    0.496   85.099  165.346
  400.250    4.856    0.252    0.486   82.196  165.300
  400.500    4.714    0.262    0.464   81.003  164.336
  400.750    4.594    0.262    0.481   80.787  162.044
  401.000    4.545    0.258    0.491   81.491  161.176
  401.250    4.565    0.248    0.469   83.353  161.121
  401.500    4.543    0.240    0.451   86.378  161.680
  401.750    4.477    0.238    0.447   86.042  162.750
  402.000    4.421    0.244    0.456   84.725  164.112
  402.250    4.333    0.238    0.461   87.804  164.886
  402.500    4.271    0.222    0.465   89.979  165.547
  402.750    4.217    0.212    0.469   93.245  167.427
  403.000    4.095    0.215    0.475   94.069  170.836
  403.250    3.998    0.221    0.475   93.364  175.057
  403.500    3.780    0.211    0.468   93.518  178.368
  403.750    3.468    0.193    0.457   93.424  182.285
  404.000    3.063    0.183    0.462   92.841  193.838
  404.250    2.661    0.208    0.485   91.774  212.003
  404.500    2.251    0.280    0.495   88.141  239.232
  404.750    1.823    0.321    0.506   85.546  251.290
  405.000    1.491    0.310    0.506   87.454  253.885
  405.250    1.699    0.280    0.504   90.052  232.866
  405.500    2.081    0.262    0.507   92.962  206.351
  405.750    3.037    0.243    0.520   95.434  192.864
  406.000    3.804    0.217    0.506   95.283  186.596
  406.250    4.360    0.208    0.516   93.844  182.582
  406.500    4.732    0.248    0.516   91.006  174.896
  406.750    4.852    0.245    0.487   89.510  181.969
  407.000    4.883    0.212    0.460   90.880  169.999
  407.250    4.822    0.228    0.460   92.196  173.095
  407.500    4.708    0.258    0.463   93.322  177.839
  407.750    4.427    0.261    0.465   93.046  179.113
  408.000    4.092    0.232    0.467   92.040  170.202
  408.250    3.957    0.212    0.493   90.543  174.532
  408.500    3.821    0.223    0.529   89.414  180.486
  408.750    3.695    0.283    0.533   88.891  189.689
  409.000    3.481    0.327    0.504   89.774  188.930
  409.250    3.260    0.308    0.482   91.390  168.116
  409.500    3.171    0.281    0.486   93.442  166.027
  409.750    3.203    0.286    0.496   92.916  201.599
  410.000    3.304    0.302    0.480   89.037  227.195
  410.250    3.388    0.309    0.480   86.141  235.387
  410.500    3.488    0.307    0.477   83.606  242.356
  410.750    3.556    0.305    0.472   84.912  248.616
  411.000    3.633    0.331    0.484   85.680  246.836
  411.250    3.719    0.356    0.495   86.322  230.396
  411.500    3.763    0.348    0.499   86.411  209.582
  411.750    3.787    0.338    0.494   84.669  184.691
  412.000    3.747    0.325    0.488   82.928  166.731
  412.250    3.700    0.320    0.480   81.371  161.792
  412.500    3.653    0.321    0.471   80.363  159.088
  412.750    3.608    0.325    0.477   79.599  157.310
  413.000    3.590    0.330    0.490   79.265  156.752
  413.250    3.565    0.320    0.497   79.662  157.815
  413.500    3.554    0.311    0.479   78.103  158.373
  413.750    3.542    0.306    0.464   73.919  158.936
  414.000    3.531    0.305    0.463   69.125  159.595
  414.250    3.527    0.307    0.466   64.877  160.142
  414.500    3.509    0.318    0.462   62.219  160.410
  414.750    3.498    0.332    0.457   61.336  160.455
  415.000    3.487    0.329    0.460   61.419  160.405
  415.250    3.470    0.323    0.465   61.759  160.151
  415.500    3.485    0.316    0.466   62.343  159.889
  415.750    3.487    0.316    0.448   62.980  159.639
  416.000    3.496    0.326    0.437   61.731  159.480
  416.250    3.499    0.312    0.446   63.837  159.025
  416.500    3.494    0.303    0.457   66.308  158.363
  416.750    3.483    0.298    0.462   68.354  158.106
  417.000    3.479    0.309    0.467   69.727  157.748
  417.250    3.487    0.318    0.472   65.662  157.491
  417.500    3.489    0.323    0.477   63.254  157.340
  417.750    3.478    0.327    0.480   61.329  156.875
  418.000    3.461    0.337    0.477   59.465  156.831
  418.250    3.430    0.349    0.471   58.578  156.766
  418.500    3.381    0.348    0.471   58.304  156.823
  418.750    3.339    0.348    0.475   59.128  156.879
  419.000    3.285    0.351    0.467   60.190  156.720
  419.250    3.219    0.351    0.476   60.837  156.670
  419.500    3.173    0.346    0.477   59.945  156.724
  419.750    3.157    0.340    0.468   60.100  156.061
  420.000    3.129    0.337    0.481   60.743  154.777
  420.250    3.114    0.351    0.486   62.239  154.222
  420.500    3.086    0.361    0.479   63.730  153.871
  420.750    3.065    0.354    0.467   59.671  154.220
  421.000    3.050    0.345    0.458   55.673  155.276
  421.250    3.040    0.340    0.450   58.202  156.149
  421.500    3.053    0.337    0.448   58.965  157.007
  421.750    3.096    0.333    0.459   57.289  157.783
  422.000    3.193    0.338    0.467   59.208  158.543
  422.250    3.287    0.341    0.466   60.644  158.999
  422.500    3.435    0.341    0.464   61.529  159.052
  422.750    3.623    0.345    0.463   61.501  159.096
  423.000    3.896    0.340    0.461   62.624  159.036
  423.250    4.056    0.334    0.460   63.575  158.995
  423.500    4.255    0.325    0.479   64.884  158.946
  423.750    4.397    0.311    0.487   65.894  158.893
  424.000    4.467    0.299    0.475   65.863  158.536
  424.250    4.461    0.293    0.460   64.122  158.482
