~VERSION INFORMATION
 VERS.                 2.0:   CWLS LOG ASCII STANDARD -VERSION 2.0
 WRAP.                  NO:   ONE LINE PER DEPTH STEP
~WELL INFORMATION BLOCK
#MNEM.UNIT           DATA                    DESCRIPTION OF MNEMONIC
#---------    -------------------            -------------------------------
# Generated from Intellog Unique Number	CW_70_72/WELL/3019
NULL.         -999.25                        : NULL_VALUE
WELL.         SUN BOUVIER 10-02              : Well_name    - WELL              
LOC .         10-02-070-24W4                 : Location     - LOCATION          
UWI .         00/10-02-070-24W4/0            : Uwi          - UNIQUE WELL ID    
ENTR.         jj                             : Entered      - ENTERED BY        
SRVC.         SCHLUMBERGER                   : Scn          - SERVICE COMPANY   
DATE.         28 JAN 78                      : Date         - LOG DATE          
STRT.M        426.72                         : top_depth    - START DEPTH       
STOP.M        633.97                         : bot_depth    - STOP DEPTH        
STEP.M        0.25                           : increment    - STEP LENGTH       
~CURVE INFORMATION BLOCK
#MNEM UNIT       ERCB CURVE CODE    CURVE DESCRIPTION
#-----------   ------------------   ----------------------------------
DEPT.M        00 001 00 00         : DEPTH        - DEPTH                       
ILD .OHMM     00 120 00 00         : RESD         - DEEP RESISTIVITY (DIL)      
CALI.MM       00 280 01 00         : CAL          - CALIPER                     
GR  .API      00 310 00 00         : GR           - GAMMA RAY                   
NPHI.V/V      00 330 00 00         : PHIN         - NEUTRON POROSITY (SANDSTONE)
DPHI.V/V      00 890 00 00         : PHID         - DENSITY POROSITY (SANDSTONE)
~PARAMETER INFORMATION       
#MNEM.UNIT           DATA             DESCRIPTION OF MNEMONIC
#---------         -----------     ------------------------------
GL  .M        637.184              : gl           - GROUND LEVEL ELEVATION      
EREF.M        640.324              : kb           - ELEVATION OF DEPTH REFERENCE
DATM.M        637.184              : datum        - DATUM ELEVATION             
TDD .M        656.234              : tdd          - TOTAL DEPTH DRILLER         
RUN .         ONE                  : Run          - RUN NUMBER                  
ENG .         CHMIELEWSKI          : Engineer     - RECORDING ENGINEER          
WIT .         BROWN                : Witness      - WITNESSED BY                
BASE.         EDM                  : Branch       - HOME BASE OF LOGGING UNIT   
MUD .         GEL CHEM             : Mud_type     - MUD TYPE                    
MATR.         SANDSTONE            : Logunit      - NEUTRON MATRIX              
TMAX.C        22.7778              : BHT          - MAXIMUM RECORDED TEMPERATURE
BHTD.M        656.539              : BHTDEP       - MAXIMUM RECORDED TEMPERATURE
RMT .C        20                   : MDTP         - TEMPERATURE OF MUD          
MUDD.KG/M     0                    : MWT          - MUD DENSITY                 
NEUT.         1                    : NEUTRON      - NEUTRON TYPE                
RESI.         0                    : RESIST       - RESISTIVITY TYPE            
RM  .OHMM     4.44                 : RM           - RESISTIVITY OF MUD          
RMC .OHMM     0.25                 : RMC          - RESISTIVITY OF MUD CAKE     
RMF .OHMM     3.02                 : RMF          - RESISTIVITY OF MUD FILTRATE 
SUFT.C        -17.7778             : SUFT         - SURFACE TEMPERATURE         
~A  DEPTH     RESD      CAL       GR     PHIN     PHID
# ...
  572.720    4.210  172.233  109.165    0.397    0.158
  572.970    4.147  172.546  106.040    0.401    0.192
  573.220    4.146  173.592  106.160    0.416    0.194
  573.470    4.192  173.592  109.522    0.422    0.176
  573.720    4.262  173.592  111.949    0.432    0.172
  573.970    4.374  172.612  110.946    0.441    0.174
  574.220    4.522  171.549  107.510    0.447    0.157
  574.470    4.702  169.846  104.137    0.438    0.171
  574.720    4.826  169.205  101.075    0.411    0.188
  574.970    4.952  168.352   97.452    0.396    0.192
  575.220    5.130  167.710   94.017    0.403    0.168
  575.470    5.236  166.853   90.832    0.403    0.144
  575.720    5.235  166.530   87.957    0.381    0.115
  575.970    5.166  166.311   90.072    0.383    0.117
  576.220    5.051  166.195   92.311    0.396    0.146
  576.470    4.975  165.974   94.615    0.411    0.192
  576.720    4.937  165.974   97.914    0.417    0.181
  576.970    4.936  166.802  100.217    0.423    0.191
  577.220    4.936  165.842  103.516    0.417    0.181
  577.470    4.953  166.571  109.436    0.419    0.192
  577.720    4.990  167.195  112.174    0.421    0.185
  577.970    4.998  167.822  110.860    0.403    0.173
  578.220    5.016  167.917  108.172    0.411    0.153
  578.470    5.090  168.329  105.920    0.418    0.170
  578.720    5.166  168.215  104.668    0.395    0.155
  578.970    5.311  168.417  102.980    0.388    0.171
  579.220    5.711  167.881   99.544    0.406    0.162
  579.470    6.703  167.872   99.663    0.416    0.165
  579.720    7.750  167.757  102.776    0.416    0.169
  579.970    8.780  167.009  101.025    0.386    0.171
  580.220    9.854  165.203   95.469    0.376    0.178
  580.470   10.635  164.456   89.102    0.385    0.185
  580.720   11.371  164.022   79.554    0.382    0.151
  580.970   11.562  164.225   73.125    0.310    0.116
  581.220    9.720  164.849   69.129    0.256    0.040
  581.470    8.171  165.369   70.931    0.282    0.069
  581.720    7.104  166.099   73.732    0.312    0.100
  581.970    5.972  166.620   82.333    0.334    0.122
  582.220    5.300  166.926   90.436    0.372    0.164
  582.470    5.250  167.446   99.224    0.391    0.192
  582.720    5.418  168.490   95.102    0.411    0.178
  582.970    5.804  168.589   91.480    0.427    0.164
  583.220    6.114  168.895   85.112    0.397    0.142
  583.470    6.170  168.992   80.679    0.337    0.099
  583.720    5.965  168.561   74.500    0.302    0.077
  583.970    5.650  167.601   69.443    0.283    0.061
  584.220    5.352  167.275   74.614    0.318    0.160
  584.470    5.223  167.371   83.964    0.363    0.142
  584.720    5.232  167.574   89.509    0.391    0.124
  584.970    5.420  168.199   91.998    0.382    0.133
  585.220    5.849  169.035   93.614    0.388    0.146
  585.470    6.540  169.553   94.731    0.402    0.158
  585.720    7.085  170.492   95.038    0.399    0.162
  585.970    8.331  171.011   92.849    0.384    0.147
  586.220    9.263  171.108   88.353    0.388    0.144
  586.470    9.560  170.995   80.490    0.384    0.130
  586.720    9.174  170.668   71.130    0.359    0.018
  586.970    7.976  170.448   67.756    0.244    0.001
  587.220    6.806  170.448   81.471    0.259    0.038
  587.470    5.637  168.733   89.511    0.288    0.097
  587.720    5.212  168.414   94.683    0.337    0.148
  587.970    5.077  167.877   99.106    0.374    0.167
  588.220    5.123  167.550   98.475    0.409    0.144
  588.470    5.161  167.550   94.791    0.396    0.136
  588.720    5.170  167.550   94.536    0.384    0.158
  588.970    5.140  166.675   96.402    0.365    0.137
  589.220    5.110  166.988   96.021    0.372    0.136
  589.470    5.100  166.988   96.827    0.386    0.153
  589.720    5.089  166.988   98.754    0.377    0.124
  589.970    5.098  168.224  100.309    0.369    0.119
  590.220    5.126  168.429  101.863    0.367    0.105
  590.470    5.231  166.305  102.169    0.382    0.116
  590.720    5.614  165.874  102.102    0.387    0.147
  590.970    6.516  166.395   99.788    0.387    0.168
  591.220    6.980  167.019   95.541    0.384    0.160
  591.470    7.150  169.334   93.167    0.373    0.149
  591.720    6.939  168.268   90.479    0.333    0.123
  591.970    6.622  167.098   89.726    0.316    0.103
  592.220    6.054  166.243   96.831    0.325    0.109
  592.470    5.778  165.916   98.135    0.341    0.132
  592.720    5.513  166.540   99.439    0.353    0.146
  592.970    5.321  167.482  101.430    0.373    0.162
  593.220    5.261  168.636  106.538    0.372    0.169
  593.470    5.379  169.682  113.081    0.367    0.153
  593.720    5.634  170.096  119.063    0.357    0.140
  593.970    5.772  170.404  116.438    0.366    0.164
  594.220    5.890  171.343  110.320    0.368    0.169
  594.470    5.978  171.442  106.636    0.363    0.152
  594.720    5.999  171.115  103.886    0.368    0.107
  594.970    5.987  170.155  102.445    0.373    0.078
  595.220    5.930  167.718  101.755    0.382    0.146
  595.470    5.863  166.653   99.629    0.380    0.172
  595.720    5.722  166.853   97.191    0.373    0.175
  595.970    5.290  168.113   95.315    0.368    0.169
  596.220    4.159  170.215   93.313    0.376    0.168
  596.470    3.167  170.628   92.622    0.376    0.167
  596.720    2.912  170.514   93.052    0.372    0.181
  596.970    2.810  170.715   94.108    0.393    0.155
  597.220    2.900  173.558   96.598    0.441    0.169
  597.470    3.261  182.632  101.269    0.506    0.177
  597.720    3.701  185.474  103.510    0.512    0.178
  597.970    4.123  179.444  100.261    0.473    0.165
  598.220    4.534  176.268   96.451    0.433    0.141
  598.470    5.232  173.195   95.511    0.404    0.125
  598.720    5.668  171.496   96.940    0.386    0.143
  598.970    5.982  170.855   95.874    0.376    0.127
  599.220    6.266  170.950   91.877    0.388    0.125
  599.470    5.913  171.362   88.691    0.385    0.104
  599.720    5.749  171.671   91.991    0.371    0.104
  599.970    5.466  171.240  100.467    0.368    0.122
  600.220    5.236  170.491  102.706    0.376    0.127
  600.470    5.100  169.955  103.513    0.382    0.139
  600.720    4.940  169.418  105.066    0.399    0.150
  600.970    4.821  168.879  108.990    0.414    0.102
  601.220    4.705  168.870  111.042    0.407    0.142
  601.470    4.722  169.072  107.794    0.397    0.153
  601.720    4.774  170.014  107.539    0.405    0.108
  601.970    4.927  172.223  107.285    0.399    0.128
  602.220    5.151  172.847  105.595    0.394    0.142
  602.470    5.437  171.042  102.284    0.389    0.151
  602.720    5.933  169.978   96.166    0.377    0.124
  602.970    6.721  168.911   89.800    0.362    0.077
  603.220    7.133  168.481   83.745    0.328    0.044
  603.470    7.335  168.154   84.426    0.305    0.018
  603.720    7.292  167.935   89.909    0.343    0.072
  603.970    7.037  168.137   91.650    0.339    0.123
  604.220    6.555  168.127   85.157    0.330    0.097
  604.470    5.861  168.012   87.648    0.330    0.044
  604.720    5.210  167.792   94.502    0.384    0.119
  604.970    4.871  167.784  100.795    0.403    0.156
  605.220    4.710  167.774  102.723    0.404    0.161
  605.470    4.683  168.187  104.527    0.378    0.155
  605.720    4.708  168.704  108.138    0.387    0.141
  605.970    4.760  168.802  107.759    0.421    0.112
  606.220    4.813  169.531  105.072    0.404    0.108
  606.470    4.384  170.050  101.511    0.404    0.106
  606.720    3.611  170.675  101.130    0.414    0.115
  606.970    3.265  171.194  101.500    0.421    0.149
  607.220    3.445  171.186  102.244    0.415    0.108
  607.470    3.809  170.437  105.045    0.405    0.093
  607.720    4.150  169.582  109.031    0.415    0.168
  607.970    4.555  168.307  110.771    0.427    0.136
  608.220    4.744  167.031  108.583    0.430    0.153
  608.470    4.970  168.289  106.395    0.419    0.171
  608.720    5.139  169.440  104.955    0.421    0.150
  608.970    5.494  170.910  104.014    0.426    0.134
