~VERSION INFORMATION
 VERS.                 2.0:   CWLS LOG ASCII STANDARD -VERSION 2.0
 WRAP.                  NO:   ONE LINE PER DEPTH STEP
~WELL INFORMATION BLOCK
#MNEM.UNIT           DATA                    DESCRIPTION OF MNEMONIC
#---------    -------------------            -------------------------------
# Generated from Intellog Unique Number	CW_70_72/WELL/1068
NULL.         -999.25                        : NULL_VALUE
WELL.         WESTMIN SMITH 14-35            : Well_name    - WELL              
LOC .         14-35-071-24W4                 : Location     - LOCATION          
UWI .         00/14-35-071-24W4/0            : Uwi          - UNIQUE WELL ID    
ENTR.         JAYE                           : Entered      - ENTERED BY        
SRVC.         WESTERN ATLAS                  : Scn          - SERVICE COMPANY   
DATE.         7 MAR 83                       : Date         - LOG DATE          
STRT.M        423                            : top_depth    - START DEPTH       
STOP.M        627                            : bot_depth    - STOP DEPTH        
STEP.M        0.25                           : increment    - STEP LENGTH       
~CURVE INFORMATION BLOCK
#MNEM UNIT       ERCB CURVE CODE    CURVE DESCRIPTION
#-----------   ------------------   ----------------------------------
DEPT.M        00 001 00 00         : DEPTH        - DEPTH                       
DPHI.V/V      00 890 00 00         : PHID         - DENSITY POROSITY (SANDSTONE)
NPHI.V/V      00 330 00 00         : PHIN         - NEUTRON POROSITY (SANDSTONE)
GR  .API      00 310 00 00         : GR           - GAMMA RAY                   
CALI.MM       00 280 01 00         : CAL          - CALIPER                     
ILD .OHMM     00 120 00 00         : RESD         - DEEP RESISTIVITY (DIL)      
~PARAMETER INFORMATION       
#MNEM.UNIT           DATA             DESCRIPTION OF MNEMONIC
#---------         -----------     ------------------------------
GL  .M        655.8                : gl           - GROUND LEVEL ELEVATION      
EREF.M        659                  : kb           - ELEVATION OF DEPTH REFERENCE
DATM.M        655.8                : datum        - DATUM ELEVATION             
TDD .M        651                  : tdd          - TOTAL DEPTH DRILLER         
RUN .         ONE                  : Run          - RUN NUMBER                  
ENG .         PETERSON             : Engineer     - RECORDING ENGINEER          
WIT .         OVERWATER            : Witness      - WITNESSED BY                
MUD .         GEL CHEM             : Mud_type     - MUD TYPE                    
MATR.         SANDSTONE            : Logunit      - NEUTRON MATRIX              
TMAX.C        22                   : BHT          - MAXIMUM RECORDED TEMPERATURE
BHTD.M        651.3                : BHTDEP       - MAXIMUM RECORDED TEMPERATURE
RMT .C        12                   : MDTP         - TEMPERATURE OF MUD          
MUDD.KG/M     1120                 : MWT          - MUD DENSITY                 
NEUT.         1                    : NEUTRON      - NEUTRON TYPE                
RESI.         0                    : RESIST       - RESISTIVITY TYPE            
RM  .OHMM     5                    : RM           - RESISTIVITY OF MUD          
RMC .OHMM     4.7                  : RMC          - RESISTIVITY OF MUD CAKE     
RMF .OHMM     4.5                  : RMF          - RESISTIVITY OF MUD FILTRATE 
SUFT.C        0                    : SUFT         - SURFACE TEMPERATURE         
~A  DEPTH     PHID     PHIN       GR      CAL     RESD
# ...
  605.500    0.083    0.301   98.541  160.336    7.245
  605.750    0.048    0.296   98.323  160.173    6.635
  606.000    0.039    0.307   99.718  159.695    6.157
  606.250    0.057    0.318   98.567  159.528    5.811
  606.500    0.065    0.329   99.216  159.041    5.651
  606.750    0.074    0.337  103.097  158.674    5.528
  607.000    0.087    0.345  106.228  158.409    5.396
  607.250    0.099    0.352  110.112  158.353    5.258
  607.500    0.097    0.355  110.756  158.298    5.133
  607.750    0.105    0.351  107.185  158.237    5.048
  608.000    0.099    0.344  106.093  158.282    5.156
  608.250    0.088    0.330  107.613  158.232    5.355
  608.500    0.116    0.318  108.386  158.184    5.582
  608.750    0.102    0.308  106.245  158.324    5.776
  609.000    0.113    0.297  105.773  158.587    5.943
  609.250    0.108    0.285  100.895  158.842    5.945
  609.500    0.079    0.278   98.069  158.788    5.804
  609.750    0.075    0.286  100.146  159.143    5.519
  610.000    0.049    0.291  101.912  159.095    5.238
  610.250    0.061    0.302  107.717  159.244    4.980
  610.500    0.079    0.316  108.369  159.411    4.613
  610.750    0.102    0.327  110.632  159.450    4.321
  611.000    0.095    0.339  113.335  159.389    4.147
  611.250    0.098    0.353  114.291  159.125    4.049
  611.500    0.109    0.356  115.126  159.063    4.028
  611.750    0.121    0.352  115.900  159.012    4.059
  612.000    0.099    0.348  115.933  159.059    4.200
  612.250    0.084    0.343  115.460  159.209    4.445
  612.500    0.079    0.337  113.564  159.575    4.838
  612.750    0.073    0.333  108.873  159.945    5.218
  613.000    0.080    0.330  105.798  160.206    5.511
  613.250    0.078    0.329  106.884  160.356    5.977
  613.500    0.082    0.328  110.761  160.414    6.373
  613.750    0.095    0.322  114.639  160.343    6.744
  614.000    0.107    0.316  116.282  160.285    7.191
  614.250    0.078    0.305  105.071  160.124    7.582
  614.500    0.054    0.282   99.757  160.489    7.860
  614.750    0.039    0.274   98.111  160.541    7.863
  615.000    0.036    0.275  100.496  160.283    7.719
  615.250    0.079    0.283  105.244  160.224    7.521
  615.500    0.105    0.292  108.567  159.743    7.468
  615.750    0.122    0.298  109.214  159.681    7.386
  616.000    0.126    0.308  111.417  159.516    7.293
  616.250    0.118    0.318  108.154  159.463    7.213
  616.500    0.104    0.324  109.116  159.508    7.175
  616.750    0.094    0.324  111.442  159.662    7.124
  617.000    0.084    0.324  111.719  159.604    7.020
  617.250    0.090    0.323  112.056  159.457    6.892
  617.500    0.100    0.324  112.583  159.393    6.842
  617.750    0.116    0.329  114.536  159.332    6.961
  618.000    0.127    0.337  113.199  159.488    7.367
  618.250    0.144    0.349  103.786  159.755    7.840
  618.500    0.286    0.383   95.992  160.006    8.471
  618.750    0.405    0.401   90.615  160.368    9.186
  619.000    0.420    0.325   81.391  160.526   10.037
  619.250    0.270    0.294   77.876  159.830   10.925
  619.500    0.241    0.246   66.725  159.465   12.511
  619.750    0.267    0.224   51.350  159.400   15.072
  620.000    0.263    0.200   43.120  159.137   17.620
  620.250    0.233    0.179   39.296  159.177   20.139
  620.500    0.204    0.157   38.207  159.127   24.035
  620.750    0.163    0.136   36.123  159.277   26.709
  621.000    0.123    0.115   38.141  159.325   23.737
  621.250    0.071    0.109   44.379  159.487   18.813
  621.500    0.012    0.136   66.642  159.848   14.633
  621.750    0.043    0.193  118.346  159.482   11.906
  622.000    0.045    0.231  161.479  159.318    9.946
  622.250    0.029    0.301  209.146  158.842    8.355
  622.500    0.038    0.332  273.831  158.891    7.192
  622.750    0.013    0.340  294.294  158.718    6.249
  623.000    0.016    0.347  293.514  158.768    5.309
  623.250    0.037    0.348  240.190  159.127    4.772
  623.500    0.047    0.344  203.761  158.968    5.444
  623.750    0.058    0.333  167.890  158.695    6.305
  624.000    0.076    0.296  150.589  158.637    7.496
  624.250    0.086    0.231  139.004  158.478    8.714
  624.500    0.089    0.204   84.003  158.111    9.720
  624.750    0.086    0.183   55.523  157.623   10.801
  625.000    0.081    0.161   37.292  157.253   11.846
  625.250    0.091    0.162   25.273  156.878   11.096
  625.500    0.109    0.182   25.611  156.715    9.642
  625.750    0.122    0.206   25.950  156.346    8.130
  626.000    0.134    0.237   24.924  156.289    6.946
  626.250    0.139    0.259   24.766  156.228    6.162
  626.500    0.141    0.266   24.606  156.272    5.622
  626.750    0.132    0.267   24.329  156.115    5.101
  627.000    0.127    0.268   23.856  155.955    4.680
