~VERSION INFORMATION
 VERS.                 2.0:   CWLS LOG ASCII STANDARD -VERSION 2.0
 WRAP.                  NO:   ONE LINE PER DEPTH STEP
~WELL INFORMATION BLOCK
#MNEM.UNIT           DATA                    DESCRIPTION OF MNEMONIC
#---------    -------------------            -------------------------------
# Generated from Intellog Unique Number	CW_79_81/WELL/879
WELL.         PARAMOUNT ET AL HORIZON        : Well_name    - WELL
LOC .         00/10-35-079-19W4/0            : Location     - LOCATION
UWI .         00/10-35-079-19W4/0            : Uwi          - UNIQUE WELL ID
ENTR.         MAX                            : Entered      - ENTERED BY
SRVC.         COMPUTALOG                     : Scn          - SERVICE COMPANY
STRT.M        198.12                         : top_depth    - START DEPTH
STOP.M        367.62                         : bot_depth    - STOP DEPTH
STEP.M        0.25                           : increment    - STEP LENGTH
 NULL. -999.2500:NULL Value
~CURVE INFORMATION BLOCK
#MNEM UNIT       ERCB CURVE CODE    CURVE DESCRIPTION
#-----------   ------------------   ----------------------------------
DEPT.M        00 001 00 00         : DEPTH        - DEPTH
ILD .OHMM     00 120 00 00         : RESD         - DEEP RESISTIVITY (DIL)
NPHI.V/V      00 330 00 00         : PHIN         - NEUTRON POROSITY (SANDSTONE)
DPHI.V/V      00 890 00 00         : PHID         - DENSITY POROSITY (SANDSTONE)
CALI.MM       00 280 01 00         : CAL          - CALIPER
GR  .API      00 310 00 00         : GR           - GAMMA RAY
~PARAMETER INFORMATION
#MNEM.UNIT           DATA             DESCRIPTION OF MNEMONIC
#---------         -----------     ------------------------------
GL  .M        563.88               : gl           - GROUND LEVEL ELEVATION
EREF.M        566.928              : kb           - ELEVATION OF DEPTH REFERENCE
DATM.M        563.88               : datum        - DATUM ELEVATION
TDD .M        368.198              : tdd          - TOTAL DEPTH DRILLER
RUN .         ONE                  : Run          - RUN NUMBER
ENG .         BILL                 : Engineer     - RECORDING ENGINEER
WIT .         JIM                  : Witness      - WITNESSED BY
MUD .         GEL                  : Mud_type     - MUD TYPE
MATR.         SANDSTONE            : Logunit      - NEUTRON MATRIX
TMAX.C        16.1111              : BHT          - MAXIMUM RECORDED TEMPERATURE
BHTD.M        368.198              : BHTDEP       - MAXIMUM RECORDED TEMPERATURE
RMT .C        15                   : MDTP         - TEMPERATURE OF MUD
MUDD.KG/M     9800                 : MWT          - MUD DENSITY
NEUT.         1                    : NEUTRON      - NEUTRON TYPE
RESI.         0                    : RESIST       - RESISTIVITY TYPE
RM  .OHMM     1.35                 : RM           - RESISTIVITY OF MUD
RMC .OHMM     0                    : RMC          - RESISTIVITY OF MUD CAKE
RMF .OHMM     1.05                 : RMF          - RESISTIVITY OF MUD FILTRATE
SUFT.C        -20.5556             : SUFT         - SURFACE TEMPERATURE
~A  DEPTH     RESD     PHIN     PHID      CAL       GR
# ...
  271.120    7.743    0.402    0.277  155.177   92.872
  271.370    7.862    0.395    0.280  158.207   94.068
  271.620    8.141    0.385    0.274  159.739   88.766
  271.870    8.459    0.376    0.289  159.266   80.214
  272.120    9.015    0.371    0.289  159.294   76.984
  272.370    9.373    0.362    0.277  159.318   76.110
  272.620    9.572    0.354    0.283  158.849   72.879
  272.870    9.732    0.356    0.283  159.377   73.784
  273.120    9.732    0.375    0.284  159.404   76.457
  273.370    9.494    0.365    0.285  159.436   80.316
  273.620    9.296    0.370    0.276  159.960   80.331
  273.870    9.217    0.368    0.282  160.488   73.847
  274.120    9.297    0.366    0.302  160.015   73.568
  274.370    9.535    0.369    0.310  159.543   73.586
  274.620   10.052    0.396    0.309  159.077   77.443
  274.870   10.410    0.380    0.309  158.601   74.208
  275.120   10.252    0.376    0.304  158.632   73.338
  275.370    9.378    0.372    0.287  157.652   81.627
  275.620    9.378    0.380    0.279  156.683   86.374
  275.870    9.180    0.407    0.295  154.706   89.048
  276.120    9.141    0.393    0.306  152.235   87.882
  276.370    9.380    0.358    0.308  151.763   69.580
  276.620   10.294    0.308    0.286  151.790   63.390
  276.870   11.287    0.267    0.248  153.816   56.020
  277.120   14.188    0.081    0.199  155.348   55.152
  277.370   22.371    0.054   -0.032  156.380   50.439
  277.620   22.610    0.070   -0.033  157.908   44.251
  277.870   22.610    0.083   -0.015  157.939   44.267
  278.120   22.055    0.115    0.007  157.964   51.969
  278.370   20.585    0.139    0.022  158.488   54.938
  278.620   17.209    0.215    0.265  159.019   58.207
  278.870   13.952    0.273    0.294  159.044   60.587
  279.120   12.721    0.316    0.315  157.570   60.012
  279.370   11.410    0.367    0.308  155.600   62.390
  279.620   10.378    0.396    0.299  154.127   73.636
  279.870    9.067    0.403    0.271  153.654   82.220
  280.120    8.551    0.387    0.281  154.179   90.214
  280.370    8.234    0.376    0.288  155.218   87.276
  280.620    8.234    0.387    0.286  156.242   83.749
  280.870    8.354    0.385    0.291  158.268   83.174
  281.120    8.354    0.386    0.298  160.797   86.145
  281.370    8.355    0.381    0.292  159.824   85.868
  281.620    8.315    0.379    0.292  158.855   84.700
  281.870    8.197    0.417    0.284  157.882   80.880
  282.120    8.197    0.421    0.280  157.409   80.597
  282.370    8.078    0.420    0.284  156.936   80.910
  282.620    7.840    0.405    0.276  156.961   81.518
  282.870    7.682    0.409    0.270  156.992   84.487
  283.120    7.483    0.410    0.272  157.019   86.571
  283.370    7.365    0.408    0.271  155.553   88.658
  283.620    7.445    0.407    0.263  155.574   90.151
  283.870    7.524    0.392    0.255  156.606   91.940
  284.120    7.485    0.406    0.257  157.634   92.845
  284.370    7.327    0.403    0.253  157.658   96.111
  284.620    7.247    0.409    0.253  157.689   95.241
  284.870    7.129    0.422    0.253  157.717   94.962
  285.120    6.970    0.425    0.250  158.241   97.340
  285.370    6.891    0.427    0.241  158.269   97.952
  285.620    7.011    0.439    0.224  157.803   97.373
  285.870    7.130    0.415    0.227  157.827   98.869
  286.120    7.130    0.404    0.228  157.852   97.408
  286.370    7.211    0.403    0.226  157.890   98.606
  286.620    7.291    0.415    0.242  157.910   98.033
  286.870    7.291    0.405    0.257  157.938   99.229
  287.120    7.212    0.405    0.253  157.966   96.589
  287.370    7.133    0.400    0.252  157.997   92.469
  287.620    6.974    0.402    0.248  158.525   93.074
  287.870    6.895    0.421    0.244  158.549   97.227
  288.120    7.015    0.407    0.242  158.083   97.245
  288.370    7.293    0.399    0.245  157.604   98.441
  288.620    8.128    0.394    0.257  155.630   92.548
  288.870    8.327    0.373    0.258  153.657   84.292
  289.120    8.844    0.333    0.211  152.190   81.651
  289.370   10.155    0.315    0.166  151.711   84.327
  289.620   10.632    0.328    0.163  152.743   93.500
  289.870   11.784    0.265    0.217  157.773   90.857
  290.120   12.421    0.203    0.181  156.304   83.192
  290.370   12.977    0.243    0.190  157.832   93.849
  290.620   12.977    0.357    0.272  156.359   91.204
  290.870   12.660    0.382    0.270  155.382   95.063
  291.120   10.912    0.367    0.267  153.909   97.441
  291.370   10.277    0.374    0.267  153.937   98.935
  291.620   10.119    0.381    0.264  154.465   95.701
  291.870   10.079    0.390    0.263  153.992   92.763
  292.120   10.080    0.384    0.264  154.020   86.579
  292.370   10.080    0.378    0.264  155.552   88.661
  292.620   10.041    0.382    0.263  157.080   93.993
  292.870    9.962    0.397    0.265  158.109   94.305
  293.120    9.803    0.399    0.265  158.140   89.004
  293.370    9.605    0.369    0.259  158.668   87.838
  293.620    9.248    0.378    0.253  159.192  103.516
  293.870    8.891    0.393    0.249  158.727  103.240
  294.120    8.852    0.404    0.245  158.751  102.366
  294.370    8.852    0.392    0.241  158.775  100.317
  294.620    8.892    0.386    0.240  158.806  108.308
  294.870    8.932    0.382    0.243  158.834  110.688
  295.120    9.012    0.392    0.247  158.862  108.638
  295.370    9.012    0.385    0.247  158.886  100.084
  295.620    8.973    0.387    0.246  159.921   93.010
  295.870    8.973    0.397    0.246  159.945   93.026
  296.120    9.014    0.384    0.248  159.479   98.363
  296.370    9.014    0.380    0.244  159.504   94.243
  296.620    9.054    0.375    0.244  159.031   96.327
  296.870    9.054    0.389    0.245  158.555   89.844
  297.120    8.976    0.391    0.242  155.080   89.567
  297.370    8.896    0.392    0.229  153.607   91.058
  297.620    8.658    0.392    0.233  154.135   90.188
  297.870    8.420    0.389    0.238  155.667   90.502
  298.120    8.222    0.378    0.240  157.693   95.834
  298.370    8.064    0.379    0.239  159.728   95.853
  298.620    7.786    0.386    0.239  161.754   95.572
  298.870    7.469    0.406    0.239  162.786   98.838
  299.120    7.072    0.407    0.241  163.314  110.970
  299.370    6.715    0.396    0.240  163.341  112.464
  299.620    6.278    0.417    0.241  162.368  106.866
  299.870    6.358    0.395    0.249  161.392  102.155
  300.120    6.676    0.397    0.260  160.422   96.558
  300.370    7.471    0.393    0.265  160.447   90.961
  300.620    8.385    0.375    0.250  159.974   82.113
  300.870    9.339    0.361    0.237  160.005   77.993
  301.120   10.412    0.343    0.212  160.036   72.987
  301.370   11.604    0.306    0.184  160.060   68.871
  301.620   12.161    0.280    0.205  160.092   66.817
  301.870   13.750    0.182    0.194  160.119   62.104
  302.120   15.538    0.119    0.143  160.651   54.439
  302.370   15.499    0.103    0.028  161.179   53.864
  302.620   14.665    0.149    0.179  161.199   61.858
  302.870   13.394    0.266    0.244  161.230   69.556
  303.120   12.322    0.366    0.264  160.258   76.072
  303.370   10.892    0.354    0.263  160.289   75.793
  303.620    9.423    0.352    0.252  160.289   73.446
  303.870    9.423    0.354    0.240  159.847   71.394
  304.120    9.821    0.341    0.209  158.864   73.778
  304.370   10.775    0.259    0.130  157.891   72.315
  304.620   11.291    0.170    0.185  156.425   67.604
  304.870   11.768    0.147    0.232  155.955   62.893
  305.120   11.848    0.258    0.251  155.976   70.296
  305.370   11.571    0.331    0.238  156.504   76.517
  305.620   10.538    0.327    0.238  157.036   79.192
  305.870   10.697    0.303    0.224  157.063   80.981
  306.120   11.532    0.172    0.138  156.587   77.748
  306.370   12.406    0.111    0.090  155.621   73.332
  306.620   15.029    0.083    0.069  155.145   63.894
  306.870   15.268    0.079    0.077  155.169   65.389
  307.120   14.950    0.085    0.106  155.197   73.088
  307.370   13.163    0.098    0.144  154.724   80.490
