~VERSION INFORMATION
 VERS.                 2.0:   CWLS LOG ASCII STANDARD -VERSION 2.0
 WRAP.                  NO:   ONE LINE PER DEPTH STEP
~WELL INFORMATION BLOCK
#MNEM.UNIT           DATA                    DESCRIPTION OF MNEMONIC
#---------    -------------------            -------------------------------
# Generated from Intellog Unique Number	CW_73_75/WELL/1040
WELL.         11-16-074-21W4                 : Well_name    - WELL
LOC .         00/11-16-074-21W4/0            : Location     - LOCATION
UWI .         00/11-16-074-21W4/0            : Uwi          - UNIQUE WELL ID
ENTR.         JAYE                           : Entered      - ENTERED BY
SRVC.         SCHLUMBERGER                   : Scn          - SERVICE COMPANY
DATE.         2 JAN 77                       : Date         - LOG DATE
STRT.M        387.096                        : top_depth    - START DEPTH
STOP.M        600.346                        : bot_depth    - STOP DEPTH
STEP.M        0.25                           : increment    - STEP LENGTH
 NULL. -999.2500:NULL Value
~CURVE INFORMATION BLOCK
#MNEM UNIT       ERCB CURVE CODE    CURVE DESCRIPTION
#-----------   ------------------   ----------------------------------
DEPT.M        00 001 00 00         : DEPTH        - DEPTH
DPHI.V/V      00 890 00 00         : PHID         - DENSITY POROSITY (SANDSTONE)
NPHI.V/V      00 330 00 00         : PHIN         - NEUTRON POROSITY (SANDSTONE)
GR  .API      00 310 00 00         : GR           - GAMMA RAY
CALI.MM       00 280 01 00         : CAL          - CALIPER
ILD .OHMM     00 120 00 00         : RESD         - DEEP RESISTIVITY (DIL)
~PARAMETER INFORMATION
#MNEM.UNIT           DATA             DESCRIPTION OF MNEMONIC
#---------         -----------     ------------------------------
GL  .M        685.495              : gl           - GROUND LEVEL ELEVATION
EREF.M        689.458              : kb           - ELEVATION OF DEPTH REFERENCE
DATM.M        685.495              : datum        - DATUM ELEVATION
TDD .M        664.464              : tdd          - TOTAL DEPTH DRILLER
RUN .         ONE                  : Run          - RUN NUMBER
ENG .         MCDONALD             : Engineer     - RECORDING ENGINEER
WIT .         SMAILES              : Witness      - WITNESSED BY
BASE.         EDMONTON             : Branch       - HOME BASE OF LOGGING UNIT
MUD .         GEL CHEM             : Mud_type     - MUD TYPE
MATR.         SANDSTONE            : Logunit      - NEUTRON MATRIX
TMAX.C        26.1111              : BHT          - MAXIMUM RECORDED TEMPERATURE
BHTD.M        663.245              : BHTDEP       - MAXIMUM RECORDED TEMPERATURE
RMT .C        10                   : MDTP         - TEMPERATURE OF MUD
MUDD.KG/M     0                    : MWT          - MUD DENSITY
NEUT.         1                    : NEUTRON      - NEUTRON TYPE
RESI.         0                    : RESIST       - RESISTIVITY TYPE
RM  .OHMM     4.63                 : RM           - RESISTIVITY OF MUD
RMC .OHMM     4.67                 : RMC          - RESISTIVITY OF MUD CAKE
RMF .OHMM     4.66                 : RMF          - RESISTIVITY OF MUD FILTRATE
SUFT.C        -17.7778             : SUFT         - SURFACE TEMPERATURE
~A  DEPTH     PHID     PHIN       GR      CAL     RESD
# ...
  460.096    0.343    0.434   58.083  202.080    5.404
  460.346    0.350    0.440   57.913  201.789    5.489
  460.596    0.358    0.452   55.563  201.398    5.525
  460.846    0.356    0.448   55.393  200.291    5.479
  461.096    0.341    0.440   54.738  200.002    5.434
  461.346    0.345    0.443   51.177  199.919    5.419
  461.596    0.356    0.437   49.796  200.248    5.414
  461.846    0.357    0.445   50.958  200.576    5.398
  462.096    0.354    0.463   52.425  201.209    5.364
  462.346    0.355    0.463   52.375  201.126    5.349
  462.596    0.347    0.458   51.841  200.225    5.344
  462.846    0.334    0.451   52.216  199.425    5.339
  463.096    0.336    0.442   52.592  198.831    5.324
  463.346    0.349    0.440   53.087  197.925    5.300
  463.596    0.349    0.448   53.765  197.535    5.276
  463.846    0.352    0.450   55.230  197.352    5.251
  464.096    0.345    0.448   54.757  197.367    5.218
  464.346    0.350    0.445   55.798  197.387    5.175
  464.596    0.355    0.438   57.505  197.203    5.132
  464.846    0.357    0.427   55.883  197.019    5.117
  465.096    0.348    0.437   56.197  196.934    5.104
  465.346    0.346    0.447   56.874  197.160    5.071
  465.596    0.351    0.456   57.492  197.387    5.038
  465.846    0.362    0.461   58.169  197.509    4.996
  466.096    0.368    0.462   59.332  197.423    4.992
  466.346    0.352    0.458   60.251  197.444    5.024
  466.596    0.347    0.438   61.172  197.771    5.057
  466.846    0.345    0.441   59.911  197.790    5.071
  467.096    0.341    0.440   58.895  197.811    5.103
  467.346    0.341    0.439   59.571  197.215    5.117
  467.596    0.345    0.435   59.947  196.722    5.179
  467.846    0.342    0.425   60.866  196.436    5.261
  468.096    0.337    0.415   61.968  196.149    5.334
  468.346    0.339    0.432   60.466  195.961    5.478
  468.596    0.336    0.428   60.781  196.082    5.711
  468.846    0.332    0.427   61.882  196.101    5.920
  469.096    0.348    0.451   64.255  196.532    6.114
  469.346    0.338    0.452   65.478  197.269    6.233
  469.596    0.319    0.433   66.579  198.521    6.332
  469.846    0.302    0.407   67.985  199.461    6.268
  470.096    0.285    0.385   69.449  200.199    6.193
  470.346    0.218    0.428   71.278  200.732    6.063
  470.596    0.268    0.457   74.680  200.854    5.774
  470.846    0.314    0.463   78.144  200.977    5.530
  471.096    0.313    0.458   81.062  201.100    5.423
  471.346    0.302    0.433   84.647  201.631    5.479
  471.596    0.273    0.438   88.291  202.062    5.545
  471.846    0.217    0.474   92.542  202.388    5.550
  472.096    0.263    0.468   97.701  202.922    5.453
  472.346    0.281    0.455  102.618  203.556    5.213
  472.596    0.271    0.446  103.780  205.114    4.936
  472.846    0.266    0.460  103.671  207.082    4.539
  473.096    0.259    0.479  104.349  209.153    4.174
  473.346    0.250    0.498  103.270  211.735    3.909
  473.596    0.245    0.499   99.346  215.549    4.008
  473.846    0.252    0.483   99.418  218.851    4.155
  474.096    0.269    0.468  101.428  216.000    4.236
  474.346    0.230    0.473   99.925  215.096    4.232
  474.596    0.229    0.475   98.182  214.912    4.008
  474.846    0.248    0.478   98.436  214.827    3.706
  475.096    0.238    0.496   98.386  216.385    3.458
  475.346    0.248    0.519   97.913  225.531    3.263
  475.596    0.275    0.549   98.228  232.524    3.333
  475.846    0.307    0.564   99.692  236.133    3.519
  476.096    0.355    0.566   98.614  231.128    3.743
  476.346    0.380    0.525   91.177  215.356    4.042
  476.596    0.357    0.480   85.497  204.096    4.236
  476.846    0.351    0.452   77.939  203.297    4.327
  477.096    0.345    0.445   72.500  204.137    4.315
  477.346    0.362    0.442   66.577  204.156    4.335
  477.596    0.370    0.431   62.956  203.869    4.299
  477.846    0.382    0.422   62.786  203.785    4.248
  478.096    0.391    0.430   64.674  203.395    4.151
  478.346    0.389    0.431   65.897  202.799    4.116
  478.596    0.382    0.432   66.273  202.720    4.098
  478.846    0.387    0.439   68.040  203.146    4.124
  479.096    0.390    0.464   70.475  203.269    4.151
  479.346    0.383    0.449   73.514  203.390    4.193
  479.596    0.379    0.435   72.679  203.512    4.189
  479.846    0.380    0.435   70.448  203.534    4.193
  480.096    0.377    0.448   69.915  203.348    4.205
  480.346    0.363    0.461   73.924  203.263    4.201
  480.596    0.365    0.455   78.416  203.080    4.220
  480.846    0.355    0.455   82.606  202.792    4.240
  481.096    0.339    0.454   83.709  202.505    4.299
  481.346    0.342    0.450   84.870  202.319    4.383
  481.596    0.319    0.438   87.305  202.237    4.485
  481.846    0.296    0.450   88.527  202.153    4.606
  482.096    0.270    0.474   86.480  201.968    4.688
  482.346    0.280    0.474   83.646  201.577    4.649
  482.596    0.297    0.464   79.236  201.494    4.585
  482.846    0.331    0.457   74.465  201.615    4.548
  483.096    0.354    0.457   73.264  201.841    4.510
  483.346    0.368    0.448   72.671  201.859    4.423
  483.596    0.375    0.451   71.289  201.981    4.371
  483.846    0.372    0.456   68.878  201.695    4.359
  484.096    0.381    0.455   69.314  201.508    4.339
  484.346    0.380    0.454   71.506  201.227    4.367
  484.596    0.367    0.454   74.424  201.138    4.460
  484.846    0.374    0.453   75.950  201.158    4.556
  485.096    0.363    0.452   75.416  200.666    4.543
  485.346    0.352    0.452   74.035  200.378    4.489
  485.596    0.360    0.450   73.865  200.603    4.493
  485.846    0.336    0.443   76.541  200.318    4.514
  486.096    0.345    0.441   78.490  200.026    4.518
  486.346    0.356    0.444   79.350  200.047    4.523
  486.596    0.362    0.447   77.182  199.758    4.543
  486.846    0.366    0.451   72.228  199.572    4.573
  487.096    0.369    0.454   73.693  199.489    4.628
  487.346    0.364    0.458   76.793  199.509    4.667
  487.596    0.355    0.440   76.623  199.839    4.679
  487.846    0.359    0.436   75.059  200.062    4.684
  488.096    0.371    0.449   72.468  200.286    4.793
  488.346    0.373    0.474   70.663  200.305    5.042
  488.596    0.373    0.478   69.705  200.222    5.463
  488.846    0.372    0.455   68.627  200.347    6.142
  489.096    0.369    0.444   68.397  200.877    6.854
  489.346    0.358    0.433   68.892  201.717    8.403
  489.596    0.297    0.373   66.059  202.455   10.114
  489.846    0.256    0.277   64.313  203.296   11.412
  490.096    0.162    0.292   63.537  204.033   12.005
  490.346    0.185    0.352   61.793  203.745   10.331
  490.596    0.226    0.334   59.564  202.535    8.759
  490.846    0.241    0.294   64.360  201.837    7.040
  491.096    0.150    0.351   73.455  201.651    5.037
  491.346    0.168    0.486   75.950  201.364    4.383
  491.596    0.352    0.467   74.388  201.178    4.128
  491.846    0.366    0.451   73.854  200.786    4.132
  492.096    0.361    0.462   75.017  200.499    4.167
  492.346    0.354    0.478   77.934  200.520    4.201
  492.596    0.340    0.465   80.187  200.538    4.220
  492.846    0.341    0.459   82.379  200.661    4.232
  493.096    0.345    0.478   83.662  200.889    4.236
  493.346    0.342    0.507   84.278  201.008    4.224
  493.596    0.340    0.496   82.898  201.235    4.205
  493.846    0.337    0.484   82.304  201.048    4.193
  494.096    0.338    0.472   82.194  200.967    4.189
  494.346    0.346    0.471   84.325  200.782    4.186
  494.596    0.350    0.463   84.337  201.006    4.181
  494.846    0.354    0.446   81.442  201.128    4.178
  495.096    0.365    0.448   78.123  201.352    4.174
  495.346    0.366    0.463   76.681  201.678    4.170
  495.596    0.373    0.477   77.540  200.775    4.181
  495.846    0.362    0.488   81.185  200.795    4.185
  496.096    0.345    0.507   84.285  200.814    4.189
  496.346    0.330    0.570   80.300  200.528    4.201
