~VERSION INFORMATION
 VERS.                 2.0:   CWLS LOG ASCII STANDARD -VERSION 2.0
 WRAP.                  NO:   ONE LINE PER DEPTH STEP
~WELL INFORMATION BLOCK
#MNEM.UNIT           DATA                    DESCRIPTION OF MNEMONIC
#---------    -------------------            -------------------------------
# Generated from Intellog Unique Number	CS_71_72/WELL/845
WELL.         BVX ET AL PHILOMENA            : Well_name    - WELL
LOC .         00/10-01-071-11W4/0            : Location     - LOCATION
UWI .         00/10-01-071-11W4/0            : Uwi          - UNIQUE WELL ID
ENTR.         SP                             : Entered      - ENTERED BY
SRVC.         SCHLUMBERGER                   : Scn          - SERVICE COMPANY
STRT.M        305                            : top_depth    - START DEPTH
STOP.M        525                            : bot_depth    - STOP DEPTH
STEP.M        0.25                           : increment    - STEP LENGTH
 NULL. -999.2500:NULL Value
~CURVE INFORMATION BLOCK
#MNEM UNIT       ERCB CURVE CODE    CURVE DESCRIPTION
#-----------   ------------------   ----------------------------------
DEPT.M        00 001 00 00         : DEPTH        - DEPTH
ILD .OHMM     00 120 00 00         : RESD         - DEEP RESISTIVITY (DIL)
DPHI.V/V      00 890 00 00         : PHID         - DENSITY POROSITY (LIMESTONE)
NPHI.V/V      00 330 00 00         : PHIN         - NEUTRON POROSITY (LIMESTONE)
GR  .API      00 310 00 00         : GR           - GAMMA RAY
~PARAMETER INFORMATION
#MNEM.UNIT           DATA             DESCRIPTION OF MNEMONIC
#---------         -----------     ------------------------------
GL  .M        643.55               : gl           - GROUND LEVEL ELEVATION
EREF.M        646.55               : kb           - ELEVATION OF DEPTH REFERENCE
DATM.M        643.55               : datum        - DATUM ELEVATION
TDD .M        529                  : tdd          - TOTAL DEPTH DRILLER
RUN .         ONE                  : Run          - RUN NUMBER
ENG .         BILL                 : Engineer     - RECORDING ENGINEER
WIT .         JIM                  : Witness      - WITNESSED BY
MUD .         GEL                  : Mud_type     - MUD TYPE
MATR.         LIMESTONE            : Logunit      - NEUTRON MATRIX
TMAX.C        28                   : BHT          - MAXIMUM RECORDED TEMPERATURE
BHTD.M        529                  : BHTDEP       - MAXIMUM RECORDED TEMPERATURE
MATR.         1                    : LOGUNIT      - NEUTRON MATRIX
RMT .C        25                   : MDTP         - TEMPERATURE OF MUD
NEUT.         1                    : NEUTRON      - NEUTRON TYPE
RESI.         0                    : RESIST       - RESISTIVITY TYPE
RMC .OHMM     0.25                 : RMC          - RESISTIVITY OF MUD CAKE
RMF .OHMM     0.25                 : RMF          - RESISTIVITY OF MUD FILTRATE
SUFT.C        15                   : SUFT         - SURFACE TEMPERATURE
~A  DEPTH     RESD     PHID     PHIN       GR
# ...
  348.500    3.995    0.282    0.493  100.272
  348.750    4.222    0.253    0.507  102.095
  349.000    4.700    0.236    0.527  100.038
  349.250    5.023    0.239    0.540   97.437
  349.500    5.367    0.261    0.548   95.200
  349.750    5.476    0.282    0.544   94.598
  350.000    5.577    0.287    0.511   98.240
  350.250    5.721    0.286    0.503  100.425
  350.500    5.979    0.276    0.514  101.703
  350.750    6.260    0.267    0.528  100.313
  351.000    6.542    0.261    0.516  100.137
  351.250    6.750    0.268    0.496   99.111
  351.500    7.002    0.262    0.482   95.237
  351.750    7.196    0.270    0.471   89.968
  352.000    7.328    0.307    0.478   83.003
  352.250    7.515    0.336    0.468   76.219
  352.500    7.542    0.363    0.460   70.103
  352.750    7.737    0.365    0.454   66.895
  353.000    7.967    0.352    0.462   67.082
  353.250    8.265    0.341    0.464   69.087
  353.500    8.479    0.329    0.450   70.424
  353.750    8.634    0.323    0.439   72.853
  354.000    8.662    0.330    0.478   74.858
  354.250    8.578    0.308    0.487   75.348
  354.500    8.480    0.277    0.454   71.716
  354.750    8.289    0.295    0.445   66.932
  355.000    8.071    0.325    0.482   67.301
  355.250    7.920    0.341    0.481   68.578
  355.500    7.800    0.332    0.490   66.522
  355.750    7.667    0.309    0.487   71.861
  356.000    7.564    0.303    0.472   75.562
  356.250    7.533    0.302    0.485   79.143
  356.500    7.446    0.302    0.498   81.754
  356.750    7.471    0.302    0.494   83.274
  357.000    7.262    0.304    0.486   83.157
  357.250    7.086    0.314    0.481   83.949
  357.500    6.749    0.313    0.475   86.258
  357.750    6.440    0.301    0.472   87.899
  358.000    6.179    0.276    0.470   85.176
  358.250    6.029    0.249    0.475   86.877
  358.500    6.049    0.258    0.486   92.762
  358.750    6.251    0.263    0.499   96.524
  359.000    6.473    0.243    0.508   99.316
  359.250    6.641    0.225    0.490  102.412
  359.500    6.687    0.223    0.502  104.903
  359.750    6.722    0.243    0.489  102.300
  360.000    6.595    0.259    0.476   95.578
  360.250    6.592    0.269    0.487   97.339
  360.500    6.939    0.271    0.492   97.829
  360.750    7.041    0.259    0.479   97.591
  361.000    7.278    0.248    0.471   95.535
  361.250    7.690    0.251    0.480   92.085
  361.500    7.861    0.253    0.471   87.605
  361.750    8.153    0.291    0.461   84.579
  362.000    8.273    0.318    0.453   83.069
  362.250    8.409    0.333    0.448   82.164
  362.500    8.594    0.326    0.451   82.047
  362.750    8.703    0.316    0.444   85.325
  363.000    8.813    0.298    0.459   88.360
  363.250    8.874    0.281    0.471   84.183
  363.500    8.887    0.268    0.482   82.672
  363.750    8.899    0.277    0.485   84.132
  364.000    8.829    0.273    0.471   83.894
  364.250    8.711    0.264    0.451   82.262
  364.500    8.545    0.252    0.443   82.570
  364.750    8.511    0.257    0.456   84.272
  365.000    8.492    0.278    0.468   84.761
  365.250    8.473    0.295    0.480   82.160
  365.500    8.500    0.287    0.487   79.983
  365.750    8.527    0.286    0.470   79.623
  366.000    8.555    0.296    0.450   79.204
  366.250    8.600    0.298    0.438   79.633
  366.500    8.690    0.291    0.429   82.243
  366.750    8.752    0.283    0.434   85.339
  367.000    8.814    0.288    0.454   84.314
  367.250    8.892    0.296    0.443   82.439
  367.500    8.955    0.292    0.438   85.657
  367.750    9.000    0.279    0.429   89.238
  368.000    8.997    0.268    0.417   91.424
  368.250    8.893    0.255    0.424   93.186
  368.500    8.740    0.243    0.436   94.585
  368.750    8.641    0.238    0.440   93.316
  369.000    8.494    0.250    0.439   90.171
  369.250    8.318    0.267    0.439   88.357
  369.500    8.192    0.273    0.440   87.451
  369.750    8.023    0.267    0.445   88.789
  370.000    7.770    0.264    0.432   93.643
  370.250    7.454    0.259    0.417   98.193
  370.500    7.315    0.246    0.442  102.319
  370.750    7.097    0.241    0.454   97.051
  371.000    6.822    0.257    0.437   98.207
  371.250    6.633    0.236    0.423  104.879
  371.500    6.212    0.216    0.437  111.611
  371.750    5.917    0.226    0.450  115.434
  372.000    5.763    0.254    0.477  113.741
  372.250    5.770    0.305    0.504  106.595
  372.500    5.725    0.355    0.524  104.841
  372.750    5.473    0.401    0.548  110.058
  373.000    5.410    0.360    0.611  113.821
  373.250    5.408    0.292    0.653  115.644
  373.500    5.426    0.255    0.487  111.830
  373.750    5.433    0.239    0.486  107.834
  374.000    5.341    0.261    0.501  106.203
  374.250    5.143    0.248    0.509   98.086
  374.500    4.991    0.243    0.505   99.303
  374.750    4.887    0.240    0.515  102.763
  375.000    4.822    0.239    0.497  105.131
  375.250    4.774    0.249    0.480  106.651
  375.500    4.765    0.249    0.491  107.384
  375.750    4.726    0.256    0.513  106.841
  376.000    4.664    0.258    0.531  100.787
  376.250    4.593    0.251    0.517   97.821
  376.500    4.506    0.247    0.505   94.190
  376.750    4.381    0.247    0.502   91.769
  377.000    4.290    0.246    0.537   89.047
  377.250    4.241    0.250    0.537   87.899
  377.500    4.262    0.242    0.527   88.328
  377.750    4.333    0.246    0.519   88.454
  378.000    4.717    0.245    0.535   88.460
  378.250    5.399    0.243    0.537   88.465
  378.500    6.438    0.258    0.521   87.922
  378.750    8.042    0.251    0.520   86.291
  379.000    9.257    0.251    0.536   82.599
  379.250   10.248    0.271    0.524   74.421
  379.500   10.891    0.292    0.481   65.698
  379.750   11.194    0.330    0.454   61.217
  380.000   11.106    0.355    0.433   57.950
  380.250   10.597    0.351    0.439   60.318
  380.500   10.378    0.360    0.442   61.716
  380.750   10.587    0.337    0.439   60.570
  381.000   10.800    0.331    0.434   60.514
  381.250   11.080    0.340    0.429   63.185
  381.500   11.262    0.347    0.432   67.493
  381.750   11.447    0.324    0.451   70.467
  382.000   11.484    0.291    0.469   69.078
  382.250   11.373    0.320    0.462   62.720
  382.500   11.012    0.339    0.450   60.178
  382.750   10.908    0.345    0.444   57.213
  383.000   10.863    0.347    0.443   55.279
  383.250   11.123    0.342    0.445   57.041
  383.500   11.411    0.331    0.444   58.621
  383.750   11.684    0.323    0.443   61.232
  384.000   11.876    0.311    0.455   61.418
  384.250   11.937    0.305    0.468   59.241
  384.500   11.799    0.321    0.461   57.731
  384.750   11.642    0.334    0.464   56.705
  385.000   11.464    0.346    0.463   55.497
  385.250   11.332    0.340    0.451   54.774
  385.500   11.244    0.340    0.440   55.931
  385.750   11.428    0.343    0.452   60.360
  386.000   11.486    0.340    0.462   62.789
  386.250   11.610    0.341    0.457   63.824
  386.500   11.757    0.343    0.451   60.798
  386.750   11.883    0.341    0.454   57.288
  387.000   11.919    0.355    0.450   54.141
  387.250   11.870    0.367    0.445   52.448
  387.500   11.867    0.367    0.459   52.513
  387.750   11.839    0.373    0.468   52.640
  388.000   11.747    0.376    0.468   52.584
  388.250   11.633    0.368    0.460   53.256
  388.500   11.456    0.363    0.456   54.229
  388.750   11.325    0.359    0.455   57.325
  389.000   11.215    0.357    0.455   59.330
  389.250   11.064    0.355    0.457   60.486
  389.500   10.998    0.353    0.465   58.430
  389.750   10.912    0.356    0.467   57.222
  390.000   10.906    0.363    0.456   57.227
  390.250   10.963    0.367    0.455   59.839
  390.500   11.081    0.349    0.464   61.722
  390.750   11.138    0.333    0.467   61.180
  391.000   11.174    0.340    0.478   57.306
  391.250   11.188    0.346    0.487   55.311
  391.500   11.226    0.362    0.475   54.346
  391.750   11.305    0.378    0.472   52.229
