~VERSION INFORMATION
 VERS.                 2.0:   CWLS LOG ASCII STANDARD -VERSION 2.0
 WRAP.                  NO:   ONE LINE PER DEPTH STEP
~WELL INFORMATION BLOCK
#MNEM.UNIT           DATA                    DESCRIPTION OF MNEMONIC
#---------    -------------------            -------------------------------
# Generated from Intellog Unique Number	CC_84_87/WELL/2355
NULL.         -999.25                        : NULL_VALUE
COMP.         PINNACLE RESOURCES LTD         : COMPANY
WELL.         COSEKA ET AL SALESKI           : Well_name    - WELL              
LOC .         15-35-087-17W4                 : Location     - LOCATION          
UWI .         00/15-35-087-17W400            : Uwi          - UNIQUE WELL ID    
ENTR.         JHS                            : Entered      - ENTERED BY        
SRVC.         COMPUTALOG                     : Scn          - SERVICE COMPANY   
DATE.         29 JAN 86                      : Date         - LOG DATE
STRT.M        103                            : top_depth    - START DEPTH       
STOP.M        228.701                        : bot_depth    - STOP DEPTH        
STEP.M        0.3                            : increment    - STEP LENGTH       
~CURVE INFORMATION BLOCK
#MNEM UNIT       ERCB CURVE CODE    CURVE DESCRIPTION
#-----------   ------------------   ----------------------------------
DEPT.M        00 001 00 00         : DEPTH        - DEPTH                       
DPHI.V/V      00 890 00 00         : PHID         - DENSITY POROSITY (LIMESTONE)
NPHI.V/V      00 330 00 00         : PHIN         - NEUTRON POROSITY (LIMESTONE)
GR  .API      00 310 00 00         : GR           - GAMMA RAY                   
ILD .OHMM     00 120 00 00         : RESD         - DEEP RESISTIVITY (DIL)      
~PARAMETER INFORMATION       
#MNEM.UNIT           DATA             DESCRIPTION OF MNEMONIC
#---------         -----------     ------------------------------
GL  .M        525.8                : gl           - GROUND LEVEL ELEVATION      
EREF.M        529.6                : kb           - ELEVATION OF DEPTH REFERENCE
DATM.M        529.6                : datum        - DATUM ELEVATION             
TDD .M        230.7                : tdd          - TOTAL DEPTH DRILLER         
RUN .         ONE                  : Run          - RUN NUMBER                  
ENG .         BILL                 : Engineer     - RECORDING ENGINEER          
WIT .         JIM                  : Witness      - WITNESSED BY                
MUD .         GEL                  : Mud_type     - MUD TYPE                    
MATR.         LIMESTONE            : Logunit      - NEUTRON MATRIX              
TMAX.C        28                   : BHT          - MAXIMUM RECORDED TEMPERATURE
BHTD.M        230.7                : BHTDEP       - MAXIMUM RECORDED TEMPERATURE
MATR.         1                    : LOGUNIT      - NEUTRON MATRIX              
RMT .C        25                   : MDTP         - TEMPERATURE OF MUD          
NEUT.         1                    : NEUTRON      - NEUTRON TYPE                
RESI.         0                    : RESIST       - RESISTIVITY TYPE            
RMC .OHMM     0.25                 : RMC          - RESISTIVITY OF MUD CAKE     
RMF .OHMM     0.25                 : RMF          - RESISTIVITY OF MUD FILTRATE 
SUFT.C        15                   : SUFT         - SURFACE TEMPERATURE         
~A  DEPTH     PHID     PHIN       GR     RESD
  103.000    0.287    0.503  103.553    3.891
  103.300    0.309    0.493  101.666    3.608
  103.600    0.311    0.483  104.172    3.542
  103.900    0.285    0.503  104.167    3.478
  104.200    0.277    0.493  102.908    3.482
  104.500    0.285    0.451   97.883    3.763
  104.800    0.289    0.458   99.761    4.388
  105.100    0.279    0.460   97.247    6.081
  105.400    0.245    0.444   86.573    8.589
  105.700    0.234    0.438   72.761   12.132
  106.000    0.244    0.423   67.736   15.573
  106.300    0.261    0.422   79.029   17.487
  106.600    0.280    0.422   79.652   17.501
  106.900    0.283    0.421   67.095   16.860
  107.200    0.260    0.409   65.835   16.241
  107.500    0.251    0.401   64.576   15.643
  107.800    0.271    0.411   61.434   15.071
  108.100    0.280    0.411   63.940   14.799
  108.400    0.260    0.399   66.445   14.532
  108.700    0.248    0.407   67.696   13.999
  109.000    0.285    0.412   68.319   13.485
  109.300    0.322    0.391   65.177   12.503
  109.600    0.325    0.382   58.269   12.513
  109.900    0.334    0.386   54.499   13.264
  110.200    0.340    0.396   51.356   14.335
  110.500    0.327    0.411   52.607   14.074
  110.800    0.314    0.417   57.624   14.087
  111.100    0.315    0.405   60.130   14.371
  111.400    0.327    0.407   57.615   16.445
  111.700    0.327    0.415   58.865   17.769
  112.000    0.312    0.405   58.233   16.793
  112.300    0.248    0.412   56.974   13.619
  112.600    0.261    0.422   60.735   10.628
  112.900    0.294    0.425   68.889    8.954
  113.200    0.278    0.433   72.650    7.839
  113.500    0.259    0.428   77.040    8.471
  113.800    0.285    0.423   71.386   10.668
  114.100    0.308    0.427   61.341   11.975
  114.400    0.290    0.415   57.570   14.239
  114.700    0.288    0.398   57.566   16.295
  115.000    0.309    0.401   55.678   17.273
  115.300    0.322    0.403   53.792   17.963
  115.600    0.322    0.408   51.904   17.305
  115.900    0.309    0.417   55.665   16.043
  116.200    0.303    0.434   60.682   13.009
  116.500    0.301    0.439   67.581   10.753
  116.800    0.292    0.437   62.556    9.970
  117.100    0.294    0.430   61.924    9.979
  117.400    0.312    0.431   68.195   10.183
  117.700    0.303    0.442   70.073    9.997
  118.000    0.277    0.457   76.973    9.093
  118.300    0.264    0.444   78.223    9.102
  118.600    0.264    0.422   71.316   10.025
  118.900    0.255    0.422   68.173   10.227
  119.200    0.254    0.426   70.679    9.852
  119.500    0.281    0.429   71.929    9.311
  119.800    0.294    0.420   75.691    8.633
  120.100    0.296    0.404   80.707    8.159
  120.400    0.278    0.409   79.447    8.165
  120.700    0.228    0.426   74.422    8.018
  121.000    0.240    0.445   73.163    7.724
  121.300    0.297    0.449   77.552    7.881
  121.600    0.328    0.444   70.016    9.551
  121.900    0.355    0.435   56.205   12.027
  122.200    0.369    0.417   48.041   15.738
  122.500    0.370    0.409   42.388   19.073
  122.800    0.364    0.399   39.874   19.835
  123.100    0.359    0.386   38.614   19.854
  123.400    0.360    0.395   37.981   19.495
  123.700    0.364    0.415   37.977   19.511
  124.000    0.361    0.408   38.600   19.529
  124.300    0.364    0.401   41.107   19.549
  124.600    0.362    0.406   44.240   19.564
  124.900    0.355    0.418   43.608   18.848
  125.200    0.355    0.425   45.486   18.154
  125.500    0.356    0.416   46.110   18.173
  125.800    0.356    0.424   44.850   18.540
  126.100    0.350    0.418   44.218   19.282
  126.400    0.342    0.384   44.214   19.671
  126.700    0.335    0.370   45.464   19.692
  127.000    0.335    0.369   46.715   19.704
  127.300    0.347    0.380   46.083   18.988
  127.600    0.340    0.391   47.334   17.942
  127.900    0.317    0.413   51.095   16.953
  128.200    0.298    0.447   55.484   14.561
  128.500    0.302    0.453   56.106   12.036
  128.800    0.320    0.434   54.847   10.947
  129.100    0.327    0.453   57.353   11.169
  129.400    0.324    0.465   60.487   10.159
  129.700    0.327    0.468   62.365    7.778
  130.000    0.327    0.462   68.009    5.310
  130.300    0.310    0.457   75.536    5.417
  130.600    0.285    0.449   72.394    6.441
  130.900    0.290    0.417   62.975    8.111
  131.200    0.291    0.420   62.970    9.830
  131.500    0.287    0.428   62.966   12.379
  131.800    0.235    0.414   60.451   14.166
  132.100    0.191    0.329   58.564   15.603
  132.400    0.191    0.312   57.304   15.323
  132.700    0.242    0.325   56.045   14.760
  133.000    0.274    0.343   57.295   13.684
  133.300    0.297    0.364   59.801   12.214
  133.600    0.305    0.393   60.424   11.541
  133.900    0.302    0.412   62.303   11.332
  134.200    0.291    0.415   62.926   11.341
  134.500    0.289    0.405   62.294   11.570
  134.800    0.290    0.410   62.290   11.581
  135.100    0.290    0.432   66.051   11.594
  135.400    0.290    0.439   62.908   11.828
  135.700    0.277    0.429   63.532   11.613
  136.000    0.275    0.404   66.665   11.847
  136.300    0.280    0.393   63.523   11.634
  136.600    0.277    0.406   60.380   11.646
  136.900    0.191    0.413   63.514   11.880
  137.200    0.133    0.389   60.371   13.337
  137.500    0.101    0.308   55.974   15.557
  137.800    0.084    0.296   53.459   16.810
  138.100    0.116    0.309   52.199   16.828
  138.400    0.165    0.325   57.843   16.212
  138.700    0.226    0.347   64.743   15.030
  139.000    0.237    0.372   69.758   13.409
  139.300    0.167    0.379   67.872   11.740
  139.600    0.182    0.368   64.102   12.687
  139.900    0.234    0.373   63.470   12.697
  140.200    0.249    0.386   68.486   12.466
  140.500    0.249    0.398   67.854   12.718
  140.800    0.245    0.391   67.850   12.980
  141.100    0.260    0.396   69.101   12.988
  141.400    0.259    0.406   69.096   13.250
  141.700    0.225    0.399   70.347   13.014
  142.000    0.231    0.399   69.715   12.536
  142.300    0.250    0.394   67.827   12.308
  142.600    0.235    0.393   71.588   11.412
  142.900    0.233    0.396   76.605    9.990
  143.200    0.263    0.403   82.876    8.580
  143.500    0.269    0.415   86.638    7.656
  143.800    0.261    0.427   86.633    6.831
  144.100    0.254    0.441   88.511    6.582
  144.400    0.256    0.440   87.252    6.586
  144.700    0.240    0.432   87.248    6.720
  145.000    0.211    0.445   84.733    6.857
  145.300    0.206    0.455   77.825    6.995
  145.600    0.229    0.446   78.448    7.276
  145.900    0.251    0.432   85.975    7.565
  146.200    0.250    0.413   87.226    8.175
  146.500    0.238    0.425   76.552    8.501
  146.800    0.253    0.429   70.899    8.673
  147.100    0.257    0.422   72.778    8.680
  147.400    0.245    0.415   83.442    8.203
  147.700    0.238    0.426   89.086    7.461
  148.000    0.146    0.422   85.944    6.918
  148.300    0.144    0.436   74.015    6.173
  148.600    0.199    0.467   75.893    5.404
  148.900    0.221    0.488  101.620    5.108
  149.200    0.227    0.491  108.520    5.414
  149.500    0.206    0.488  102.867    6.315
  149.800    0.204    0.476   93.448    7.509
  150.100    0.204    0.421   92.816    8.928
  150.400    0.215    0.412   85.908   10.616
  150.700    0.248    0.404   80.883   12.149
  151.000    0.263    0.406   84.644   13.126
  151.300    0.223    0.419   84.011   13.392
  151.600    0.194    0.429   82.125   13.664
  151.900    0.174    0.427   77.727   13.939
  152.201    0.194    0.415   74.585   13.954
  152.501    0.224    0.415   78.346   13.443
  152.801    0.235    0.421   78.969   13.201
  153.101    0.233    0.424   82.102   13.210
  153.401    0.247    0.420   84.608   13.222
  153.701    0.262    0.409   84.605   13.490
  154.001    0.254    0.416   83.344   13.761
  154.301    0.244    0.421   81.457   14.590
  154.601    0.253    0.435   78.315   15.467
  154.901    0.271    0.434   75.173   15.479
