~VERSION INFORMATION
 VERS.                 2.0:   CWLS LOG ASCII STANDARD -VERSION 2.0
 WRAP.                  NO:   ONE LINE PER DEPTH STEP
~WELL INFORMATION BLOCK
#MNEM.UNIT           DATA                    DESCRIPTION OF MNEMONIC
#---------    -------------------            -------------------------------
# Generated from Intellog Unique Number	CW_76_78/WELL/903
WELL.         AMOCO ROCK  10-23              : Well_name    - WELL
LOC .         00/10-23-077-23W4/0            : Location     - LOCATION
UWI .         00/10-23-077-23W4/0            : Uwi          - UNIQUE WELL ID
ENTR.         jj                             : Entered      - ENTERED BY
SRVC.         WESTERN ATLAS                  : Scn          - SERVICE COMPANY
DATE.         17 MARCH 78                    : Date         - LOG DATE
STRT.M        332.232                        : top_depth    - START DEPTH
STOP.M        575.982                        : bot_depth    - STOP DEPTH
STEP.M        0.25                           : increment    - STEP LENGTH
 NULL. -999.2500:NULL Value
~CURVE INFORMATION BLOCK
#MNEM UNIT       ERCB CURVE CODE    CURVE DESCRIPTION
#-----------   ------------------   ----------------------------------
DEPT.M        00 001 00 00         : DEPTH        - DEPTH
ILD .OHMM     00 120 00 00         : RESD         - DEEP RESISTIVITY (DIL)
DPHI.V/V      00 890 00 00         : PHID         - DENSITY POROSITY (SANDSTONE)
NPHI.V/V      00 330 00 00         : PHIN         - NEUTRON POROSITY (SANDSTONE)
GR  .API      00 310 00 00         : GR           - GAMMA RAY
CALI.MM       00 280 01 00         : CAL          - CALIPER
~PARAMETER INFORMATION
#MNEM.UNIT           DATA             DESCRIPTION OF MNEMONIC
#---------         -----------     ------------------------------
GL  .M        654.101              : gl           - GROUND LEVEL ELEVATION
EREF.M        658.063              : kb           - ELEVATION OF DEPTH REFERENCE
DATM.M        654.101              : datum        - DATUM ELEVATION
TDD .M        577.291              : tdd          - TOTAL DEPTH DRILLER
RUN .         ONE                  : Run          - RUN NUMBER
ENG .         BURLET               : Engineer     - RECORDING ENGINEER
WIT .         DAHLSTEDT/REGAN      : Witness      - WITNESSED BY
BASE.         EDMONTON             : Branch       - HOME BASE OF LOGGING UNIT
MUD .         GEL BENDEX           : Mud_type     - MUD TYPE
MATR.         SANDSTONE            : Logunit      - NEUTRON MATRIX
TMAX.C        26.1111              : BHT          - MAXIMUM RECORDED TEMPERATURE
BHTD.M        575.767              : BHTDEP       - MAXIMUM RECORDED TEMPERATURE
RMT .C        21.1111              : MDTP         - TEMPERATURE OF MUD
MUDD.KG/M     1140                 : MWT          - MUD DENSITY
NEUT.         1                    : NEUTRON      - NEUTRON TYPE
RESI.         0                    : RESIST       - RESISTIVITY TYPE
RM  .OHMM     2.13                 : RM           - RESISTIVITY OF MUD
RMC .OHMM     2.9                  : RMC          - RESISTIVITY OF MUD CAKE
RMF .OHMM     2.2                  : RMF          - RESISTIVITY OF MUD FILTRATE
SUFT.C        4.5                  : SUFT         - SURFACE TEMPERATURE
~A  DEPTH     RESD     PHID     PHIN       GR      CAL
# ...
  478.232    5.530    0.218    0.370   87.924  226.388
  478.482    5.332    0.221    0.384   92.495  225.980
  478.732    5.190    0.216    0.384   95.441  225.468
  478.982    5.099    0.211    0.382   89.265  224.956
  479.232    5.075    0.212    0.368   89.025  225.077
  479.482    5.043    0.216    0.343   87.411  225.410
  479.732    5.058    0.209    0.342   86.296  225.745
  479.982    5.130    0.189    0.349   85.618  225.972
  480.232    5.392    0.179    0.359   88.190  226.200
  480.482    5.646    0.180    0.354   89.323  226.326
  480.732    5.813    0.182    0.350   87.459  226.343
  480.982    6.041    0.183    0.348   86.906  226.571
  481.232    6.409    0.188    0.335   86.041  225.951
  481.482    6.902    0.195    0.327   81.740  225.753
  481.732    7.350    0.202    0.320   77.064  225.134
  481.982    7.856    0.207    0.321   74.950  224.728
  482.232    8.272    0.203    0.326   80.458  224.214
  482.482    8.613    0.199    0.313   85.777  223.914
  482.732    8.884    0.171    0.296   98.719  223.933
  482.982    9.130    0.119    0.284   87.483  223.840
  483.232    9.365    0.104    0.279   70.000  223.544
  483.482    9.607    0.135    0.301   58.827  223.345
  483.732    9.798    0.153    0.305   64.334  223.150
  483.982    9.681    0.152    0.306   71.779  223.273
  484.232    9.179    0.126    0.303   74.537  223.820
  484.482    8.574    0.088    0.300   72.110  224.893
  484.732    8.009    0.153    0.299   70.871  226.072
  484.982    7.467    0.181    0.361   72.754  227.252
  485.232    7.053    0.181    0.362   86.820  228.010
  485.482    6.738    0.181    0.358   79.897  228.236
  485.732    6.533    0.180    0.345   78.969  228.040
  485.982    6.420    0.179    0.344   80.353  228.059
  486.232    6.343    0.178    0.352   81.361  228.075
  486.482    6.409    0.179    0.353   82.309  228.519
  486.732    6.550    0.180    0.355   83.006  228.744
  486.982    6.819    0.175    0.355   76.769  229.076
  487.232    7.140    0.169    0.347   79.526  228.985
  487.482    7.379    0.168    0.324   77.287  228.473
  487.732    7.569    0.171    0.328   81.544  228.278
  487.982    7.750    0.165    0.331   80.055  228.190
  488.232    7.918    0.155    0.333   77.815  228.099
  488.482    8.246    0.139    0.318   82.761  227.797
  488.732    8.880    0.124    0.301   86.456  227.498
  488.982    9.438    0.110    0.286   70.909  227.095
  489.232   10.013    0.090    0.271   61.673  227.217
  489.482   10.328    0.073    0.261   58.747  227.124
  489.732    9.959    0.168    0.269   67.253  227.248
  489.982    9.479    0.191    0.334   79.882  227.474
  490.232    8.657    0.182    0.334   87.826  227.705
  490.482    7.616    0.181    0.335   85.774  228.037
  490.732    7.235    0.184    0.345   92.156  228.370
  490.982    7.042    0.190    0.343   98.414  228.808
  491.232    6.931    0.190    0.341   86.990  229.145
  491.482    6.848    0.190    0.344   85.501  229.372
  491.732    6.766    0.188    0.347   87.075  229.493
  491.982    6.698    0.187    0.350   87.644  229.613
  492.232    6.642    0.186    0.349   87.342  229.527
  492.482    6.563    0.188    0.351   88.413  229.330
  492.732    6.471    0.197    0.350   89.609  229.240
  492.982    6.442    0.198    0.343   83.123  229.258
  493.232    6.401    0.196    0.341   86.443  228.958
  493.482    6.372    0.204    0.345   88.639  228.868
  493.732    6.332    0.204    0.349   86.275  228.567
  493.982    6.303    0.197    0.354   79.349  228.475
  494.232    6.345    0.197    0.354   78.610  228.281
  494.482    6.364    0.195    0.352   76.120  228.195
  494.732    6.406    0.182    0.360   77.129  228.210
  494.982    6.378    0.177    0.359   75.015  228.013
  495.232    6.373    0.183    0.351   74.588  227.923
  495.482    6.392    0.194    0.348   78.033  227.940
  495.732    6.410    0.184    0.355   84.915  227.958
  495.982    6.405    0.184    0.356   86.986  227.974
  496.232    6.448    0.180    0.345   85.246  227.777
  496.482    6.443    0.172    0.338   88.256  228.009
  496.732    6.390    0.163    0.335   93.388  228.129
  496.982    6.409    0.154    0.334   90.523  228.567
  497.232    6.379    0.148    0.338   81.537  228.794
  497.482    6.362    0.159    0.338   81.047  229.131
  497.732    6.321    0.183    0.338   91.552  229.252
  497.982    6.269    0.183    0.338   95.311  229.480
  498.232    6.218    0.188    0.335   84.449  229.493
  498.482    6.190    0.195    0.339   82.834  229.618
  498.732    6.173    0.201    0.343   81.345  229.635
  498.982    6.180    0.192    0.342   84.855  229.649
  499.232    6.244    0.182    0.339   88.861  229.880
  499.482    6.286    0.178    0.338   87.371  229.893
  499.732    6.329    0.178    0.343   83.133  229.701
  499.982    6.454    0.189    0.348   84.892  229.822
  500.232    6.535    0.195    0.356   85.713  229.943
  500.482    6.715    0.192    0.363   83.975  229.959
  500.732    6.825    0.189    0.351   84.234  230.082
  500.982    6.948    0.184    0.322   85.493  230.098
  501.232    7.073    0.187    0.315   79.881  230.008
  501.482    7.188    0.196    0.329   76.515  229.707
  501.732    7.304    0.199    0.336   74.903  229.300
  501.982    7.395    0.198    0.334   75.223  228.683
  502.232    7.458    0.193    0.327   74.421  228.490
  502.482    7.479    0.189    0.319   70.057  228.294
  502.732    7.460    0.193    0.323   69.129  228.204
  502.982    7.315    0.199    0.327   73.076  228.324
  503.232    7.068    0.200    0.331   77.333  228.446
  503.482    6.892    0.199    0.334   81.029  228.781
  503.732    6.848    0.194    0.336   79.914  229.114
  503.982    6.868    0.188    0.334   82.860  228.918
  504.232    7.072    0.181    0.331   84.494  228.935
  504.482    7.516    0.173    0.327   86.754  228.634
  504.732    7.855    0.160    0.320   91.136  228.546
  504.982    8.102    0.133    0.304   86.147  228.774
  505.232    8.249    0.087    0.282   65.478  229.321
  505.482    8.382    0.020    0.249   64.113  229.760
  505.732    8.534    0.033    0.253   64.310  229.985
  505.982    8.656    0.072    0.232   68.007  230.213
  506.232    8.747    0.109    0.239   73.201  230.548
  506.482    8.707    0.166    0.285   82.269  230.353
  506.732    8.635    0.177    0.317   88.714  230.368
  506.982    8.579    0.179    0.325   88.099  230.173
  507.232    8.525    0.175    0.330   91.482  230.191
  507.482    8.470    0.173    0.332   95.990  229.995
  507.732    8.432    0.172    0.335  101.809  229.482
  507.982    8.425    0.176    0.338  108.442  229.286
  508.232    8.450    0.164    0.338  112.387  229.090
  508.482    8.716    0.159    0.336   95.716  228.790
  508.732    9.475    0.160    0.335   91.540  228.385
  508.982   10.014    0.163    0.339   85.427  228.083
  509.232   10.624    0.167    0.345   84.438  228.098
  509.482   11.125    0.170    0.346   85.759  227.800
  509.732   11.518    0.179    0.343   85.769  227.816
  509.982   11.814    0.188    0.324   84.403  227.939
  510.232   12.005    0.178    0.330   82.977  227.847
  510.482   12.109    0.153    0.330   85.486  228.077
  510.732   12.099    0.114    0.321   77.061  227.987
  510.982   11.975    0.125    0.315   63.952  227.792
  511.232   11.811    0.154    0.332   67.085  227.489
  511.482   11.736    0.200    0.365   76.653  227.082
  511.732   11.381    0.213    0.366   80.474  226.465
  511.982   10.892    0.205    0.372   84.981  226.694
  512.232   10.079    0.190    0.376   86.178  227.345
  512.482    9.085    0.183    0.372   79.003  227.783
  512.732    8.375    0.168    0.377   76.326  227.906
  512.982    7.853    0.160    0.388   73.337  228.133
  513.232    7.335    0.165    0.395   85.216  228.362
  513.482    6.864    0.179    0.404   78.543  228.591
  513.732    6.545    0.175    0.412   77.802  228.719
  513.982    6.288    0.170    0.409   82.623  228.837
  514.232    6.236    0.167    0.387   83.507  229.062
  514.482    6.207    0.164    0.382   81.956  228.972
