~VERSION INFORMATION
 VERS.                 2.0:   CWLS LOG ASCII STANDARD -VERSION 2.0
 WRAP.                  NO:   ONE LINE PER DEPTH STEP
~WELL INFORMATION BLOCK
#MNEM.UNIT           DATA                    DESCRIPTION OF MNEMONIC
#---------    -------------------            -------------------------------
# Generated from Intellog Unique Number	CW_76_78/WELL/2577
WELL.         10-19-078-25W4                 : Well_name    - WELL
LOC .         00/10-19-078-25W4/0            : Location     - LOCATION
UWI .         00/10-19-078-25W4/0            : Uwi          - UNIQUE WELL ID
ENTR.         MAX                            : Entered      - ENTERED BY
SRVC.         COMPUTALOG                     : Scn          - SERVICE COMPANY
STRT.M        270                            : top_depth    - START DEPTH
STOP.M        500                            : bot_depth    - STOP DEPTH
STEP.M        0.25                           : increment    - STEP LENGTH
 NULL. -999.2500:NULL Value
~CURVE INFORMATION BLOCK
#MNEM UNIT       ERCB CURVE CODE    CURVE DESCRIPTION
#-----------   ------------------   ----------------------------------
DEPT.M        00 001 00 00         : DEPTH        - DEPTH
ILD .OHMM     00 120 00 00         : RESD         - DEEP RESISTIVITY (DIL)
NPHI.V/V      00 330 00 00         : PHIN         - NEUTRON POROSITY (SANDSTONE)
DPHI.V/V      00 890 00 00         : PHID         - DENSITY POROSITY (SANDSTONE)
CALI.MM       00 280 01 00         : CAL          - CALIPER
GR  .API      00 310 00 00         : GR           - GAMMA RAY
~PARAMETER INFORMATION
#MNEM.UNIT           DATA             DESCRIPTION OF MNEMONIC
#---------         -----------     ------------------------------
GL  .M        581.86               : gl           - GROUND LEVEL ELEVATION
EREF.M        586.11               : kb           - ELEVATION OF DEPTH REFERENCE
DATM.M        581.86               : datum        - DATUM ELEVATION
TDD .M        501                  : tdd          - TOTAL DEPTH DRILLER
RUN .         ONE                  : Run          - RUN NUMBER
ENG .         BILL                 : Engineer     - RECORDING ENGINEER
WIT .         JIM                  : Witness      - WITNESSED BY
MUD .         GEL                  : Mud_type     - MUD TYPE
MATR.         SANDSTONE            : Logunit      - NEUTRON MATRIX
TMAX.C        18                   : BHT          - MAXIMUM RECORDED TEMPERATURE
BHTD.M        501                  : BHTDEP       - MAXIMUM RECORDED TEMPERATURE
RMT .C        16                   : MDTP         - TEMPERATURE OF MUD
MUDD.KG/M     1100                 : MWT          - MUD DENSITY
NEUT.         1                    : NEUTRON      - NEUTRON TYPE
RESI.         0                    : RESIST       - RESISTIVITY TYPE
RM  .OHMM     4.4                  : RM           - RESISTIVITY OF MUD
RMC .OHMM     4.1                  : RMC          - RESISTIVITY OF MUD CAKE
RMF .OHMM     5.4                  : RMF          - RESISTIVITY OF MUD FILTRATE
SUFT.C        -10                  : SUFT         - SURFACE TEMPERATURE
~A  DEPTH     RESD     PHIN     PHID      CAL       GR
# ...
  452.500   11.699    0.310    0.154  202.862  100.481
  452.750   11.813    0.324    0.157  203.377  114.528
  453.000   12.039    0.366    0.144  204.385  115.135
  453.250   12.611    0.453    0.067  206.888  102.002
  453.500   15.707    0.414    0.017  207.400   88.868
  453.750   19.389    0.219    0.079  207.415   70.956
  454.000   25.047    0.323    0.121  205.939   62.004
  454.250   30.915    0.358    0.082  203.465   75.156
  454.500   34.523    0.225    0.033  202.984   80.242
  454.750   31.251    0.213    0.091  203.498   77.565
  455.000   27.279    0.241    0.123  203.498   80.859
  455.250   24.030    0.286    0.141  204.028   85.347
  455.500   22.358    0.315    0.151  205.037   98.799
  455.750   21.579    0.311    0.148  205.052  100.898
  456.000   21.204    0.325    0.135  205.065  107.179
  456.250   20.278    0.326    0.133  205.080  112.863
  456.500   19.214    0.320    0.136  205.096  107.496
  456.750   17.875    0.310    0.135  205.607  107.505
  457.000   15.890    0.303    0.132  205.128  106.618
  457.250   14.650    0.285    0.131  205.143  109.316
  457.500   13.883    0.322    0.148  204.660  118.883
  457.750   13.765    0.424    0.135  204.672   88.426
  458.000   14.956    0.257    0.034  204.189   78.279
  458.250   17.004    0.247    0.068  203.708   80.082
  458.500   18.305    0.273    0.123  203.723   91.141
  458.750   18.321    0.306    0.151  203.242   93.540
  459.000   17.517    0.326    0.154  203.259   91.159
  459.250   16.750    0.342    0.160  202.774   90.871
  459.500   16.466    0.340    0.163  202.293   92.670
  459.750   16.779    0.330    0.159  202.306   92.082
  460.000   18.567    0.311    0.136  202.323   82.833
  460.250   19.627    0.299    0.055  202.832   87.024
  460.500   19.286    0.296    0.100  202.847   90.019
  460.750   17.942    0.323    0.148  203.360  101.378
  461.000   14.695    0.348    0.156  203.376   92.427
  461.250   14.708    0.399    0.181  203.887   74.217
  461.500   16.269    0.386    0.214  200.423   62.278
  461.750   20.642    0.385    0.249  196.950   44.962
  462.000   24.342    0.391    0.264  193.482   34.816
  462.250   30.316    0.365    0.269  191.506   30.047
  462.500   56.401    0.392    0.274  190.027   26.771
  462.750   84.309    0.366    0.276  188.551   24.689
  463.000  103.116    0.324    0.274  187.072   24.099
  463.250  113.071    0.269    0.272  185.592   23.810
  463.500  119.500    0.266    0.280  184.611   24.716
  463.750  125.186    0.287    0.282  184.128   26.218
  464.000  131.156    0.315    0.280  182.652   28.916
  464.250  134.900    0.330    0.279  181.671   31.015
  464.500  138.724    0.334    0.283  181.188   32.518
  464.750  141.490    0.332    0.289  180.705   31.035
  465.000  144.108    0.328    0.278  178.729   30.743
  465.250  144.108    0.343    0.266  179.738   31.350
  465.500  149.760    0.360    0.269  181.746   29.270
  465.750  151.207    0.400    0.276  181.759   27.485
  466.000  147.232    0.400    0.272  185.756   27.194
  466.250  138.255    0.379    0.264  184.282   29.594
  466.500  126.311    0.364    0.268  180.312   28.708
  466.750  106.298    0.329    0.281  178.834   27.521
  467.000   84.703    0.344    0.279  178.851   29.024
  467.250   75.305    0.347    0.269  179.863   29.332
  467.500   65.734    0.323    0.266  180.870   30.535
  467.750   55.324    0.314    0.266  180.890   31.142
  468.000   49.626    0.364    0.265  179.908   31.150
  468.250   40.276    0.368    0.270  178.426   31.160
  468.500   37.473    0.360    0.297  175.952   30.571
  468.750   34.862    0.377    0.305  170.491   26.996
  469.000   32.733    0.376    0.290  163.042   36.565
  469.250   30.459    0.351    0.284  164.051   35.379
  469.500   29.658    0.326    0.266  173.026   36.880
  469.750   28.622    0.311    0.278  172.048   39.280
  470.000   27.366    0.337    0.280  169.572   40.185
  470.250   26.168    0.360    0.258  168.593   42.284
  470.500   24.795    0.361    0.261  172.093   44.684
  470.750   23.709    0.365    0.267  176.586   41.706
  471.000   22.671    0.354    0.262  180.587   40.221
  471.250   22.671    0.319    0.250  180.602   41.126
  471.500   21.901    0.316    0.240  180.615   46.213
  471.750   20.375    0.325    0.234  181.128   54.585
  472.000   19.302    0.317    0.237  181.643   65.645
  472.250   18.123    0.332    0.244  183.649   66.550
  472.500   17.176    0.341    0.253  183.662   63.872
  472.750   16.275    0.348    0.253  183.679   63.883
  473.000   15.990    0.382    0.237  184.689   63.592
  473.250   16.153    0.418    0.221  185.204   64.497
  473.500   16.916    0.471    0.258  186.714   66.598
  473.750   19.062    0.451    0.276  188.219   45.697
  474.000   21.283    0.429    0.280  189.729   39.136
  474.250   23.547    0.397    0.274  190.742   38.549
  474.500   24.443    0.377    0.271  190.753   39.752
  474.750   23.803    0.325    0.273  190.272   40.059
  475.000   21.946    0.378    0.276  190.287   42.755
  475.250   18.468    0.389    0.277  190.302   52.921
  475.500   17.183    0.386    0.277  190.817   52.930
  475.750   15.275    0.374    0.272  190.833   53.836
  476.000   14.342    0.368    0.262  190.347   53.545
  476.250   13.591    0.372    0.253  189.866   52.658
  476.500   13.477    0.348    0.242  189.879   59.537
  476.750   14.249    0.287    0.204  188.900   63.131
  477.000   15.908    0.256    0.146  188.415   60.750
  477.250   18.254    0.272    0.138  188.430   65.539
  477.500   19.830    0.288    0.157  188.445   69.431
  477.750   20.215    0.299    0.154  189.956   73.323
  478.000   19.505    0.272    0.139  192.462   78.708
  478.250   15.687    0.252    0.156  195.963   80.510
  478.500   14.198    0.262    0.157  203.442   90.076
  478.750   12.395    0.268    0.145  201.965   99.347
  479.000   11.120    0.293    0.140  201.978  109.510
  479.250   10.251    0.343    0.132  203.486  121.467
  479.500    9.627    0.374    0.149  204.503  125.061
  479.750    9.545    0.336    0.158  204.512  107.745
  480.000    9.295    0.287    0.159  205.528  112.234
  480.250    8.809    0.277    0.159  206.039  120.011
  480.500    8.500    0.259    0.154  206.039  118.824
  480.750    8.202    0.320    0.169  206.565  118.237
  481.000    8.202    0.399    0.179  207.078  120.634
  481.250    8.141    0.406    0.183  206.597  125.125
  481.500    8.147    0.346    0.156  205.117  106.614
  481.750    9.966    0.239    0.123  202.646   60.026
  482.000   10.156    0.239    0.140  202.657   66.906
  482.250    9.623    0.258    0.162  202.676   89.914
  482.500    7.668    0.293    0.174  201.697  105.158
  482.750    5.527    0.441    0.178  201.697  108.155
  483.000    5.190    0.371    0.154  201.231   98.604
  483.250    5.241    0.299    0.173  200.743  103.392
  483.500    5.694    0.312    0.189  200.743  105.492
  483.750    6.965    0.335    0.186  200.776  105.204
  484.000    7.992    0.351    0.180  200.791  112.977
  484.250    9.511    0.355    0.204  199.811  107.312
  484.500   10.054    0.344    0.237  199.822   67.596
  484.750   12.298    0.303    0.266  199.343   75.668
  485.000   15.600    0.268    0.267  198.858   99.871
  485.250   21.480    0.225    0.234  198.375   98.985
  485.500   25.101    0.259    0.215  198.890   85.852
  485.750   29.604    0.255    0.226  198.890   70.626
  486.000   31.294    0.240    0.245  198.927   64.365
  486.250   24.933    0.238    0.233  198.439   64.671
  486.500   21.964    0.358    0.221  198.439   71.253
  486.750   16.722    0.387    0.205  197.975   77.235
  487.000   14.075    0.417    0.175  197.986   87.998
  487.250   12.977    0.442    0.179  197.986   92.784
  487.500   12.185    0.546    0.205  198.521   90.703
  487.750   12.305    0.468    0.313  197.533   65.622
  488.000   13.369    0.351    0.316  197.050   56.373
  488.250   16.054    0.377    0.291  197.050   69.524
  488.500   25.347    0.369    0.275  197.084   64.155
  488.750   30.168    0.308    0.271  197.093   59.089
