~VERSION INFORMATION
 VERS.                 2.0:   CWLS LOG ASCII STANDARD -VERSION 2.0
 WRAP.                  NO:   ONE LINE PER DEPTH STEP
~WELL INFORMATION BLOCK
#MNEM.UNIT           DATA                    DESCRIPTION OF MNEMONIC
#---------    -------------------            -------------------------------
# Generated from Intellog Unique Number	CW_82_90/WELL/3444
WELL.         SHERRIT LIEGE 10-34            : Well_name    - WELL
LOC .         00/10-34-089-20W4/0            : Location     - LOCATION
UWI .         00/10-34-089-20W4/0            : Uwi          - UNIQUE WELL ID
ENTR.         JJ                             : Entered      - ENTERED BY
SRVC.         WESTERN ATLAS                  : Scn          - SERVICE COMPANY
DATE.         13 FEB 89                      : Date         - LOG DATE
STRT.M        100                            : top_depth    - START DEPTH
STOP.M        240                            : bot_depth    - STOP DEPTH
STEP.M        0.25                           : increment    - STEP LENGTH
 NULL. -999.2500:NULL Value
~CURVE INFORMATION BLOCK
#MNEM UNIT       ERCB CURVE CODE    CURVE DESCRIPTION
#-----------   ------------------   ----------------------------------
DEPT.M        00 001 00 00         : DEPTH        - DEPTH
DPHI.V/V      00 890 00 00         : PHID         - DENSITY POROSITY (SANDSTONE)
NPHI.V/V      00 330 00 00         : PHIN         - NEUTRON POROSITY (SANDSTONE)
GR  .API      00 310 00 00         : GR           - GAMMA RAY
CALI.MM       00 280 01 00         : CAL          - CALIPER
ILD .OHMM     00 120 00 00         : RESD         - DEEP RESISTIVITY (DIL)
~PARAMETER INFORMATION
#MNEM.UNIT           DATA             DESCRIPTION OF MNEMONIC
#---------         -----------     ------------------------------
GL  .M        518.3                : gl           - GROUND LEVEL ELEVATION
EREF.M        522.6                : kb           - ELEVATION OF DEPTH REFERENCE
DATM.M        522.6                : datum        - DATUM ELEVATION
TDD .M        243.72               : tdd          - TOTAL DEPTH DRILLER
RUN .         ONE                  : Run          - RUN NUMBER
ENG .         TAMBLYN              : Engineer     - RECORDING ENGINEER
WIT .         WILLIAMS             : Witness      - WITNESSED BY
BASE.         MED. HAT             : Branch       - HOME BASE OF LOGGING UNIT
MUD .         GEL-CAUSTIC          : Mud_type     - MUD TYPE
MATR.         SANDSTONE            : Logunit      - NEUTRON MATRIX
TMAX.C        22                   : BHT          - MAXIMUM RECORDED TEMPERATURE
BHTD.M        243.5                : BHTDEP       - MAXIMUM RECORDED TEMPERATURE
RMT .C        15                   : MDTP         - TEMPERATURE OF MUD
MUDD.KG/M     1170                 : MWT          - MUD DENSITY
NEUT.         1                    : NEUTRON      - NEUTRON TYPE
RESI.         0                    : RESIST       - RESISTIVITY TYPE
RM  .OHMM     5.3                  : RM           - RESISTIVITY OF MUD
RMC .OHMM     5.3                  : RMC          - RESISTIVITY OF MUD CAKE
RMF .OHMM     5                    : RMF          - RESISTIVITY OF MUD FILTRATE
SUFT.C        5                    : SUFT         - SURFACE TEMPERATURE
~A  DEPTH     PHID     PHIN       GR      CAL     RESD
# ...
  136.500    0.281    0.418  111.331  157.245    5.172
  136.750    0.272    0.423  107.563  157.876    5.131
  137.000    0.272    0.431  108.856  159.020    5.017
  137.250    0.275    0.439  112.475  160.059    5.004
  137.500    0.280    0.431  114.748  161.616    5.190
  137.750    0.281    0.409  111.405  162.357    5.472
  138.000    0.275    0.387  103.485  162.577    5.944
  138.250    0.269    0.371   95.135  163.111    6.301
  138.500    0.267    0.374   88.434  162.733    6.757
  138.750    0.265    0.388   93.518  161.534    7.407
  139.000    0.255    0.376  100.065  158.817    8.458
  139.250    0.215    0.365   90.374  156.905    9.857
  139.500    0.241    0.389   80.497  154.495   10.764
  139.750    0.283    0.396   86.742  153.901   11.454
  140.000    0.290    0.402   93.350  153.318   10.400
  140.250    0.243    0.414   98.799  154.974    9.096
  140.500    0.200    0.427  105.409  158.663    7.726
  140.750    0.182    0.437  111.161  161.740    6.538
  141.000    0.237    0.459  117.528  163.391    5.718
  141.250    0.233    0.475  122.000  164.135    5.259
  141.500    0.219    0.482  125.495  163.754    5.046
  141.750    0.199    0.465  127.283  163.273    4.889
  142.000    0.219    0.440  127.785  162.786    4.848
  142.250    0.243    0.427  126.638  162.196    4.713
  142.500    0.226    0.421  122.259  161.923    4.563
  142.750    0.230    0.417  121.909  161.331    4.267
  143.000    0.253    0.433  124.669  160.957    4.012
  143.250    0.276    0.456  127.191  160.572    3.697
  143.500    0.283    0.477  120.181  160.390    3.431
  143.750    0.286    0.474  114.154  160.312    3.238
  144.000    0.289    0.466  112.340  159.833    3.038
  144.250    0.294    0.461  111.866  159.755    2.889
  144.500    0.300    0.453  112.062  159.790    2.958
  144.750    0.311    0.444  113.604  159.192    3.078
  145.000    0.301    0.473  115.633  160.443    3.516
  145.250    0.287    0.465  108.932  160.468    3.768
  145.500    0.274    0.471  105.957  161.002    4.350
  145.750    0.253    0.474  105.910  161.232    5.079
  146.000    0.243    0.388  102.507  160.035    6.143
  146.250    0.251    0.383  100.507  158.839    7.014
  146.500    0.259    0.392  101.317  158.870    7.716
  146.750    0.250    0.386  102.979  159.096    8.976
  147.000    0.185    0.342   96.402  159.219   10.249
  147.250    0.136    0.345   88.174  159.757   11.359
  147.500    0.187    0.338   86.848  159.986   12.386
  147.750    0.227    0.359   88.448  159.605   12.680
  148.000    0.222    0.382   87.976  158.711   12.486
  148.250    0.247    0.347   88.602  158.739   11.961
  148.500    0.276    0.341   92.037  158.664   11.519
  148.750    0.272    0.356   91.196  158.790   10.989
  149.000    0.260    0.366   91.886  158.812   10.350
  149.250    0.248    0.363   97.213  159.448    9.326
  149.500    0.243    0.359  102.782  159.377    7.761
  149.750    0.242    0.359  108.598  159.093    7.177
  150.000    0.247    0.365  108.979  158.506    7.265
  150.250    0.254    0.393  101.667  156.709    7.923
  150.500    0.260    0.392   89.716  155.610    8.685
  150.750    0.285    0.380   79.841  155.020    9.467
  151.000    0.302    0.370   74.300  154.038   10.397
  151.250    0.274    0.366   75.295  153.857   11.441
  151.500    0.248    0.359   76.407  154.387   12.921
  151.750    0.302    0.357   67.263  155.529   14.324
  152.000    0.313    0.342   66.305  157.494   15.612
  152.250    0.207    0.318   65.341  158.939   16.678
  152.500    0.150    0.308   64.440  159.168   16.946
  152.750    0.228    0.307   67.082  158.075   16.811
  153.000    0.243    0.316   71.128  155.758   16.404
  153.250    0.213    0.313   73.460  154.057   16.096
  153.500    0.217    0.330   67.617  155.712   15.794
  153.750    0.268    0.349   70.988  153.190   15.577
  154.000    0.245    0.363   74.180  151.796   14.894
  154.250    0.235    0.375   76.331  151.819   13.671
  154.500    0.242    0.364   88.067  153.269   12.475
  154.750    0.239    0.393  102.674  155.125   10.043
  155.000    0.224    0.399  108.001  156.471    8.387
  155.250    0.226    0.386  103.133  157.207    7.729
  155.500    0.236    0.379  105.285  156.831    7.911
  155.750    0.218    0.358  107.620  156.138    8.532
  156.000    0.163    0.368   94.020  153.421    9.011
  156.250    0.199    0.386   98.493  153.954    8.890
  156.500    0.257    0.427  106.260  155.299    7.620
  156.750    0.265    0.468  113.849  156.957    6.156
  157.000    0.248    0.433  117.159  157.182    5.526
  157.250    0.244    0.378  107.833  156.294    5.322
  157.500    0.250    0.381   93.808  154.994    5.803
  157.750    0.211    0.347   86.373  154.001    6.503
  158.000    0.185    0.358   83.031  153.827    8.027
  158.250    0.226    0.383   88.357  154.055    9.064
  158.500    0.244    0.377   95.332  154.587   10.236
  158.750    0.263    0.371   89.853  155.630   11.055
  159.000    0.281    0.363   84.740  155.861   11.786
  159.250    0.262    0.349   90.373  156.192   12.500
  159.500    0.242    0.345   92.646  156.012   12.794
  159.750    0.256    0.381   91.441  155.940   12.438
  160.000    0.268    0.386   96.037  155.658   11.933
  160.250    0.278    0.377   97.759  155.579   10.814
  160.500    0.274    0.359   95.881  155.911    9.960
  160.750    0.241    0.330   89.791  156.144    9.076
  161.000    0.210    0.303   84.067  156.373    9.104
  161.250    0.160    0.282   78.465  156.698   10.337
  161.500    0.120    0.263   69.141  157.032   12.852
  161.750    0.205    0.285   61.524  157.463   15.311
  162.000    0.235    0.358   74.971  157.589   16.267
  162.250    0.267    0.402   91.716  157.106   14.046
  162.500    0.265    0.404  106.749  155.505   10.715
  162.750    0.273    0.390   99.987  154.310    7.719
  163.000    0.288    0.372   84.067  155.251    7.007
  163.250    0.302    0.360   73.949  156.596    8.196
  163.500    0.311    0.355   71.888  157.335    9.219
  163.750    0.307    0.362   73.370  156.444   10.371
  164.000    0.256    0.380   74.604  155.454   11.888
  164.250    0.199    0.405   78.222  155.072   12.960
  164.500    0.223    0.399   83.976  155.095   12.784
  164.750    0.249    0.405   93.640  155.325   10.917
  165.000    0.263    0.405   97.927  156.572    8.970
  165.250    0.262    0.400   95.623  157.511    7.963
  165.500    0.256    0.404   96.675  157.334    7.148
  165.750    0.245    0.415   93.883  156.447    6.370
  166.000    0.263    0.433   94.935  155.149    5.857
  166.250    0.279    0.432   97.699  154.463    5.651
  166.500    0.257    0.375  101.501  155.202    6.576
  166.750    0.231    0.361  102.369  157.260    7.819
  167.000    0.224    0.357   88.036  158.199    9.435
  167.250    0.205    0.352   82.922  157.211   12.771
  167.500    0.181    0.350   75.001  156.117   16.939
  167.750    0.183    0.345   73.978  155.527   20.793
  168.000    0.191    0.337   74.542  155.658   23.785
  168.250    0.200    0.330   74.132  156.294   25.029
  168.500    0.196    0.324   77.689  157.949   26.249
  168.750    0.194    0.307   87.595  159.902   25.563
  169.000    0.215    0.303   92.737  160.644   21.116
  169.250    0.194    0.294   96.722  159.240   17.998
  169.500    0.041    0.273   86.174  157.231   16.521
  169.750    0.046    0.239   62.257  155.628   18.216
  170.000    0.109    0.272   64.653  154.640   20.488
  170.250    0.138    0.291   71.322  154.157   23.394
  170.500    0.170    0.299   73.231  154.178   25.037
  170.750    0.174    0.309   76.971  155.223   25.349
  171.000    0.173    0.335   82.418  156.574   24.008
  171.250    0.240    0.374   91.166  158.024   21.001
  171.500    0.277    0.369   96.064  159.166   15.758
  171.750    0.258    0.355  100.232  160.107   12.474
  172.000    0.242    0.351  102.933  160.336    9.730
  172.250    0.234    0.361  100.262  159.751    8.325
  172.500    0.224    0.357  105.589  159.676    7.628
  172.750    0.228    0.347  107.131  160.413    7.305
