~VERSION INFORMATION
 VERS.                 2.0:   CWLS LOG ASCII STANDARD -VERSION 2.0
 WRAP.                  NO:   ONE LINE PER DEPTH STEP
~WELL INFORMATION BLOCK
#MNEM.UNIT           DATA                    DESCRIPTION OF MNEMONIC
#---------    -------------------            -------------------------------
# Generated from Intellog Unique Number	CW_79_81/WELL/3695
WELL.         REPUBLIC RESOURCES LTD.        : Well_name    - WELL
LOC .         00/11-12-080-05W5/0            : Location     - LOCATION
UWI .         00/11-12-080-05W5/0            : Uwi          - UNIQUE WELL ID
ENTR.         JOETTE                         : Entered      - ENTERED BY
SRVC.         SCHLUMBERGER                   : Scn          - SERVICE COMPANY
DATE.         08-27-92                       : Date         - LOG DATE
STRT.M        350.52                         : top_depth    - START DEPTH
STOP.M        609.52                         : bot_depth    - STOP DEPTH
STEP.M        0.25                           : increment    - STEP LENGTH
 NULL. -999.2500:NULL Value
~CURVE INFORMATION BLOCK
#MNEM UNIT       ERCB CURVE CODE    CURVE DESCRIPTION
#-----------   ------------------   ----------------------------------
DEPT.M        00 001 00 00         : DEPTH        - DEPTH
GR  .API      00 310 00 00         : GR           - GAMMA RAY
ILD .OHMM     00 120 00 00         : RESD         - DEEP RESISTIVITY (DIL)
DELT.US/F     00 520 00 00         : DELT         - SONIC TRAVEL TIME
~PARAMETER INFORMATION
#MNEM.UNIT           DATA             DESCRIPTION OF MNEMONIC
#---------         -----------     ------------------------------
GL  .M        633.984              : gl           - GROUND LEVEL ELEVATION
EREF.M        637.642              : kb           - ELEVATION OF DEPTH REFERENCE
DATM.M        637.642              : datum        - DATUM ELEVATION
TDD .M        1791.92              : tdd          - TOTAL DEPTH DRILLER
RUN .         ONE                  : Run          - RUN NUMBER
ENG .         BILL                 : Engineer     - RECORDING ENGINEER
WIT .         JIM                  : Witness      - WITNESSED BY
MUD .         GEL                  : Mud_type     - MUD TYPE
MATR.         SANDSTONE            : Logunit      - NEUTRON MATRIX
TMAX.C        15.5556              : BHT          - MAXIMUM RECORDED TEMPERATURE
BHTD.M        1791.92              : BHTDEP       - MAXIMUM RECORDED TEMPERATURE
MATR.         1                    : LOGUNIT      - NEUTRON MATRIX
RMT .C        15.5556              : MDTP         - TEMPERATURE OF MUD
NEUT.         1                    : NEUTRON      - NEUTRON TYPE
RESI.         0                    : RESIST       - RESISTIVITY TYPE
RMC .OHMM     0.089                : RMC          - RESISTIVITY OF MUD CAKE
RMF .OHMM     0.089                : RMF          - RESISTIVITY OF MUD FILTRATE
SUFT.C        5                    : SUFT         - SURFACE TEMPERATURE
~A  DEPTH       GR     RESD     DELT
# ...
  459.020   57.270    6.353  341.919
  459.270   60.293    6.723  339.224
  459.520   63.918    6.232  347.928
  459.770   66.345    5.059  355.962
  460.020   66.957    4.429  367.348
  460.270   71.188    4.429  372.029
  460.520   78.435    4.345  375.369
  460.770   78.448    4.028  376.698
  461.020   76.056    3.396  367.296
  461.270   72.458    3.395  359.237
  461.520   71.264    3.877  357.884
  461.770   70.073    3.950  358.542
  462.020   70.689    3.459  359.868
  462.270   70.702    3.146  357.847
  462.520   72.523    2.916  357.164
  462.770   75.549    2.861  359.160
  463.020   78.575    3.086  360.489
  463.270   79.790    3.266  357.124
  463.520   81.615    3.328  355.101
  463.770   81.030    3.204  357.097
  464.020   79.832    3.328  359.102
  464.270   78.038    3.872  363.783
  464.520   78.052    4.338  368.464
  464.770   78.065    4.679  372.472
  465.020   76.881    4.337  370.448
  465.270   78.702    3.726  367.083
  465.520   81.126    3.454  364.389
  465.770   78.726    3.869  361.021
  466.020   76.330    4.588  360.338
  466.270   78.151    4.588  363.011
  466.520   82.382    4.173  367.692
  466.770   79.986    3.868  374.385
  467.020   81.807    4.500  350.235
  467.270   84.231    6.700  276.467
  467.520   80.629    7.365  247.624
  467.770   74.016    8.901  277.783
  468.020   72.829    5.137  301.908
  468.270   75.252    4.249  342.792
  468.520   76.467    4.330  344.794
  468.770   76.491    4.248  356.180
  469.020   76.502    4.013  363.540
  469.270   76.515    3.581  364.872
  469.520   78.935    3.319  376.258
  469.770   79.555    3.195  382.947
  470.020   79.569    3.195  384.276
  470.270   81.989    3.862  378.232
  470.520   82.002    8.399  371.512
  470.770   71.172    9.409  372.173
  471.020   62.752    9.958  370.820
  471.270   61.561    8.887  314.484
  471.520   61.574    7.782  280.277
  471.770   59.781    6.814  231.320
  472.020   64.614    7.077  235.331
  472.270   69.447    9.053  252.751
  472.520   75.489    7.349  305.036
  472.770   79.117    4.489  350.616
  473.020   82.746    2.742  367.366
  473.270   85.169    2.542  384.116
  473.520   83.978    2.902  397.513
  473.770   83.995    3.071  380.739
  474.020   85.210    2.793  380.727
  474.270   87.031    2.846  376.021
  474.520   85.237    3.312  371.986
  474.770   76.817    3.312  361.246
  475.020   75.629    2.955  361.233
  475.270   78.049    2.739  365.915
  475.520   80.473    2.955  376.630
  475.770   81.093    3.127  377.956
  476.020   79.901    3.127  377.943
  476.270   79.915    3.068  380.613
  476.520   79.932    3.126  383.286
  476.770   79.942    3.247  386.623
  477.020   78.751    3.246  385.940
  477.270   76.958    3.246  382.572
  477.520   79.381    3.185  381.889
  477.770   84.820    2.952  375.172
  478.020   86.641    2.896  375.160
  478.270   84.245    2.841  376.492
  478.520   83.054    2.951  416.038
  478.770   83.071    3.244  414.011
  479.020   83.078    3.566  379.137
  479.270   80.686    4.476  350.964
  479.520   77.085    5.618  339.550
  479.770   74.083    6.060  361.667
  480.020   71.687    5.307  370.371
  480.270   73.514    4.560  374.379
  480.520   75.938    4.735  375.704
  480.770   75.349    4.825  375.692
  481.020   74.155    4.734  375.009
  481.270   73.566    4.388  371.647
  481.520   74.182    3.991  366.268
  481.770   72.991    3.699  364.241
  482.020   70.595    3.561  363.565
  482.270   70.006    3.428  363.552
  482.520   71.827    3.178  362.199
  482.770   74.254    2.782  359.502
  483.020   74.870    3.001  357.478
  483.270   74.884    3.559  357.466
  483.520   74.299    3.913  363.491
  483.770   74.908    3.839  370.180
  484.020   74.928    3.626  366.145
  484.270   73.135    3.695  364.121
  484.520   75.555    4.466  356.734
  484.770   79.183    6.905  337.948
  485.020   79.806    7.735  331.901
  485.270   77.407    9.001  278.921
  485.520   77.421   10.277  280.917
  485.770   81.046    8.999  299.681
  486.020   84.674    3.908  315.090
  486.270   84.688    3.488  341.897
  486.520   84.701    3.294  364.681
  486.770   83.514    3.357  373.385
  487.020   83.527    3.357  377.393
  487.270   84.144    3.231  382.077
  487.520   85.365    3.111  377.371
  487.770   87.183    3.111  376.688
  488.020   89.610    3.355  376.003
  488.270   87.813    3.688  371.967
  488.520   86.023    3.688  372.626
  488.770   89.049    3.484  393.398
  489.020   92.071    3.483  408.136
  489.270   95.101    3.550  394.715
  489.520   95.713    3.686  386.656
  489.770   91.510    3.686  381.277
  490.020   84.897    3.548  383.950
  490.270   83.706    3.481  392.654
  490.520   86.129    3.416  405.381
  490.770   84.938    3.351  409.391
  491.020   87.368    3.288  381.219
  491.270   87.984    3.226  371.149
  491.520   87.392    3.287  382.535
  491.770   86.201    3.414  379.841
  492.020   84.407    3.413  369.768
  492.270   82.617    3.349  379.143
  492.520   82.025    3.349  373.096
  492.770   82.042    3.348  361.686
  493.020   84.462    3.412  361.003
  493.270   80.862    3.680  361.661
  493.520   77.260    3.822  358.967
  493.770   77.278    3.610  349.565
  494.020   80.304    3.749  351.567
  494.270   79.711    4.044  381.726
  494.520   76.713    4.200  374.339
  494.770   73.112    4.280  352.871
  495.020   70.114    4.445  345.477
  495.270   70.127    4.529  348.147
  495.520   68.943    4.615  349.475
  495.770   65.944    4.703  350.131
  496.020   65.356    4.443  350.124
  496.270   67.776    4.359  350.783
  496.520   70.802    3.964  349.429
  496.770   75.036    3.816  360.815
  497.020   77.463    4.195  374.213
  497.270   78.072    4.357  381.576
  497.520   77.483    7.268  354.744
  497.770   73.280   14.652  287.680
  498.020   61.248   24.908  260.178
  498.270   64.873   18.742  251.450
  498.520   72.719   10.218  262.165
  498.770   78.154    4.036  351.330
  499.020   79.982    3.468  377.467
  499.270   83.005    3.154  390.861
  499.520   83.624    2.979  386.829
  499.770   87.249    3.036  376.756
  500.020   87.869    3.094  373.391
  500.270   84.271    3.153  374.720
  500.520   83.073    3.274  376.719
  500.770   80.075    3.035  373.354
  501.020   77.679    2.977  374.013
  501.270   75.286    2.977  372.659
  501.520   76.501    3.092  368.618
  501.770   80.137    3.211  366.597
  502.020   81.348    3.272  369.267
  502.270   81.369    3.334  366.576
  502.520   80.777    3.271  367.904
  502.770   80.188    3.032  377.949
  503.020   80.205    2.919  381.960
  503.270   82.026    2.974  391.334
  503.520   83.844    3.031  386.629
  503.770   83.255    3.208  387.287
  504.020   82.666    3.332  382.578
  504.270   88.705    3.395  374.520
  504.520   89.321    3.395  388.588
  504.770   87.531    3.207  389.917
  505.020   85.734    3.087  373.139
  505.270   83.940    3.393  368.437
  505.520   83.954    3.592  363.728
  505.770   83.365    3.591  366.400
  506.020   82.174    3.457  369.070
  506.270   80.989    3.266  371.734
  506.520   84.012    3.204  372.398
  506.770   87.640    3.143  374.397
  507.020   91.871    3.143  376.396
  507.270   91.888    3.327  377.054
  507.520   89.492    3.326  375.028
  507.770   87.699    3.326  369.651
  508.020   85.306    3.326  364.946
  508.270   84.710    3.389  364.933
  508.520   83.519    3.453  368.274
  508.770   83.533    3.519  368.932
  509.020   86.562    3.586  358.862
  509.270   87.178    3.795  325.326
  509.520   85.385    4.094  311.904
  509.770   82.985    4.416  262.943
  510.020   78.782    4.171  237.453
  510.270   73.374    6.573  238.111
  510.520   75.198    7.090  262.236
  510.770   80.634    6.572  356.094
  511.020   83.660    5.334  357.420
  511.270   83.071    4.330  335.952
  511.520   83.085    5.435  300.404
  511.770   85.508    5.134  309.779
  512.020   86.124    4.670  360.052
  512.270   84.331    3.937  367.415
  512.520   85.549    3.790  370.085
  512.770   84.961    3.790  369.399
  513.020   84.974    3.718  370.057
