~VERSION INFORMATION
 VERS.                 2.0:   CWLS LOG ASCII STANDARD -VERSION 2.0
 WRAP.                  NO:   ONE LINE PER DEPTH STEP
~WELL INFORMATION BLOCK
#MNEM.UNIT           DATA                    DESCRIPTION OF MNEMONIC
#---------    -------------------            -------------------------------
# Generated from Intellog Unique Number	CS_67_68/WELL/849
WELL.         PENNANT-PUMA OILS LTD          : Well_name    - WELL
LOC .         00/11-31-068-15W4/0            : Location     - LOCATION
UWI .         00/11-31-068-15W4/0            : Uwi          - UNIQUE WELL ID
ENTR.         SP                             : Entered      - ENTERED BY
SRVC.         SCHLUMBERGER                   : Scn          - SERVICE COMPANY
STRT.M        268.224                        : top_depth    - START DEPTH
STOP.M        441.724                        : bot_depth    - STOP DEPTH
STEP.M        0.25                           : increment    - STEP LENGTH
 NULL. -999.2500:NULL Value
~CURVE INFORMATION BLOCK
#MNEM UNIT       ERCB CURVE CODE    CURVE DESCRIPTION
#-----------   ------------------   ----------------------------------
DEPT.M        00 001 00 00         : DEPTH        - DEPTH
GR  .API      00 310 00 00         : GR           - GAMMA RAY
DPHI.V/V      00 890 00 00         : PHID         - DENSITY POROSITY (SANDSTONE)
NPHI.V/V      00 330 00 00         : PHIN         - NEUTRON POROSITY (SANDSTONE)
ILD .OHMM     00 120 00 00         : RESD         - DEEP RESISTIVITY (DIL)
~PARAMETER INFORMATION
#MNEM.UNIT           DATA             DESCRIPTION OF MNEMONIC
#---------         -----------     ------------------------------
GL  .M        546.506              : gl           - GROUND LEVEL ELEVATION
EREF.M        549.554              : kb           - ELEVATION OF DEPTH REFERENCE
DATM.M        546.506              : datum        - DATUM ELEVATION
TDD .M        441.35               : tdd          - TOTAL DEPTH DRILLER
RUN .         ONE                  : Run          - RUN NUMBER
ENG .         BILL                 : Engineer     - RECORDING ENGINEER
WIT .         JIM                  : Witness      - WITNESSED BY
MUD .         GEL                  : Mud_type     - MUD TYPE
MATR.         SANDSTONE            : Logunit      - NEUTRON MATRIX
TMAX.C        20.5556              : BHT          - MAXIMUM RECORDED TEMPERATURE
BHTD.M        441.35               : BHTDEP       - MAXIMUM RECORDED TEMPERATURE
MATR.         1                    : LOGUNIT      - NEUTRON MATRIX
RMT .C        25                   : MDTP         - TEMPERATURE OF MUD
NEUT.         1                    : NEUTRON      - NEUTRON TYPE
RESI.         0                    : RESIST       - RESISTIVITY TYPE
RMC .OHMM     0.25                 : RMC          - RESISTIVITY OF MUD CAKE
RMF .OHMM     0.25                 : RMF          - RESISTIVITY OF MUD FILTRATE
SUFT.C        15                   : SUFT         - SURFACE TEMPERATURE
~A  DEPTH       GR     PHID     PHIN     RESD
  268.224  125.525    0.213    0.524    2.488
  268.474  121.557    0.227    0.518    2.523
  268.724  119.862    0.236    0.517    2.556
  268.974  122.072    0.244    0.527    2.578
  269.224  123.504    0.249    0.538    2.596
  269.474  124.195    0.235    0.522    2.582
  269.724  123.185    0.226    0.510    2.539
  269.974  121.765    0.217    0.502    2.512
  270.224  121.542    0.234    0.515    2.509
  270.474  121.981    0.217    0.526    2.510
  270.724  122.031    0.218    0.527    2.522
  270.974  121.843    0.222    0.512    2.574
  271.224  119.748    0.207    0.502    2.644
  271.474  117.787    0.199    0.511    2.668
  271.724  114.488    0.204    0.507    2.600
  271.974  112.735    0.233    0.493    2.534
  272.224  114.277    0.234    0.500    2.386
  272.474  118.472    0.237    0.512    2.304
  272.724  119.434    0.223    0.499    2.347
  272.974  114.037    0.220    0.480    2.497
  273.224  106.239    0.262    0.467    2.660
  273.474  101.047    0.286    0.463    2.856
  273.724  105.827    0.298    0.461    2.973
  273.974  111.352    0.279    0.456    3.101
  274.224  114.762    0.255    0.452    3.142
  274.474  117.884    0.238    0.454    3.195
  274.724  118.869    0.257    0.457    3.258
  274.974  117.254    0.273    0.461    3.424
  275.224  107.257    0.301    0.467    3.598
  275.474   97.728    0.320    0.457    3.615
  275.724   88.454    0.304    0.451    3.622
  275.974   93.596    0.291    0.458    3.717
  276.224   98.737    0.289    0.460    4.036
  276.474  102.343    0.289    0.464    4.425
  276.724  101.807    0.274    0.477    4.906
  276.974   89.442    0.283    0.490    5.734
  277.224   74.192    0.306    0.471    6.311
  277.474   63.278    0.322    0.448    6.996
  277.724   72.979    0.313    0.429    7.347
  277.974   78.243    0.298    0.424    4.912
  278.224   82.759    0.293    0.435    3.943
  278.474   87.915    0.282    0.439    3.447
  278.724   92.533    0.269    0.442    3.227
  278.974   96.676    0.274    0.443    3.136
  279.224   96.260    0.269    0.429    3.046
  279.474   94.029    0.257    0.414    3.020
  279.724   91.886    0.248    0.411    3.089
  279.974   94.980    0.250    0.422    3.366
  280.224   98.243    0.250    0.421    3.491
  280.474  102.645    0.238    0.421    3.536
  280.724  105.038    0.227    0.428    3.485
  280.974  104.298    0.220    0.437    3.374
  281.224   95.134    0.235    0.448    3.230
  281.474   88.102    0.248    0.456    3.049
  281.724   81.050    0.262    0.458    2.888
  281.974   75.306    0.284    0.460    2.788
  282.224   72.630    0.290    0.469    2.702
  282.474   72.918    0.301    0.472    2.645
  282.724   71.061    0.307    0.455    2.624
  282.974   70.133    0.306    0.464    2.748
  283.224   72.102    0.309    0.480    2.892
  283.474   76.830    0.297    0.496    2.980
  283.724   76.779    0.287    0.485    2.920
  283.974   71.196    0.266    0.448    2.758
  284.224   67.694    0.244    0.441    2.444
  284.474   67.155    0.211    0.461    2.190
  284.724   68.413    0.354    0.484    2.014
  284.974   69.347    0.364    0.497    1.876
  285.224   69.567    0.338    0.505    1.774
  285.474   69.713    0.327    0.491    1.741
  285.724   70.187    0.309    0.480    1.773
  285.974   70.513    0.314    0.486    1.865
  286.224   70.766    0.321    0.495    2.023
  286.474   72.868    0.321    0.493    2.171
  286.724   76.374    0.316    0.485    2.337
  286.974   82.569    0.321    0.493    2.507
  287.224   86.362    0.302    0.506    2.631
  287.474   92.759    0.288    0.513    2.678
  287.724   96.071    0.256    0.504    2.664
  287.974   96.507    0.252    0.493    2.633
  288.224   94.842    0.275    0.485    2.561
  288.474   94.390    0.298    0.480    2.526
  288.724   93.849    0.295    0.478    2.538
  288.974   93.440    0.291    0.481    2.620
  289.224   92.360    0.276    0.486    2.737
  289.474   91.728    0.287    0.488    2.818
  289.724   92.691    0.297    0.484    2.938
  289.974   95.241    0.296    0.477    3.119
  290.224   96.913    0.278    0.469    3.300
  290.474  100.018    0.242    0.468    3.378
  290.724  102.826    0.226    0.489    3.385
  290.974  104.799    0.219    0.508    3.396
  291.224  104.551    0.208    0.498    3.359
  291.474  103.355    0.228    0.485    3.332
  291.724  106.522    0.246    0.483    3.241
  291.974  111.968    0.197    0.478    3.081
  292.224  117.683    0.172    0.480    3.027
  292.474  122.565    0.190    0.490    3.027
  292.724  127.572    0.201    0.494    3.085
  292.974  131.274    0.202    0.499    3.243
  293.224  134.429    0.204    0.505    3.447
  293.474  137.328    0.236    0.491    3.755
  293.724  138.947    0.253    0.474    3.961
  293.974  139.223    0.253    0.462    4.102
  294.224  135.269    0.243    0.462    4.203
  294.474  129.759    0.249    0.467    4.242
  294.724  124.763    0.237    0.458    4.305
  294.974  121.605    0.250    0.449    4.340
  295.224  118.590    0.238    0.457    4.355
  295.474  114.553    0.241    0.446    4.361
  295.724  112.966    0.227    0.436    4.388
  295.974  118.509    0.225    0.451    4.325
  296.224  121.925    0.237    0.463    4.042
  296.474  123.701    0.240    0.455    3.815
  296.724  123.735    0.239    0.455    3.666
  296.974  122.790    0.241    0.457    3.588
  297.224  122.066    0.222    0.469    3.570
  297.474  125.762    0.197    0.478    3.664
  297.724  127.946    0.212    0.483    3.763
  297.974  129.056    0.234    0.484    3.841
  298.224  124.683    0.255    0.476    3.836
  298.474  118.943    0.273    0.454    3.753
  298.724  114.845    0.264    0.431    3.740
  298.974  119.657    0.231    0.419    3.868
  299.224  126.219    0.214    0.422    3.989
  299.474  128.383    0.210    0.431    4.055
  299.724  127.970    0.215    0.437    3.894
  299.974  128.260    0.221    0.457    3.548
  300.224  131.577    0.218    0.476    3.307
  300.474  136.539    0.210    0.488    3.137
  300.724  140.967    0.206    0.500    3.018
  300.974  144.260    0.200    0.513    2.944
  301.224  145.934    0.211    0.510    3.005
  301.474  143.366    0.230    0.499    3.070
  301.724  132.430    0.242    0.491    3.053
  301.974  126.682    0.248    0.485    3.019
  302.224  126.679    0.250    0.478    2.992
  302.474  124.956    0.247    0.489    2.930
  302.724  118.102    0.248    0.493    2.866
  302.974  111.422    0.261    0.496    2.839
  303.224  109.054    0.242    0.496    2.892
  303.474  110.159    0.253    0.490    2.944
  303.724  109.885    0.254    0.479    2.989
  303.974  103.791    0.250    0.466    2.998
  304.224   99.104    0.259    0.450    2.978
  304.474   95.827    0.283    0.443    2.962
  304.724   98.288    0.297    0.442    2.942
  304.974  100.741    0.287    0.441    2.999
  305.224  104.644    0.279    0.438    3.111
  305.474  107.380    0.275    0.454    3.151
  305.724  107.635    0.279    0.478    2.993
  305.974  101.205    0.314    0.483    2.767
  306.224   93.256    0.331    0.473    2.506
  306.474   88.218    0.339    0.467    2.404
  306.724   86.883    0.332    0.462    2.314
  306.974   89.794    0.326    0.462    2.279
  307.224   91.582    0.333    0.474    2.264
  307.474   91.906    0.325    0.493    2.308
  307.724   90.710    0.294    0.509    2.380
  307.974   90.316    0.295    0.516    2.472
  308.224   91.212    0.289    0.514    2.588
  308.474   92.347    0.281    0.498    2.673
  308.724   93.244    0.273    0.489    2.805
  308.974   94.718    0.263    0.481    2.886
  309.224   96.194    0.254    0.478    2.977
  309.474   98.351    0.247    0.479    3.041
  309.724  100.250    0.254    0.493    3.131
  309.974  101.582    0.262    0.501    3.215
  310.224  101.857    0.252    0.499    3.244
  310.474  101.806    0.252    0.488    3.215
  310.724  100.352    0.267    0.488    3.124
  310.974   97.694    0.276    0.492    3.021
  311.224   96.208    0.277    0.485    2.908
  311.474   97.206    0.278    0.489    2.681
