~VERSION INFORMATION
 VERS.                 2.0:   CWLS LOG ASCII STANDARD -VERSION 2.0
 WRAP.                  NO:   ONE LINE PER DEPTH STEP
~WELL INFORMATION BLOCK
#MNEM.UNIT           DATA                    DESCRIPTION OF MNEMONIC
#---------    -------------------            -------------------------------
# Generated from Intellog Unique Number	CW_73_75/WELL/2743
WELL.         LAND BANK ET AL BLANCHE 11-03  : Well_name    - WELL
LOC .         00/11-03-073-02W5/0            : Location     - LOCATION
UWI .         00/11-03-073-02W5/0            : Uwi          - UNIQUE WELL ID
ENTR.         JAYE                           : Entered      - ENTERED BY
SRVC.         SCHLUMBERGER                   : Scn          - SERVICE COMPANY
DATE.         7 JAN 80                       : Date         - LOG DATE
STRT.M        380                            : top_depth    - START DEPTH
STOP.M        590                            : bot_depth    - STOP DEPTH
STEP.M        0.25                           : increment    - STEP LENGTH
 NULL. -999.2500:NULL Value
~CURVE INFORMATION BLOCK
#MNEM UNIT       ERCB CURVE CODE    CURVE DESCRIPTION
#-----------   ------------------   ----------------------------------
DEPT.M        00 001 00 00         : DEPTH        - DEPTH
DPHI.V/V      00 890 00 00         : PHID         - DENSITY POROSITY (SANDSTONE)
NPHI.V/V      00 330 00 00         : PHIN         - NEUTRON POROSITY (SANDSTONE)
GR  .API      00 310 00 00         : GR           - GAMMA RAY
CALI.MM       00 280 01 00         : CAL          - CALIPER
ILD .OHMM     00 120 00 00         : RESD         - DEEP RESISTIVITY (DIL)
~PARAMETER INFORMATION
#MNEM.UNIT           DATA             DESCRIPTION OF MNEMONIC
#---------         -----------     ------------------------------
GL  .M        597                  : gl           - GROUND LEVEL ELEVATION
EREF.M        600.2                : kb           - ELEVATION OF DEPTH REFERENCE
DATM.M        597                  : datum        - DATUM ELEVATION
TDD .M        601                  : tdd          - TOTAL DEPTH DRILLER
RUN .         ONE                  : Run          - RUN NUMBER
ENG .         WALTERHOUSE          : Engineer     - RECORDING ENGINEER
WIT .         LOWTHER              : Witness      - WITNESSED BY
BASE.         EDM                  : Branch       - HOME BASE OF LOGGING UNIT
MUD .         GEL CHEM             : Mud_type     - MUD TYPE
MATR.         SANDSTONE            : Logunit      - NEUTRON MATRIX
TMAX.C        24.4                 : BHT          - MAXIMUM RECORDED TEMPERATURE
BHTD.M        602.5                : BHTDEP       - MAXIMUM RECORDED TEMPERATURE
RMT .C        12.8                 : MDTP         - TEMPERATURE OF MUD
MUDD.KG/M     1170                 : MWT          - MUD DENSITY
NEUT.         1                    : NEUTRON      - NEUTRON TYPE
RESI.         0                    : RESIST       - RESISTIVITY TYPE
RM  .OHMM     2.98                 : RM           - RESISTIVITY OF MUD
RMC .OHMM     0                    : RMC          - RESISTIVITY OF MUD CAKE
RMF .OHMM     2.85                 : RMF          - RESISTIVITY OF MUD FILTRATE
SUFT.C        0                    : SUFT         - SURFACE TEMPERATURE
~A  DEPTH     PHID     PHIN       GR      CAL     RESD
# ...
  453.000    0.262    0.372   66.121  168.800    3.898
  453.250    0.262    0.385   62.567  168.426    3.805
  453.500    0.272    0.388   58.396  168.046    3.699
  453.750    0.283    0.380   55.888  167.881    3.584
  454.000    0.285    0.375   58.377  167.405    3.485
  454.250    0.283    0.375   66.541  166.826    3.369
  454.500    0.270    0.380   74.705  166.448    3.358
  454.750    0.244    0.398   81.512  167.719    3.455
  455.000    0.228    0.416   79.067  170.634    3.610
  455.250    0.240    0.386   71.565  170.881    3.829
  455.500    0.258    0.355   63.384  168.042    4.085
  455.750    0.247    0.352   59.028  167.357    4.196
  456.000    0.233    0.368   60.656  167.597    4.142
  456.250    0.260    0.389   62.218  167.440    4.043
  456.500    0.268    0.391   62.796  167.673    4.037
  456.750    0.264    0.383   62.450  167.606    4.100
  457.000    0.260    0.374   63.827  167.541    4.171
  457.250    0.246    0.375   67.365  167.274    4.213
  457.500    0.256    0.383   69.854  167.210    4.182
  457.750    0.269    0.391   71.110  167.244    4.129
  458.000    0.277    0.400   68.974  167.179    4.107
  458.250    0.269    0.406   68.320  167.012    4.077
  458.500    0.260    0.395   69.636  166.637    4.018
  458.750    0.251    0.383   70.460  166.055    3.996
  459.000    0.261    0.381   70.360  165.376    3.998
  459.250    0.257    0.385   70.442  164.897    4.006
  459.500    0.248    0.378   71.270  164.625    4.015
  459.750    0.241    0.382   70.673  164.255    4.024
  460.000    0.230    0.382   67.984  163.883    4.064
  460.250    0.243    0.373   68.991  163.914    4.119
  460.500    0.250    0.362   67.965  163.446    4.191
  460.750    0.237    0.352   67.493  163.274    4.314
  461.000    0.210    0.341   71.094  163.203    4.558
  461.250    0.192    0.335   75.432  163.039    4.844
  461.500    0.186    0.344   81.254  162.983    4.985
  461.750    0.213    0.367   86.088  162.915    4.912
  462.000    0.238    0.386   84.690  162.846    4.722
  462.250    0.251    0.394   76.818  162.985    4.380
  462.500    0.263    0.403   73.819  163.121    4.116
  462.750    0.274    0.412   75.506  163.468    3.906
  463.000    0.280    0.426   73.245  163.402    3.678
  463.250    0.270    0.418   71.295  163.131    3.463
  463.500    0.237    0.413   73.476  162.862    3.261
  463.750    0.209    0.428   74.734  163.102    3.299
  464.000    0.159    0.426   71.979  165.811    3.634
  464.250    0.199    0.395   70.523  167.699    4.088
  464.500    0.212    0.263   70.484  165.680    4.977
  464.750    0.164    0.299   71.984  166.645    5.759
  465.000    0.220    0.327   74.659  168.119    5.464
  465.250    0.248    0.359   77.148  166.926    4.889
  465.500    0.289    0.389   76.738  165.419    4.212
  465.750    0.276    0.421   75.897  165.149    3.455
  466.000    0.270    0.417   76.106  165.184    3.139
  466.250    0.254    0.408   76.992  164.819    3.093
  466.500    0.256    0.401   79.233  165.055    3.111
  466.750    0.263    0.395   80.676  165.296    3.154
  467.000    0.273    0.410   77.058  165.340    3.197
  467.250    0.270    0.427   77.513  165.386    3.234
  467.500    0.265    0.423   81.296  165.417    3.279
  467.750    0.263    0.413   84.221  165.457    3.311
  468.000    0.257    0.403   85.475  165.796    3.306
  468.250    0.241    0.402   86.485  166.033    3.276
  468.500    0.223    0.423   89.343  166.277    3.265
  468.750    0.233    0.439   89.367  166.630    3.297
  469.000    0.240    0.433   89.204  166.764    3.425
  469.250    0.246    0.423   91.445  166.800    3.558
  469.500    0.203    0.416   91.776  167.867    3.711
  469.750    0.202    0.416   92.171  170.373    3.921
  470.000    0.203    0.415   92.932  171.435    4.175
  470.250    0.206    0.406   92.585  171.063    4.362
  470.500    0.206    0.389   90.263  167.090    4.497
  470.750    0.197    0.384   93.060  166.924    4.533
  471.000    0.189    0.402   95.490  167.371    4.543
  471.250    0.175    0.418   98.348  168.128    4.579
  471.500    0.188    0.407  100.405  169.914    4.624
  471.750    0.212    0.396   98.947  170.363    4.687
  472.000    0.193    0.389   95.148  167.521    4.769
  472.250    0.185    0.400   92.763  168.070    4.816
  472.500    0.183    0.403   88.776  170.167    4.854
  472.750    0.188    0.417   90.032  171.434    4.874
  473.000    0.199    0.413   92.151  171.783    4.848
  473.250    0.192    0.403   91.805  173.464    4.822
  473.500    0.181    0.393   90.161  177.406    4.797
  473.750    0.188    0.397   92.098  174.463    4.799
  474.000    0.197    0.423   95.202  175.118    4.800
  474.250    0.215    0.424   93.868  178.033    4.784
  474.500    0.240    0.416   90.374  178.276    4.731
  474.750    0.274    0.419   86.326  173.069    4.627
  475.000    0.294    0.427   82.587  168.995    4.465
  475.250    0.298    0.422   79.340  167.696    4.293
  475.500    0.292    0.400   76.093  167.424    4.270
  475.750    0.272    0.386   72.229  167.051    4.378
  476.000    0.259    0.378   73.054  166.479    4.813
  476.250    0.255    0.367   79.366  166.616    5.243
  476.500    0.247    0.369   77.416  166.762    5.592
  476.750    0.252    0.379   73.925  166.994    5.810
  477.000    0.250    0.389   73.328  167.553    5.724
  477.250    0.257    0.406   78.717  167.586    5.535
  477.500    0.261    0.425   81.083  168.144    5.444
  477.750    0.271    0.409   80.550  168.689    5.364
  478.000    0.268    0.405   78.043  169.550    5.265
  478.250    0.265    0.404   76.525  169.997    5.217
  478.500    0.265    0.398   79.631  170.443    5.199
  478.750    0.257    0.398   82.798  170.892    5.231
  479.000    0.254    0.401   83.561  171.445    5.292
  479.250    0.261    0.403   77.601  171.893    5.344
  479.500    0.268    0.400   75.898  171.929    5.366
  479.750    0.276    0.406   76.226  171.145    5.328
  480.000    0.282    0.415   76.557  170.565    5.279
  480.250    0.272    0.427   74.606  170.397    5.182
  480.500    0.269    0.439   75.554  170.334    5.039
  480.750    0.282    0.434   79.400  170.162    4.937
  481.000    0.296    0.423   79.793  169.898    4.774
  481.250    0.300    0.410   77.903  169.726    4.651
  481.500    0.283    0.398   74.164  169.762    4.548
  481.750    0.256    0.375   72.396  170.108    4.689
  482.000    0.240    0.354   72.667  170.865    5.334
  482.250    0.228    0.338   73.370  171.312    6.507
  482.500    0.247    0.337   71.663  173.923    7.644
  482.750    0.265    0.352   69.342  175.806    8.744
  483.000    0.277    0.377   69.734  168.030    9.223
  483.250    0.286    0.401   74.567  165.915    8.538
  483.500    0.297    0.408   76.069  165.740    6.912
  483.750    0.286    0.379   71.958  165.263    5.766
  484.000    0.238    0.299   65.505  164.070    5.035
  484.250    0.146    0.246   61.888  164.105    4.732
  484.500    0.092    0.274   64.072  171.030    4.707
  484.750    0.159    0.308   66.436  173.537    4.735
  485.000    0.189    0.363   69.852  168.329    4.764
  485.250    0.246    0.387   72.835  167.238    4.712
  485.500    0.278    0.386   74.460  167.995    4.669
  485.750    0.275    0.378   73.065  168.138    4.583
  486.000    0.286    0.380   72.408  168.180    4.490
  486.250    0.293    0.386   73.725  168.207    4.475
  486.500    0.258    0.393   75.537  167.938    4.510
  486.750    0.266    0.406   75.991  167.567    4.555
  487.000    0.282    0.415   76.937  167.291    4.548
  487.250    0.288    0.407   76.898  167.127    4.506
  487.500    0.278    0.398   76.674  168.805    4.482
  487.750    0.276    0.392   75.833  171.001    4.425
  488.000    0.280    0.386   77.953  170.628    4.368
  488.250    0.271    0.379   76.743  170.151    4.288
  488.500    0.262    0.376   74.543  170.706    4.233
  488.750    0.250    0.388   71.666  171.358    4.195
  489.000    0.237    0.400   69.963  171.907    4.188
  489.250    0.256    0.400   70.170  172.360    4.190
