~VERSION INFORMATION
 VERS.                 2.0:   CWLS LOG ASCII STANDARD -VERSION 2.0
 WRAP.                  NO:   ONE LINE PER DEPTH STEP
~WELL INFORMATION BLOCK
#MNEM.UNIT           DATA                    DESCRIPTION OF MNEMONIC
#---------    -------------------            -------------------------------
# Generated from Intellog Unique Number	CS_69_70/WELL/902
NULL.         -999.25                        : NULL_VALUE
WELL.         BVX ET AL HEART LAKE           : Well_name    - WELL              
LOC .         00/13-18-070-10W4/0            : Location     - LOCATION          
UWI .         00/13-18-070-10W4/0            : Uwi          - UNIQUE WELL ID    
ENTR.         SP                             : Entered      - ENTERED BY        
SRVC.         SCHLUMBERGER                   : Scn          - SERVICE COMPANY   
STRT.M        295                            : top_depth    - START DEPTH       
STOP.M        530                            : bot_depth    - STOP DEPTH        
STEP.M        0.25                           : increment    - STEP LENGTH       
~CURVE INFORMATION BLOCK
#MNEM UNIT       ERCB CURVE CODE    CURVE DESCRIPTION
#-----------   ------------------   ----------------------------------
DEPT.M        00 001 00 00         : DEPTH        - DEPTH                       
DPHI.V/V      00 890 00 00         : PHID         - DENSITY POROSITY (LIMESTONE)
NPHI.V/V      00 330 00 00         : PHIN         - NEUTRON POROSITY (LIMESTONE)
GR  .API      00 310 00 00         : GR           - GAMMA RAY                   
ILD .OHMM     00 120 00 00         : RESD         - DEEP RESISTIVITY (DIL)      
~PARAMETER INFORMATION       
#MNEM.UNIT           DATA             DESCRIPTION OF MNEMONIC
#---------         -----------     ------------------------------
GL  .M        632.82               : gl           - GROUND LEVEL ELEVATION      
EREF.M        635.5                : kb           - ELEVATION OF DEPTH REFERENCE
DATM.M        632.82               : datum        - DATUM ELEVATION             
TDD .M        545                  : tdd          - TOTAL DEPTH DRILLER         
RUN .         ONE                  : Run          - RUN NUMBER                  
ENG .         BILL                 : Engineer     - RECORDING ENGINEER          
WIT .         JIM                  : Witness      - WITNESSED BY                
MUD .         GEL                  : Mud_type     - MUD TYPE                    
MATR.         LIMESTONE            : Logunit      - NEUTRON MATRIX              
TMAX.C        23                   : BHT          - MAXIMUM RECORDED TEMPERATURE
BHTD.M        545                  : BHTDEP       - MAXIMUM RECORDED TEMPERATURE
MATR.         1                    : LOGUNIT      - NEUTRON MATRIX              
RMT .C        25                   : MDTP         - TEMPERATURE OF MUD          
NEUT.         1                    : NEUTRON      - NEUTRON TYPE                
RESI.         0                    : RESIST       - RESISTIVITY TYPE            
RMC .OHMM     0.25                 : RMC          - RESISTIVITY OF MUD CAKE     
RMF .OHMM     0.25                 : RMF          - RESISTIVITY OF MUD FILTRATE 
SUFT.C        15                   : SUFT         - SURFACE TEMPERATURE         
~A  DEPTH     PHID     PHIN       GR     RESD
# ...
  425.500    0.230    0.488   94.286    4.253
  425.750    0.220    0.471   95.376    4.113
  426.000    0.219    0.455   95.925    4.092
  426.250    0.227    0.457   95.751    4.112
  426.500    0.223    0.472   95.156    4.170
  426.750    0.234    0.482   94.319    4.172
  427.000    0.242    0.473   94.325    4.209
  427.250    0.238    0.466   96.080    4.211
  427.500    0.240    0.459   97.473    4.216
  427.750    0.252    0.474   98.203    4.196
  428.000    0.238    0.483   98.330    4.139
  428.250    0.217    0.493   97.855    4.081
  428.500    0.232    0.507   97.320    3.974
  428.750    0.250    0.493   97.265    3.876
  429.000    0.239    0.478   98.116    3.761
  429.250    0.237    0.479   99.690    3.744
  429.500    0.220    0.479  100.842    3.766
  429.750    0.237    0.481  100.487    3.791
  430.000    0.242    0.485   98.866    3.746
  430.250    0.227    0.480   97.788    3.457
  430.500    0.224    0.483   96.891    3.007
  430.750    0.248    0.518   95.511    2.545
  431.000    0.283    0.549   94.433    2.243
  431.250    0.340    0.569   97.574    2.112
  431.500    0.355    0.582  100.534    2.057
  431.750    0.335    0.568  100.902    2.043
  432.000    0.320    0.545   98.077    2.064
  432.250    0.300    0.531   96.577    2.148
  432.500    0.278    0.548   96.161    2.272
  432.750    0.289    0.559   95.626    2.476
  433.000    0.314    0.557   92.800    2.764
  433.250    0.319    0.554   91.360    3.035
  433.500    0.280    0.519   91.608    3.191
  433.750    0.251    0.478   92.519    3.478
  434.000    0.231    0.460   92.948    3.625
  434.250    0.232    0.457   92.292    3.716
  434.500    0.249    0.455   89.706    3.646
  434.750    0.252    0.456   88.991    3.576
  435.000    0.237    0.459   89.720    3.507
  435.250    0.249    0.460   87.316    3.465
  435.500    0.257    0.446   92.506    3.520
  435.750    0.235    0.437   95.948    3.644
  436.000    0.217    0.432   93.845    3.700
  436.250    0.208    0.442   89.934    3.801
  436.500    0.194    0.439   85.843    3.898
  436.750    0.180    0.429   83.379    3.953
  437.000    0.166    0.437   86.037    3.957
  437.250    0.164    0.440   88.214    3.951
  437.500    0.222    0.443   87.317    3.871
  437.750    0.236    0.444   87.263    3.860
  438.000    0.241    0.443   89.680    3.868
  438.250    0.229    0.441   91.857    4.055
  438.500    0.220    0.439   93.431    4.337
  438.750    0.215    0.436   89.762    4.986
  439.000    0.166    0.434   85.790    5.606
  439.250    0.114    0.439   80.192    6.386
  439.500    0.082    0.435   76.462    6.894
  439.750    0.052    0.291   73.456    6.447
  440.000    0.140    0.298   82.141    6.070
  440.250    0.171    0.371   91.910    5.480
  440.500    0.190    0.410   96.859    5.170
  440.750    0.190    0.427   99.638    4.843
  441.000    0.210    0.432   95.368    4.620
  441.250    0.219    0.436   92.842    4.368
  441.500    0.211    0.443   93.270    4.267
  441.750    0.212    0.448   95.147    4.109
  442.000    0.224    0.434   95.634    3.986
  442.250    0.212    0.427   95.400    3.925
  442.500    0.214    0.441   95.889    3.885
  442.750    0.217    0.455   97.824    3.875
  443.000    0.231    0.467   97.108    3.865
  443.250    0.224    0.450   93.077    3.868
  443.500    0.229    0.454   95.072    3.872
  443.750    0.239    0.454   96.948    3.862
  444.000    0.242    0.432   98.099    3.830
  444.250    0.244    0.429  100.035    3.819
  444.500    0.245    0.430  100.643    3.816
  444.750    0.240    0.431   99.987    3.818
  445.000    0.237    0.433   99.150    3.815
  445.250    0.235    0.442   98.374    3.818
  445.500    0.226    0.450   98.923    3.801
  445.750    0.226    0.457   98.568    3.825
  446.000    0.230    0.450   94.899    3.878
  446.250    0.246    0.436   93.880    4.035
  446.500    0.239    0.423   97.022    4.245
  446.750    0.231    0.414  100.042    4.313
  447.000    0.230    0.424  102.761    4.137
  447.250    0.229    0.434  100.476    3.905
  447.500    0.212    0.445   94.698    3.801
  447.750    0.245    0.436   90.306    3.714
  448.000    0.249    0.423   87.720    3.590
  448.250    0.213    0.430   89.596    3.456
  448.500    0.213    0.434   91.350    2.783
  448.750    0.250    0.428   90.573    2.558
  449.000    0.258    0.435   87.687    2.357
  449.250    0.263    0.459   85.585    2.159
  449.500    0.290    0.480   88.062    1.942
  449.750    0.308    0.507   90.299    1.853
  450.000    0.316    0.542   91.933    1.774
  450.250    0.310    0.536   92.904    1.849
  450.500    0.310    0.541   92.910    1.989
  450.750    0.329    0.560   95.871    2.269
  451.000    0.349    0.572   96.058    2.614
  451.250    0.254    0.479   92.812    2.822
  451.500    0.260    0.462   91.310    3.086
  451.750    0.269    0.471   87.580    3.357
  452.000    0.249    0.462   84.333    3.538
  452.250    0.229    0.437   82.652    3.674
  452.500    0.199    0.436   87.060    3.487
  452.750    0.192    0.435   89.415    3.370
  453.000    0.227    0.435   91.653    3.281
  453.250    0.264    0.434   92.685    3.254
  453.500    0.249    0.437   93.353    3.229
  453.750    0.256    0.454   92.757    3.236
  454.000    0.288    0.464   88.726    3.308
  454.250    0.285    0.446   89.758    3.391
  454.500    0.260    0.440   90.006    3.519
  454.750    0.265    0.450   88.204    3.696
  455.000    0.255    0.429   83.027    3.825
  455.250    0.136    0.392   80.865    3.849
  455.500    0.112    0.395   86.597    3.796
  455.750    0.172    0.409   90.702    3.371
  456.000    0.226    0.424   94.084    3.036
  456.250    0.235    0.428   96.442    2.579
  456.500    0.208    0.432   97.352    2.429
  456.750    0.207    0.459   95.851    2.396
  457.000    0.241    0.483   97.726    2.420
  457.250    0.261    0.506  102.556    2.594
  457.500    0.277    0.512  104.670    2.769
  457.750    0.244    0.491  103.653    2.829
  458.000    0.243    0.472  101.250    2.795
  458.250    0.229    0.497   99.749    2.737
  458.500    0.213    0.519   97.888    2.655
  458.750    0.210    0.522   96.569    2.644
  459.000    0.223    0.525   98.203    2.650
  459.250    0.246    0.527   99.354    2.662
  459.500    0.227    0.515  101.049    2.749
  459.750    0.217    0.526  102.381    2.914
  460.000    0.236    0.537  103.593    2.754
  460.250    0.257    0.506  105.167    2.491
  460.500    0.233    0.477  107.946    2.329
  460.750    0.219    0.450  110.664    2.255
  461.000    0.190    0.472  113.745    2.253
  461.250    0.175    0.499  106.520    2.500
  461.500    0.188    0.521  101.163    3.129
  461.750    0.204    0.514   95.263    3.809
  462.000    0.213    0.484   89.544    4.561
  462.250    0.220    0.438   85.212    5.175
  462.500    0.226    0.408   82.869    5.525
  462.750    0.189    0.376   82.574    5.718
  463.000    0.113    0.362   83.063    5.495
  463.250    0.126    0.392   83.853    5.080
  463.500    0.178    0.420   85.728    4.847
  463.750    0.209    0.410   88.507    4.772
  464.000    0.172    0.404   88.815    4.804
  464.250    0.178    0.428   84.422    4.998
  464.500    0.206    0.440   80.150    5.516
  464.750    0.235    0.403   76.120    6.330
  465.000    0.259    0.382   72.149    6.923
  465.250    0.274    0.376   70.468    7.409
  465.500    0.253    0.365   69.088    7.580
  465.750    0.254    0.377   67.167    7.931
  466.000    0.261    0.391   65.726    8.357
  466.250    0.254    0.398   64.226    8.989
  466.500    0.249    0.404   63.992    8.705
  466.750    0.248    0.385   63.819    8.197
  467.000    0.178    0.317   66.416    7.510
  467.250    0.121    0.298   69.798    7.047
  467.500    0.105    0.323   73.542    6.589
  467.750    0.155    0.347   76.321    6.343
  468.000    0.199    0.368   78.376    6.076
  468.250    0.218    0.360   80.614    5.949
  468.500    0.214    0.367   82.066    5.867
  468.750    0.193    0.370   84.303    5.925
