~VERSION INFORMATION
 VERS.                 2.0:   CWLS LOG ASCII STANDARD -VERSION 2.0
 WRAP.                  NO:   ONE LINE PER DEPTH STEP
~WELL INFORMATION BLOCK
#MNEM.UNIT           DATA                    DESCRIPTION OF MNEMONIC
#---------    -------------------            -------------------------------
# Generated from Intellog Unique Number	CS_67_68/WELL/862
WELL.         AEC FISH CREEK                 : Well_name    - WELL
LOC .         00/16-21-068-08W4/0            : Location     - LOCATION
UWI .         00/16-21-068-08W4/0            : Uwi          - UNIQUE WELL ID
ENTR.         SP                             : Entered      - ENTERED BY
SRVC.         SCHLUMBERGER                   : Scn          - SERVICE COMPANY
STRT.M        320                            : top_depth    - START DEPTH
STOP.M        555                            : bot_depth    - STOP DEPTH
STEP.M        0.25                           : increment    - STEP LENGTH
 NULL. -999.2500:NULL Value
~CURVE INFORMATION BLOCK
#MNEM UNIT       ERCB CURVE CODE    CURVE DESCRIPTION
#-----------   ------------------   ----------------------------------
DEPT.M        00 001 00 00         : DEPTH        - DEPTH
ILD .OHMM     00 120 00 00         : RESD         - DEEP RESISTIVITY (DIL)
DPHI.V/V      00 890 00 00         : PHID         - DENSITY POROSITY (LIMESTONE)
NPHI.V/V      00 330 00 00         : PHIN         - NEUTRON POROSITY (LIMESTONE)
GR  .API      00 310 00 00         : GR           - GAMMA RAY
~PARAMETER INFORMATION
#MNEM.UNIT           DATA             DESCRIPTION OF MNEMONIC
#---------         -----------     ------------------------------
GL  .M        646.55               : gl           - GROUND LEVEL ELEVATION
EREF.M        649.8                : kb           - ELEVATION OF DEPTH REFERENCE
DATM.M        646.55               : datum        - DATUM ELEVATION
TDD .M        561                  : tdd          - TOTAL DEPTH DRILLER
RUN .         ONE                  : Run          - RUN NUMBER
ENG .         BILL                 : Engineer     - RECORDING ENGINEER
WIT .         JIM                  : Witness      - WITNESSED BY
MUD .         GEL                  : Mud_type     - MUD TYPE
MATR.         LIMESTONE            : Logunit      - NEUTRON MATRIX
TMAX.C        25                   : BHT          - MAXIMUM RECORDED TEMPERATURE
BHTD.M        561                  : BHTDEP       - MAXIMUM RECORDED TEMPERATURE
MATR.         1                    : LOGUNIT      - NEUTRON MATRIX
RMT .C        25                   : MDTP         - TEMPERATURE OF MUD
NEUT.         1                    : NEUTRON      - NEUTRON TYPE
RESI.         0                    : RESIST       - RESISTIVITY TYPE
RMC .OHMM     0.25                 : RMC          - RESISTIVITY OF MUD CAKE
RMF .OHMM     0.25                 : RMF          - RESISTIVITY OF MUD FILTRATE
SUFT.C        15                   : SUFT         - SURFACE TEMPERATURE
~A  DEPTH     RESD     PHID     PHIN       GR
# ...
  450.500    1.849    0.285    0.417   98.560
  450.750    1.877    0.290    0.426   94.885
  451.000    1.924    0.290    0.432   91.147
  451.250    2.047    0.271    0.435   94.028
  451.500    2.250    0.220    0.441   97.343
  451.750    2.553    0.186    0.415   94.595
  452.000    2.774    0.164    0.384   91.290
  452.250    3.002    0.173    0.363   90.952
  452.500    3.244    0.199    0.371   93.708
  452.750    3.518    0.187    0.290   95.418
  453.000    3.758    0.044    0.274   87.533
  453.250    4.045    0.061    0.290   78.413
  453.500    4.305    0.112    0.325   88.411
  453.750    4.608    0.186    0.372  100.694
  454.000    4.696    0.218    0.407  106.240
  454.250    4.670    0.223    0.423  106.464
  454.500    4.332    0.233    0.405  100.867
  454.750    4.041    0.242    0.396   97.314
  455.000    3.686    0.241    0.404   95.867
  455.250    3.497    0.238    0.404   98.684
  455.500    3.368    0.244    0.396  100.640
  455.750    3.362    0.248    0.396   96.593
  456.000    3.363    0.252    0.412  100.156
  456.250    3.376    0.256    0.406  100.811
  456.500    3.389    0.258    0.402   93.482
  456.750    3.390    0.255    0.405   93.951
  457.000    3.371    0.251    0.394   98.935
  457.250    3.346    0.251    0.383  103.675
  457.500    3.334    0.252    0.384  103.589
  457.750    3.335    0.257    0.397   95.210
  458.000    3.335    0.258    0.397   93.883
  458.250    3.355    0.256    0.392   97.694
  458.500    3.374    0.257    0.400   99.586
  458.750    3.394    0.262    0.417   95.290
  459.000    3.439    0.275    0.407   97.058
  459.250    3.479    0.289    0.399   94.187
  459.500    3.506    0.261    0.391   87.228
  459.750    3.533    0.222    0.403   83.615
  460.000    3.587    0.198    0.405   80.863
  460.250    3.760    0.216    0.400   78.364
  460.500    4.070    0.239    0.410   76.668
  460.750    4.406    0.255    0.416   82.517
  461.000    4.576    0.294    0.421   83.671
  461.250    4.655    0.316    0.417   78.572
  461.500    4.586    0.295    0.421   86.032
  461.750    4.400    0.278    0.436   95.474
  462.000    4.214    0.227    0.374   98.357
  462.250    4.183    0.115    0.342   94.183
  462.500    4.231    0.080    0.344   84.254
  462.750    4.419    0.150    0.372   78.477
  463.000    4.659    0.242    0.391   76.099
  463.250    4.885    0.282    0.410   98.536
  463.500    5.025    0.261    0.406  102.715
  463.750    4.932    0.253    0.395  100.836
  464.000    4.575    0.255    0.395  101.736
  464.250    4.079    0.271    0.414  100.287
  464.500    3.706    0.286    0.427   94.322
  464.750    3.361    0.305    0.412   90.273
  465.000    3.008    0.321    0.425   92.160
  465.250    2.569    0.341    0.440   92.135
  465.500    2.321    0.350    0.447   90.875
  465.750    1.952    0.340    0.454   88.125
  466.000    1.569    0.333    0.461   86.863
  466.250    1.325    0.331    0.464   88.695
  466.500    1.224    0.345    0.431   91.510
  466.750    1.197    0.352    0.407   93.958
  467.000    1.188    0.335    0.431   95.360
  467.250    1.184    0.316    0.457   96.574
  467.500    1.200    0.306    0.452   96.299
  467.750    1.263    0.309    0.440   93.675
  468.000    1.341    0.322    0.433   95.814
  468.250    1.441    0.332    0.437   97.766
  468.500    1.505    0.334    0.437   99.290
  468.750    1.563    0.321    0.443  101.862
  469.000    1.590    0.310    0.456   96.454
  469.250    1.599    0.297    0.459   98.034
  469.500    1.593    0.291    0.454  103.827
  469.750    1.579    0.295    0.462  106.029
  470.000    1.579    0.292    0.468  103.093
  470.250    1.591    0.285    0.447  104.244
  470.500    1.618    0.287    0.426  107.493
  470.750    1.656    0.300    0.411  105.120
  471.000    1.684    0.295    0.422  103.360
  471.250    1.752    0.290    0.438  107.110
  471.500    1.803    0.285    0.437  106.960
  471.750    1.851    0.279    0.434  100.932
  472.000    1.915    0.257    0.449   96.512
  472.250    2.004    0.215    0.419   95.001
  472.500    2.074    0.180    0.387   90.645
  472.750    2.224    0.177    0.366   97.734
  473.000    2.453    0.211    0.371  103.710
  473.250    2.640    0.270    0.382  101.146
  473.500    2.912    0.284    0.388   93.572
  473.750    3.082    0.270    0.388   96.268
  474.000    3.224    0.262    0.406   94.697
  474.250    3.243    0.274    0.434   98.877
  474.500    3.153    0.279    0.436  101.761
  474.750    2.992    0.255    0.426  102.786
  475.000    2.844    0.235    0.422  104.678
  475.250    2.714    0.216    0.410  108.547
  475.500    2.541    0.207    0.401  109.886
  475.750    2.429    0.214    0.408  113.573
  476.000    2.318    0.227    0.430  118.435
  476.250    2.266    0.239    0.440  123.484
  476.500    2.212    0.248    0.444  124.138
  476.750    2.179    0.251    0.444  121.389
  477.000    2.167    0.251    0.441  123.154
  477.250    2.184    0.242    0.404  121.894
  477.500    2.238    0.236    0.378  111.349
  477.750    2.329    0.233    0.360  102.103
  478.000    2.474    0.231    0.373  102.263
  478.250    2.608    0.225    0.383  101.804
  478.500    2.786    0.219    0.367   94.537
  478.750    3.056    0.224    0.360   89.434
  479.000    3.314    0.226    0.351   85.513
  479.250    3.669    0.077    0.323   82.270
  479.500    4.124    0.036    0.284   77.851
  479.750    4.787    0.007    0.282   81.290
  480.000    5.462    0.250    0.315   88.626
  480.250    5.737    0.260    0.380   95.346
  480.500    5.261    0.267    0.379  100.949
  480.750    4.908    0.266    0.357  104.204
  481.000    4.909    0.269    0.362  102.631
  481.250    4.975    0.279    0.369   93.510
  481.500    5.128    0.278    0.362   90.327
  481.750    5.256    0.271    0.352   89.373
  482.000    5.448    0.272    0.345   84.707
  482.250    5.636    0.264    0.350   90.807
  482.500    5.810    0.256    0.357  103.280
  482.750    5.865    0.258    0.365  111.545
  483.000    5.746    0.273    0.358  103.290
  483.250    5.576    0.279    0.302   89.957
  483.500    5.567    0.293    0.287   78.611
  483.750    5.716    0.334    0.275   64.105
  484.000    5.936    0.354    0.302   51.950
  484.250    6.224    0.350    0.341   63.620
  484.500    6.549    0.343    0.386   78.382
  484.750    6.970    0.343    0.412   76.745
  485.000    7.502    0.346    0.407   68.430
  485.250    8.197    0.340    0.381   60.608
  485.500    9.371    0.334    0.368   54.888
  485.750   10.876    0.329    0.371   53.809
  486.000   12.862    0.331    0.380   59.353
  486.250   15.442    0.332    0.389   64.587
  486.500   17.553    0.329    0.396   70.747
  486.750   22.214    0.325    0.382   77.531
  487.000   27.851    0.319    0.369   99.595
  487.250   29.696    0.314    0.361  137.810
  487.500   30.666    0.310    0.365  151.025
  487.750   31.137    0.314    0.369  148.277
  488.000   31.082    0.313    0.366  135.996
  488.250   30.450    0.308    0.359  127.063
  488.500   29.886    0.304    0.356  113.918
  488.750   28.090    0.306    0.352   96.691
  489.000   25.570    0.307    0.348   89.982
  489.250   22.886    0.308    0.343   89.213
  489.500   19.467    0.309    0.338   86.403
  489.750   16.779    0.309    0.333   81.920
  490.000   14.571    0.309    0.330   79.295
  490.250   13.164    0.310    0.331   80.075
  490.500   11.760    0.312    0.333   76.213
  490.750   10.407    0.315    0.337   69.689
  491.000    9.279    0.320    0.340   63.721
  491.250    8.431    0.323    0.335   56.271
  491.500    7.349    0.319    0.339   43.128
  491.750    6.275    0.315    0.337   42.112
  492.000    5.648    0.313    0.330   45.487
  492.250    5.200    0.313    0.326   46.514
  492.500    5.037    0.313    0.326   40.545
  492.750    4.916    0.315    0.327   35.321
  493.000    4.788    0.317    0.323   33.752
  493.250    4.647    0.317    0.320   41.707
  493.500    4.468    0.316    0.327   46.757
  493.750    4.303    0.318    0.341   51.000
