~VERSION INFORMATION
 VERS.                 2.0:   CWLS LOG ASCII STANDARD -VERSION 2.0
 WRAP.                  NO:   ONE LINE PER DEPTH STEP
~WELL INFORMATION BLOCK
#MNEM.UNIT           DATA                    DESCRIPTION OF MNEMONIC
#---------    -------------------            -------------------------------
# Generated from Intellog Unique Number	CS_67_68/WELL/2203
WELL.         11-04-067-03W4                 : Well_name    - WELL
LOC .         00/11-04-067-03W4/0            : Location     - LOCATION
UWI .         00/11-04-067-03W4/0            : Uwi          - UNIQUE WELL ID
ENTR.         SP                             : Entered      - ENTERED BY
SRVC.         SCHLUMBERGER                   : Scn          - SERVICE COMPANY
STRT.M        330                            : top_depth    - START DEPTH
STOP.M        555                            : bot_depth    - STOP DEPTH
STEP.M        0.25                           : increment    - STEP LENGTH
 NULL. -999.2500:NULL Value
~CURVE INFORMATION BLOCK
#MNEM UNIT       ERCB CURVE CODE    CURVE DESCRIPTION
#-----------   ------------------   ----------------------------------
DEPT.M        00 001 00 00         : DEPTH        - DEPTH
ILD .OHMM     00 120 00 00         : RESD         - DEEP RESISTIVITY (DIL)
DPHI.V/V      00 890 00 00         : PHID         - DENSITY POROSITY (LIMESTONE)
NPHI.V/V      00 330 00 00         : PHIN         - NEUTRON POROSITY (LIMESTONE)
GR  .API      00 310 00 00         : GR           - GAMMA RAY
CALI.MM       00 280 01 00         : CAL          - CALIPER
~PARAMETER INFORMATION
#MNEM.UNIT           DATA             DESCRIPTION OF MNEMONIC
#---------         -----------     ------------------------------
GL  .M        654.03               : gl           - GROUND LEVEL ELEVATION
EREF.M        657.79               : kb           - ELEVATION OF DEPTH REFERENCE
DATM.M        657.79               : datum        - DATUM ELEVATION
TDD .M        564                  : tdd          - TOTAL DEPTH DRILLER
RUN .         ONE                  : Run          - RUN NUMBER
ENG .         BILL                 : Engineer     - RECORDING ENGINEER
WIT .         JIM                  : Witness      - WITNESSED BY
MUD .         GEL                  : Mud_type     - MUD TYPE
MATR.         LIMESTONE            : Logunit      - NEUTRON MATRIX
TMAX.C        26                   : BHT          - MAXIMUM RECORDED TEMPERATURE
BHTD.M        564                  : BHTDEP       - MAXIMUM RECORDED TEMPERATURE
MATR.         1                    : LOGUNIT      - NEUTRON MATRIX
RMT .C        25                   : MDTP         - TEMPERATURE OF MUD
NEUT.         1                    : NEUTRON      - NEUTRON TYPE
RESI.         0                    : RESIST       - RESISTIVITY TYPE
RMC .OHMM     0.25                 : RMC          - RESISTIVITY OF MUD CAKE
RMF .OHMM     0.25                 : RMF          - RESISTIVITY OF MUD FILTRATE
SUFT.C        15                   : SUFT         - SURFACE TEMPERATURE
~A  DEPTH     RESD     PHID     PHIN       GR      CAL
# ...
  403.000    3.947    0.271    0.516  103.873  207.564
  403.250    4.550    0.243    0.518  104.724  208.068
  403.500    6.604    0.266    0.539   80.362  208.672
  403.750    9.933    0.322    0.556   63.876  208.870
  404.000   13.578    0.353    0.517   54.227  209.170
  404.250   17.188    0.370    0.491   37.373  209.572
  404.500   20.186    0.376    0.503   38.164  209.872
  404.750   22.707    0.373    0.497   37.733  210.172
  405.000   21.498    0.377    0.483   38.890  210.268
  405.250   19.641    0.372    0.469   40.535  210.873
  405.500   18.456    0.365    0.461   42.179  211.478
  405.750   17.703    0.361    0.457   40.223  212.083
  406.000   16.729    0.360    0.457   41.502  212.282
  406.250   15.142    0.362    0.449   42.537  210.953
  406.500   12.502    0.364    0.449   41.373  209.523
  406.750   10.188    0.366    0.459   40.332  208.500
  407.000    8.701    0.368    0.464   41.001  206.561
  407.250    7.657    0.369    0.451   41.241  205.131
  407.500    6.588    0.363    0.444   40.628  204.414
  407.750    5.975    0.355    0.451   39.587  204.002
  408.000    5.479    0.355    0.462   40.010  203.793
  408.250    5.091    0.367    0.463   41.106  203.177
  408.500    4.893    0.373    0.464   43.240  201.645
  408.750    4.881    0.396    0.482   45.373  199.706
  409.000    4.916    0.403    0.495   47.202  198.378
  409.250    4.924    0.391    0.478   44.268  197.049
  409.500    4.913    0.381    0.460   39.808  196.332
  409.750    4.911    0.375    0.449   38.706  196.429
  410.000    4.927    0.371    0.441   42.609  197.950
  410.250    4.934    0.374    0.449   45.110  199.063
  410.500    4.951    0.382    0.464   47.609  200.177
  410.750    4.959    0.382    0.460   48.400  201.291
  411.000    4.938    0.378    0.461   46.809  202.405
  411.250    4.927    0.375    0.460   45.462  203.112
  411.500    4.962    0.373    0.455   45.154  203.106
  411.750    4.988    0.374    0.450   46.433  203.203
  412.000    5.024    0.377    0.456   49.055  203.604
  412.250    5.032    0.380    0.449   51.677  204.311
  412.500    5.086    0.383    0.452   52.895  204.102
  412.750    5.142    0.382    0.464   55.456  203.892
  413.000    5.208    0.378    0.472   60.519  203.887
  413.250    5.385    0.375    0.465   66.133  203.780
  413.500    5.619    0.351    0.450   71.807  203.877
  413.750    5.789    0.324    0.437   76.078  204.278
  414.000    5.951    0.304    0.427   77.356  204.884
  414.250    5.926    0.306    0.422   71.370  206.099
  414.500    5.880    0.326    0.420   65.750  206.908
  414.750    5.715    0.344    0.434   65.441  207.918
  415.000    5.544    0.361    0.459   67.209  208.220
  415.250    5.429    0.373    0.487   66.901  208.418
  415.500    5.356    0.371    0.475   67.080  208.513
  415.750    5.364    0.371    0.462   68.420  208.509
  416.000    5.535    0.386    0.439   68.906  208.503
  416.250    5.649    0.381    0.422   67.620  206.666
  416.500    5.753    0.366    0.446   66.212  203.914
  416.750    5.960    0.363    0.466   65.050  201.975
  417.000    6.302    0.358    0.490   64.497  199.833
  417.250    6.467    0.349    0.510   64.310  198.403
  417.500    6.649    0.347    0.511   64.490  197.889
  417.750    6.759    0.346    0.509   64.487  197.884
  418.000    6.833    0.336    0.504   64.240  199.099
  418.250    6.869    0.330    0.491   63.565  202.044
  418.500    6.903    0.343    0.479   63.867  203.769
  418.750    6.915    0.354    0.469   65.390  204.068
  419.000    6.951    0.356    0.468   67.096  203.961
  419.250    6.962    0.354    0.468   66.482  204.465
  419.500    6.986    0.354    0.467   64.281  205.375
  419.750    6.983    0.357    0.479   62.508  206.285
  420.000    6.902    0.358    0.491   61.711  206.585
  420.250    6.887    0.351    0.504   61.463  206.274
  420.500    6.820    0.354    0.509   61.521  205.760
  420.750    6.741    0.358    0.502   61.884  205.246
  421.000    6.651    0.356    0.501   62.064  205.037
  421.250    6.561    0.357    0.508   61.145  204.726
  421.500    6.498    0.361    0.513   62.241  204.517
  421.750    6.423    0.367    0.509   65.046  204.512
  422.000    6.289    0.370    0.494   66.385  204.405
  422.250    6.252    0.365    0.477   64.795  204.705
  422.500    6.238    0.362    0.471   64.425  204.903
  422.750    6.271    0.370    0.466   63.018  204.795
  423.000    6.731    0.357    0.497   58.314  205.502
  423.250    8.331    0.124    0.512   52.755  206.006
  423.500   14.314    0.050    0.231   47.807  206.713
  423.750   27.364    0.024    0.123   42.858  207.216
  424.000   44.114    0.000    0.111   39.253  207.720
  424.250   52.491    0.000    0.110   43.951  208.121
  424.500   54.172    0.000    0.112   49.198  208.624
  424.750   34.796    0.032    0.141   54.566  207.703
  425.000   14.388    0.069    0.202   58.288  206.374
  425.250    8.935    0.157    0.439   61.459  205.758
  425.500    7.364    0.268    0.471   63.043  204.736
  425.750    6.456    0.350    0.487   61.147  204.628
  426.000    5.932    0.371    0.488   58.092  204.216
  426.250    5.605    0.365    0.485   56.501  203.702
  426.500    5.418    0.362    0.481   60.894  203.392
  426.750    5.325    0.361    0.487   63.454  202.979
  427.000    5.362    0.362    0.507   61.742  202.974
  427.250    5.391    0.371    0.518   56.549  203.171
  427.500    5.409    0.374    0.515   55.019  203.370
  427.750    5.387    0.373    0.507   60.450  203.568
  428.000    5.355    0.369    0.498   64.415  203.257
  428.250    5.323    0.365    0.493   63.984  203.862
  428.500    5.270    0.365    0.482   61.295  203.959
  428.750    5.249    0.360    0.472   62.206  204.258
  429.000    5.237    0.359    0.475   63.303  204.558
  429.250    5.235    0.368    0.474   60.369  205.162
  429.500    5.214    0.373    0.472   60.488  205.667
  429.750    5.212    0.358    0.482   61.034  206.780
  430.000    5.210    0.349    0.491   61.275  207.895
  430.250    5.218    0.343    0.498   63.897  209.618
  430.500    5.235    0.367    0.486   65.420  210.529
  430.750    5.233    0.362    0.488   64.195  210.829
  431.000    5.271    0.356    0.495   63.521  210.823
  431.250    5.298    0.362    0.474   62.724  212.140
  431.500    5.316    0.368    0.469   63.147  214.272
  431.750    5.384    0.366    0.500   63.511  216.302
  432.000    5.432    0.365    0.520   63.996  217.212
  432.250    5.482    0.366    0.511   64.909  213.035
  432.500    5.573    0.366    0.498   66.615  207.739
  432.750    5.709    0.359    0.496   67.100  204.172
  433.000    5.991    0.350    0.500   66.669  202.538
  433.250    6.229    0.344    0.487   63.919  201.921
  433.500    6.381    0.340    0.475   63.794  201.917
  433.750    6.572    0.337    0.471   65.011  201.505
  434.000    6.631    0.336    0.483   66.107  201.499
  434.250    6.704    0.337    0.479   67.263  201.290
  434.500    6.905    0.332    0.489   67.688  201.285
  434.750    7.166    0.318    0.488   67.135  201.585
  435.000    7.493    0.308    0.474   67.743  202.088
  435.250    7.747    0.307    0.474   69.876  202.591
  435.500    7.920    0.303    0.471   68.530  203.197
  435.750    7.917    0.295    0.463   64.680  203.700
  436.000    7.797    0.284    0.454   63.334  204.101
  436.250    7.535    0.279    0.448   65.345  203.689
  436.500    7.323    0.290    0.451   66.441  202.666
  436.750    7.131    0.308    0.465   65.339  201.236
  437.000    6.944    0.314    0.465   62.588  200.519
  437.250    6.876    0.307    0.451   66.736  201.124
  437.500    6.926    0.307    0.445   68.504  202.034
  437.750    7.027    0.313    0.452   68.378  201.520
  438.000    7.118    0.303    0.495   69.596  200.802
  438.250    7.062    0.297    0.521   71.119  200.898
  438.500    6.967    0.299    0.507   67.025  201.503
  438.750    6.835    0.305    0.471   62.443  202.312
  439.000    6.756    0.302    0.451   59.815  203.221
  439.250    6.665    0.301    0.442   64.451  203.726
