~VERSION INFORMATION
 VERS.                 2.0:   CWLS LOG ASCII STANDARD -VERSION 2.0
 WRAP.                  NO:   ONE LINE PER DEPTH STEP
~WELL INFORMATION BLOCK
#MNEM.UNIT           DATA                    DESCRIPTION OF MNEMONIC
#---------    -------------------            -------------------------------
# Generated from Intellog Unique Number	CW_73_75/WELL/2749
WELL.         COSEKA ETAL MITSUE 12-31       : Well_name    - WELL
LOC .         00/12-31-073-04W5/0            : Location     - LOCATION
UWI .         00/12-31-073-04W5/0            : Uwi          - UNIQUE WELL ID
ENTR.         JAYE                           : Entered      - ENTERED BY
SRVC.         WESTERN ATLAS                  : Scn          - SERVICE COMPANY
DATE.         19 JUNE 84                     : Date         - LOG DATE
STRT.M        365                            : top_depth    - START DEPTH
STOP.M        585                            : bot_depth    - STOP DEPTH
STEP.M        0.25                           : increment    - STEP LENGTH
 NULL. -999.2500:NULL Value
~CURVE INFORMATION BLOCK
#MNEM UNIT       ERCB CURVE CODE    CURVE DESCRIPTION
#-----------   ------------------   ----------------------------------
DEPT.M        00 001 00 00         : DEPTH        - DEPTH
DPHI.V/V      00 890 00 00         : PHID         - DENSITY POROSITY (SANDSTONE)
NPHI.V/V      00 330 00 00         : PHIN         - NEUTRON POROSITY (SANDSTONE)
GR  .API      00 310 00 00         : GR           - GAMMA RAY
CALI.MM       00 280 01 00         : CAL          - CALIPER
ILD .OHMM     00 120 00 00         : RESD         - DEEP RESISTIVITY (DIL)
~PARAMETER INFORMATION
#MNEM.UNIT           DATA             DESCRIPTION OF MNEMONIC
#---------         -----------     ------------------------------
GL  .M        585.2                : gl           - GROUND LEVEL ELEVATION
EREF.M        598.8                : kb           - ELEVATION OF DEPTH REFERENCE
DATM.M        585.2                : datum        - DATUM ELEVATION
TDD .M        1645                 : tdd          - TOTAL DEPTH DRILLER
RUN .         ONE                  : Run          - RUN NUMBER
ENG .         TAKEYASU             : Engineer     - RECORDING ENGINEER
WIT .         JONES                : Witness      - WITNESSED BY
BASE.         EDM                  : Branch       - HOME BASE OF LOGGING UNIT
MUD .         GEL CHEM             : Mud_type     - MUD TYPE
MATR.         SANDSTONE            : Logunit      - NEUTRON MATRIX
TMAX.C        49                   : BHT          - MAXIMUM RECORDED TEMPERATURE
BHTD.M        1645.6               : BHTDEP       - MAXIMUM RECORDED TEMPERATURE
RMT .C        16                   : MDTP         - TEMPERATURE OF MUD
MUDD.KG/M     1090                 : MWT          - MUD DENSITY
NEUT.         1                    : NEUTRON      - NEUTRON TYPE
RESI.         0                    : RESIST       - RESISTIVITY TYPE
RM  .OHMM     1.2                  : RM           - RESISTIVITY OF MUD
RMC .OHMM     1.2                  : RMC          - RESISTIVITY OF MUD CAKE
RMF .OHMM     0.6                  : RMF          - RESISTIVITY OF MUD FILTRATE
SUFT.C        0                    : SUFT         - SURFACE TEMPERATURE
~A  DEPTH     PHID     PHIN       GR      CAL     RESD
# ...
  547.500    0.267    0.414   79.059  280.171    5.002
  547.750    0.234    0.383   83.696  281.231    5.354
  548.000    0.245    0.379   88.766  281.258    5.511
  548.250    0.222    0.396   86.009  279.642    5.629
  548.500    0.216    0.416   84.055  277.206    5.751
  548.750    0.209    0.383   80.068  273.436    5.908
  549.000    0.201    0.382   71.152  269.254    6.253
  549.250    0.213    0.382   73.079  263.225    6.471
  549.500    0.216    0.355   75.252  262.845    6.550
  549.750    0.204    0.393   74.838  263.795    6.641
  550.000    0.191    0.408   71.775  267.827    6.734
  550.250    0.181    0.318   67.172  272.373    6.802
  550.500    0.200    0.350   66.203  259.773    6.871
  550.750    0.215    0.368   67.514  249.636    6.966
  551.000    0.223    0.366   70.673  264.554    7.050
  551.250    0.224    0.383   70.505  274.642    7.057
  551.500    0.221    0.373   75.327  285.145    6.944
  551.750    0.220    0.344   75.160  285.687    6.695
  552.000    0.218    0.383   68.030  284.898    6.466
  552.250    0.207    0.430   71.621  284.614    6.165
  552.500    0.189    0.368   79.339  285.052    5.976
  552.750    0.185    0.381   70.917  285.495    5.827
  553.000    0.187    0.368   64.279  285.523    5.723
  553.250    0.186    0.369   62.941  285.243    5.580
  553.500    0.187    0.365   69.796  285.679    5.360
  553.750    0.189    0.371   79.916  286.736    5.090
  554.000    0.206    0.346   77.038  288.611    4.816
  554.250    0.222    0.368   78.966  290.180    4.575
  554.500    0.263    0.402   82.802  292.161    4.312
  554.750    0.289    0.584   86.207  282.331    4.028
  555.000    0.270    0.531   85.424  284.927    3.762
  555.250    0.337    0.465   81.436  293.887    3.500
  555.500    0.385    0.441   76.588  306.442    3.368
  555.750    0.421    0.525   72.168  337.068    3.396
  556.000    0.618    0.538   72.431  339.252    3.615
  556.250    0.660    0.502   76.945  354.785    3.891
  556.500    0.325    0.390   77.024  348.960    4.429
  556.750    0.239    0.356   72.175  263.565    5.186
  557.000    0.198    0.354   73.609  263.697    6.014
  557.250    0.112    0.334   78.307  264.854    6.885
  557.500    0.120    0.279   82.698  265.807    7.565
  557.750    0.172    0.323   81.791  266.555    7.571
  558.000    0.190    0.319   80.392  264.323    7.177
  558.250    0.208    0.320   83.921  257.471    6.842
  558.500    0.233    0.369   86.709  258.836    6.463
  558.750    0.232    0.395   80.690  261.740    6.172
  559.000    0.207    0.411   81.445  265.053    5.995
  559.250    0.192    0.401   83.373  267.239    6.347
  559.500    0.181    0.386   82.527  267.677    6.692
  559.750    0.177    0.375   83.468  266.677    6.709
  560.000    0.179    0.364   84.164  264.962    6.702
  560.250    0.189    0.387   85.474  264.991    6.809
  560.500    0.199    0.360   76.928  266.152    6.903
  560.750    0.208    0.377   76.513  267.719    7.104
  561.000    0.214    0.425   81.028  269.389    7.231
  561.250    0.204    0.384   83.078  271.161    7.129
  561.500    0.188    0.402   81.739  274.788    6.746
  561.750    0.205    0.408   82.496  278.098    6.335
  562.000    0.213    0.427   82.697  281.411    5.906
  562.250    0.197    0.442   85.980  284.522    5.630
  562.500    0.180    0.400   90.063  286.601    5.459
  562.750    0.168    0.418   87.000  289.607    5.392
  563.000    0.203    0.365   85.847  289.225    5.336
  563.250    0.216    0.388   90.854  288.640    5.290
  563.500    0.174    0.394   95.121  288.358    5.082
  563.750    0.167    0.398   87.254  288.080    4.862
  564.000    0.170    0.374   82.218  288.416    4.524
  564.250    0.189    0.431   78.292  289.471    4.289
  564.500    0.240    0.448   74.737  293.708    4.333
  564.750    0.317    0.411   72.782  296.303    4.603
  565.000    0.209    0.331   71.999  293.047    4.918
  565.250    0.188    0.393   72.817  292.562    5.434
  565.500    0.285    0.326   75.606  296.697    5.740
  565.750    0.369    0.353   81.968  321.572    5.331
  566.000    0.494    0.370   70.588  336.079    3.551
  566.250    0.568    0.405   61.487  371.734    2.651
  566.500    0.653    0.436   53.619  372.790    2.148
  566.750    0.706    0.674   44.396  346.123    1.606
  567.000    0.825    0.629   36.959  368.843    1.324
  567.250    0.873    0.725   31.370  387.456    1.165
  567.500    0.888    0.811   32.126  387.998    1.098
  567.750    0.889    0.566   42.308  387.413    1.066
  568.000    0.888    0.494   46.822  387.029    1.059
  568.250    0.885    0.525   49.426  387.365    1.123
  568.500    0.880    0.567   54.865  387.186    1.207
  568.750    0.875    0.603   55.806  384.444    1.331
  569.000    0.861    0.569   60.690  377.078    1.624
  569.250    0.843    0.587   78.326  331.519    2.219
  569.500    0.645    0.533   91.465  235.958    2.923
  569.750    0.512    0.404   91.236  242.660    3.694
  570.000    0.532    0.371   83.182  256.036    4.269
  570.250    0.523    0.386   83.384  375.064    4.485
  570.500    0.519    0.414   86.728  360.821    4.463
  570.750    0.533    0.466   70.362  295.651    4.417
  571.000    0.571    0.496   66.803  272.476    4.234
  571.250    0.593    0.463   60.659  388.425    3.889
  571.500    0.858    0.496   56.487  389.480    3.518
  571.750    0.878    0.587   58.846  389.199    3.475
  572.000    0.882    0.515   62.496  388.304    3.459
  572.250    0.880    0.490   65.225  387.615    3.487
  572.500    0.868    0.564   64.626  386.206    3.549
  572.750    0.846    0.605   60.145  377.814    3.619
  573.000    0.785    0.518   67.062  363.673    3.676
  573.250    0.654    0.488   71.823  380.129    3.741
  573.500    0.701    0.449   73.503  385.497    3.865
  573.750    0.791    0.399   71.364  380.084    3.934
  574.000    0.798    0.403   59.492  376.725    3.922
  574.250    0.733    0.434   57.907  383.323    3.788
  574.500    0.720    0.516   63.345  386.229    3.511
  574.750    0.844    0.606   64.535  386.256    3.219
  575.000    0.840    0.546   62.209  374.683    2.995
  575.250    0.823    0.522   62.781  353.353    2.866
  575.500    0.812    0.480   63.168  324.736    2.779
  575.750    0.834    0.570   63.246  386.371    2.734
  576.000    0.845    0.796   61.722  387.117    2.716
  576.250    0.844    0.833   65.375  386.427    2.775
  576.500    0.845    0.652   61.695  385.735    2.782
  576.750    0.851    0.662   55.552  385.969    2.805
  577.000    0.851    0.635   60.250  385.382    2.882
  577.250    0.849    0.492   71.542  377.095    3.050
  577.500    0.844    0.509   84.927  357.307    3.246
  577.750    0.829    0.522   82.726  266.058    3.423
  578.000    0.783    0.533   85.393  264.855    3.504
  578.250    0.604    0.567   81.959  266.525    3.552
  578.500    0.687    0.613   78.341  267.992    3.649
  578.750    0.758    0.634   78.358  262.682    3.819
  579.000    0.704    0.496   79.793  262.407    4.035
  579.250    0.417    0.483   83.261  266.846    4.138
  579.500    0.415    0.454   82.847  278.578    4.079
  579.750    0.491    0.479   84.526  292.364    3.889
  580.000    0.521    0.526   83.065  353.483    3.552
  580.250    0.557    0.585   70.452  379.900    3.274
  580.500    0.526    0.530   67.637  380.646    3.063
  580.750    0.566    0.501   63.033  368.662    2.803
  581.000    0.780    0.623   65.267  376.596    2.687
  581.250    0.694    0.687   71.076  347.159    2.761
  581.500    0.481    0.688   76.329  284.759    2.895
  581.750    0.465    0.646   81.336  244.130    3.163
  582.000    0.527    0.503   73.652  232.659    3.641
  582.250    0.501    0.433   61.719  226.734    4.968
  582.500    0.453    0.411   51.817  225.117    7.597
  582.750    0.203    0.320   43.948  223.605   11.573
  583.000    0.187    0.338   50.865  221.685   15.470
  583.250    0.192    0.347   58.029  220.383   20.146
  583.500    0.191    0.335   47.204  219.792   19.938
  583.750    0.177    0.304   39.090  219.003   18.006
