~VERSION INFORMATION
 VERS.                 2.0:   CWLS LOG ASCII STANDARD -VERSION 2.0
 WRAP.                  NO:   ONE LINE PER DEPTH STEP
~WELL INFORMATION BLOCK
#MNEM.UNIT           DATA                    DESCRIPTION OF MNEMONIC
#---------    -------------------            -------------------------------
# Generated from Intellog Unique Number	nealta/WELL/2304
WELL.         AMOCO PELICAN                  : Well_name    - WELL
LOC .         10-29-077-24W4                 : Location     - LOCATION
UWI .         00/10-29-077-24W4/0            : Uwi          - UNIQUE WELL ID
ENTR.         JAYE                           : Entered      - ENTERED BY
SRVC.         WESTERN ATLAS                  : Scn          - SERVICE COMPANY
DATE.         4 FEB 79                       : Date         - LOG DATE
STRT.M        365                            : top_depth    - START DEPTH
STOP.M        640                            : bot_depth    - STOP DEPTH
STEP.M        0.25                           : increment    - STEP LENGTH
 NULL. -999.2500:NULL Value
~CURVE INFORMATION BLOCK
#MNEM UNIT       ERCB CURVE CODE    CURVE DESCRIPTION
#-----------   ------------------   ----------------------------------
DEPT.M        00 001 00 00         : DEPTH        - DEPTH
GR  .API      00 310 00 00         : GR           - GAMMA RAY
ILD .OHMM     00 120 00 00         : RESD         - DEEP RESISTIVITY (DIL)
CALI.MM       00 280 01 00         : CAL          - CALIPER
NPHI.V/V      00 330 00 00         : PHIN         - NEUTRON POROSITY (SANDSTONE)
DPHI.V/V      00 890 00 00         : PHID         - DENSITY POROSITY (SANDSTONE)
~PARAMETER INFORMATION
#MNEM.UNIT           DATA             DESCRIPTION OF MNEMONIC
#---------         -----------     ------------------------------
GL  .M        666.57               : gl           - GROUND LEVEL ELEVATION
EREF.M        670.67               : kb           - ELEVATION OF DEPTH REFERENCE
DATM.M        666.57               : datum        - DATUM ELEVATION
TDD .M        642                  : tdd          - TOTAL DEPTH DRILLER
RUN .         ONE                  : Run          - RUN NUMBER
ENG .         FRENNETTE            : Engineer     - RECORDING ENGINEER
WIT .         LAMPEN               : Witness      - WITNESSED BY
BASE.         R.D.                 : Branch       - HOME BASE OF LOGGING UNIT
MUD .         GEL CHEM             : Mud_type     - MUD TYPE
MATR.         SANDSTONE            : Logunit      - NEUTRON MATRIX
TMAX.C        29                   : BHT          - MAXIMUM RECORDED TEMPERATURE
BHTD.M        643.4                : BHTDEP       - MAXIMUM RECORDED TEMPERATURE
RMT .C        15.5                 : MDTP         - TEMPERATURE OF MUD
MUDD.KG/M     1050                 : MWT          - MUD DENSITY
NEUT.         1                    : NEUTRON      - NEUTRON TYPE
RESI.         0                    : RESIST       - RESISTIVITY TYPE
RM  .OHMM     5.1                  : RM           - RESISTIVITY OF MUD
RMC .OHMM     6.87                 : RMC          - RESISTIVITY OF MUD CAKE
RMF .OHMM     5.5                  : RMF          - RESISTIVITY OF MUD FILTRATE
SUFT.C        4.5                  : SUFT         - SURFACE TEMPERATURE
~A  DEPTH       GR     RESD      CAL     PHIN     PHID
# ...
  620.500   79.694    4.063  204.164    0.387    0.118
  620.750   72.908    4.554  203.600    0.394    0.158
  621.000   75.738    5.287  203.148    0.399    0.118
  621.250   98.106    5.806  202.998    0.395    0.124
  621.500   92.436    6.008  202.756    0.388    0.150
  621.750   78.643    6.125  202.714    0.372    0.167
  622.000   84.822    6.175  202.373    0.350    0.156
  622.250   82.196    6.226  202.327    0.338    0.145
  622.500   76.213    6.431  202.487    0.339    0.149
  622.750   72.529    6.767  203.482    0.341    0.136
  623.000   92.788    7.186  204.475    0.347    0.107
  623.250  108.890    7.877  204.335    0.369    0.107
  623.500  124.185    8.812  203.889    0.420    0.098
  623.750  115.291   10.346  203.116    0.486    0.094
  624.000   97.528   10.988  201.527    0.516    0.134
  624.250   87.517   10.497  201.067    0.542    0.554
  624.500   87.493    9.662  201.235    0.573    0.578
  624.750  101.487    8.001  201.196    0.596    0.586
  625.000  131.236    6.540  201.166    0.607    0.510
  625.250  150.005    6.133  201.011    0.599    0.468
  625.500  172.002    6.115  201.394    0.585    0.427
  625.750  191.514    6.482  201.861    0.579    0.231
  626.000  214.874    6.948  202.229    0.581    0.210
  626.250  232.030    6.763  202.397    0.575    0.114
  626.500  252.787    6.473  202.887    0.560    0.106
  626.750  244.883    6.139  203.560    0.542    0.100
  627.000  231.776    5.907  204.139    0.526    0.093
  627.250  222.320    5.633  205.956    0.514    0.083
  627.500  210.514    5.293  208.504    0.504    0.065
  627.750  203.540    5.151  210.426    0.491    0.047
  628.000  197.436    5.014  211.213    0.476    0.002
  628.250  190.778    4.980  211.274    0.483   -0.007
  628.500  183.931    4.993  210.309    0.502    0.016
  628.750  178.198    5.072  209.241    0.496    0.043
  629.000  171.227    5.171  208.570    0.492    0.023
  629.250  163.139    5.370  208.015    0.471    0.039
  629.500  154.555    5.640  209.420    0.449    0.067
  629.750  147.151    5.912  211.548    0.449    0.045
  630.000  142.349    6.326  215.440    0.468    0.032
  630.250  142.573    6.883  220.776    0.495    0.130
  630.500  143.665    7.405  225.694    0.511    0.112
  630.750  146.618    7.508  228.969    0.507    0.097
  631.000  160.798    6.647  230.164    0.497    0.078
  631.250  183.724    5.100  229.499    0.483    0.082
  631.500  195.981    3.063  226.978    0.463    0.093
  631.750  208.176    2.686  223.527    0.453    0.064
  632.000  220.370    2.928  216.357    0.444    0.018
  632.250  236.971    3.463  211.043    0.429   -0.010
  632.500  226.711    3.371  206.764    0.393    0.067
  632.750  187.672    2.474  204.964    0.368    0.206
  633.000  164.946    2.536  204.510    0.368    0.209
  633.250  110.962    2.780  204.579    0.342    0.202
  633.500  114.474    3.276  204.224    0.316    0.180
  633.750  118.296    3.818  205.216    0.312    0.156
  634.000  120.996    4.303  208.590    0.310    0.134
  634.250  116.817    4.787  212.579    0.307    0.124
  634.500  118.406    5.199  214.294    0.297    0.126
  634.750  120.613    5.511  214.877    0.304    0.118
  635.000  127.102    5.619  215.470    0.316    0.109
  635.250  135.016    5.602  216.357    0.315    0.123
  635.500  144.731    5.565  217.148    0.309    0.120
  635.750  154.258    5.487  217.400    0.322    0.113
  636.000  149.955    5.420  216.533    0.339    0.118
  636.250  147.698    5.394  213.806    0.356    0.129
  636.500  147.054    5.428  212.632    0.367    0.104
  636.750  143.805    5.513  213.827    0.368    0.073
  637.000  130.878    5.737  215.442    0.361    0.124
  637.250  107.283    6.418  217.059    0.345    0.097
  637.500   89.272    7.220  218.572    0.331   -0.005
  637.750   87.078    7.199  215.740    0.316   -0.024
  638.000   85.873    6.481  212.184    0.297    0.000
  638.250   85.542    5.559  210.074    0.276    0.044
  638.500   84.652    4.858  207.652    0.275    0.068
  638.750   86.236    4.547  205.543    0.292    0.087
  639.000   83.856    4.401  204.266    0.301    0.090
  639.250   84.018    4.331  203.085    0.304    0.080
  639.500   86.041    4.318  202.435    0.303    0.080
  639.750   86.389    4.552  202.076    0.301    0.065
  640.000   84.383    4.746  201.828    0.299    0.054
