~VERSION INFORMATION
 VERS.                 2.0:   CWLS LOG ASCII STANDARD -VERSION 2.0
 WRAP.                  NO:   ONE LINE PER DEPTH STEP
~WELL INFORMATION BLOCK
#MNEM.UNIT           DATA                    DESCRIPTION OF MNEMONIC
#---------    -------------------            -------------------------------
# Generated from Intellog Unique Number	CW_70_72/WELL/1054
NULL.         -999.25                        : NULL_VALUE
WELL.         AMOCO WINTERSHALL CALL 11-06   : Well_name    - WELL              
LOC .         11-06-072-19W4                 : Location     - LOCATION          
UWI .         00/11-06-072-19W4/0            : Uwi          - UNIQUE WELL ID    
ENTR.         JAYE                           : Entered      - ENTERED BY        
SRVC.         SCHLUMBERGER                   : Scn          - SERVICE COMPANY   
DATE.         11 MAR 78                      : Date         - LOG DATE          
STRT.M        310.896                        : top_depth    - START DEPTH       
STOP.M        487.646                        : bot_depth    - STOP DEPTH        
STEP.M        0.25                           : increment    - STEP LENGTH       
~CURVE INFORMATION BLOCK
#MNEM UNIT       ERCB CURVE CODE    CURVE DESCRIPTION
#-----------   ------------------   ----------------------------------
DEPT.M        00 001 00 00         : DEPTH        - DEPTH                       
DPHI.V/V      00 890 00 00         : PHID         - DENSITY POROSITY (SANDSTONE)
NPHI.V/V      00 330 00 00         : PHIN         - NEUTRON POROSITY (SANDSTONE)
GR  .API      00 310 00 00         : GR           - GAMMA RAY                   
CALI.MM       00 280 01 00         : CAL          - CALIPER                     
ILD .OHMM     00 120 00 00         : RESD         - DEEP RESISTIVITY (DIL)      
~PARAMETER INFORMATION       
#MNEM.UNIT           DATA             DESCRIPTION OF MNEMONIC
#---------         -----------     ------------------------------
GL  .M        592.684              : gl           - GROUND LEVEL ELEVATION      
EREF.M        595.884              : kb           - ELEVATION OF DEPTH REFERENCE
DATM.M        592.684              : datum        - DATUM ELEVATION             
TDD .M        502.92               : tdd          - TOTAL DEPTH DRILLER         
RUN .         ONE                  : Run          - RUN NUMBER                  
MATR.         SANDSTONE            : Logunit      - NEUTRON MATRIX              
TMAX.C        23.3333              : BHT          - MAXIMUM RECORDED TEMPERATURE
BHTD.M        503.834              : BHTDEP       - MAXIMUM RECORDED TEMPERATURE
RMT .C        23.3333              : MDTP         - TEMPERATURE OF MUD          
MUDD.KG/M     0                    : MWT          - MUD DENSITY                 
NEUT.         1                    : NEUTRON      - NEUTRON TYPE                
RESI.         0                    : RESIST       - RESISTIVITY TYPE            
RM  .OHMM     2.4                  : RM           - RESISTIVITY OF MUD          
RMC .OHMM     0                    : RMC          - RESISTIVITY OF MUD CAKE     
RMF .OHMM     2.45                 : RMF          - RESISTIVITY OF MUD FILTRATE 
SUFT.C        -17.7778             : SUFT         - SURFACE TEMPERATURE         
~A  DEPTH     PHID     PHIN       GR      CAL     RESD
# ...
  347.396    0.191    0.427   97.695  186.408    4.796
  347.646    0.190    0.452  100.005  188.326    4.850
  347.896    0.217    0.481  106.914  190.557    5.219
  348.146    0.244    0.475  103.573  193.003    5.551
  348.396    0.226    0.453   98.681  193.655    5.973
  348.646    0.219    0.438   95.776  197.044    6.282
  348.896    0.194    0.439   93.616  196.017    6.389
  349.146    0.164    0.447   90.213  193.515    6.330
  349.396    0.141    0.454   85.072  197.223    6.246
  349.646    0.189    0.469   86.949  195.245    6.140
  349.896    0.177    0.483   93.921  192.008    6.014
  350.146    0.163    0.501   96.294  189.511    5.902
  350.396    0.183    0.484   96.370  188.796    5.812
  350.646    0.198    0.463   98.558  189.032    5.651
  350.896    0.188    0.459  103.232  189.056    5.463
  351.146    0.168    0.445  106.847  189.499    5.241
  351.396    0.137    0.453  113.134  190.047    4.981
  351.646    0.128    0.461  118.428  190.388    4.647
  351.896    0.137    0.473  121.051  190.726    4.466
  352.146    0.145    0.478  119.080  194.114    4.407
  352.396    0.164    0.471  115.986  202.552    4.423
  352.646    0.184    0.457  111.465  201.208    4.620
  352.896    0.204    0.446  106.883  193.765    4.776
  353.146    0.217    0.426  102.300  191.055    5.120
  353.396    0.221    0.416   98.091  189.713    5.518
  353.646    0.210    0.415   94.813  189.734    6.200
  353.896    0.213    0.428   90.231  190.809    6.924
  354.146    0.233    0.448   85.958  191.464    8.464
  354.396    0.255    0.446   73.301  188.122   10.288
  354.646    0.271    0.437   61.949  187.829   10.662
  354.896    0.279    0.436   59.354  190.062   10.094
  355.146    0.302    0.457   60.859  192.294    8.509
  355.396    0.268    0.456   63.294  192.002    7.431
  355.646    0.253    0.444   66.974  189.607    6.516
  355.896    0.261    0.420   71.025  181.216    5.964
  356.146    0.236    0.408   73.647  180.506    5.522
  356.396    0.253    0.402   74.904  182.422    5.260
  356.646    0.263    0.415   75.042  186.547    5.161
  356.896    0.281    0.412   73.814  189.831    5.094
  357.146    0.294    0.397   73.392  190.803    5.073
  357.396    0.284    0.407   74.153  191.245    5.062
  357.646    0.270    0.429   75.347  191.797    5.054
  357.896    0.273    0.434   76.602  191.714    5.053
  358.146    0.280    0.436   76.617  187.322    5.052
  358.396    0.263    0.438   76.444  179.034    5.044
  358.646    0.257    0.445   76.768  177.270    5.032
  358.896    0.266    0.451   78.460  178.345    5.013
  359.146    0.281    0.455   77.542  183.208    4.993
  359.396    0.303    0.451   75.134  188.910    4.975
  359.646    0.269    0.443   76.949  179.784    4.946
  359.896    0.273    0.437   77.770  172.761    4.935
  360.146    0.283    0.443   76.294  168.366    4.908
  360.396    0.267    0.444   74.197  169.025    4.888
  360.646    0.279    0.432   72.907  169.044    4.889
  360.896    0.285    0.429   70.747  167.385    4.878
  361.146    0.266    0.448   68.151  169.094    4.868
  361.396    0.262    0.432   65.309  174.691    4.842
  361.646    0.270    0.418   63.085  182.076    4.822
  361.896    0.282    0.412   63.599  187.570    4.777
  362.146    0.296    0.414   65.784  189.907    4.776
  362.396    0.290    0.431   67.537  190.352    4.749
  362.646    0.296    0.456   65.191  190.270    4.730
  362.896    0.289    0.457   63.403  189.454    4.695
  363.146    0.284    0.430   62.673  188.740    4.677
  363.396    0.290    0.414   62.065  187.816    4.668
  363.646    0.297    0.415   61.459  187.421    4.675
  363.896    0.289    0.432   61.099  188.494    4.675
  364.146    0.282    0.440   61.113  192.620    4.657
  364.396    0.289    0.432   62.245  184.020    4.658
  364.646    0.308    0.441   65.489  177.101    4.639
  364.896    0.298    0.454   69.974  178.915    4.612
  365.146    0.281    0.457   74.647  182.933    4.594
  365.396    0.304    0.437   73.109  176.857    4.562
  365.646    0.280    0.432   72.749  172.464    4.527
  365.896    0.290    0.435   73.137  172.592    4.524
  366.146    0.287    0.437   74.581  173.036    4.532
  366.396    0.284    0.434   77.325  173.481    4.532
  366.646    0.276    0.450   74.236  178.240    4.507
  366.896    0.272    0.436   71.144  175.948    4.480
  367.146    0.273    0.420   69.356  171.028    4.445
  367.396    0.283    0.430   68.502  173.471    4.395
  367.646    0.289    0.438   68.451  178.016    4.362
  367.896    0.290    0.442   69.211  172.255    4.329
  368.146    0.291    0.445   70.342  155.660    4.305
  368.396    0.299    0.452   72.593  154.107    4.288
  368.646    0.299    0.458   74.098  158.653    4.271
  368.896    0.277    0.458   71.565  158.572    4.264
  369.146    0.272    0.445   71.517  159.542    4.288
  369.396    0.287    0.446   72.835  165.245    4.310
  369.646    0.280    0.454   74.961  171.263    4.360
  369.896    0.264    0.455   74.169  174.232    4.424
  370.146    0.294    0.440   72.629  179.724    4.474
  370.396    0.288    0.457   71.090  186.165    4.491
  370.646    0.303    0.484   68.496  187.029    4.490
  370.896    0.290    0.461   67.080  188.212    4.499
  371.146    0.288    0.463   69.019  189.917    4.514
  371.396    0.293    0.472   72.822  189.836    4.515
  371.646    0.305    0.471   74.390  189.125    4.522
  371.896    0.301    0.467   72.292  188.412    4.522
  372.146    0.284    0.454   71.002  188.012    4.537
  372.396    0.261    0.454   69.773  188.144    4.528
  372.646    0.280    0.466   68.606  188.697    4.528
  372.896    0.287    0.473   66.944  189.346    4.519
  373.146    0.287    0.480   65.716  190.210    4.476
  373.396    0.268    0.466   65.730  192.127    4.418
  373.646    0.302    0.433   66.242  194.678    4.401
  373.896    0.304    0.435   66.192  194.805    4.384
  374.146    0.294    0.441   65.087  195.041    4.409
  374.396    0.294    0.447   63.737  194.854    4.500
  374.646    0.294    0.456   62.320  194.351    4.638
  374.896    0.290    0.466   62.707  193.952    4.751
  375.146    0.291    0.480   63.901  194.502    4.830
  375.396    0.296    0.479   64.537  196.738    4.950
  375.646    0.309    0.463   64.737  197.599    5.216
  375.896    0.307    0.437   65.185  196.891    5.761
  376.146    0.298    0.439   65.883  195.757    6.886
  376.396    0.306    0.456   68.256  194.622    8.108
  376.646    0.298    0.460   72.433  193.489    8.690
  376.896    0.263    0.459   75.924  193.195    8.463
  377.146    0.264    0.458   71.901  192.694    8.150
  377.396    0.267    0.457   67.258  192.716    7.659
  377.646    0.256    0.455   64.603  195.264    7.078
  377.896    0.239    0.454   64.925  196.236    6.602
  378.146    0.215    0.446   67.982  193.526    6.125
  378.396    0.203    0.438   73.772  191.445    5.691
  378.646    0.260    0.448   77.575  189.681    5.289
  378.896    0.275    0.450   80.385  188.125    4.952
  379.146    0.285    0.443   76.362  183.838    4.760
  379.396    0.287    0.434   75.694  180.916    4.628
  379.646    0.261    0.431   78.563  185.147    4.566
  379.896    0.262    0.425   75.285  189.167    4.550
  380.146    0.261    0.456   75.363  193.608    4.523
  380.396    0.252    0.485   74.630  194.262    4.505
  380.646    0.265    0.488   74.955  193.553    4.496
  380.896    0.260    0.471   76.584  192.837    4.497
  381.146    0.254    0.467   80.388  192.652    4.495
  381.396    0.254    0.473   82.265  192.677    4.487
  381.646    0.255    0.474   83.209  192.910    4.487
  381.896    0.261    0.471   83.285  194.404    4.502
  382.146    0.266    0.467   83.051  196.110    4.544
  382.396    0.271    0.463   83.189  195.609    4.562
  382.646    0.279    0.459   81.712  194.160    4.561
  382.896    0.277    0.448   80.732  193.342    4.569
  383.146    0.266    0.476   81.243  186.635    4.585
  383.396    0.247    0.497   83.741  184.135    4.734
  383.646    0.257    0.465   86.240  183.213    5.007
