~VERSION INFORMATION
 VERS.                 2.0:   CWLS LOG ASCII STANDARD -VERSION 2.0
 WRAP.                  NO:   ONE LINE PER DEPTH STEP
~WELL INFORMATION BLOCK
#MNEM.UNIT           DATA                    DESCRIPTION OF MNEMONIC
#---------    -------------------            -------------------------------
# Generated from Intellog Unique Number	CW_82_90/WELL/877
WELL.         TEXEX TEXCAN MUSKWA 10-17-084- : Well_name    - WELL
LOC .         00/10-17-084-25W4/0            : Location     - LOCATION
UWI .         00/10-17-084-25W4/0            : Uwi          - UNIQUE WELL ID
ENTR.         JAYE                           : Entered      - ENTERED BY
SRVC.         SCHLUMBERGER                   : Scn          - SERVICE COMPANY
DATE.         23 JAN 76                      : Date         - LOG DATE
STRT.F        650                            : top_depth    - START DEPTH
STOP.F        1320.11                        : bot_depth    - STOP DEPTH
STEP.F        0.82                           : increment    - STEP LENGTH
 NULL. -999.2500:NULL Value
~CURVE INFORMATION BLOCK
#MNEM UNIT       ERCB CURVE CODE    CURVE DESCRIPTION
#-----------   ------------------   ----------------------------------
DEPT.F        00 001 00 00         : DEPTH        - DEPTH
GR  .API      00 310 00 00         : GR           - GAMMA RAY
NPHI.V/V      00 330 00 00         : PHIN         - NEUTRON POROSITY (SANDSTONE)
DPHI.V/V      00 890 00 00         : PHID         - DENSITY POROSITY (SANDSTONE)
ILD .OHMM     00 120 00 00         : RESD         - DEEP RESISTIVITY (DLL)
~PARAMETER INFORMATION
#MNEM.UNIT           DATA             DESCRIPTION OF MNEMONIC
#---------         -----------     ------------------------------
GL  .M        543.154              : gl           - GROUND LEVEL ELEVATION
EREF.M        546.811              : kb           - ELEVATION OF DEPTH REFERENCE
DATM.M        543.154              : datum        - DATUM ELEVATION
TDD .M        388.62               : tdd          - TOTAL DEPTH DRILLER
RUN .         ONE                  : Run          - RUN NUMBER
ENG .         SKOWORODKO           : Engineer     - RECORDING ENGINEER
WIT .         NICOUD &YANITSKI     : Witness      - WITNESSED BY
BASE.         EDMONTON             : Branch       - HOME BASE OF LOGGING UNIT
MATR.         SANDSTONE            : Logunit      - NEUTRON MATRIX
TMAX.F        75                   : BHT          - MAXIMUM RECORDED TEMPERATURE
BHTD.F        1340                 : BHTDEP       - MAXIMUM RECORDED TEMPERATURE
RMT .F        55                   : MDTP         - TEMPERATURE OF MUD
MUDD.LB/G     0                    : MWT          - MUD DENSITY
NEUT.         0                    : NEUTRON      - NEUTRON TYPE
RESI.         1                    : RESIST       - RESISTIVITY TYPE
RM  .OHMM     6.15                 : RM           - RESISTIVITY OF MUD
RMC .OHMM     0                    : RMC          - RESISTIVITY OF MUD CAKE
RMF .OHMM     6.1                  : RMF          - RESISTIVITY OF MUD FILTRATE
SUFT.F        4                    : SUFT         - SURFACE TEMPERATURE
~A  DEPTH       GR     PHIN     PHID     RESD
# ...
  935.433   81.347    0.471    0.181    8.424
  936.253   84.408    0.470    0.223    7.153
  937.073   86.242    0.466    0.248    6.074
  937.894   86.841    0.475    0.257    5.446
  938.714   86.825    0.491    0.268    5.753
  939.534   83.742    0.486    0.282    6.779
  940.354   76.967    0.472    0.303    7.426
  941.175   72.651    0.477    0.302    8.592
  941.995   72.020    0.486    0.294    9.412
  942.815   70.778    0.461    0.281   10.125
  943.635   68.921    0.445    0.271   10.504
  944.455   66.442    0.431    0.259   10.505
  945.276   64.585    0.415    0.236   10.508
  946.096   65.184    0.383    0.227   10.510
  946.916   65.789    0.371    0.206   10.902
  947.736   66.391    0.380    0.195   10.904
  948.556   66.996    0.402    0.223   10.907
  949.377   65.747    0.413    0.229   10.712
  950.197   65.120    0.435    0.241   10.912
  951.017   63.877    0.402    0.256   11.114
  951.837   63.868    0.382    0.204   11.741
  952.657   62.619    0.351    0.169   12.402
  953.478   63.221    0.359    0.148   13.587
  954.298   65.055    0.408    0.171   14.616
  955.118   68.728    0.434    0.195   13.843
  955.938   71.792    0.447    0.213   12.641
  956.759   75.464    0.463    0.236   11.335
  957.579   80.369    0.471    0.213    9.801
  958.399   84.045    0.469    0.189    8.322
  959.219   88.950    0.464    0.190    7.739
  960.039   92.622    0.466    0.194    7.329
  960.860   94.454    0.470    0.200    7.331
  961.680   97.511    0.462    0.213    7.332
  962.500   99.343    0.448    0.215    7.072
  963.320  100.556    0.451    0.211    6.946
  964.140  100.546    0.458    0.210    6.822
  964.961  100.533    0.468    0.210    6.949
  965.781  100.521    0.477    0.212    6.950
  966.601  100.508    0.486    0.226    6.952
  967.421  100.495    0.472    0.235    7.081
  968.241  100.479    0.472    0.235    7.082
  969.062   99.851    0.480    0.228    7.084
  969.882   99.224    0.491    0.229    7.215
  970.702   97.367    0.491    0.228    7.350
  971.522   92.436    0.480    0.229    7.624
  972.343   86.269    0.455    0.230    7.908
  973.163   86.256    0.434    0.224    8.203
  973.983   88.706    0.425    0.229    8.509
  974.803   93.608    0.464    0.233    8.512
  975.623   94.213    0.457    0.240    8.512
  976.444   90.508    0.447    0.251    8.210
  977.264   89.881    0.452    0.262    7.776
  978.084   90.483    0.476    0.274    7.499
  978.904   90.470    0.483    0.285    7.501
  979.724   83.077    0.469    0.287    7.641
  980.545   80.605    0.459    0.293    7.926
  981.365   81.204    0.459    0.302    8.073
  982.185   83.038    0.454    0.309    8.223
  983.005   87.940    0.451    0.297    8.375
  983.825   91.001    0.445    0.280    8.377
  984.646   90.985    0.441    0.262    8.533
  985.466   89.131    0.445    0.247    8.534
  986.286   88.500    0.457    0.235    8.537
  987.106   87.873    0.470    0.235    8.538
  987.927   87.860    0.480    0.240    8.540
  988.747   87.847    0.470    0.245    8.388
  989.567   87.834    0.458    0.253    8.090
  990.387   87.818    0.460    0.257    7.945
  991.207   87.805    0.466    0.256    7.663
  992.028   87.792    0.477    0.252    7.526
  992.848   86.550    0.500    0.264    7.259
  993.668   84.078    0.492    0.290    7.261
  994.488   82.218    0.474    0.293    7.396
  995.308   80.975    0.474    0.259    7.397
  996.129   80.348    0.474    0.264    7.398
  996.949   81.564    0.470    0.278    7.816
  997.769   83.396    0.472    0.275    7.817
  998.589   85.839    0.477    0.256    7.540
  999.409   87.670    0.485    0.252    7.140
 1000.230   83.351    0.487    0.247    6.762
 1001.050   79.035    0.474    0.222    6.175
 1001.870   74.722    0.395    0.184    5.538
 1002.690   69.173    0.365    0.160    5.439
 1003.510   63.013    0.252    0.160    5.850
 1004.330   58.697    0.249    0.160    6.647
 1005.150   54.993    0.235    0.132    9.060
 1005.970   67.889    0.230    0.034   10.675
 1006.790   74.024    0.399    0.055   10.296
 1007.610   77.699    0.462    0.103   10.112
 1008.430   78.301    0.498    0.193    9.576
 1009.250   78.288    0.488    0.197    8.280
 1010.070   78.884    0.476    0.199    7.291
 1010.890   80.100    0.474    0.201    6.538
 1011.710   81.317    0.463    0.205    5.971
 1012.530   81.304    0.460    0.205    5.655
 1013.350   81.906    0.465    0.205    5.454
 1014.170   83.737    0.474    0.203    5.455
 1014.990   86.184    0.483    0.204    5.456
 1015.810   88.630    0.494    0.206    5.557
 1016.630   90.461    0.496    0.206    5.360
 1017.450   92.293    0.487    0.204    5.362
 1018.270   88.585    0.483    0.203    5.362
 1019.090   87.957    0.477    0.205    5.363
 1019.910   88.562    0.483    0.209    5.463
 1020.730   89.776    0.487    0.215    5.464
 1021.560   90.381    0.492    0.223    5.566
 1022.380   92.209    0.494    0.226    5.567
 1023.200   93.426    0.499    0.216    5.671
 1024.020   94.027    0.503    0.205    5.776
 1024.840   95.244    0.502    0.205    5.991
 1025.660   96.454    0.502    0.205    6.103
 1026.480   97.056    0.496    0.205    6.447
 1027.300   97.658    0.473    0.205    6.566
 1028.120   97.648    0.475    0.205    6.567
 1028.940   97.632    0.474    0.206    6.813
 1029.760   97.616    0.473    0.211    6.939
 1030.580   97.603    0.468    0.214    7.068
 1031.400   98.202    0.462    0.217    7.199
 1032.220   98.196    0.458    0.222    7.606
 1033.040   98.798    0.459    0.227    7.747
 1033.860   97.549    0.460    0.233    7.891
 1034.680   95.695    0.454    0.235    8.038
 1035.500   94.449    0.450    0.240    8.039
 1036.320   93.207    0.452    0.243    8.189
 1037.140   87.662    0.457    0.246    8.341
 1037.960   80.269    0.462    0.250    8.811
 1038.780   78.412    0.457    0.215    9.478
 1039.600   77.169    0.407    0.169   10.966
 1040.420   74.698    0.370    0.131   13.646
 1041.240   69.767    0.260    0.038   18.264
 1042.060   69.133    0.245    0.033   23.145
 1042.880   70.353    0.316    0.074   20.380
 1043.700   72.187    0.375    0.102   15.514
 1044.520   77.089    0.408    0.128   12.247
 1045.340   81.376    0.439    0.145   10.211
 1046.160   81.367    0.468    0.153   10.213
 1046.980   81.350    0.431    0.218   10.595
 1047.800   80.726    0.408    0.199   10.791
 1048.620   78.248    0.377    0.126   11.400
 1049.440   77.005    0.370    0.095   11.402
 1050.260   77.611    0.439    0.182   10.997
 1051.080   79.439    0.452    0.199   10.606
 1051.900   82.496    0.453    0.175   11.203
 1052.720   84.328    0.427    0.148   12.052
 1053.540   83.085    0.383    0.128   12.732
 1054.360   81.843    0.358    0.130   12.057
 1055.180   81.830    0.405    0.188   11.419
 1056.000   81.817    0.442    0.200   11.013
 1056.820   83.031    0.442    0.189   11.015
 1057.640   83.633    0.440    0.171   10.624
 1058.460   84.849    0.452    0.157   10.626
 1059.280   87.295    0.456    0.153   10.628
 1060.100   90.968    0.457    0.181   10.439
 1060.930   92.799    0.457    0.187    9.887
 1061.750   92.786    0.457    0.185    9.535
 1062.570   92.770    0.456    0.176    9.365
 1063.390   92.764    0.454    0.170    9.368
 1064.210   91.515    0.451    0.164    9.369
 1065.030   90.887    0.448    0.168    9.544
 1065.850   90.878    0.441    0.174    9.545
 1066.670   90.250    0.433    0.173    9.902
 1067.490   90.234    0.431    0.171   10.085
 1068.310   90.221    0.422    0.166   10.461
 1069.130   90.823    0.415    0.169   10.655
 1069.950   90.810    0.428    0.171   11.054
 1070.770   88.950    0.439    0.150   11.259
 1071.590   87.093    0.434    0.145   11.261
 1072.410   85.236    0.429    0.143   11.470
 1073.230   83.990    0.419    0.136   11.683
 1074.050   83.363    0.398    0.127   11.901
 1074.870   83.350    0.410    0.119   12.122
 1075.690   83.337    0.409    0.119   12.124
 1076.510   84.554    0.399    0.122   12.127
 1077.330   85.767    0.389    0.117   12.130
