~VERSION INFORMATION
 VERS.                 2.0:   CWLS LOG ASCII STANDARD -VERSION 2.0
 WRAP.                  NO:   ONE LINE PER DEPTH STEP
~WELL INFORMATION BLOCK
#MNEM.UNIT           DATA                    DESCRIPTION OF MNEMONIC
#---------    -------------------            -------------------------------
# Generated from Intellog Unique Number	CW_73_75/WELL/2737
WELL.         ICG ET AL AMADO4 10-04         : Well_name    - WELL
LOC .         00/10-04-073-20W4/0            : Location     - LOCATION
UWI .         00/10-04-073-20W4/0            : Uwi          - UNIQUE WELL ID
ENTR.         JAYE                           : Entered      - ENTERED BY
SRVC.         SCHLUMBERGER                   : Scn          - SERVICE COMPANY
DATE.         11 JAN 79                      : Date         - LOG DATE
STRT.M        365                            : top_depth    - START DEPTH
STOP.M        575                            : bot_depth    - STOP DEPTH
STEP.M        0.25                           : increment    - STEP LENGTH
 NULL. -999.2500:NULL Value
~CURVE INFORMATION BLOCK
#MNEM UNIT       ERCB CURVE CODE    CURVE DESCRIPTION
#-----------   ------------------   ----------------------------------
DEPT.M        00 001 00 00         : DEPTH        - DEPTH
ILD .OHMM     00 120 00 00         : RESD         - DEEP RESISTIVITY (DIL)
NPHI.V/V      00 330 00 00         : PHIN         - NEUTRON POROSITY (SANDSTONE)
DPHI.V/V      00 890 00 00         : PHID         - DENSITY POROSITY (SANDSTONE)
GR  .API      00 310 00 00         : GR           - GAMMA RAY
CALI.MM       00 280 01 00         : CAL          - CALIPER
~PARAMETER INFORMATION
#MNEM.UNIT           DATA             DESCRIPTION OF MNEMONIC
#---------         -----------     ------------------------------
GL  .M        680.5                : gl           - GROUND LEVEL ELEVATION
EREF.M        683.2                : kb           - ELEVATION OF DEPTH REFERENCE
DATM.M        680.5                : datum        - DATUM ELEVATION
TDD .M        576.5                : tdd          - TOTAL DEPTH DRILLER
RUN .         ONE                  : Run          - RUN NUMBER
ENG .         JORDAN               : Engineer     - RECORDING ENGINEER
WIT .         WALTERS              : Witness      - WITNESSED BY
BASE.         EDM                  : Branch       - HOME BASE OF LOGGING UNIT
MUD .         GEL CHEM             : Mud_type     - MUD TYPE
MATR.         SANDSTONE            : Logunit      - NEUTRON MATRIX
TMAX.C        28.9                 : BHT          - MAXIMUM RECORDED TEMPERATURE
BHTD.M        577                  : BHTDEP       - MAXIMUM RECORDED TEMPERATURE
RMT .C        14                   : MDTP         - TEMPERATURE OF MUD
MUDD.KG/M     9.5                  : MWT          - MUD DENSITY
NEUT.         1                    : NEUTRON      - NEUTRON TYPE
RESI.         0                    : RESIST       - RESISTIVITY TYPE
RM  .OHMM     5.18                 : RM           - RESISTIVITY OF MUD
RMC .OHMM     0                    : RMC          - RESISTIVITY OF MUD CAKE
RMF .OHMM     5.66                 : RMF          - RESISTIVITY OF MUD FILTRATE
SUFT.C        0                    : SUFT         - SURFACE TEMPERATURE
~A  DEPTH     RESD     PHIN     PHID       GR      CAL
# ...
  474.500    5.595    0.444    0.209   93.402  152.523
  474.750    5.542    0.443    0.182   92.671  154.288
  475.000    5.448    0.492    0.200   92.803  158.315
  475.250    5.376    0.488    0.202   92.751  161.106
  475.500    5.355    0.478    0.193   91.464  162.871
  475.750    5.364    0.480    0.192   91.967  163.918
  476.000    5.383    0.484    0.215   93.026  164.342
  476.250    5.382    0.470    0.228   92.541  164.459
  476.500    5.330    0.469    0.232   90.576  164.474
  476.750    5.104    0.487    0.214   90.893  164.183
  477.000    4.734    0.501    0.196   93.927  163.889
  477.250    4.301    0.503    0.245   93.626  163.389
  477.500    3.708    0.509    0.225   91.600  162.685
  477.750    3.465    0.547    0.208   91.794  164.656
  478.000    3.406    0.580    0.207   96.494  170.533
  478.250    3.503    0.575    0.266  100.143  176.925
  478.500    3.670    0.531    0.246   94.723  179.717
  478.750    3.919    0.478    0.264   93.621  172.018
  479.000    4.168    0.465    0.239   92.705  163.189
  479.250    4.368    0.473    0.233   90.307  155.799
  479.500    4.542    0.487    0.234   87.663  150.980
  479.750    4.636    0.485    0.237   83.291  148.322
  480.000    4.661    0.489    0.256   79.783  146.695
  480.250    4.574    0.501    0.250   80.102  146.401
  480.500    4.413    0.511    0.240   81.716  147.547
  480.750    4.210    0.514    0.229   84.007  149.000
  481.000    4.054    0.517    0.228   86.607  151.692
  481.250    3.963    0.508    0.233   87.172  152.632
  481.500    4.037    0.488    0.248   80.270  152.955
  481.750    4.175    0.484    0.270   75.219  153.074
  482.000    4.325    0.484    0.284   75.414  154.014
  482.250    4.456    0.474    0.284   81.285  154.442
  482.500    4.566    0.460    0.254   87.034  154.769
  482.750    4.704    0.466    0.231   88.708  154.679
  483.000    4.810    0.479    0.216   88.285  155.002
  483.250    4.864    0.498    0.226   86.567  154.914
  483.500    4.808    0.502    0.241   89.786  156.164
  483.750    4.727    0.487    0.250   91.213  158.853
  484.000    4.647    0.497    0.230   90.482  161.235
  484.250    4.602    0.509    0.210   88.888  162.381
  484.500    4.602    0.497    0.202   88.219  162.502
  484.750    4.609    0.492    0.196   86.869  162.311
  485.000    4.600    0.508    0.220   83.609  160.372
  485.250    4.582    0.498    0.247   76.644  157.612
  485.500    4.504    0.495    0.302   71.717  155.670
  485.750    4.370    0.472    0.297   67.654  152.910
  486.000    4.240    0.479    0.284   67.417  150.458
  486.250    4.168    0.488    0.306   71.190  149.238
  486.500    4.198    0.463    0.327   73.173  149.252
  486.750    4.245    0.471    0.314   68.802  149.371
  487.000    4.365    0.486    0.303   70.971  150.108
  487.250    4.549    0.503    0.305   71.351  150.432
  487.500    4.740    0.514    0.266   69.385  150.445
  487.750    4.837    0.487    0.233   69.702  149.330
  488.000    4.729    0.455    0.261   69.403  147.596
  488.250    4.503    0.468    0.293   67.129  145.658
  488.500    4.239    0.496    0.286   65.843  144.544
  488.750    4.144    0.495    0.303   65.914  144.559
  489.000    4.112    0.499    0.312   66.169  144.677
  489.250    4.104    0.503    0.317   67.228  144.898
  489.500    4.165    0.493    0.307   69.026  145.533
  489.750    4.227    0.491    0.280   70.763  146.162
  490.000    4.290    0.475    0.251   73.242  146.590
  490.250    4.362    0.472    0.262   76.274  147.018
  490.500    4.411    0.471    0.275   80.788  147.339
  490.750    4.435    0.477    0.295   83.945  148.076
  491.000    4.385    0.478    0.311   77.105  148.604
  491.250    4.254    0.475    0.290   72.794  149.445
  491.500    4.089    0.468    0.293   69.718  149.768
  491.750    4.065    0.461    0.309   67.135  149.987
  492.000    4.180    0.481    0.317   64.923  150.209
  492.250    4.522    0.486    0.308   64.068  150.021
  492.500    5.070    0.478    0.307   63.955  150.035
  492.750    5.684    0.471    0.310   63.470  149.741
  493.000    5.956    0.416    0.305   63.047  149.656
  493.250    5.966    0.394    0.303   62.563  150.389
  493.500    5.389    0.373    0.288   62.078  152.976
  493.750    4.878    0.365    0.281   61.656  154.532
  494.000    4.457    0.440    0.293   62.653  154.241
  494.250    3.742    0.453    0.316   64.759  152.712
  494.500    3.318    0.460    0.311   67.792  151.084
  494.750    3.244    0.472    0.293   69.529  150.173
  495.000    3.292    0.482    0.306   69.476  150.087
  495.250    3.329    0.495    0.314   69.116  149.896
  495.500    3.442    0.485    0.299   70.977  149.501
  495.750    3.573    0.474    0.314   72.404  149.412
  496.000    3.647    0.473    0.309   73.031  149.221
  496.250    3.667    0.467    0.297   73.349  148.928
  496.500    3.673    0.464    0.289   71.815  148.739
  496.750    3.659    0.467    0.298   69.419  148.341
  497.000    3.603    0.476    0.318   68.132  147.843
  497.250    3.556    0.479    0.308   65.796  147.447
  497.500    3.542    0.468    0.302   64.325  147.771
  497.750    3.534    0.460    0.282   65.012  147.684
  498.000    3.547    0.457    0.303   68.107  147.701
  498.250    3.586    0.468    0.297   70.523  147.819
  498.500    3.661    0.481    0.285   72.013  147.833
  498.750    3.757    0.490    0.277   73.256  147.847
  499.000    3.886    0.491    0.261   74.006  147.660
  499.250    4.018    0.485    0.271   73.830  147.878
  499.500    4.025    0.477    0.254   74.888  148.615
  499.750    3.913    0.465    0.265   79.402  150.068
  500.000    3.810    0.453    0.256   83.053  152.861
  500.250    3.711    0.460    0.275   86.826  155.037
  500.500    3.607    0.477    0.243   89.859  159.680
  500.750    3.573    0.491    0.290   90.917  171.522
  501.000    3.559    0.506    0.271   89.322  175.343
  501.250    3.511    0.520    0.227   88.220  170.423
  501.500    3.458    0.513    0.220   85.947  176.300
  501.750    3.349    0.498    0.238   88.733  171.277
  502.000    3.100    0.493    0.211   92.382  167.485
  502.250    2.643    0.512    0.221   95.785  163.695
  502.500    2.312    0.539    0.243   93.388  168.957
  502.750    2.186    0.575    0.292   93.398  180.388
  503.000    2.351    0.601    0.355   94.703  192.230
  503.250    2.721    0.591    0.318   96.563  183.813
  503.500    3.120    0.569    0.300   98.731  177.246
  503.750    3.639    0.536    0.247  100.469  172.634
  504.000    4.196    0.515    0.223   97.763  168.126
  504.250    4.608    0.493    0.237   93.391  164.645
  504.500    4.892    0.471    0.244   91.919  162.190
  504.750    4.495    0.455    0.237   94.212  160.353
  505.000    3.082    0.475    0.214   98.603  161.190
  505.250    2.286    0.491    0.181  100.648  164.704
  505.500    1.873    0.514    0.187  102.632  166.467
  505.750    2.148    0.514    0.204  104.925  168.026
  506.000    2.655    0.500    0.199  105.674  168.041
  506.250    3.591    0.504    0.178  103.709  168.982
  506.500    4.669    0.524    0.204   99.028  170.230
  506.750    5.166    0.485    0.231   94.471  167.778
  507.000    5.434    0.440    0.220   91.518  162.034
  507.250    5.262    0.443    0.162   93.810  159.170
  507.500    5.134    0.470    0.149   92.770  158.981
  507.750    5.075    0.474    0.194   92.040  159.512
  508.000    5.084    0.454    0.215   91.740  159.628
  508.250    5.121    0.455    0.218   88.787  159.642
  508.500    5.168    0.472    0.226   89.660  159.865
  508.750    5.206    0.474    0.207   93.249  160.086
  509.000    5.245    0.475    0.193   93.999  159.896
  509.250    5.273    0.461    0.197   91.663  159.911
  509.500    5.282    0.461    0.201   88.772  159.824
  509.750    5.301    0.463    0.191   89.954  159.325
  510.000    5.350    0.443    0.193   93.233  157.282
  510.250    5.349    0.426    0.189   97.562  158.430
  510.500    5.348    0.446    0.199   95.906  160.296
  510.750    5.347    0.457    0.215   94.310  161.649
