~VERSION INFORMATION
 VERS.                 2.0:   CWLS LOG ASCII STANDARD -VERSION 2.0
 WRAP.                  NO:   ONE LINE PER DEPTH STEP
~WELL INFORMATION BLOCK
#MNEM.UNIT           DATA                    DESCRIPTION OF MNEMONIC
#---------    -------------------            -------------------------------
# Generated from Intellog Unique Number	CW_79_81/WELL/2474
WELL.         GULF AMOCO HOOLE               : Well_name    - WELL
LOC .         00/10-24-081-25W4/0            : Location     - LOCATION
UWI .         00/10-24-081-25W4/0            : Uwi          - UNIQUE WELL ID
ENTR.         MAX                            : Entered      - ENTERED BY
SRVC.         SCHLUMBERGER                   : Scn          - SERVICE COMPANY
STRT.M        198.12                         : top_depth    - START DEPTH
STOP.M        456.87                         : bot_depth    - STOP DEPTH
STEP.M        0.25                           : increment    - STEP LENGTH
 NULL. -999.2500:NULL Value
~CURVE INFORMATION BLOCK
#MNEM UNIT       ERCB CURVE CODE    CURVE DESCRIPTION
#-----------   ------------------   ----------------------------------
DEPT.M        00 001 00 00         : DEPTH        - DEPTH
ILD .OHMM     00 120 00 00         : RESD         - DEEP RESISTIVITY (DIL)
NPHI.V/V      00 330 00 00         : PHIN         - NEUTRON POROSITY (SANDSTONE)
DPHI.V/V      00 890 00 00         : PHID         - DENSITY POROSITY (SANDSTONE)
GR  .API      00 310 00 00         : GR           - GAMMA RAY
CALI.MM       00 280 01 00         : CAL          - CALIPER
~PARAMETER INFORMATION
#MNEM.UNIT           DATA             DESCRIPTION OF MNEMONIC
#---------         -----------     ------------------------------
GL  .M        586.435              : gl           - GROUND LEVEL ELEVATION
EREF.M        589.788              : kb           - ELEVATION OF DEPTH REFERENCE
DATM.M        586.435              : datum        - DATUM ELEVATION
TDD .M        464.515              : tdd          - TOTAL DEPTH DRILLER
RUN .         ONE                  : Run          - RUN NUMBER
ENG .         BILL                 : Engineer     - RECORDING ENGINEER
WIT .         JIM                  : Witness      - WITNESSED BY
MUD .         GEL                  : Mud_type     - MUD TYPE
MATR.         SANDSTONE            : Logunit      - NEUTRON MATRIX
TMAX.C        80                   : BHT          - MAXIMUM RECORDED TEMPERATURE
BHTD.M        1524                 : BHTDEP       - MAXIMUM RECORDED TEMPERATURE
MATR.         1                    : LOGUNIT      - NEUTRON MATRIX
RMT .C        59                   : MDTP         - TEMPERATURE OF MUD
NEUT.         1                    : NEUTRON      - NEUTRON TYPE
RESI.         0                    : RESIST       - RESISTIVITY TYPE
RMC .OHMM     3.71                 : RMC          - RESISTIVITY OF MUD CAKE
RMF .OHMM     3.71                 : RMF          - RESISTIVITY OF MUD FILTRATE
SUFT.C        20                   : SUFT         - SURFACE TEMPERATURE
~A  DEPTH     RESD     PHIN     PHID       GR      CAL
# ...
  417.120    9.450    0.316    0.123   84.531  163.385
  417.370    9.114    0.351    0.172   91.336  164.997
  417.620    8.742    0.374    0.190   92.103  166.912
  417.870    8.713    0.365    0.189   88.843  169.326
  418.120    9.115    0.333    0.181   83.444  170.345
  418.370    9.995    0.309    0.180   76.726  165.805
  418.620   11.040    0.297    0.170   72.019  164.991
  418.870   12.730    0.291    0.187   71.024  164.607
  419.120   15.222    0.275    0.211   62.104  164.524
  419.370   18.058    0.259    0.236   50.540  163.943
  419.620   20.820    0.245    0.263   38.915  162.163
  419.870   25.943    0.212    0.316   26.314  158.090
  420.120   38.969    0.147    0.367   22.394  155.611
  420.370   53.947    0.144    0.372   21.651  153.234
  420.620   67.293    0.158    0.372   21.661  151.752
  420.870   70.594    0.175    0.372   22.552  149.772
  421.120   61.968    0.187    0.371   24.576  148.092
  421.370   45.576    0.205    0.362   29.003  149.547
  421.620   35.008    0.229    0.356   33.470  148.730
  421.870   26.553    0.244    0.341   39.015  148.348
  422.120   21.474    0.258    0.329   41.732  148.566
  422.370   18.679    0.269    0.316   43.254  149.182
  422.620   17.046    0.279    0.296   44.963  150.397
  422.870   15.549    0.285    0.256   48.205  153.482
  423.120   15.091    0.276    0.205   49.264  156.829
  423.370   14.985    0.276    0.206   45.502  157.644
  423.620   15.125    0.279    0.221   41.739  156.064
  423.870   15.073    0.278    0.242   37.471  153.485
  424.120   14.529    0.277    0.266   33.143  151.605
  424.370   13.200    0.283    0.298   29.089  152.426
  424.620   12.159    0.289    0.320   23.857  152.444
  424.870   11.641    0.296    0.324   23.868  152.460
  425.120   11.395    0.306    0.327   25.578  152.177
  425.370   11.398    0.315    0.330   28.105  151.995
  425.620   11.669    0.322    0.331   30.444  152.213
  425.870   12.446    0.329    0.321   31.620  153.119
  426.120   13.332    0.331    0.314   32.420  153.550
  426.370   14.327    0.328    0.308   33.939  153.567
  426.620   15.485    0.326    0.291   36.593  153.885
  426.870   16.775    0.326    0.269   39.498  154.503
  427.120   17.736    0.325    0.244   43.029  155.519
  427.370   16.978    0.307    0.202   51.398  157.553
  427.620   15.295    0.286    0.148   64.254  159.652
  427.870   13.601    0.302    0.156   73.575  161.665
  428.120   11.758    0.346    0.176   78.933  162.481
  428.370   10.505    0.373    0.191   81.208  163.697
  428.620    9.909    0.373    0.202   80.401  166.512
  428.870   10.000    0.365    0.234   73.066  171.726
  429.120   10.468    0.361    0.243   60.232  171.744
  429.370   11.411    0.315    0.262   55.464  159.378
  429.620   13.293    0.293    0.283   55.789  155.101
  429.870   15.892    0.287    0.282   57.938  154.322
  430.120   18.688    0.289    0.263   59.334  154.240
  430.370   21.352    0.287    0.240   58.193  153.777
  430.620   24.135    0.260    0.188   58.728  153.379
  430.870   27.637    0.238    0.156   61.255  153.794
  431.120   30.415    0.224    0.139   65.105  154.809
  431.370   31.699    0.224    0.129   68.891  156.026
  431.620   31.357    0.240    0.134   72.046  157.043
  431.870   29.617    0.280    0.199   75.248  157.296
  432.120   27.691    0.336    0.260   77.356  156.488
  432.370   26.512    0.342    0.280   80.386  156.903
  432.620   25.669    0.352    0.281   80.775  157.916
  432.870   24.849    0.356    0.273   79.653  158.730
  433.120   24.017    0.355    0.265   76.896  158.748
  433.370   22.900    0.349    0.261   70.283  157.404
  433.620   20.938    0.342    0.261   66.101  156.590
  433.870   13.806    0.334    0.257   68.127  157.009
  434.120   10.460    0.338    0.250   71.471  156.228
  434.370    8.664    0.356    0.244   75.004  155.446
  434.620    7.393    0.377    0.241   78.036  155.563
  434.870    5.986    0.376    0.235   80.522  156.848
  435.120    5.433    0.362    0.234   81.582  155.203
  435.370    5.554    0.391    0.221   80.334  155.220
  435.620    5.892    0.424    0.198   75.124  155.539
  435.870    6.380    0.418    0.170   73.122  155.755
  436.120    6.930    0.377    0.155   76.530  156.069
  436.370    7.522    0.366    0.193   81.795  157.705
  436.620    8.181    0.440    0.242   77.875  159.803
  436.870    8.668    0.439    0.258   71.094  159.022
  437.120    9.187    0.454    0.286   67.710  157.942
  437.370    9.568    0.475    0.319   66.713  157.162
  437.620    9.746    0.488    0.348   67.162  156.881
  437.870    9.713    0.474    0.361   68.498  156.983
  438.120    9.218    0.504    0.364   70.082  157.416
  438.370    7.837    0.538    0.364   71.601  158.234
  438.620    7.028    0.484    0.316   73.499  158.750
  438.870    6.570    0.433    0.276   76.026  159.365
  439.120    6.340    0.442    0.264   79.245  160.382
  439.370    6.250    0.534    0.279   83.662  163.250
  439.620    6.252    0.569    0.296   86.818  169.507
  439.870    6.344    0.522    0.297   86.829  174.318
  440.120    6.508    0.477    0.282   86.464  170.441
  440.370    6.702    0.445    0.246   84.965  167.662
  440.620    6.913    0.428    0.205   82.396  169.677
  440.870    7.245    0.412    0.190   78.960  173.343
  441.120    7.643    0.392    0.194   75.565  169.617
  441.370    7.756    0.375    0.165   75.827  163.645
  441.620    7.744    0.368    0.149   79.109  161.265
  441.870    7.718    0.384    0.182   82.140  161.481
  442.120    7.734    0.415    0.234   82.529  162.696
  442.370    7.815    0.415    0.209   78.033  161.804
  442.620    7.937    0.377    0.199   74.377  157.248
  442.870    8.112    0.357    0.190   77.405  156.863
  443.120    8.382    0.336    0.214   77.417  157.680
  443.370    8.693    0.326    0.241   76.925  156.301
  443.620    9.001    0.325    0.262   77.376  152.722
  443.870    9.270    0.320    0.279   79.833  151.508
  444.120    9.272    0.327    0.279   83.252  157.351
  444.370    9.342    0.364    0.267   84.519  161.365
  444.620    9.514    0.404    0.271   82.958  165.976
  444.870    9.795    0.430    0.268   79.320  167.193
  445.120   10.212    0.431    0.246   74.865  165.214
  445.370   10.973    0.394    0.201   71.724  163.351
  445.620   11.753    0.325    0.160   73.570  157.960
  445.870   12.632    0.312    0.167   75.592  155.984
  446.120   13.651    0.307    0.195   71.013  155.801
  446.370   14.789    0.293    0.223   64.356  155.816
  446.620   16.054    0.271    0.237   59.208  155.433
  446.870   17.816    0.261    0.230   58.267  154.971
  447.120   19.377    0.267    0.229   58.540  154.573
  447.370   20.531    0.276    0.263   61.320  154.592
  447.620   20.056    0.289    0.263   65.042  155.510
  447.870   18.563    0.306    0.254   68.325  156.726
  448.120   16.684    0.325    0.247   70.097  157.741
  448.370   14.827    0.344    0.246   68.033  158.078
  448.620   15.056    0.339    0.270   60.184  157.678
  448.870   16.066    0.307    0.292   56.922  155.698
  449.120   17.420    0.295    0.292   54.605  154.617
  449.370   20.019    0.286    0.267   53.609  154.435
  449.620   24.452    0.271    0.227   54.375  155.251
  449.870   29.345    0.251    0.188   58.824  157.270
  450.120   30.027    0.253    0.154   65.912  157.290
  450.370   23.665    0.274    0.174   72.212  157.307
  450.620   18.142    0.288    0.207   79.079  159.420
  450.870   14.713    0.296    0.231   88.651  160.635
  451.120   12.660    0.302    0.236   99.733  160.254
  451.370   11.210    0.305    0.229  107.696  159.877
  451.620   10.798    0.299    0.226  107.184  159.897
  451.870   10.567    0.289    0.215  102.665  159.913
  452.120   10.456    0.284    0.211   99.091  159.930
  452.370   10.193    0.288    0.207   96.208  159.947
  452.620    9.799    0.299    0.203   93.324  159.965
  452.870    9.405    0.312    0.202   88.421  159.986
  453.120    8.859    0.329    0.201   83.978  160.006
  453.370    8.175    0.348    0.206   80.968  160.022
