~VERSION INFORMATION
 VERS.                 2.0:   CWLS LOG ASCII STANDARD -VERSION 2.0
 WRAP.                  NO:   ONE LINE PER DEPTH STEP
~WELL INFORMATION BLOCK
#MNEM.UNIT           DATA                    DESCRIPTION OF MNEMONIC
#---------    -------------------            -------------------------------
# Generated from Intellog Unique Number	CC_80_83/WELL/2368
NULL.         -999.25                        : NULL_VALUE
WELL.         GULF RESDELN                   : Well_name    - WELL              
LOC .         10-23-083-07W4                 : Location     - LOCATION          
UWI .         00/10-23-083-07W4/0            : Uwi          - UNIQUE WELL ID    
ENTR.         DW                             : Entered      - ENTERED BY        
SRVC.         SCHLUMBERGER                   : Scn          - SERVICE COMPANY   
DATE.         14 JAN 79                      : Date         - LOG DATE
STRT.M        150                            : top_depth    - START DEPTH       
STOP.M        414.895                        : bot_depth    - STOP DEPTH        
STEP.M        0.3                            : increment    - STEP LENGTH       
~CURVE INFORMATION BLOCK
#MNEM UNIT       ERCB CURVE CODE    CURVE DESCRIPTION
#-----------   ------------------   ----------------------------------
DEPT.M        00 001 00 00         : DEPTH        - DEPTH                       
DPHI.V/V      00 890 00 00         : PHID         - DENSITY POROSITY (LIMESTONE)
NPHI.V/V      00 330 00 00         : PHIN         - NEUTRON POROSITY (LIMESTONE)
GR  .API      00 310 00 00         : GR           - GAMMA RAY                   
ILD .OHMM     00 120 00 00         : RESD         - DEEP RESISTIVITY (DIL)      
~PARAMETER INFORMATION       
#MNEM.UNIT           DATA             DESCRIPTION OF MNEMONIC
#---------         -----------     ------------------------------
GL  .M        611.12               : gl           - GROUND LEVEL ELEVATION      
EREF.M        614.5                : kb           - ELEVATION OF DEPTH REFERENCE
DATM.M        614.5                : datum        - DATUM ELEVATION             
TDD .M        418                  : tdd          - TOTAL DEPTH DRILLER         
RUN .         ONE                  : Run          - RUN NUMBER                  
ENG .         BILL                 : Engineer     - RECORDING ENGINEER          
WIT .         JIM                  : Witness      - WITNESSED BY                
MUD .         GEL                  : Mud_type     - MUD TYPE                    
MATR.         LIMESTONE            : Logunit      - NEUTRON MATRIX              
TMAX.C        23                   : BHT          - MAXIMUM RECORDED TEMPERATURE
BHTD.M        418                  : BHTDEP       - MAXIMUM RECORDED TEMPERATURE
MATR.         1                    : LOGUNIT      - NEUTRON MATRIX              
RMT .C        25                   : MDTP         - TEMPERATURE OF MUD          
NEUT.         1                    : NEUTRON      - NEUTRON TYPE                
RESI.         0                    : RESIST       - RESISTIVITY TYPE            
RMC .OHMM     0.25                 : RMC          - RESISTIVITY OF MUD CAKE     
RMF .OHMM     0.25                 : RMF          - RESISTIVITY OF MUD FILTRATE 
SUFT.C        4                    : SUFT         - SURFACE TEMPERATURE         
~A  DEPTH     PHID     PHIN       GR     RESD
# ...
  254.401    0.301    0.458   71.593   17.957
  254.701    0.286    0.446   71.617   18.271
  255.001    0.293    0.420   66.680   18.557
  255.301    0.319    0.425   61.122   18.873
  255.601    0.310    0.432   64.871   19.934
  255.901    0.260    0.438   65.507   21.859
  256.201    0.224    0.447   64.911   25.381
  256.501    0.029    0.404   61.211   32.413
  256.801    0.001    0.150   58.757   42.155
  257.101    0.008    0.144   52.580   40.467
  257.401    0.049    0.173   48.262   34.044
  257.701    0.170    0.208   51.385   29.747
  258.001    0.236    0.344   52.024   25.979
  258.301    0.269    0.444   60.727   23.585
  258.601    0.198    0.468   61.370   21.791
  258.901    0.193    0.347   58.293   20.924
  259.201    0.312    0.432   58.933   20.881
  259.501    0.317    0.479   63.916   22.907
  259.801    0.276    0.485   67.656   33.405
  260.101    0.173    0.475   63.959   94.538
  260.401    0.057    0.425   49.104   89.066
  260.701    0.030    0.130   44.169   68.160
  261.001    0.087    0.183   51.627   38.502
  261.301    0.236    0.329   55.990   22.580
  261.601    0.329    0.387   61.590   18.973
  261.901    0.345    0.444   63.474   18.592
  262.201    0.353    0.468   61.019   18.186
  262.501    0.343    0.478   61.657   18.500
  262.801    0.335    0.463   65.400   20.682
  263.101    0.330    0.455   67.280   19.834
  263.401    0.320    0.460   62.962   19.433
  263.701    0.314    0.480   57.412   19.395
  264.001    0.317    0.472   59.292   18.981
  264.301    0.323    0.464   62.411   18.939
  264.601    0.330    0.459   66.771   18.874
  264.901    0.330    0.446   71.752   19.208
  265.201    0.320    0.467   61.860   19.157
  265.501    0.331    0.463   59.406   19.088
  265.801    0.315    0.441   60.043   19.057
  266.101    0.313    0.442   57.585   18.998
  266.401    0.321    0.462   56.989   18.972
  266.701    0.322    0.490   60.112   18.932
  267.001    0.304    0.476   60.135   18.886
  267.301    0.305    0.437   61.394   19.197
  267.601    0.327    0.454   63.895   19.135
  267.901    0.331    0.461   65.161   19.087
  268.201    0.322    0.432   66.424   18.701
  268.501    0.316    0.429   68.923   18.654
  268.801    0.311    0.445   72.043   18.251
  269.101    0.313    0.455   70.206   17.861
  269.401    0.328    0.478   69.608   17.826
  269.701    0.326    0.455   70.255   17.438
  270.001    0.335    0.427   71.515   17.742
  270.301    0.335    0.434   72.155   17.685
  270.600    0.328    0.431   71.560   17.660
  270.900    0.314    0.430   70.960   17.937
  271.200    0.311    0.454   70.361   17.910
  271.500    0.317    0.465   71.007   17.862
  271.800    0.325    0.466   75.366   17.808
  272.100    0.310    0.461   74.769   17.778
  272.400    0.309    0.448   71.074   18.057
  272.700    0.317    0.453   68.616   18.024
  273.000    0.316    0.482   68.639   17.979
  273.300    0.315    0.469   69.277   17.942
  273.600    0.308    0.462   71.161   17.564
  273.900    0.305    0.448   72.423   17.189
  274.200    0.293    0.437   72.443   17.134
  274.500    0.299    0.448   73.088   17.112
  274.800    0.289    0.467   73.110   17.065
  275.100    0.292    0.475   73.753   17.673
  275.400    0.320    0.457   73.151   17.637
  275.700    0.332    0.455   73.176   17.585
  276.000    0.326    0.459   73.817   17.213
  276.300    0.326    0.477   76.318   16.842
  276.600    0.316    0.481   78.201   16.817
  276.900    0.320    0.463   78.222   16.769
  277.200    0.307    0.456   73.910   16.740
  277.500    0.305    0.439   72.069   17.016
  277.800    0.307    0.441   71.472   16.971
  278.100    0.310    0.444   71.497   16.615
  278.400    0.311    0.443   72.758   15.663
  278.700    0.314    0.440   75.876   15.042
  279.000    0.317    0.447   77.138   15.000
  279.300    0.305    0.435   74.687   15.248
  279.600    0.304    0.439   72.846   16.104
  279.900    0.314    0.450   71.628   16.689
  280.200    0.298    0.468   75.987   16.339
  280.500    0.272    0.462   77.876   15.692
  280.800    0.253    0.460   75.413   14.504
  281.100    0.270    0.493   71.722   14.193
  281.400    0.304    0.484   75.458   14.149
  281.700    0.292    0.447   76.719   14.400
  282.000    0.287    0.464   76.746   14.365
  282.300    0.303    0.457   77.386   13.801
  282.600    0.289    0.470   71.826   12.519
  282.900    0.262    0.478   69.991   11.800
  283.200    0.260    0.481   71.253   10.709
  283.500    0.284    0.491   67.555    9.354
  283.800    0.306    0.487   71.917    7.869
  284.100    0.317    0.468   79.376    6.616
  284.400    0.327    0.476   84.360    5.565
  284.700    0.325    0.506   89.337    4.863
  285.000    0.337    0.555   98.038    4.167
  285.300    0.326    0.518   95.582    3.640
  285.600    0.323    0.534   98.702    3.301
  285.900    0.316    0.561   99.965    3.170
  286.200    0.361    0.560  103.088    3.164
  286.500    0.368    0.536   99.395    3.405
  286.800    0.353    0.526   96.938    3.736
  287.100    0.302    0.542   95.715    4.591
  287.400    0.312    0.555  100.696    5.858
  287.700    0.306    0.535  100.718    6.070
  288.000    0.301    0.514  105.701    5.723
  288.300    0.290    0.548  108.201    4.998
  288.600    0.290    0.598  109.463    4.203
  288.900    0.291    0.614  112.585    3.536
  289.200    0.285    0.606  115.711    3.089
  289.500    0.328    0.585  115.114    2.697
  289.800    0.322    0.614  112.656    2.544
  290.100    0.330    0.643  112.676    2.396
  290.400    0.326    0.636  110.837    2.346
  290.700    0.302    0.585  102.800    2.572
  291.000    0.288    0.562   96.627    2.717
  291.300    0.319    0.583   93.555    3.037
  291.600    0.384    0.589   92.959    3.591
  291.900    0.367    0.526   92.974    4.093
  292.200    0.315    0.474   92.376    5.029
  292.500    0.352    0.507   91.160    6.298
  292.800    0.326    0.554   93.663    6.649
  293.100    0.314    0.537   94.301    6.760
  293.400    0.323    0.545   89.984    6.740
  293.700    0.245    0.518   93.727    6.728
  294.000    0.286    0.551   96.846    6.842
  294.300    0.277    0.471  103.688    6.949
  294.600    0.243    0.488  102.475    7.073
  294.900    0.246    0.493  100.017    7.463
  295.199    0.281    0.506  103.134    7.735
  295.499    0.226    0.487  108.120    8.480
  295.799    0.227    0.422  108.757    9.133
  296.099    0.238    0.445  105.681   10.406
  296.399    0.232    0.461  105.084   10.783
  296.699    0.244    0.454  108.826   10.955
  296.999    0.281    0.431  110.086   10.127
  297.299    0.271    0.439  100.812    9.365
  297.599    0.306    0.440   95.879    8.659
  297.899    0.317    0.489   98.376    8.009
  298.199    0.314    0.501  102.120    7.411
  298.499    0.324    0.487  103.383    6.595
  298.799    0.325    0.500   97.207    6.333
  299.099    0.273    0.493   94.753    6.319
  299.399    0.190    0.442   96.631    6.674
  299.699    0.198    0.404   99.129    7.604
  299.999    0.258    0.462  104.115    8.827
  300.299    0.272    0.467  106.612    8.970
  300.599    0.285    0.448  104.154    8.781
  300.899    0.284    0.448   97.361    8.120
  301.199    0.306    0.465   94.905    7.655
  301.499    0.351    0.517   98.026    6.685
  301.799    0.301    0.517  106.726    5.952
  302.099    0.288    0.524  107.366    5.403
  302.399    0.301    0.495   99.332    4.899
  302.699    0.330    0.498   99.352    4.792
  302.999    0.363    0.546   95.035    4.783
  303.299    0.344    0.557   85.760    4.958
  303.599    0.259    0.517   91.365    5.335
  303.899    0.271    0.416   92.627    6.077
  304.199    0.276    0.403   93.886    7.195
  304.499    0.266    0.402  100.106    8.676
  304.799    0.255    0.443  105.708    8.332
  305.099    0.305    0.504  106.973    6.620
  305.399    0.297    0.542  102.652    5.065
  305.699    0.335    0.572   97.717    3.875
  305.999    0.338    0.556   92.783    3.256
  306.299    0.290    0.471   90.944    3.310
