~VERSION INFORMATION
 VERS.                 2.0:   CWLS LOG ASCII STANDARD -VERSION 2.0
 WRAP.                  NO:   ONE LINE PER DEPTH STEP
~WELL INFORMATION BLOCK
#MNEM.UNIT           DATA                    DESCRIPTION OF MNEMONIC
#---------    -------------------            -------------------------------
# Generated from Intellog Unique Number	CW_73_75/WELL/1051
WELL.         CHIEFCO LILY LAKE 13-07        : Well_name    - WELL
LOC .         00/13-07-075-05W5/0            : Location     - LOCATION
UWI .         00/13-07-075-05W5/0            : Uwi          - UNIQUE WELL ID
ENTR.         JAYE                           : Entered      - ENTERED BY
SRVC.         SCHLUMBERGER                   : Scn          - SERVICE COMPANY
DATE.         14 JAN 84                      : Date         - LOG DATE
STRT.M        625                            : top_depth    - START DEPTH
STOP.M        870                            : bot_depth    - STOP DEPTH
STEP.M        0.25                           : increment    - STEP LENGTH
 NULL. -999.2500:NULL Value
~CURVE INFORMATION BLOCK
#MNEM UNIT       ERCB CURVE CODE    CURVE DESCRIPTION
#-----------   ------------------   ----------------------------------
DEPT.M        00 001 00 00         : DEPTH        - DEPTH
ILD .OHMM     00 120 00 00         : RESD         - DEEP RESISTIVITY (DIL)
NPHI.V/V      00 330 00 00         : PHIN         - NEUTRON POROSITY (SANDSTONE)
DPHI.V/V      00 890 00 00         : PHID         - DENSITY POROSITY (SANDSTONE)
GR  .API      00 310 00 00         : GR           - GAMMA RAY
CALI.MM       00 280 01 00         : CAL          - CALIPER
~PARAMETER INFORMATION
#MNEM.UNIT           DATA             DESCRIPTION OF MNEMONIC
#---------         -----------     ------------------------------
GL  .M        873.9                : gl           - GROUND LEVEL ELEVATION
EREF.M        876                  : kb           - ELEVATION OF DEPTH REFERENCE
DATM.M        873.9                : datum        - DATUM ELEVATION
TDD .M        889                  : tdd          - TOTAL DEPTH DRILLER
RUN .         ONE                  : Run          - RUN NUMBER
ENG .         BRANDSTROM           : Engineer     - RECORDING ENGINEER
WIT .         KUCHINSKI            : Witness      - WITNESSED BY
BASE.         5202                 : Branch       - HOME BASE OF LOGGING UNIT
MUD .         GEL CHEM             : Mud_type     - MUD TYPE
MATR.         SANDSTONE            : Logunit      - NEUTRON MATRIX
TMAX.C        31                   : BHT          - MAXIMUM RECORDED TEMPERATURE
BHTD.M        890.5                : BHTDEP       - MAXIMUM RECORDED TEMPERATURE
RMT .C        31                   : MDTP         - TEMPERATURE OF MUD
MUDD.KG/M     1110                 : MWT          - MUD DENSITY
NEUT.         1                    : NEUTRON      - NEUTRON TYPE
RESI.         0                    : RESIST       - RESISTIVITY TYPE
RM  .OHMM     7.829                : RM           - RESISTIVITY OF MUD
RMC .OHMM     0                    : RMC          - RESISTIVITY OF MUD CAKE
RMF .OHMM     8.115                : RMF          - RESISTIVITY OF MUD FILTRATE
SUFT.C        0                    : SUFT         - SURFACE TEMPERATURE
~A  DEPTH     RESD     PHIN     PHID       GR      CAL
# ...
  807.500    3.571    0.437    0.192   86.026  210.851
  807.750    3.612    0.459    0.204   82.331  210.675
  808.000    3.625    0.464    0.221   79.193  210.293
  808.250    3.680    0.458    0.210   78.345  210.215
  808.500    3.707    0.462    0.204   80.094  209.936
  808.750    3.720    0.474    0.201   82.710  209.858
  809.000    3.720    0.482    0.199   83.903  209.374
  809.250    3.694    0.472    0.196   84.228  209.304
  809.500    3.692    0.449    0.199   85.239  209.017
  809.750    3.672    0.431    0.208   85.562  208.947
  810.000    3.643    0.423    0.200   86.505  208.662
  810.250    3.603    0.436    0.196   87.019  208.177
  810.500    3.582    0.458    0.200   85.736  207.899
  810.750    3.570    0.475    0.205   83.219  207.617
  811.000    3.556    0.489    0.196   81.688  207.644
  811.250    3.582    0.493    0.202   78.736  207.262
  811.500    3.664    0.472    0.229   74.795  207.188
  811.750    3.790    0.452    0.249   74.812  207.011
  812.000    3.935    0.446    0.244   79.901  207.034
  812.250    4.055    0.446    0.235   81.713  207.067
  812.500    4.140    0.452    0.226   79.565  207.091
  812.750    4.170    0.460    0.219   80.199  206.814
  813.000    4.157    0.483    0.219   82.073  206.744
  813.250    4.124    0.472    0.243   79.986  206.870
  813.500    4.054    0.466    0.227   82.293  207.002
  813.750    3.956    0.462    0.199   88.494  207.340
  814.000    3.824    0.453    0.174   85.668  207.476
  814.250    3.684    0.441    0.179   82.284  207.601
  814.500    3.628    0.456    0.195   82.608  207.843
  814.750    3.710    0.469    0.196   85.284  208.070
  815.000    3.927    0.475    0.195   88.766  208.100
  815.250    4.069    0.468    0.198   88.660  208.239
  815.500    4.210    0.459    0.200   85.460  208.365
  815.750    4.297    0.456    0.203   81.520  208.496
  816.000    4.363    0.456    0.215   80.115  208.529
  816.250    4.377    0.447    0.223   79.698  208.556
  816.500    4.344    0.428    0.223   82.251  208.275
  816.750    4.271    0.416    0.202   85.979  207.999
  817.000    4.107    0.424    0.190   89.090  207.818
  817.250    3.924    0.417    0.184   87.745  207.326
  817.500    3.780    0.430    0.179   89.122  207.155
  817.750    3.758    0.443    0.172   91.120  206.560
  818.000    3.815    0.460    0.163   91.755  205.972
  818.250    4.215    0.482    0.184   89.112  205.587
  818.500    4.519    0.449    0.184   86.099  205.204
  818.750    4.638    0.431    0.174   87.539  204.923
  819.000    4.519    0.428    0.162   89.659  204.542
  819.250    4.319    0.421    0.152   87.696  204.151
  819.500    4.081    0.412    0.153   87.714  203.771
  819.750    3.982    0.463    0.167   91.009  203.491
  820.000    4.335    0.502    0.182   92.202  202.795
  820.250    5.000    0.470    0.198   83.559  201.276
  820.500    5.833    0.443    0.220   74.856  199.866
  820.750    6.729    0.422    0.240   72.400  199.274
  821.000    7.185    0.410    0.234   71.055  198.786
  821.250    7.146    0.425    0.232   70.515  198.918
  821.500    6.755    0.438    0.234   72.635  198.845
  821.750    6.468    0.439    0.230   75.930  199.076
  822.000    6.252    0.417    0.220   81.020  199.002
  822.250    6.032    0.391    0.192   85.181  199.031
  822.500    5.897    0.405    0.200   83.837  199.369
  822.750    6.101    0.417    0.221   79.650  199.399
  823.000    6.689    0.402    0.218   77.624  199.635
  823.250    7.558    0.394    0.210   79.373  200.073
  823.500    8.604    0.415    0.202   80.754  200.519
  823.750    9.832    0.421    0.191   77.367  200.753
  824.000   11.194    0.364    0.151   68.786  200.989
  824.250   12.625    0.303    0.112   59.154  201.528
  824.500   13.133    0.193   -0.010   52.181  202.174
  824.750   12.412    0.169   -0.020   66.055  203.234
  825.000   10.860    0.173    0.011   72.380  204.193
  825.250    8.666    0.261    0.105   84.335  204.528
  825.500    6.368    0.313    0.125   91.465  205.179
  825.750    5.550    0.398    0.158   97.854  205.413
  826.000    5.336    0.401    0.180   97.190  205.750
  826.250    5.345    0.404    0.196   91.147  205.881
  826.500    5.377    0.409    0.197   91.659  206.012
  826.750    5.447    0.417    0.192   95.511  206.252
  827.000    5.551    0.412    0.190   99.053  206.378
  827.250    5.571    0.396    0.198   97.770  206.613
  827.500    5.634    0.388    0.193   89.252  206.748
  827.750    5.655    0.395    0.198   87.725  206.989
  828.000    5.655    0.420    0.209   83.224  207.113
  828.250    5.698    0.409    0.217   81.448  207.350
  828.500    5.795    0.395    0.218   82.640  207.481
  828.750    5.993    0.389    0.209   86.184  207.818
  829.000    6.450    0.387    0.196   87.066  209.184
  829.250    6.823    0.381    0.180   85.723  211.482
  829.500    7.071    0.372    0.174   82.338  212.540
  829.750    6.979    0.361    0.166   79.448  212.878
  830.000    6.547    0.349    0.156   78.909  213.526
  830.250    6.082    0.389    0.171   80.657  213.864
  830.500    5.455    0.395    0.200   84.200  213.585
  830.750    4.974    0.390    0.206   91.144  213.611
  831.000    4.494    0.392    0.205   91.781  215.091
  831.250    4.263    0.407    0.201   91.366  215.943
  831.500    4.059    0.414    0.194   93.609  217.005
  831.750    3.794    0.419    0.192   98.760  217.851
  832.000    3.626    0.425    0.201   99.828  219.219
  832.250    3.486    0.414    0.209  100.835  219.970
  832.500    3.370    0.398    0.201  103.759  220.306
  832.750    3.276    0.400    0.192  109.591  220.747
  833.000    3.282    0.409    0.186  107.259  221.606
  833.250    3.313    0.404    0.183   99.728  221.632
  833.500    3.357    0.391    0.184   97.333  221.660
  833.750    3.415    0.398    0.184  100.630  221.587
  834.000    3.479    0.412    0.180  102.378  221.199
  834.250    3.605    0.404    0.172  101.962  219.991
  834.500    3.722    0.432    0.162  101.361  216.203
  834.750    3.893    0.465    0.162  102.120  212.212
  835.000    4.151    0.449    0.163  100.344  207.912
  835.250    4.424    0.396    0.158   90.650  205.056
  835.500    4.577    0.404    0.150   86.151  201.991
  835.750    4.645    0.393    0.169   89.944  199.339
  836.000    4.672    0.374    0.173   93.176  197.515
  836.250    4.735    0.372    0.172   96.161  197.538
  836.500    4.804    0.385    0.171   96.735  198.294
  836.750    4.852    0.408    0.166   95.144  198.729
  837.000    4.887    0.403    0.152   94.791  198.870
  837.250    4.906    0.389    0.147   98.890  199.201
  837.500    4.942    0.369    0.153  102.495  199.850
  837.750    5.016    0.384    0.160   93.481  200.294
  838.000    5.063    0.401    0.165   89.415  200.628
  838.250    5.035    0.407    0.166   92.960  201.486
  838.500    5.026    0.406    0.171   96.007  201.816
  838.750    5.025    0.397    0.171   99.303  202.778
  839.000    4.996    0.391    0.168  100.123  203.317
  839.250    4.950    0.395    0.167   95.501  203.660
  839.500    4.912    0.396    0.166   95.889  203.889
  839.750    4.922    0.392    0.164   96.463  204.023
  840.000    4.978    0.385    0.159   94.996  204.671
  840.250    5.006    0.371    0.149   93.714  205.835
  840.500    5.052    0.395    0.145   93.236  207.512
  840.750    5.120    0.392    0.142   92.944  208.883
  841.000    5.140    0.383    0.134   94.015  210.146
  841.250    5.128    0.375    0.139   97.494  211.409
  841.500    4.857    0.368    0.157  101.840  212.983
  841.750    4.462    0.373    0.153  100.497  214.249
  842.000    3.541    0.403    0.149   96.061  215.002
  842.250    2.841    0.430    0.146   97.131  213.794
  842.500    2.255    0.462    0.147   97.890  210.632
  842.750    1.844    0.499    0.189   98.155  208.800
  843.000    1.611    0.536    0.207   97.368  206.458
  843.250    1.431    0.548    0.204   95.096  205.455
  843.500    1.275    0.557    0.201   90.535  205.069
  843.750    1.146    0.567    0.214   88.140  204.997
