~VERSION INFORMATION
 VERS.                 2.0:   CWLS LOG ASCII STANDARD -VERSION 2.0
 WRAP.                  NO:   ONE LINE PER DEPTH STEP
~WELL INFORMATION BLOCK
#MNEM.UNIT           DATA                    DESCRIPTION OF MNEMONIC
#---------    -------------------            -------------------------------
# Generated from Intellog Unique Number	CC_80_83/WELL/2359
NULL.         -999.25                        : NULL_VALUE
WELL.         KANDEX HOMESTEAD PORT          : Well_name    - WELL              
LOC .         10-20-080-14W4                 : Location     - LOCATION          
UWI .         00/10-20-080-14W4/0            : Uwi          - UNIQUE WELL ID    
ENTR.         RJA                            : Entered      - ENTERED BY        
SRVC.         SCHLUMBERGER                   : Scn          - SERVICE COMPANY   
DATE.         13 FEB 78                      : Date         - LOG DATE
STRT.M        213.36                         : top_depth    - START DEPTH       
STOP.M        454.157                        : bot_depth    - STOP DEPTH        
STEP.M        0.305                          : increment    - STEP LENGTH       
~CURVE INFORMATION BLOCK
#MNEM UNIT       ERCB CURVE CODE    CURVE DESCRIPTION
#-----------   ------------------   ----------------------------------
DEPT.M        00 001 00 00         : DEPTH        - DEPTH                       
DPHI.V/V      00 890 00 00         : PHID         - DENSITY POROSITY (LIMESTONE)
NPHI.V/V      00 330 00 00         : PHIN         - NEUTRON POROSITY (LIMESTONE)
GR  .API      00 310 00 00         : GR           - GAMMA RAY                   
ILD .OHMM     00 120 00 00         : RESD         - DEEP RESISTIVITY (DIL)      
~PARAMETER INFORMATION       
#MNEM.UNIT           DATA             DESCRIPTION OF MNEMONIC
#---------         -----------     ------------------------------
GL  .M        640.69               : gl           - GROUND LEVEL ELEVATION      
EREF.M        644.042              : kb           - ELEVATION OF DEPTH REFERENCE
DATM.M        644.042              : datum        - DATUM ELEVATION             
TDD .M        459.029              : tdd          - TOTAL DEPTH DRILLER         
RUN .         ONE                  : Run          - RUN NUMBER                  
ENG .         BILL                 : Engineer     - RECORDING ENGINEER          
WIT .         JIM                  : Witness      - WITNESSED BY                
MUD .         GEL                  : Mud_type     - MUD TYPE                    
MATR.         LIMESTONE            : Logunit      - NEUTRON MATRIX              
TMAX.C        15                   : BHT          - MAXIMUM RECORDED TEMPERATURE
BHTD.M        459.029              : BHTDEP       - MAXIMUM RECORDED TEMPERATURE
MATR.         1                    : LOGUNIT      - NEUTRON MATRIX              
RMT .C        25                   : MDTP         - TEMPERATURE OF MUD          
NEUT.         1                    : NEUTRON      - NEUTRON TYPE                
RESI.         0                    : RESIST       - RESISTIVITY TYPE            
RMC .OHMM     0.25                 : RMC          - RESISTIVITY OF MUD CAKE     
RMF .OHMM     0.25                 : RMF          - RESISTIVITY OF MUD FILTRATE 
SUFT.C        4                    : SUFT         - SURFACE TEMPERATURE         
~A  DEPTH     PHID     PHIN       GR     RESD
# ...
  425.505    0.372    0.378   57.804   15.675
  425.810    0.356    0.362   73.819   14.010
  426.115    0.367    0.365   88.002   14.280
  426.420    0.327    0.469   85.564   16.288
  426.725    0.214    0.379   82.529   20.027
  427.029    0.266    0.395   84.404   24.166
  427.334    0.253    0.430   88.737   31.435
  427.639    0.248    0.416   93.073   32.646
  427.944    0.258    0.426   94.332   25.590
  428.249    0.284    0.433   90.677   22.028
  428.553    0.296    0.388   88.868   16.631
  428.858    0.285    0.380   91.363   15.146
  429.163    0.315    0.414   92.002   14.322
  429.468    0.295    0.433   87.733   14.873
  429.773    0.311    0.449   77.311   19.712
  430.077    0.235    0.428   67.507   26.125
  430.382    0.268    0.377   58.935   28.704
  430.687    0.226    0.419   55.896   24.250
  430.992    0.203    0.375   66.377   19.735
  431.297    0.231    0.342   67.027   17.311
  431.602    0.242    0.344   70.127   14.627
  431.906    0.267    0.340   77.537   13.073
  432.211    0.313    0.366   81.874   11.906
  432.516    0.301    0.431   82.529   10.844
  432.821    0.326    0.410   83.782   10.645
  433.126    0.267    0.447   89.963   11.918
  433.430    0.312    0.444   93.068   13.593
  433.735    0.213    0.492   94.944   18.016
  434.040    0.244    0.396   74.689   21.335
  434.345    0.290    0.386   64.886   20.175
  434.650    0.317    0.396   66.153   17.698
  434.954    0.328    0.379   74.796   15.524
  435.259    0.345    0.374   83.428   12.872
  435.564    0.406    0.403   92.681   10.675
  435.869    0.397    0.465   98.249   10.283
  436.174    0.370    0.504  100.736    9.907
  436.478    0.335    0.516   99.544   11.516
  436.783    0.173    0.501   93.421   12.891
  437.088    0.215    0.376   87.926   14.704
  437.393    0.195    0.394   86.722   18.422
  437.698    0.174    0.405   67.089   22.230
  438.003    0.256    0.387   65.272   21.416
  438.307    0.279    0.381   72.680   17.429
  438.612    0.257    0.385   94.848   13.662
  438.917    0.263    0.368  107.173   12.677
  439.222    0.292    0.381  126.262   10.915
  439.527    0.315    0.417  137.358   10.714
  439.831    0.340    0.462  147.240   11.995
  440.136    0.340    0.486  153.412   14.748
  440.441    0.346    0.456  150.367   21.468
  440.746    0.305    0.359  105.521   28.989
  441.051    0.369    0.393   90.800   30.679
  441.355    0.416    0.419   92.067   20.311
  441.660    0.463    0.436   96.399   16.840
  441.965    0.526    0.460  105.040   11.795
  442.270    0.498    0.520  108.141   10.155
  442.575    0.509    0.519  112.477    9.248
  442.879    0.484    0.492  141.400    8.909
  443.184    0.432    0.498  156.802    8.584
  443.489    0.435    0.519  113.802    9.256
  443.794    0.408    0.545   92.933   10.559
  444.099    0.216    0.524   83.133   11.384
  444.404    0.224    0.495   82.553   10.564
  444.708    0.391    0.499   92.417    9.266
  445.013    0.411    0.474  100.439    8.284
  445.318    0.355    0.405  107.255    8.131
  445.623    0.222    0.403  108.503    8.444
  445.928    0.334    0.446  109.756    9.278
  446.232    0.364    0.447  110.407    9.456
  446.537    0.331    0.451  112.902   10.007
  446.842    0.321    0.457  114.155   10.200
  447.147    0.280    0.423  109.888   10.202
  447.452    0.271    0.438  104.394   10.398
  447.756    0.305    0.433  102.572   10.401
  448.061    0.253    0.413  106.913   10.022
  448.366    0.225    0.417  111.863    9.837
  448.671    0.216    0.437  114.968    9.658
  448.976    0.177    0.475  111.314    9.482
  449.280    0.044    0.454  105.194    9.484
  449.585    0.199    0.435   97.234    9.666
  449.890    0.174    0.464  100.955    9.853
  450.195    0.209    0.470  115.744    9.855
  450.500    0.227    0.485  115.773    9.857
  450.805    0.187    0.431   96.134   10.048
  451.109    0.218    0.394   78.952   10.633
  451.414    0.189    0.386   63.002   10.635
  451.719    0.216    0.386   51.969   10.440
  452.024    0.255    0.379   71.056   10.444
  452.329    0.304    0.407   85.227    8.660
  452.633    0.310    0.435   90.180    7.181
  452.938    0.382    0.504   95.747    6.067
  453.243    0.184    0.542   97.623    4.937
  453.548    0.054    0.520   98.884    4.413
  453.853    0.038    0.499   99.528    6.669
  454.157    0.031    0.495  101.410    9.708
