~VERSION INFORMATION
 VERS.                 2.0:   CWLS LOG ASCII STANDARD -VERSION 2.0
 WRAP.                  NO:   ONE LINE PER DEPTH STEP
~WELL INFORMATION BLOCK
#MNEM.UNIT           DATA                    DESCRIPTION OF MNEMONIC
#---------    -------------------            -------------------------------
# Generated from Intellog Unique Number	CW_73_75/WELL/1041
WELL.         11-18-075-23W4                 : Well_name    - WELL
LOC .         00/11-18-075-23W4/0            : Location     - LOCATION
UWI .         00/11-18-075-23W4/0            : Uwi          - UNIQUE WELL ID
ENTR.         JAYE                           : Entered      - ENTERED BY
SRVC.         SCHLUMBERGER                   : Scn          - SERVICE COMPANY
DATE.         23 FEB 77                      : Date         - LOG DATE
STRT.M        408.432                        : top_depth    - START DEPTH
STOP.M        606.432                        : bot_depth    - STOP DEPTH
STEP.M        0.25                           : increment    - STEP LENGTH
 NULL. -999.2500:NULL Value
~CURVE INFORMATION BLOCK
#MNEM UNIT       ERCB CURVE CODE    CURVE DESCRIPTION
#-----------   ------------------   ----------------------------------
DEPT.M        00 001 00 00         : DEPTH        - DEPTH
ILD .OHMM     00 120 00 00         : RESD         - DEEP RESISTIVITY (DIL)
GR  .API      00 310 00 00         : GR           - GAMMA RAY
CALI.MM       00 280 01 00         : CAL          - CALIPER
NPHI.V/V      00 330 00 00         : PHIN         - NEUTRON POROSITY (SANDSTONE)
DPHI.V/V      00 890 00 00         : PHID         - DENSITY POROSITY (SANDSTONE)
~PARAMETER INFORMATION
#MNEM.UNIT           DATA             DESCRIPTION OF MNEMONIC
#---------         -----------     ------------------------------
GL  .M        694.213              : gl           - GROUND LEVEL ELEVATION
EREF.M        698.906              : kb           - ELEVATION OF DEPTH REFERENCE
DATM.M        694.213              : datum        - DATUM ELEVATION
TDD .M        605.942              : tdd          - TOTAL DEPTH DRILLER
RUN .         ONE                  : Run          - RUN NUMBER
ENG .         SEDGWICK             : Engineer     - RECORDING ENGINEER
WIT .         BRAUN                : Witness      - WITNESSED BY
BASE.         EDM                  : Branch       - HOME BASE OF LOGGING UNIT
MUD .         GEL                  : Mud_type     - MUD TYPE
MATR.         SANDSTONE            : Logunit      - NEUTRON MATRIX
TMAX.C        28.8889              : BHT          - MAXIMUM RECORDED TEMPERATURE
BHTD.M        605.942              : BHTDEP       - MAXIMUM RECORDED TEMPERATURE
RMT .C        15.5556              : MDTP         - TEMPERATURE OF MUD
MUDD.KG/M     1104                 : MWT          - MUD DENSITY
NEUT.         1                    : NEUTRON      - NEUTRON TYPE
RESI.         0                    : RESIST       - RESISTIVITY TYPE
RM  .OHMM     5.18                 : RM           - RESISTIVITY OF MUD
RMC .OHMM     3.16                 : RMC          - RESISTIVITY OF MUD CAKE
RMF .OHMM     5.47                 : RMF          - RESISTIVITY OF MUD FILTRATE
SUFT.C        -17.7778             : SUFT         - SURFACE TEMPERATURE
~A  DEPTH     RESD       GR      CAL     PHIN     PHID
# ...
  554.432    7.641   84.618  228.105    0.380    0.045
  554.682    8.025   88.249  229.735    0.361    0.057
  554.932    8.731   96.541  230.624    0.392    0.073
  555.182    9.003  103.404  232.048    0.414    0.108
  555.432    8.704  104.864  232.945    0.418    0.093
  555.682    8.383  103.713  233.731    0.397    0.081
  555.932    8.149  101.631  234.421    0.391    0.067
  556.182    7.965  102.034  234.883    0.396    0.124
  556.432    7.773  102.935  235.355    0.396    0.110
  556.682    7.598  103.281  235.932    0.397    0.086
  556.932    7.467  103.245  236.615    0.403    0.118
  557.182    7.326  102.220  236.768    0.427    0.134
  557.432    7.175   99.395  236.926    0.425    0.112
  557.682    7.116   97.439  236.770    0.415    0.089
  557.932    7.048   99.207  236.503    0.420    0.099
  558.182    7.055  104.081  236.028    0.411    0.122
  558.432    7.064  103.620  235.030    0.384    0.141
  558.682    7.087   99.670  233.607    0.403    0.146
  558.932    7.147   94.796  231.449    0.412    0.160
  559.182    7.275   91.283  230.036    0.402    0.148
  559.432    7.488   86.345  229.883    0.375    0.118
  559.682    8.070   80.101  230.030    0.353    0.046
  559.932    9.143   76.904  231.026    0.321    0.027
  560.182   10.188   74.882  232.140    0.319    0.015
  560.432   11.350   72.863  233.134    0.323    0.027
  560.682   13.195   71.404  233.922    0.323    0.039
  560.932   15.141   70.751  234.082    0.328    0.047
  561.182   16.655   70.347  234.241    0.330    0.039
  561.432   16.219   70.378  234.285    0.315    0.008
  561.682   15.084   70.660  234.247    0.303   -0.007
  561.932   15.613   71.555  234.074    0.283    0.009
  562.182   16.581   73.700  233.502    0.290    0.027
  562.432   17.384   83.049  233.335    0.311    0.045
  562.682   17.119   87.492  232.866    0.345    0.062
  562.932   14.655   91.498  233.348    0.370    0.088
  563.182   12.565   95.629  233.706    0.396    0.121
  563.432   10.404   98.457  235.226    0.409    0.146
  563.682    7.988  101.276  236.760    0.408    0.142
  563.932    7.388  104.600  237.232    0.402    0.131
  564.182    7.155  108.421  237.598    0.393    0.121
  564.432    7.007  113.544  238.171    0.387    0.126
  564.682    6.990  116.248  238.330    0.390    0.134
  564.932    6.935  116.092  238.799    0.401    0.132
  565.182    6.917  113.449  239.378    0.395    0.112
  565.432    6.899  106.647  239.322    0.385    0.109
  565.682    6.869  100.408  235.378    0.372    0.102
  565.932    6.992  100.189  232.062    0.362    0.091
  566.182    7.304  101.087  232.114    0.364    0.101
  566.432    7.801  103.293  232.485    0.378    0.135
  566.682    8.163  103.074  232.969    0.372    0.132
  566.932    8.465   99.196  233.010    0.363    0.128
  567.182    8.569   98.537  233.066    0.356    0.126
  567.432    8.660  100.369  233.116    0.358    0.134
  567.682    8.637  103.630  232.760    0.360    0.125
  567.932    8.585  104.595  233.011    0.365    0.114
  568.182    8.501  104.439  233.480    0.359    0.119
  568.432    8.403  104.471  234.161    0.362    0.136
  568.682    8.288  104.560  235.480    0.379    0.129
  568.932    8.191  104.344  237.109    0.386    0.108
  569.182    8.156   99.156  237.259    0.363    0.093
  569.432    8.272   93.099  235.419    0.344    0.077
  569.682    8.592   91.080  232.738    0.330    0.064
  569.932    9.228   91.793  230.373    0.314    0.039
  570.182    9.927   92.756  229.478    0.295    0.076
  570.432   10.582   94.340  229.944    0.274    0.068
  570.682   11.260   97.293  232.000    0.358    0.111
  570.932   11.357  104.588  233.632    0.392    0.138
  571.182   10.699  109.901  234.745    0.421    0.119
  571.432    9.141  108.197  235.518    0.424    0.108
  571.682    7.882  104.183  235.885    0.411    0.099
  571.932    6.710   94.586  235.937    0.388    0.087
  572.182    5.871   92.069  235.253    0.369    0.068
  572.432    5.614   93.838  234.471    0.348    0.044
  572.682    5.853   96.851  233.995    0.345    0.052
  572.932    6.356  100.610  233.623    0.357    0.059
  573.182    7.043  104.120  233.569    0.382    0.084
  573.432    7.090  105.830  233.727    0.413    0.103
  573.682    6.729  105.117  234.413    0.409    0.103
  573.932    6.375  104.522  235.622    0.401    0.098
  574.182    6.242  104.987  236.412    0.394    0.080
  574.432    6.181  105.700  236.564    0.391    0.054
  574.682    6.212  106.542  236.507    0.393    0.083
  574.932    6.219  108.495  236.456    0.399    0.143
  575.182    6.158  111.944  236.305    0.407    0.122
  575.432    5.964  112.784  236.348    0.421    0.101
  575.682    5.671  112.686  236.403    0.426    0.118
  575.932    5.472  112.345  236.775    0.424    0.117
  576.182    5.309  112.068  236.827    0.410    0.124
  576.432    5.199  112.344  236.874    0.400    0.167
  576.682    5.158  112.814  236.719    0.394    0.204
  576.932    5.135  113.150  236.772    0.390    0.101
  577.182    5.067  113.866  236.713    0.381    0.073
  577.432    4.998  108.803  236.658    0.371    0.072
  577.682    4.977  106.038  236.611    0.373    0.085
  577.932    4.983  107.439  236.455    0.374    0.137
  578.182    4.990  108.151  236.498    0.371    0.199
  578.432    5.068  108.370  236.554    0.367    0.230
  578.682    5.247  108.023  236.819    0.366    0.260
  578.932    5.301  106.687  237.286    0.370    0.296
  579.182    4.893  107.589  244.594    0.391    0.209
  579.432    4.142  110.415  261.898    0.483    0.240
  579.682    3.513  110.569  264.792    0.533    0.220
  579.932    3.092  107.867  244.227    0.558    0.185
  580.182    3.130  103.986  246.598    0.540    0.198
  580.432    3.324  100.226  251.586    0.489    0.245
  580.682    3.609   96.218  242.276    0.440    0.197
  580.932    4.044   96.932  227.711    0.404    0.175
  581.182    4.531   99.572  229.128    0.366    0.180
  581.432    4.919  102.459  230.339    0.397    0.189
  581.682    5.421  104.415  230.808    0.403    0.226
  581.932    5.952  103.700  230.023    0.392    0.258
  582.182    6.298  102.551  229.438    0.385    0.261
  582.432    6.294  101.594  229.806    0.393    0.237
  582.682    6.096  100.752  231.965    0.403    0.230
  582.932    5.980   95.438  236.117    0.392    0.206
  583.182    6.317   87.082  235.964    0.353    0.198
  583.432    7.208   72.202  232.646    0.205    0.194
  583.682   10.748   51.485  225.860    0.182    0.279
  583.932   13.328   48.224  224.549    0.199    0.329
  584.182   17.531   47.759  225.024    0.229    0.347
  584.432   23.579   48.976  225.388    0.246    0.330
  584.682   30.558   50.117  225.757    0.240    0.323
  584.932   38.668   50.399  225.499    0.231    0.324
  585.182   35.960   49.992  225.542    0.224    0.317
  585.432   33.569   49.530  225.594    0.223    0.305
  585.682   32.993   49.251  225.550    0.226    0.302
  585.932   33.343   49.653  225.589    0.238    0.305
  586.182   33.815   50.054  225.338    0.250    0.293
  586.432   33.854   51.391  225.066    0.261    0.289
  586.682   32.431   53.595  225.011    0.262    0.289
  586.932   30.889   55.675  225.063    0.260    0.285
  587.182   29.642   57.320  225.114    0.261    0.282
  587.432   28.655   58.779  225.060    0.266    0.289
  587.682   27.805   59.994  225.227    0.274    0.289
  587.932   26.781   60.951  225.066    0.282    0.286
  588.182   25.605   61.729  225.214    0.295    0.304
  588.432   24.707   62.380  225.279    0.309    0.297
  588.682   23.410   62.663  225.111    0.319    0.275
  588.932   22.712   62.752  225.379    0.328    0.261
  589.182   21.596   63.031  225.437    0.345    0.245
  589.432   20.875   64.245  225.370    0.362    0.238
  589.682   19.889   66.632  225.321    0.377    0.217
  589.932   19.188   68.093  225.059    0.379    0.226
  590.182   18.449   68.745  224.692    0.381    0.225
  590.432   17.767   69.896  224.747    0.388    0.208
  590.682   16.833   70.858  224.483    0.382    0.192
