~VERSION INFORMATION
 VERS.                 2.0:   CWLS LOG ASCII STANDARD -VERSION 2.0
 WRAP.                  NO:   ONE LINE PER DEPTH STEP
~WELL INFORMATION BLOCK
#MNEM.UNIT           DATA                    DESCRIPTION OF MNEMONIC
#---------    -------------------            -------------------------------
# Generated from Intellog Unique Number	CW_73_75/WELL/3527
WELL.         pan american                   : Well_name    - WELL
LOC .         00/11-24-075-26W4/0            : Location     - LOCATION
UWI .         00/11-24-075-26W4/0            : Uwi          - UNIQUE WELL ID
ENTR.         TIM                            : Entered      - ENTERED BY
SRVC.         SCHLUMBERGER                   : Scn          - SERVICE COMPANY
STRT.M        502.92                         : top_depth    - START DEPTH
STOP.M        771.17                         : bot_depth    - STOP DEPTH
STEP.M        0.25                           : increment    - STEP LENGTH
 NULL. -999.2500:NULL Value
~CURVE INFORMATION BLOCK
#MNEM UNIT       ERCB CURVE CODE    CURVE DESCRIPTION
#-----------   ------------------   ----------------------------------
DEPT.M        00 001 00 00         : DEPTH        - DEPTH
ILD .OHMM     00 120 00 00         : RESD         - DEEP RESISTIVITY (DIL)
GR  .API      00 310 00 00         : GR           - GAMMA RAY
DELT.US/F     00 520 00 00         : DELT         - SONIC TRAVEL TIME
~PARAMETER INFORMATION
#MNEM.UNIT           DATA             DESCRIPTION OF MNEMONIC
#---------         -----------     ------------------------------
GL  .M        810.768              : gl           - GROUND LEVEL ELEVATION
EREF.M        814.426              : kb           - ELEVATION OF DEPTH REFERENCE
DATM.M        814.426              : datum        - DATUM ELEVATION
TDD .M        773.582              : tdd          - TOTAL DEPTH DRILLER
RUN .         ONE                  : Run          - RUN NUMBER
ENG .         BILL                 : Engineer     - RECORDING ENGINEER
WIT .         JIM                  : Witness      - WITNESSED BY
MUD .         GEL                  : Mud_type     - MUD TYPE
MATR.         SANDSTONE            : Logunit      - NEUTRON MATRIX
TMAX.C        30.5556              : BHT          - MAXIMUM RECORDED TEMPERATURE
BHTD.M        773.582              : BHTDEP       - MAXIMUM RECORDED TEMPERATURE
MATR.         1                    : LOGUNIT      - NEUTRON MATRIX
RMT .C        21.1111              : MDTP         - TEMPERATURE OF MUD
NEUT.         1                    : NEUTRON      - NEUTRON TYPE
RESI.         0                    : RESIST       - RESISTIVITY TYPE
RMC .OHMM     4.6                  : RMC          - RESISTIVITY OF MUD CAKE
RMF .OHMM     2.8                  : RMF          - RESISTIVITY OF MUD FILTRATE
SUFT.C        5                    : SUFT         - SURFACE TEMPERATURE
~A  DEPTH     RESD       GR     DELT
# ...
  719.920    5.593   68.046  226.594
  720.170    5.182   68.050  251.855
  720.420    4.977   68.546  274.457
  720.670    4.771   71.487  330.969
  720.920    4.360   79.816  346.922
  721.170    4.154   81.290  346.253
  721.420    3.743   83.253  332.950
  721.670    3.744   84.238  315.657
  721.920    3.952   83.265  311.663
  722.170    4.366   82.289  327.615
  722.420    5.193   81.804  325.616
  722.670    5.194   82.299  326.943
  722.920    5.401   83.284  332.256
  723.170    5.609   85.247  336.907
  723.420    5.610   87.211  335.573
  723.670    5.612   89.173  341.552
  723.920    5.612   89.670  344.207
  724.170    5.408   89.184  347.527
  724.420    5.408   89.680  353.506
  724.670    5.203   90.666  354.166
  724.920    4.998   91.157  354.162
  725.170    4.586   93.612  351.498
  725.420    4.381   94.105  348.832
  725.670    3.970   95.091  345.504
  725.920    3.971   95.583  338.851
  726.170    3.766   96.569  333.527
  726.420    3.768   97.553  334.188
  726.670    3.769   98.538  352.135
  726.920    3.770   99.030  348.806
  727.170    3.565  100.995  344.147
  727.420    3.153  100.021  344.808
  727.670    2.742   98.067  435.230
  727.920    2.949   94.645  445.864
  728.170    2.950   83.879  380.034
  728.420    3.365   76.052  344.125
  728.670    3.366   75.568  326.832
  728.920    3.573   76.553  342.120
  729.170    3.574   77.535  358.737
  729.420    3.782   77.540  343.440
  729.670    3.783   77.546  339.446
  729.920    3.784   75.591  335.453
  730.170    3.785   71.190  328.799
  730.420    3.787   56.997  330.789
  730.670    3.582   49.169  354.056
  730.920    3.376   43.299  355.382
  731.170    2.965   30.575  352.050
  731.420    2.760   23.236  351.383
  731.670    2.348   23.241  354.701
  731.920    2.143   24.716  356.692
  732.170    1.938   26.190  358.018
  732.420    1.527   27.665  354.023
  732.670    1.528   28.649  351.360
  732.920    1.323   29.633  349.359
  733.170    1.324   29.639  350.020
  733.420    1.325   29.152  352.676
  733.670    1.327   28.668  350.677
  733.920    1.327   28.672  349.341
  734.170    1.329   28.679  349.337
  734.420    1.330   29.173  346.674
  734.670    1.331   29.667  344.673
  734.920    1.331   30.651  347.329
  735.170    0.921   32.614  351.314
  735.420    1.748   36.537  353.968
  735.670    1.749   38.500  355.291
  735.920    1.750   39.484  355.954
  736.170    1.751   39.979  358.609
  736.420    1.753   41.945  361.929
  736.670    1.960   43.416  363.918
  736.920    1.961   44.401  364.578
  737.170    2.169   44.896  365.240
  737.420    2.376   44.901  365.234
  737.670    2.790   45.394  365.230
  737.920    3.411   45.889  365.225
  738.170    3.825   47.362  364.556
  738.420    4.032   50.307  363.888
  738.670    4.239   54.717  359.894
  738.920    4.447   61.576  349.250
  739.170    4.448   69.415  335.281
  739.420    4.450   76.763  339.266
  739.670    4.451   78.238  336.601
  739.920    4.246   77.264  333.274
  740.170    4.247   70.414  329.944
  740.420    4.042   63.075  343.902
  740.670    4.043   60.633  357.862
  740.920    4.044   60.638  363.841
  741.170    4.045   60.645  357.853
  741.420    4.047   61.136  348.539
  741.670    4.048   63.101  349.199
  741.920    4.049   65.554  349.859
  742.170    4.050   66.538  346.530
  742.420    4.052   65.077  343.866
  742.670    4.053   63.612  345.854
  742.920    4.054   62.638  347.181
  743.170    4.056   62.152  347.841
  743.420    4.056   62.646  348.501
  743.670    3.852   63.632  346.502
  743.920    3.852   65.105  343.839
  744.170    3.854   66.088  337.850
  744.420    3.855   69.520  335.186
  744.670    3.856   74.911  358.453
  744.920    3.857   80.792  371.746
  745.170    3.858   76.391  388.364
  745.420    3.860   65.135  389.690
  745.670    3.861   56.817  374.391
  745.920    3.862   50.947  359.759
  746.170    4.070   51.443  369.063
  746.420    4.071   53.896  352.436
  746.670    4.072   62.712  344.453
  746.920    4.074   65.165  344.447
  747.170    4.074   67.619  338.458
  747.420    4.076   55.873  334.466
  747.670    4.283   44.128  331.802
  747.920    4.284   33.362  339.110
  748.170    4.286   28.962  339.106
  748.420    4.287   27.500  339.100
  748.670    3.875   27.013  337.768
  748.920    3.258   26.531  332.444
  749.170    2.640   26.534  327.119
  749.420    2.229   26.052  320.465
  749.670    2.023   25.566  319.130
  749.920    2.024   25.082  330.430
  750.170    1.819   25.085  346.383
  750.420    2.027   25.092  346.378
  750.670    2.028   25.585  349.697
  750.920    2.235   27.548  361.661
  751.170    2.443   28.044  364.981
  751.420    2.650   28.049  368.301
  751.670    3.271   28.543  365.638
  751.920    4.097   29.528  349.010
  752.170    5.336   30.511  343.687
  752.420    6.576   32.475  312.431
  752.670    7.403   34.440  282.506
  752.920    7.404   37.382  295.800
  753.170    6.786   39.346  322.391
  753.420    6.994   41.797  353.637
  753.670    8.233   44.740  375.574
  753.920    9.059   45.234  404.160
  754.170   10.299   41.323  444.715
  754.420    9.475   33.005  457.343
  754.670    9.063   30.072  461.993
  754.920    8.239   30.077  461.324
  755.170    7.621   32.530  464.644
  755.420    6.384   53.588  464.638
  755.670    7.830   57.022  463.970
  755.920    9.895   54.088  465.295
  756.170    8.452   44.301  467.285
  756.420    7.214   40.879  467.281
  756.670    5.771   36.478  467.276
  756.920    4.948   45.295  461.287
  757.170    4.535   57.540  442.665
  757.420    4.124   69.784  435.346
  757.670    5.363   77.622  410.740
  757.920    7.222   78.606  386.799
  758.170    8.874   74.205  345.571
  758.420   10.113   64.419  322.295
  758.670    5.781   55.611  282.397
  758.920    4.957   43.866  263.774
  759.170    4.545   37.018  259.780
  759.420    3.928   32.617  300.999
  759.670    3.723   44.862  324.266
  759.920    3.724   48.783  362.826
  760.170    3.518   54.174  368.139
  760.420    3.520   57.118  354.173
  760.670    3.521   57.611  341.534
  760.920    3.522   59.575  336.212
  761.170    3.524   60.068  331.553
  761.420    3.731   61.054  338.862
  761.670    4.145   61.548  337.526
  761.920    4.146   63.510  336.194
  762.170    4.353   67.433  333.528
  762.420    4.148   71.844  332.194
  762.670    3.531   76.257  329.530
  762.920    3.119   81.156  325.535
  763.170    2.914   96.828  339.494
  763.420    2.915   99.282  360.767
  763.670    2.710  100.756  376.720
  763.920    2.711  102.718  380.704
  764.170    2.713  102.233  365.405
  764.420    3.333   98.811  349.444
  764.670    4.159   89.026  342.792
  764.920    4.367   92.457  352.761
  765.170    4.781  106.171  372.038
  765.420    4.782  105.686  372.034
  765.670    4.784   95.900  368.705
  765.920    4.578   91.009  352.076
  766.170    4.579   78.285  342.100
  766.420    4.374   78.779  342.094
  766.670    4.170   76.826  353.393
  766.920    3.964   75.852  362.697
  767.170    3.759   76.348  348.728
  767.420    3.553   77.823  338.751
  767.670    3.348   78.315  320.130
  767.920    3.143   81.257  344.726
  768.170    2.938   88.606  365.999
  768.420    2.939  106.727  369.319
  768.670    2.940  106.242  366.653
  768.920    2.942  103.309  354.016
  769.170    3.356   99.398  342.708
  769.420    3.564   96.955  338.050
  769.670    3.771   95.002  335.386
  769.920    4.185   94.029  350.008
  770.170    4.805   92.566  353.327
  770.420    5.838   92.079  348.005
  770.670    8.109   91.594  296.138
  770.920   10.793   91.599  270.202
  771.170   12.858   91.604  263.549
