~VERSION INFORMATION
 VERS.                 2.0:   CWLS LOG ASCII STANDARD -VERSION 2.0
 WRAP.                  NO:   ONE LINE PER DEPTH STEP
~WELL INFORMATION BLOCK
#MNEM.UNIT           DATA                    DESCRIPTION OF MNEMONIC
#---------    -------------------            -------------------------------
# Generated from Intellog Unique Number	CW_73_75/WELL/2748
WELL.         UNEX ET AL MITSUE 12-20        : Well_name    - WELL
LOC .         00/12-20-073-05W5/0            : Location     - LOCATION
UWI .         00/12-20-073-05W5/0            : Uwi          - UNIQUE WELL ID
ENTR.         JAYE                           : Entered      - ENTERED BY
SRVC.         SCHLUMBERGER                   : Scn          - SERVICE COMPANY
DATE.         15 JAN 77                      : Date         - LOG DATE
STRT.M        365.76                         : top_depth    - START DEPTH
STOP.M        612.76                         : bot_depth    - STOP DEPTH
STEP.M        0.25                           : increment    - STEP LENGTH
 NULL. -999.2500:NULL Value
~CURVE INFORMATION BLOCK
#MNEM UNIT       ERCB CURVE CODE    CURVE DESCRIPTION
#-----------   ------------------   ----------------------------------
DEPT.M        00 001 00 00         : DEPTH        - DEPTH
DPHI.V/V      00 890 00 00         : PHID         - DENSITY POROSITY (SANDSTONE)
NPHI.V/V      00 330 00 00         : PHIN         - NEUTRON POROSITY (SANDSTONE)
GR  .API      00 310 00 00         : GR           - GAMMA RAY
CALI.MM       00 280 01 00         : CAL          - CALIPER
ILD .OHMM     00 120 00 00         : RESD         - DEEP RESISTIVITY (DIL)
~PARAMETER INFORMATION
#MNEM.UNIT           DATA             DESCRIPTION OF MNEMONIC
#---------         -----------     ------------------------------
GL  .M        577.291              : gl           - GROUND LEVEL ELEVATION
EREF.M        581.254              : kb           - ELEVATION OF DEPTH REFERENCE
DATM.M        577.291              : datum        - DATUM ELEVATION
TDD .M        1689.2               : tdd          - TOTAL DEPTH DRILLER
RUN .         ONE                  : Run          - RUN NUMBER
BASE.         EDM                  : Branch       - HOME BASE OF LOGGING UNIT
MATR.         SANDSTONE            : Logunit      - NEUTRON MATRIX
TMAX.C        51.1111              : BHT          - MAXIMUM RECORDED TEMPERATURE
BHTD.M        1688.29              : BHTDEP       - MAXIMUM RECORDED TEMPERATURE
RMT .C        17.7778              : MDTP         - TEMPERATURE OF MUD
MUDD.KG/M     0                    : MWT          - MUD DENSITY
NEUT.         1                    : NEUTRON      - NEUTRON TYPE
RESI.         0                    : RESIST       - RESISTIVITY TYPE
RM  .OHMM     0.75                 : RM           - RESISTIVITY OF MUD
RMC .OHMM     0                    : RMC          - RESISTIVITY OF MUD CAKE
RMF .OHMM     0.55                 : RMF          - RESISTIVITY OF MUD FILTRATE
SUFT.C        0                    : SUFT         - SURFACE TEMPERATURE
~A  DEPTH     PHID     PHIN       GR      CAL     RESD
  365.760    0.513    0.566   72.657  371.569    2.114
  366.010    0.489    0.581   75.566  382.474    2.099
  366.260    0.481    0.595   79.220  359.228    2.099
  366.510    0.521    0.609   81.720  368.290    2.111
  366.760    0.536    0.598   76.752  375.976    2.163
  367.010    0.540    0.579   74.635  376.071    2.228
  367.260    0.451    0.566   72.583  346.959    2.364
  367.510    0.417    0.560   69.993  323.597    2.527
  367.760    0.486    0.569   67.266  305.407    2.613
  368.010    0.521    0.581   63.721  319.532    2.614
  368.260    0.527    0.589   62.620  312.959    2.524
  368.510    0.583    0.589   64.038  278.671    2.669
  368.760    0.507    0.568   68.168  263.819    2.944
  369.010    0.365    0.517   73.589  249.771    3.290
  369.260    0.233    0.424   65.904  228.479    3.951
  369.510    0.187    0.416   60.255  200.287    4.666
  369.760    0.151    0.410   53.589  199.807    5.573
  370.010    0.241    0.401   48.620  205.882    6.046
  370.260    0.267    0.408   48.066  203.215    5.596
  370.510    0.293    0.447   50.227  200.783    4.927
  370.760    0.318    0.491   52.658  199.151    4.723
  371.010    0.344    0.531   55.024  203.041    4.502
  371.260    0.399    0.589   57.118  223.144    4.136
  371.510    0.540    0.613   54.117  268.542    3.622
  371.760    0.551    0.635   50.914  334.984    3.073
  372.010    0.598    0.655   48.389  279.656    2.550
  372.260    0.635    0.666   46.748  266.181    2.208
  372.510    0.658    0.665   46.533  299.851    1.984
  372.760    0.637    0.649   48.694  296.613    1.840
  373.010    0.603    0.625   49.701  253.014    2.026
  373.260    0.497    0.595   50.640  232.525    2.487
  373.510    0.442    0.509   48.862  229.402    2.954
  373.760    0.391    0.471   44.844  273.651    3.451
  374.010    0.328    0.440   40.283  213.607    3.921
  374.260    0.259    0.420   37.962  190.475    4.390
  374.510    0.281    0.413   40.665  190.687    4.754
  374.760    0.314    0.420   45.408  213.779    4.634
  375.010    0.395    0.497   50.556  228.246    4.225
  375.260    0.433    0.548   54.823  245.473    3.903
  375.510    0.416    0.507   57.663  265.922    3.833
  375.760    0.320    0.456   59.415  249.113    3.855
  376.010    0.243    0.422   61.101  207.469    3.949
  376.260    0.263    0.404   63.059  195.719    4.099
  376.510    0.288    0.435   65.423  214.903    4.254
  376.760    0.252    0.447   67.245  232.591    4.270
  377.010    0.261    0.449   68.728  241.654    4.147
  377.260    0.282    0.453   70.818  246.693    4.049
  377.510    0.303    0.460   71.760  250.582    4.013
  377.760    0.246    0.481   70.660  251.138    4.006
  378.010    0.241    0.504   68.815  247.898    4.044
  378.260    0.223    0.493   65.205  242.932    4.113
  378.510    0.208    0.456   62.001  229.115    4.237
  378.760    0.300    0.436   59.477  210.813    4.357
  379.010    0.273    0.426   57.495  204.235    4.657
  379.260    0.285    0.436   56.805  203.067    4.970
  379.510    0.289    0.451   60.053  204.313    5.225
  379.760    0.261    0.472   65.337  206.247    5.463
  380.010    0.301    0.506   67.429  210.826    5.374
  380.260    0.394    0.588   69.455  219.545    4.602
  380.510    0.472    0.626   71.616  233.208    3.681
  380.760    0.576    0.654   73.642  237.785    2.976
  381.010    0.578    0.673   73.222  347.578    2.407
  381.260    0.584    0.672   72.261  368.026    2.108
  381.510    0.589    0.638   74.014  379.157    2.120
  381.760    0.557    0.600   75.292  387.417    2.518
  382.010    0.549    0.578   76.502  388.432    3.232
  382.260    0.543    0.551   77.374  390.712    3.983
  382.510    0.497    0.497   61.812  367.120    4.687
  382.760    0.377    0.457   50.392  287.070    5.316
  383.010    0.258    0.418   46.577  192.647    5.951
  383.260    0.285    0.397   46.022  199.872    5.985
  383.510    0.289    0.398   47.164  200.541    5.612
  383.760    0.279    0.404   48.440  200.288    5.232
  384.010    0.281    0.411   49.108  199.812    4.924
  384.260    0.287    0.431   49.571  199.446    4.816
  384.510    0.284    0.432   49.766  199.424    4.729
  384.760    0.274    0.429   49.821  200.557    4.721
  385.010    0.255    0.425   49.606  202.374    4.793
  385.260    0.276    0.424   48.439  202.239    4.856
  385.510    0.273    0.445   45.984  202.448    4.957
  385.760    0.276    0.449   42.983  202.313    5.004
  386.010    0.293    0.423   43.311  202.407    5.098
  386.260    0.308    0.450   46.693  201.695    5.204
  386.510    0.318    0.452   50.145  201.335    5.331
  386.760    0.308    0.413   55.429  201.427    5.502
  387.010    0.288    0.406   60.307  202.560    5.575
  387.260    0.288    0.401   64.098  204.607    5.444
  387.510    0.292    0.389   68.703  207.808    5.170
  387.760    0.290    0.403   73.717  213.881    4.956
  388.010    0.299    0.456   79.001  223.749    4.804
  388.260    0.290    0.478   70.706  238.220    4.717
  388.510    0.325    0.423   59.557  239.809    4.770
  388.760    0.294    0.386   50.989  215.872    4.932
  389.010    0.280    0.373   52.812  209.987    5.148
  389.260    0.272    0.365   61.491  212.033    5.372
  389.510    0.252    0.378   69.968  216.731    5.555
  389.760    0.242    0.401   71.651  227.636    5.702
  390.010    0.282    0.385   73.067  216.230    5.537
  390.260    0.288    0.376   75.635  216.327    5.376
  390.510    0.316    0.465   79.154  221.711    5.308
  390.760    0.407    0.546   84.710  241.238    5.319
  391.010    0.441    0.544   87.889  240.987    5.379
  391.260    0.311    0.475   69.885  223.489    5.521
  391.510    0.276    0.428   61.384  210.360    5.646
  391.760    0.275    0.414   55.668  207.809    5.795
  392.010    0.286    0.426   53.823  207.906    5.872
  392.260    0.294    0.435   53.675  209.152    5.681
  392.510    0.294    0.423   54.070  211.431    5.557
  392.760    0.295    0.412   55.688  212.331    5.427
  393.010    0.296    0.428   58.867  204.146    5.368
  393.260    0.288    0.458   60.893  184.465    5.319
  393.510    0.280    0.464   63.054  180.189    5.291
  393.760    0.264    0.445   65.690  199.142    5.292
  394.010    0.261    0.427   68.530  202.802    5.332
  394.260    0.260    0.405   71.915  205.195    5.423
  394.510    0.271    0.404   76.179  207.591    5.484
  394.760    0.258    0.418   78.952  210.556    5.506
  395.010    0.266    0.430   81.317  213.067    5.327
  395.260    0.272    0.430   82.188  216.841    5.125
  395.510    0.270    0.427   80.274  220.042    4.832
  395.760    0.252    0.422   79.244  223.587    4.735
  396.010    0.271    0.421   80.793  226.902    4.615
  396.260    0.283    0.430   83.703  232.285    4.465
  396.510    0.297    0.454   78.122  237.556    4.328
  396.760    0.323    0.484   74.037  249.149    4.218
  397.010    0.343    0.495   73.142  237.285    4.126
  397.260    0.459    0.506   71.025  257.503    4.165
  397.510    0.497    0.528   66.667  329.808    4.371
  397.760    0.545    0.592   62.241  355.659    4.840
  398.010    0.589    0.623   54.964  373.232    5.174
  398.260    0.562    0.585   47.957  330.552    5.510
  398.510    0.487    0.506   49.711  283.389    5.836
  398.760    0.455    0.462   58.934  243.354    6.102
  399.010    0.366    0.444   60.960  215.163    6.310
  399.260    0.287    0.436   59.522  210.311    5.807
  399.510    0.276    0.429   57.064  211.210    5.536
  399.760    0.282    0.417   53.861  214.177    5.366
  400.010    0.269    0.406   50.047  216.461    5.269
  400.260    0.287    0.412   44.943  218.164    5.270
  400.510    0.296    0.409   42.487  218.031    5.310
  400.760    0.282    0.403   44.715  218.699    5.410
  401.010    0.280    0.405   48.981  221.097    5.461
  401.260    0.291    0.404   52.908  222.109    5.196
  401.510    0.284    0.410   57.854  209.212    4.791
  401.760    0.279    0.419   56.959  194.703    4.451
  402.010    0.287    0.425   56.675  202.963    4.059
