~VERSION INFORMATION
 VERS.                 2.0:   CWLS LOG ASCII STANDARD -VERSION 2.0
 WRAP.                  NO:   ONE LINE PER DEPTH STEP
~WELL INFORMATION BLOCK
#MNEM.UNIT           DATA                    DESCRIPTION OF MNEMONIC
#---------    -------------------            -------------------------------
# Generated from Intellog Unique Number	CW_73_75/WELL/3528
WELL.         GULF ET AL MITSUE              : Well_name    - WELL
LOC .         00/12-04-074-04W5/0            : Location     - LOCATION
UWI .         00/12-04-074-04W5/0            : Uwi          - UNIQUE WELL ID
ENTR.         T                              : Entered      - ENTERED BY
SRVC.         SCHLUMBERGER                   : Scn          - SERVICE COMPANY
STRT.M        345                            : top_depth    - START DEPTH
STOP.M        580                            : bot_depth    - STOP DEPTH
STEP.M        0.25                           : increment    - STEP LENGTH
 NULL. -999.2500:NULL Value
~CURVE INFORMATION BLOCK
#MNEM UNIT       ERCB CURVE CODE    CURVE DESCRIPTION
#-----------   ------------------   ----------------------------------
DEPT.M        00 001 00 00         : DEPTH        - DEPTH
ILD .OHMM     00 120 00 00         : RESD         - DEEP RESISTIVITY (DIL)
DPHI.V/V      00 890 00 00         : PHID         - DENSITY POROSITY (SANDSTONE)
NPHI.V/V      00 330 00 00         : PHIN         - NEUTRON POROSITY (SANDSTONE)
GR  .API      00 310 00 00         : GR           - GAMMA RAY
~PARAMETER INFORMATION
#MNEM.UNIT           DATA             DESCRIPTION OF MNEMONIC
#---------         -----------     ------------------------------
GL  .M        600                  : gl           - GROUND LEVEL ELEVATION
EREF.M        606                  : kb           - ELEVATION OF DEPTH REFERENCE
DATM.M        606                  : datum        - DATUM ELEVATION
TDD .M        1836                 : tdd          - TOTAL DEPTH DRILLER
RUN .         ONE                  : Run          - RUN NUMBER
ENG .         BILL                 : Engineer     - RECORDING ENGINEER
WIT .         JIM                  : Witness      - WITNESSED BY
MUD .         GEL                  : Mud_type     - MUD TYPE
MATR.         SANDSTONE            : Logunit      - NEUTRON MATRIX
TMAX.C        36                   : BHT          - MAXIMUM RECORDED TEMPERATURE
BHTD.M        1836                 : BHTDEP       - MAXIMUM RECORDED TEMPERATURE
MATR.         1                    : LOGUNIT      - NEUTRON MATRIX
RMT .C        17                   : MDTP         - TEMPERATURE OF MUD
NEUT.         1                    : NEUTRON      - NEUTRON TYPE
RESI.         0                    : RESIST       - RESISTIVITY TYPE
RMC .OHMM     1.3                  : RMC          - RESISTIVITY OF MUD CAKE
RMF .OHMM     0.89                 : RMF          - RESISTIVITY OF MUD FILTRATE
SUFT.C        15                   : SUFT         - SURFACE TEMPERATURE
~A  DEPTH     RESD     PHID     PHIN       GR
  345.000    3.037    0.327    0.414   78.690
  345.250    2.872    0.278    0.418   79.871
  345.500    2.666    0.276    0.430  110.261
  345.750    2.568    0.321    0.444  107.857
  346.000    2.567    0.377    0.442   98.307
  346.250    2.712    0.385    0.486   86.965
  346.500    2.974    0.406    0.504   83.969
  346.750    3.321    0.455    0.482   83.950
  347.000    3.575    0.486    0.496   82.746
  347.250    3.993    0.502    0.504   73.189
  347.500    4.219    0.378    0.482   57.077
  347.750    4.458    0.287    0.460   46.927
  348.000    4.624    0.250    0.439   38.566
  348.250    4.707    0.258    0.364   36.162
  348.500    4.794    0.297    0.337   35.555
  348.750    4.881    0.359    0.342   36.124
  349.000    4.970    0.373    0.347   37.905
  349.250    4.968    0.370    0.358   42.063
  349.500    4.966    0.342    0.360   48.010
  349.750    4.963    0.335    0.350   52.168
  350.000    4.870    0.310    0.347   58.114
  350.250    4.691    0.302    0.356   62.869
  350.500    4.603    0.293    0.394   65.234
  350.750    4.352    0.286    0.412   65.816
  351.000    4.192    0.288    0.455   68.785
  351.250    3.891    0.296    0.447   71.747
  351.500    3.679    0.306    0.448   72.924
  351.750    3.610    0.344    0.451   75.294
  352.000    3.542    0.331    0.444   76.475
  352.250    3.541    0.301    0.440   78.844
  352.500    3.474    0.292    0.443   79.421
  352.750    3.346    0.300    0.435   78.810
  353.000    3.345    0.313    0.438   78.199
  353.250    3.282    0.348    0.462   80.565
  353.500    3.161    0.388    0.466   81.746
  353.750    3.102    0.405    0.466   82.923
  354.000    3.043    0.421    0.467   84.696
  354.250    3.042    0.417    0.470   85.870
  354.500    3.041    0.401    0.477   85.855
  354.750    2.875    0.409    0.479   84.647
  355.000    2.770    0.415    0.484   84.040
  355.250    2.619    0.419    0.477   81.640
  355.500    2.523    0.422    0.461   80.428
  355.750    2.385    0.425    0.453   82.202
  356.000    2.255    0.429    0.459   82.187
  356.250    2.172    0.437    0.465   82.760
  356.500    2.131    0.446    0.472   83.349
  356.750    2.091    0.450    0.477   84.526
  357.000    1.941    0.445    0.477   85.700
  357.250    1.870    0.443    0.474   88.069
  357.500    1.768    0.451    0.481   89.843
  357.750    1.735    0.461    0.482   88.639
  358.000    1.640    0.466    0.468   87.431
  358.250    1.610    0.460    0.467   89.801
  358.500    1.579    0.447    0.470   90.374
  358.750    1.550    0.434    0.477   90.952
  359.000    2.082    0.433    0.477   90.944
  359.250    2.082    0.441    0.480   89.733
  359.500    2.120    0.439    0.483   87.929
  359.750    2.158    0.424    0.486   84.929
  360.000    2.157    0.412    0.480   83.126
  360.250    2.197    0.393    0.469   82.522
  360.500    2.237    0.366    0.455   81.315
  360.750    2.277    0.343    0.458   80.700
  361.000    2.319    0.322    0.460   80.681
  361.250    2.361    0.308    0.464   80.665
  361.500    2.404    0.295    0.464   80.058
  361.750    2.448    0.305    0.459   78.850
  362.000    2.492    0.370    0.452   77.639
  362.250    2.491    0.444    0.455   77.028
  362.500    2.537    0.458    0.455   77.609
  362.750    2.535    0.452    0.456   80.579
  363.000    2.534    0.442    0.457   82.948
  363.250    2.580    0.433    0.455   84.722
  363.500    2.627    0.425    0.459   86.491
  363.750    2.626    0.420    0.462   81.707
  364.000    2.674    0.419    0.466   85.269
  364.250    2.673    0.416    0.471   91.215
  364.500    2.772    0.414    0.470   92.392
  364.750    2.822    0.411    0.467   93.562
  365.000    2.822    0.408    0.469   94.147
  365.250    2.873    0.406    0.470   95.324
  365.500    2.871    0.403    0.468   95.909
  365.750    2.924    0.403    0.464   95.297
  366.000    2.923    0.410    0.462   94.090
  366.250    2.976    0.415    0.463   89.898
  366.500    3.030    0.418    0.463   85.706
  366.750    3.142    0.424    0.462   80.921
  367.000    3.200    0.412    0.467   78.525
  367.250    3.320    0.399    0.472   81.491
  367.500    3.443    0.393    0.466   88.630
  367.750    3.441    0.387    0.459   92.192
  368.000    3.569    0.383    0.452   89.196
  368.250    3.634    0.384    0.448   86.196
  368.500    3.701    0.385    0.449   86.781
  368.750    3.767    0.392    0.451   87.362
  369.000    3.766    0.390    0.455   83.166
  369.250    3.627    0.382    0.460   80.766
  369.500    3.430    0.382    0.457   84.332
  369.750    3.493    0.392    0.464   87.894
  370.000    4.280    0.400    0.475   84.898
  370.250    4.960    0.402    0.480   80.710
  370.500    5.540    0.400    0.473   75.329
  370.750    5.336    0.399    0.461   71.141
  371.000    4.773    0.386    0.443   65.760
  371.250    4.114    0.348    0.351   74.091
  371.500    3.355    0.291    0.363   88.384
  371.750    2.892    0.288    0.463   88.365
  372.000    2.684    0.348    0.462   82.985
  372.250    3.170    0.390    0.460   77.604
  372.500    3.674    0.411    0.455   73.412
  372.750    3.810    0.435    0.450   71.612
  373.000    3.809    0.428    0.446   72.789
  373.250    3.877    0.413    0.439   73.370
  373.500    3.876    0.403    0.435   73.951
  373.750    3.597    0.394    0.436   76.313
  374.000    3.218    0.406    0.448   77.498
  374.250    2.576    0.453    0.471   80.460
  374.500    2.262    0.490    0.470   83.422
  374.750    3.097    0.471    0.463   84.603
  375.000    3.938    0.442    0.458   83.992
  375.250    4.318    0.410    0.446   68.476
  375.500    4.733    0.391    0.433   60.115
  375.750    4.910    0.370    0.424   61.292
  376.000    5.093    0.347    0.424   64.258
  376.250    5.282    0.358    0.435   64.243
  376.500    5.280    0.387    0.445   63.620
  376.750    5.578    0.379    0.446   63.612
  377.000    5.680    0.369    0.440   63.590
  377.250    5.573    0.357    0.425   63.582
  377.500    5.369    0.342    0.401   64.159
  377.750    5.171    0.328    0.406   64.144
  378.000    4.981    0.312    0.430   63.533
  378.250    4.887    0.298    0.450   62.922
  378.500    4.977    0.339    0.470   63.503
  378.750    5.162    0.474    0.476   63.491
  379.000    5.256    0.435    0.457   64.072
  379.250    5.253    0.394    0.453   67.031
  379.500    5.251    0.383    0.458   69.400
  379.750    5.248    0.362    0.461   69.981
  380.000    5.055    0.343    0.460   70.566
  380.250    4.780    0.334    0.461   71.739
  380.500    4.520    0.380    0.465   71.728
  380.750    4.435    0.410    0.466   72.309
  381.000    4.352    0.369    0.456   71.102
  381.250    4.039    0.387    0.446   74.663
  381.500    3.482    0.451    0.439   91.341
  381.750    3.057    0.465    0.443   97.884
  382.000    4.034    0.473    0.445   88.330
  382.250    5.129    0.449    0.442   73.407
  382.500    5.419    0.462    0.459   64.449
  382.750    5.833    0.571    0.472   57.280
  383.000    6.163    0.555    0.476   50.707
  383.250    6.160    0.501    0.469   45.919
  383.500    5.824    0.450    0.452   42.927
  383.750    5.611    0.423    0.414   39.923
  384.000    5.305    0.434    0.413   39.908
  384.250    5.110    0.436    0.407   39.297
  384.500    5.107    0.434    0.395   39.882
  384.750    5.200    0.434    0.388   40.463
  385.000    5.294    0.430    0.380   42.236
  385.250    5.293    0.427    0.382   46.986
  385.500    5.389    0.417    0.393   48.167
  385.750    5.387    0.414    0.399   50.537
  386.000    5.485    0.409    0.409   51.710
  386.250    5.585    0.401    0.411   52.888
  386.500    5.900    0.390    0.384   51.680
  386.750    5.898    0.374    0.377   49.280
  387.000    5.896    0.360    0.375   46.877
  387.250    5.893    0.402    0.381   43.285
  387.500    5.890    0.451    0.391   43.270
  387.750    5.887    0.451    0.401   42.658
  388.000    5.883    0.439    0.409   42.047
  388.250    5.881    0.424    0.409   42.032
