~VERSION INFORMATION
 VERS.                 2.0:   CWLS LOG ASCII STANDARD -VERSION 2.0
 WRAP.                  NO:   ONE LINE PER DEPTH STEP
~WELL INFORMATION BLOCK
#MNEM.UNIT           DATA                    DESCRIPTION OF MNEMONIC
#---------    -------------------            -------------------------------
# Generated from Intellog Unique Number	CW_82_90/WELL/3078
WELL.         11-24-087-23W4                 : Well_name    - WELL
LOC .         00/11-24-087-23W4/0            : Location     - LOCATION
UWI .         00/11-24-087-23W4/0            : Uwi          - UNIQUE WELL ID
ENTR.         MAX                            : Entered      - ENTERED BY
SRVC.         WESTERN ATLAS                  : Scn          - SERVICE COMPANY
STRT.M        121.92                         : top_depth    - START DEPTH
STOP.M        345.67                         : bot_depth    - STOP DEPTH
STEP.M        0.25                           : increment    - STEP LENGTH
 NULL. -999.2500:NULL Value
~CURVE INFORMATION BLOCK
#MNEM UNIT       ERCB CURVE CODE    CURVE DESCRIPTION
#-----------   ------------------   ----------------------------------
DEPT.M        00 001 00 00         : DEPTH        - DEPTH
ILD .OHMM     00 120 00 00         : RESD         - DEEP RESISTIVITY (DIL)
NPHI.V/V      00 330 00 00         : PHIN         - NEUTRON POROSITY (SANDSTONE)
DPHI.V/V      00 890 00 00         : PHID         - DENSITY POROSITY (SANDSTONE)
CALI.MM       00 280 01 00         : CAL          - CALIPER
GR  .API      00 310 00 00         : GR           - GAMMA RAY
~PARAMETER INFORMATION
#MNEM.UNIT           DATA             DESCRIPTION OF MNEMONIC
#---------         -----------     ------------------------------
GL  .M        539.496              : gl           - GROUND LEVEL ELEVATION
EREF.M        542.239              : kb           - ELEVATION OF DEPTH REFERENCE
DATM.M        539.496              : datum        - DATUM ELEVATION
TDD .M        319.126              : tdd          - TOTAL DEPTH DRILLER
RUN .         ONE                  : Run          - RUN NUMBER
ENG .         BILL                 : Engineer     - RECORDING ENGINEER
WIT .         JIM                  : Witness      - WITNESSED BY
MUD .         GEL                  : Mud_type     - MUD TYPE
MATR.         SANDSTONE            : Logunit      - NEUTRON MATRIX
TMAX.C        21.6667              : BHT          - MAXIMUM RECORDED TEMPERATURE
BHTD.M        319.126              : BHTDEP       - MAXIMUM RECORDED TEMPERATURE
MATR.         1                    : LOGUNIT      - NEUTRON MATRIX
RMT .C        20                   : MDTP         - TEMPERATURE OF MUD
NEUT.         1                    : NEUTRON      - NEUTRON TYPE
RESI.         0                    : RESIST       - RESISTIVITY TYPE
RMC .OHMM     5.2                  : RMC          - RESISTIVITY OF MUD CAKE
RMF .OHMM     5                    : RMF          - RESISTIVITY OF MUD FILTRATE
SUFT.C        -18.3333             : SUFT         - SURFACE TEMPERATURE
~A  DEPTH     RESD     PHIN     PHID      CAL       GR
# ...
  304.420   12.899    0.347    0.162  203.827  137.213
  304.670   12.887    0.332    0.096  203.790  131.245
  304.920   12.992    0.320    0.064  200.723  134.486
  305.170   12.979    0.330    0.133  199.171  134.758
  305.420   12.734    0.339    0.167  199.627  132.356
  305.670   12.607    0.330    0.149  199.585  128.762
  305.920   13.063    0.330    0.122  198.531  126.656
  306.170   14.426    0.322    0.083  197.991  129.607
  306.420   15.937    0.317    0.119  197.949  134.337
  306.670   19.280    0.327    0.181  197.902  130.151
  306.920   22.088    0.333    0.207  198.877  126.851
  307.170   23.522    0.327    0.193  199.830  125.046
  307.420   21.646    0.301    0.157  199.788  120.861
  307.670   19.032    0.271   -0.035  199.746  110.137
  307.920   16.586    0.255    0.034  199.709  117.839
  308.170   13.934    0.290    0.117  199.662  125.838
  308.420   12.141    0.331    0.179  200.118  130.565
  308.670   11.380    0.354    0.187  200.081  130.246
  308.920   11.370    0.358    0.183  200.039  128.135
  309.170   11.671    0.368    0.175  199.997  128.113
  309.420   11.984    0.359    0.167  199.955  126.893
  309.670   12.534    0.344    0.160  199.902  125.983
  309.920   14.228    0.336    0.153  199.870  125.067
  310.170   15.572    0.327    0.134  199.818  127.416
  310.420   18.164    0.322    0.155  199.786  127.097
  310.670   19.168    0.317    0.132  199.739  119.940
  310.920   19.325    0.277   -0.040  200.205  102.972
  311.170   17.625    0.255   -0.026  199.655   95.515
  311.420   14.408    0.264    0.027  199.115   90.728
  311.670   11.776    0.293    0.081  199.570   89.221
  311.920   10.450    0.323    0.111  200.026   88.010
  312.170    9.445    0.348    0.146  199.989   87.388
  312.420    8.306    0.361    0.162  199.947   86.174
  312.670    7.643    0.372    0.178  199.402   85.555
  312.920    7.363    0.382    0.172  199.863   85.530
  313.170    7.221    0.395    0.170  199.810   85.205
  313.420    7.216    0.404    0.156  199.779   84.883
  313.670    7.209    0.402    0.128  199.731   83.970
  313.920    7.269    0.393    0.136  199.191   82.159
  314.170    7.395    0.396    0.174  198.635   81.840
  314.420    7.456    0.391    0.171  198.599   81.220
  314.670    7.517    0.386    0.173  198.551   80.598
  314.920    7.932    0.348    0.165  198.514   79.685
  315.170    8.070    0.353    0.158  198.976   78.465
  315.420    8.138    0.361    0.152  199.437   77.549
  315.670    7.982    0.359    0.146  199.395   77.230
  315.920    7.760    0.358    0.150  198.849   76.310
  316.170    7.613    0.369    0.161  198.299   75.397
  316.420    7.536    0.367    0.122  197.250   74.477
  316.670    7.461    0.366    0.125  196.201   73.861
  316.920    7.381    0.376    0.128  196.154   72.941
  317.170    7.378    0.366    0.129  195.105   72.917
  317.420    7.373    0.365    0.151  194.560   72.591
  317.670    7.432    0.371    0.167  194.518   72.570
  317.920    7.493    0.368    0.168  194.979   72.245
  318.170    7.488    0.370    0.170  194.937   72.223
  318.420    7.549    0.379    0.167  194.895   72.198
  318.670    7.610    0.377    0.164  194.858   72.764
  318.920    7.674    0.368    0.168  194.811   74.522
  319.170    7.736    0.366    0.182  194.265   76.281
  319.420    7.871    0.365    0.185  194.218   77.147
  319.670    7.864    0.363    0.176  194.171   77.423
  319.920    7.506    0.359    0.156  194.637   76.503
  320.170    7.100    0.343    0.152  197.111   73.504
  320.420    6.777    0.329    0.168  199.585   69.915
  320.670    6.528    0.322    0.190  203.066   65.730
  320.920    6.464    0.333    0.200  207.055   62.730
  321.170    6.458    0.351    0.198  212.543   59.139
  321.420    6.753    0.362    0.183  217.528   57.925
  321.670    8.096    0.363    0.175  222.523   61.166
  321.920    9.976    0.358    0.166  226.507   66.494
  322.170   10.430    0.353    0.163  228.981   73.602
  322.420    9.257    0.347    0.162  230.952   83.087
  322.670    8.441    0.343    0.162  232.918   83.065
  322.920    8.668    0.342    0.163  234.899   85.418
  323.170    9.063    0.346    0.166  238.374   92.823
  323.420    9.652    0.353    0.171  241.357   98.147
  323.670   10.661    0.361    0.178  244.837   94.259
  323.920   12.212    0.363    0.184  249.319   82.343
  324.170   14.244    0.356    0.187  252.800   65.970
  324.420   14.360    0.348    0.190  256.280   51.680
  324.670   12.981    0.351    0.193  260.259   49.278
  324.920   10.807    0.356    0.193  261.732   53.116
  325.170    8.996    0.361    0.189  263.697   64.976
  325.420    7.839    0.366    0.177  263.650   79.516
  325.670    7.760    0.375    0.160  264.116  120.509
  325.920    7.682    0.389    0.138  264.572  138.316
  326.170    7.605    0.403    0.119  265.039  135.913
  326.420    7.667    0.412    0.127  266.003  128.459
  326.670    7.872    0.408    0.141  266.469  101.981
  326.920    7.864    0.392    0.160  267.428   82.636
  327.170    7.858    0.372    0.206  268.393   68.934
  327.420    7.850    0.360    0.223  268.854   80.800
  327.670    7.989    0.369    0.221  267.302   92.065
  327.920    8.743    0.371    0.191  263.732   97.990
  328.170    9.925    0.365    0.165  286.346  100.637
  328.420   11.899    0.362    0.156  266.169   97.049
  328.670   13.383    0.358    0.161  247.507   84.242
  328.920   15.330    0.350    0.176  240.918   72.627
  329.170   17.721    0.339    0.187  236.845   64.872
  329.420   19.935    0.344    0.203  232.268   61.281
  329.670   24.117    0.339    0.210  229.720   58.284
  329.920   26.637    0.342    0.209  226.150   43.991
  330.170   27.351    0.339    0.205  224.599   41.880
  330.420   27.831    0.331    0.194  223.047   43.347
  330.670   29.099    0.328    0.192  221.988   43.319
  330.920   29.076    0.330    0.190  221.448   40.325
  331.170   28.265    0.323    0.185  221.405   35.242
  331.420   25.544    0.319    0.180  221.363   36.112
  331.670   21.459    0.325    0.176  221.326   35.493
  331.920   18.697    0.324    0.173  221.788   33.678
  332.170   17.206    0.340    0.170  222.243   36.037
  332.420   16.426    0.366    0.170  222.201   47.603
  332.670   16.262    0.384    0.172  222.164   52.630
  332.920   16.395    0.397    0.176  222.610   59.438
  333.170   17.145    0.400    0.180  222.578   59.118
  333.420   17.928    0.384    0.184  222.536   52.853
  333.670   18.576    0.361    0.185  221.985   43.021
  333.920   19.598    0.355    0.184  221.943   39.129
  334.170   18.879    0.368    0.189  221.907   37.021
  334.420   18.188    0.380    0.190  221.864   36.699
  334.670   17.362    0.386    0.185  221.822   37.860
  334.920   16.876    0.393    0.183  221.277   41.407
  335.170   17.330    0.392    0.187  220.726   49.109
  335.420   18.119    0.379    0.192  220.181   57.108
  335.670   18.949    0.357    0.199  219.636   61.836
  335.920   20.737    0.327    0.196  219.090   54.978
  336.170   23.327    0.316    0.190  218.036   43.066
  336.420   26.479    0.330    0.195  216.988   37.094
  336.670   27.437    0.371    0.212  216.448   36.766
  336.920   26.914    0.392    0.216  216.406   37.936
  337.170   24.997    0.386    0.216  216.358   40.577
  337.420   22.591    0.374    0.214  215.813   42.638
  337.670   21.175    0.370    0.211  215.262   44.400
  337.920   20.584    0.370    0.211  215.225   46.455
  338.170   21.131    0.372    0.211  214.675   49.993
  338.420   22.099    0.377    0.208  214.135   52.944
  338.670   22.078    0.383    0.194  213.579   53.510
  338.920   21.460    0.382    0.197  213.547   49.027
  339.170   20.299    0.370    0.202  212.488   45.436
  339.420   18.854    0.356    0.207  211.953   42.736
  339.670   17.670    0.357    0.208  210.894   44.489
  339.920   17.336    0.352    0.210  210.354   46.547
  340.170   17.481    0.357    0.211  209.809   48.900
  340.420   17.787    0.357    0.211  209.258   50.661
  340.670   18.595    0.356    0.211  208.210   53.608
