~VERSION INFORMATION
 VERS.                 2.0:   CWLS LOG ASCII STANDARD -VERSION 2.0
 WRAP.                  NO:   ONE LINE PER DEPTH STEP
~WELL INFORMATION BLOCK
#MNEM.UNIT           DATA                    DESCRIPTION OF MNEMONIC
#---------    -------------------            -------------------------------
# Generated from Intellog Unique Number	CS_77_79/WELL/3301
WELL.         TRITON CANADA RESOURCES LTD.   : Well_name    - WELL
LOC .         00/10-29-079-10W4/0            : Location     - LOCATION
UWI .         00/10-29-079-10W4/0            : Uwi          - UNIQUE WELL ID
ENTR.         JOETTE                         : Entered      - ENTERED BY
SRVC.         SCHLUMBERGER                   : Scn          - SERVICE COMPANY
DATE.         08/24/92                       : Date         - LOG DATE
STRT.M        250                            : top_depth    - START DEPTH
STOP.M        465                            : bot_depth    - STOP DEPTH
STEP.M        0.25                           : increment    - STEP LENGTH
 NULL. -999.2500:NULL Value
~CURVE INFORMATION BLOCK
#MNEM UNIT       ERCB CURVE CODE    CURVE DESCRIPTION
#-----------   ------------------   ----------------------------------
DEPT.M        00 001 00 00         : DEPTH        - DEPTH
GR  .API      00 310 00 00         : GR           - GAMMA RAY
NPHI.V/V      00 330 00 00         : PHIN         - NEUTRON POROSITY (SANDSTONE)
DPHI.V/V      00 890 00 00         : PHID         - DENSITY POROSITY (SANDSTONE)
ILD .OHMM     00 120 00 00         : RESD         - DEEP RESISTIVITY (DIL)
~PARAMETER INFORMATION
#MNEM.UNIT           DATA             DESCRIPTION OF MNEMONIC
#---------         -----------     ------------------------------
GL  .M        664.8                : gl           - GROUND LEVEL ELEVATION
EREF.M        666.5                : kb           - ELEVATION OF DEPTH REFERENCE
DATM.M        666.5                : datum        - DATUM ELEVATION
TDD .M        473                  : tdd          - TOTAL DEPTH DRILLER
RUN .         ONE                  : Run          - RUN NUMBER
ENG .         BILL                 : Engineer     - RECORDING ENGINEER
WIT .         JIM                  : Witness      - WITNESSED BY
MUD .         GEL                  : Mud_type     - MUD TYPE
MATR.         SANDSTONE            : Logunit      - NEUTRON MATRIX
TMAX.C        25                   : BHT          - MAXIMUM RECORDED TEMPERATURE
BHTD.M        473                  : BHTDEP       - MAXIMUM RECORDED TEMPERATURE
MATR.         1                    : LOGUNIT      - NEUTRON MATRIX
RMT .C        4.44                 : MDTP         - TEMPERATURE OF MUD
NEUT.         1                    : NEUTRON      - NEUTRON TYPE
RESI.         0                    : RESIST       - RESISTIVITY TYPE
RMC .OHMM     5.98                 : RMC          - RESISTIVITY OF MUD CAKE
RMF .OHMM     6.46                 : RMF          - RESISTIVITY OF MUD FILTRATE
SUFT.C        15                   : SUFT         - SURFACE TEMPERATURE
~A  DEPTH       GR     PHIN     PHID     RESD
# ...
  293.500   45.325    0.400    0.352   25.959
  293.750   44.779    0.395    0.352   25.978
  294.000   44.849    0.408    0.353   26.010
  294.250   44.905    0.418    0.353   26.035
  294.500   44.961    0.424    0.352   25.592
  294.750   45.003    0.431    0.348   25.617
  295.000   44.471    0.421    0.348   25.636
  295.250   44.541    0.408    0.352   26.137
  295.500   45.774    0.404    0.350   26.175
  295.750   47.595    0.409    0.345   26.195
  296.000   48.253    0.417    0.346   26.707
  296.250   49.472    0.424    0.356   26.727
  296.500   50.116    0.419    0.358   26.766
  296.750   48.996    0.392    0.358   26.792
  297.000   49.066    0.387    0.358   26.811
  297.250   49.696    0.385    0.352   26.844
  297.500   51.517    0.390    0.352   26.870
  297.750   52.161    0.400    0.353   26.896
  298.000   51.643    0.395    0.354   26.916
  298.250   51.139    0.379    0.354   26.942
  298.500   50.579    0.378    0.354   26.969
  298.750   50.047    0.382    0.359   27.002
  299.000   52.456    0.394    0.362   27.537
  299.250   54.291    0.440    0.371   27.550
  299.500   54.935    0.412    0.364   27.577
  299.750   56.168    0.398    0.359   27.604
  300.000   57.989    0.391    0.354   27.651
  300.250   59.235    0.393    0.353   27.664
  300.500   59.291    0.398    0.353   27.691
  300.750   57.583    0.394    0.357   27.213
  301.000   55.860    0.389    0.362   26.262
  301.250   53.577    0.394    0.365   25.802
  301.500   55.986    0.407    0.374   24.446
  301.750   57.219    0.434    0.383   24.024
  302.000   56.099    0.450    0.375   23.178
  302.250   54.404    0.418    0.375   21.955
  302.500   53.270    0.415    0.389   21.183
  302.750   56.253    0.403    0.404   20.432
  303.000   58.676    0.452    0.430   19.363
  303.250   58.732    0.489    0.433   19.373
  303.500   57.024    0.442    0.420   20.128
  303.750   62.374    0.415    0.403   20.517
  304.000   63.032    0.400    0.388   21.307
  304.250   63.074    0.435    0.382   22.133
  304.500   61.366    0.397    0.373   22.566
  304.750   59.069    0.394    0.363   22.170
  305.000   55.596    0.396    0.359   22.192
  305.250   54.475    0.406    0.367   21.411
  305.500   55.134    0.424    0.374   21.437
  305.750   55.176    0.424    0.382   21.062
  306.000   54.644    0.427    0.385   21.093
  306.250   54.140    0.432    0.387   21.500
  306.500   52.431    0.435    0.388   21.915
  306.750   50.120    0.438    0.385   22.344
  307.000   48.426    0.430    0.379   22.787
  307.250   50.849    0.417    0.376   23.232
  307.500   52.067    0.423    0.377   23.261
  307.750   52.698    0.447    0.380   22.864
  308.000   52.166    0.447    0.383   22.876
  308.250   49.294    0.427    0.382   21.668
  308.500   48.748    0.415    0.386   20.530
  308.750   47.628    0.414    0.386   19.446
  309.000   47.698    0.404    0.378   19.110
  309.250   49.519    0.410    0.377   19.479
  309.500   49.589    0.430    0.385   20.605
  309.750   46.690    0.444    0.388   21.801
  310.000   44.407    0.440    0.384   22.645
  310.250   44.463    0.456    0.381   23.083
  310.500   43.931    0.465    0.383   23.977
  310.750   45.164    0.463    0.385   24.001
  311.000   46.985    0.452    0.384   24.476
  311.250   46.438    0.425    0.380   24.047
  311.500   45.906    0.436    0.376   23.626
  311.750   45.962    0.445    0.378   22.801
  312.000   46.607    0.452    0.381   22.401
  312.250   49.016    0.451    0.383   21.224
  312.500   49.100    0.460    0.388   20.104
  312.750   49.142    0.470    0.402   20.128
  313.000   48.036    0.469    0.399   20.143
  313.250   47.490    0.458    0.390   20.542
  313.500   47.546    0.453    0.381   21.333
  313.750   50.543    0.458    0.379   21.750
  314.000   51.776    0.458    0.380   22.176
  314.250   50.669    0.453    0.380   22.610
  314.500   50.137    0.439    0.370   23.046
  314.750   46.062    0.424    0.367   23.069
  315.000   42.589    0.420    0.368   23.520
  315.250   42.645    0.424    0.371   23.543
  315.500   45.054    0.419    0.369   24.010
  315.750   46.889    0.414    0.368   24.033
  316.000   46.945    0.418    0.369   24.056
  316.250   48.191    0.418    0.370   23.641
  316.500   45.306    0.438    0.369   23.238
  316.750   42.995    0.436    0.369   23.255
  317.000   43.051    0.426    0.374   23.278
  317.250   43.696    0.422    0.376   22.881
  317.500   45.545    0.434    0.382   22.898
  317.750   46.161    0.427    0.384   22.921
  318.000   47.408    0.421    0.383   22.530
  318.250   47.492    0.420    0.382   22.552
  318.500   46.932    0.425    0.375   22.574
  318.750   45.811    0.425    0.373   22.179
  319.000   45.279    0.403    0.376   22.200
  319.250   48.865    0.433    0.376   22.227
  319.500   50.111    0.430    0.369   21.854
  319.750   47.800    0.425    0.365   21.875
  320.000   44.929    0.427    0.370   21.892
  320.250   45.574    0.461    0.371   21.913
  320.500   46.820    0.462    0.375   21.940
  320.750   46.260    0.453    0.376   21.956
  321.000   45.140    0.423    0.377   21.576
  321.250   44.608    0.418    0.378   20.822
  321.500   46.457    0.430    0.378   19.354
  321.750   49.440    0.438    0.369   16.117
  322.000   55.378    0.414    0.359   10.963
  322.250   65.448    0.398    0.343    7.736
  322.500   74.328    0.492    0.329    6.210
  322.750   80.855    0.493    0.297    4.984
  323.000   85.645    0.501    0.270    4.389
  323.250   85.701    0.503    0.282    4.313
  323.500   85.169    0.492    0.285    4.316
  323.750   82.886    0.507    0.284    4.319
  324.000   81.737    0.519    0.278    4.571
  324.250   75.323    0.516    0.264    4.659
  324.500   68.923    0.497    0.248    5.112
  324.750   67.200    0.486    0.222    6.381
  325.000   69.623    0.478    0.257   10.119
  325.250   71.430    0.473    0.292   13.852
  325.500   77.382    0.498    0.304   14.653
  325.750   76.836    0.477    0.324   15.213
  326.000   71.024    0.471    0.333   15.518
  326.250   68.713    0.472    0.343   15.530
  326.500   67.019    0.482    0.354   15.261
  326.750   70.590    0.479    0.346   15.280
  327.000   74.778    0.471    0.344   15.012
  327.250   74.834    0.464    0.345   14.223
  327.500   67.831    0.465    0.346   13.720
  327.750   64.358    0.458    0.354   12.301
  328.000   61.487    0.442    0.354   11.026
  328.250   62.131    0.453    0.353    9.881
  328.500   64.540    0.468    0.336    8.697
  328.750   66.936    0.468    0.322    8.547
  329.000   69.359    0.461    0.320   10.094
  329.250   71.768    0.447    0.329   11.923
  329.500   71.824    0.457    0.350   13.088
  329.750   66.572    0.470    0.360   13.847
  330.000   65.465    0.469    0.363   14.118
  330.250   69.653    0.463    0.367   14.394
  330.500   71.474    0.460    0.364   14.408
  330.750   69.163    0.456    0.357   13.905
  331.000   66.866    0.474    0.352   13.409
  331.250   65.158    0.466    0.359   11.166
  331.500   65.214    0.447    0.353    8.026
  331.750   68.799    0.463    0.300    5.985
  332.000   73.561    0.491    0.283    5.077
  332.250   80.690    0.487    0.281    5.372
  332.500   78.394    0.487    0.308    5.893
  332.750   75.508    0.494    0.312    6.962
  333.000   69.094    0.476    0.329    8.690
  333.250   63.856    0.460    0.340   11.679
  333.500   66.293    0.450    0.352   13.795
  333.750   66.909    0.444    0.343   15.710
  334.000   65.789    0.408    0.258   16.614
  334.250   62.316    0.337    0.141   17.258
  334.500   53.548    0.269    0.084   16.960
  334.750   47.708    0.389    0.210   16.363
  335.000   48.941    0.423    0.228   14.396
  335.250   61.364    0.457    0.309   11.989
  335.500   64.361    0.449    0.329   11.361
  335.750   67.386    0.442    0.348   11.370
  336.000   68.031    0.439    0.343   11.381
  336.250   68.661    0.442    0.343   11.392
  336.500   69.305    0.448    0.349   11.403
  336.750   67.597    0.457    0.354   11.004
