~VERSION INFORMATION
 VERS.                 2.0:   CWLS LOG ASCII STANDARD -VERSION 2.0
 WRAP.                  NO:   ONE LINE PER DEPTH STEP
~WELL INFORMATION BLOCK
#MNEM.UNIT           DATA                    DESCRIPTION OF MNEMONIC
#---------    -------------------            -------------------------------
# Generated from Intellog Unique Number	CW_76_78/WELL/2579
WELL.         10-23-078-23W4                 : Well_name    - WELL
LOC .         00/10-23-078-23W4/0            : Location     - LOCATION
UWI .         00/10-23-078-23W4/0            : Uwi          - UNIQUE WELL ID
ENTR.         MAX                            : Entered      - ENTERED BY
SRVC.         SCHLUMBERGER                   : Scn          - SERVICE COMPANY
STRT.M        207.264                        : top_depth    - START DEPTH
STOP.M        493.764                        : bot_depth    - STOP DEPTH
STEP.M        0.25                           : increment    - STEP LENGTH
 NULL. -999.2500:NULL Value
~CURVE INFORMATION BLOCK
#MNEM UNIT       ERCB CURVE CODE    CURVE DESCRIPTION
#-----------   ------------------   ----------------------------------
DEPT.M        00 001 00 00         : DEPTH        - DEPTH
ILD .OHMM     00 120 00 00         : RESD         - DEEP RESISTIVITY (DIL)
NPHI.V/V      00 330 00 00         : PHIN         - NEUTRON POROSITY (SANDSTONE)
DPHI.V/V      00 890 00 00         : PHID         - DENSITY POROSITY (SANDSTONE)
CALI.MM       00 280 01 00         : CAL          - CALIPER
GR  .API      00 310 00 00         : GR           - GAMMA RAY
~PARAMETER INFORMATION
#MNEM.UNIT           DATA             DESCRIPTION OF MNEMONIC
#---------         -----------     ------------------------------
GL  .M        566.623              : gl           - GROUND LEVEL ELEVATION
EREF.M        570.159              : kb           - ELEVATION OF DEPTH REFERENCE
DATM.M        566.623              : datum        - DATUM ELEVATION
TDD .M        495.91               : tdd          - TOTAL DEPTH DRILLER
RUN .         ONE                  : Run          - RUN NUMBER
ENG .         BILL                 : Engineer     - RECORDING ENGINEER
WIT .         JIM                  : Witness      - WITNESSED BY
MUD .         GEL                  : Mud_type     - MUD TYPE
MATR.         SANDSTONE            : Logunit      - NEUTRON MATRIX
TMAX.C        21.6667              : BHT          - MAXIMUM RECORDED TEMPERATURE
BHTD.M        495.91               : BHTDEP       - MAXIMUM RECORDED TEMPERATURE
RMT .C        14.4444              : MDTP         - TEMPERATURE OF MUD
MUDD.KG/M     9000                 : MWT          - MUD DENSITY
NEUT.         1                    : NEUTRON      - NEUTRON TYPE
RESI.         0                    : RESIST       - RESISTIVITY TYPE
RM  .OHMM     6                    : RM           - RESISTIVITY OF MUD
RMC .OHMM     4.35                 : RMC          - RESISTIVITY OF MUD CAKE
RMF .OHMM     7.02                 : RMF          - RESISTIVITY OF MUD FILTRATE
SUFT.C        -6.66667             : SUFT         - SURFACE TEMPERATURE
~A  DEPTH     RESD     PHIN     PHID      CAL       GR
# ...
  316.764    6.616    0.560    0.209  202.764   97.384
  317.014    6.614    0.546    0.211  208.193   97.657
  317.264    6.549    0.525    0.210  208.651   94.987
  317.514    6.605    0.547    0.198  209.608   94.670
  317.764    6.605    0.565    0.206  206.082   95.820
  318.014    6.596    0.576    0.221  208.025   94.912
  318.264    6.591    0.555    0.226  211.477   94.600
  318.514    6.527    0.557    0.226  211.437   94.571
  318.764    6.405    0.572    0.220  209.894   95.727
  319.014    6.405    0.564    0.226  210.353   96.286
  319.264    6.339    0.538    0.236  210.821   95.087
  319.514    6.164    0.562    0.233  212.774   93.299
  319.764    6.049    0.571    0.224  209.238   94.158
  320.014    5.988    0.566    0.214  210.693   94.726
  320.264    5.877    0.543    0.221  211.655   93.814
  320.514    5.874    0.523    0.234  211.615   93.200
  320.764    5.868    0.539    0.231  209.579   92.885
  321.014    5.865    0.556    0.238  209.534   92.859
  321.264    5.915    0.582    0.230  208.504   91.368
  321.514    6.019    0.613    0.230  207.459   85.166
  321.764    6.070    0.620    0.260  206.423   81.319
  322.014    6.234    0.605    0.251  205.388   79.528
  322.264    6.402    0.575    0.247  206.335   79.799
  322.514    6.574    0.558    0.245  208.292   78.303
  322.764    6.813    0.550    0.240  204.767   75.630
  323.014    7.061    0.543    0.259  204.229   71.780
  323.264    7.384    0.546    0.257  203.194   69.995
  323.514    7.793    0.532    0.267  199.165   67.328
  323.764    8.076    0.520    0.267  196.631   66.416
  324.014    8.144    0.510    0.264  196.592   69.043
  324.264    7.992    0.488    0.268  195.058   74.019
  324.514    7.842    0.527    0.264  192.031   79.284
  324.764    7.766    0.561    0.234  195.970   80.734
  325.014    7.760    0.562    0.231  193.939   81.888
  325.264    7.825    0.541    0.225  194.403   80.685
  325.514    7.825    0.499    0.229  195.852   78.603
  325.764    7.958    0.512    0.231  197.800   75.345
  326.014    8.631    0.511    0.249  198.762   71.498
  326.264    9.277    0.497    0.262  198.224   67.354
  326.514   10.432    0.476    0.264  196.686   66.449
  326.764   11.012    0.452    0.251  198.140   70.834
  327.014   11.834    0.426    0.234  199.097   77.872
  327.264   12.265    0.417    0.209  199.556   80.199
  327.514   11.923    0.451    0.206  199.013   80.761
  327.764   11.492    0.466    0.213  195.981   81.326
  328.014   10.678    0.461    0.229  192.953   81.300
  328.264    9.831    0.440    0.216  193.412   78.929
  328.514    9.388    0.438    0.209  193.866   77.724
  328.764    8.966    0.435    0.212  193.328   81.230
  329.014    8.560    0.485    0.228  192.786   82.974
  329.264    8.560    0.508    0.222  193.245   82.363
  329.514    8.315    0.514    0.217  194.694   79.681
  329.764    8.164    0.536    0.210  196.159   80.549
  330.014    8.231    0.555    0.203  197.604   83.169
  330.264    8.378    0.532    0.206  198.067   76.382
  330.514    8.761    0.500    0.201  198.028   67.826
  330.764    9.163    0.414    0.194  194.502   65.745
  331.014    9.937    0.351    0.184  191.963   67.486
  331.264   10.876    0.395    0.201  194.414   76.283
  331.514   11.689    0.428    0.260  196.361   82.733
  331.764   11.366    0.486    0.246  196.327   85.062
  332.014   10.091    0.502    0.238  196.287   83.274
  332.264    9.377    0.530    0.237  196.746   81.778
  332.514    8.954    0.517    0.234  197.703   80.578
  332.764    8.867    0.509    0.239  198.156   79.966
  333.014    8.867    0.502    0.233  198.615   83.467
  333.264    8.852    0.505    0.227  198.576   85.502
  333.514    8.610    0.521    0.221  199.029   86.361
  333.764    8.221    0.528    0.211  199.986   85.456
  334.014    7.994    0.511    0.219  200.444   83.962
  334.264    7.845    0.504    0.231  200.400   80.112
  334.514    7.769    0.510    0.244  200.351   76.857
  334.764    7.764    0.509    0.245  200.814   75.063
  335.014    7.687    0.504    0.253  200.780   75.628
  335.264    7.683    0.480    0.250  201.239   76.490
  335.514    7.747    0.498    0.240  200.691   77.052
  335.764    7.956    0.508    0.241  200.657   73.499
  336.014    8.246    0.515    0.248  200.608   69.947
  336.264    8.545    0.502    0.251  200.070   69.038
  336.514    9.183    0.472    0.247  200.524   71.956
  336.764    9.693    0.464    0.229  201.490   70.757
  337.014    9.953    0.451    0.204  201.451   70.725
  337.264    9.505    0.466    0.255  199.415   73.351
  337.514    8.439    0.496    0.271  192.398   76.566
  337.764    7.699    0.493    0.255  192.364   80.366
  338.014    7.420    0.501    0.250  192.812   82.399
  338.264    7.551    0.502    0.246  194.272   83.846
  338.514    7.968    0.510    0.249  199.213   84.999
  338.764    8.487    0.508    0.248  200.169   84.682
  339.014    9.121    0.498    0.251  200.110   80.247
  339.264    9.981    0.476    0.266  199.588   71.986
  339.514   10.632    0.464    0.262  198.049   66.369
  339.764   11.323    0.493    0.264  196.018   65.463
  340.014   11.314    0.508    0.263  195.968   66.031
  340.264   10.903    0.512    0.260  195.441   68.066
  340.514   10.317    0.511    0.277  195.372   66.567
  340.764   10.216    0.511    0.280  195.352   63.311
  341.014   10.492    0.508    0.277  194.820   63.876
  341.264   10.873    0.478    0.286  194.277   66.497
  341.514   11.474    0.491    0.287  193.735   68.238
  341.764   12.110    0.503    0.284  194.194   67.033
  342.014   12.780    0.508    0.288  194.154   64.072
  342.264   13.245    0.496    0.296  194.613   63.460
  342.514   13.356    0.497    0.300  195.560   62.843
  342.764   13.347    0.499    0.291  196.023   62.531
  343.014   12.861    0.483    0.295  196.477   66.034
  343.264   12.061    0.460    0.288  196.433   71.008
  343.514   10.514    0.465    0.271  196.388   75.105
  343.764    9.950    0.467    0.268  196.359   78.317
  344.014    9.764    0.479    0.254  196.314   78.291
  344.264    9.846    0.505    0.250  197.266   75.912
  344.514   10.484    0.511    0.249  197.735   73.241
  344.764   11.269    0.500    0.273  197.695   70.277
  345.014   13.757    0.476    0.270  198.149   66.722
  345.264   16.045    0.343    0.236  199.101   64.349
  345.514   19.233    0.279    0.204  201.546   59.911
  345.764   23.265    0.268    0.142  202.015   56.944
  346.014   32.550    0.302    0.096  202.468   57.803
  346.264   33.730    0.375    0.108  201.931   58.370
  346.514   33.097    0.366    0.141  201.389   61.577
  346.764   31.041    0.383    0.171  201.344   65.379
  347.014   22.355    0.389    0.180  199.806   70.647
  347.264   20.400    0.399    0.190  199.278   72.097
  347.514   17.150    0.438    0.202  199.234   72.659
  347.764   14.550    0.465    0.222  198.199   73.810
  348.014   11.901    0.493    0.219  195.664   74.083
  348.264   11.059    0.477    0.221  194.629   73.472
  348.514   10.370    0.469    0.229  194.585   71.969
  348.764    9.724    0.473    0.206  195.541   73.422
  349.014    9.285    0.470    0.196  196.503   76.043
  349.264    9.028    0.483    0.197  197.454   76.902
  349.514    8.941    0.482    0.202  199.402   78.052
  349.764    8.935    0.483    0.205  200.862   78.323
  350.014    9.010    0.494    0.213  203.303   78.003
  350.264    9.004    0.502    0.216  203.766   78.280
  350.514    8.915    0.509    0.219  203.722   80.603
  350.764    8.701    0.509    0.212  200.034   82.435
  351.014    8.618    0.498    0.203  200.496   84.469
  351.264    8.612    0.498    0.215  200.939   85.037
  351.514    8.607    0.481    0.229  201.382   85.594
  351.764    8.680    0.471    0.237  202.325   84.383
  352.014    8.755    0.486    0.217  202.781   84.648
  352.264    8.748    0.496    0.220  202.730   86.682
  352.514    8.824    0.497    0.220  202.679   86.353
  352.764    8.818    0.487    0.231  202.121   86.031
  353.014    8.818    0.487    0.224  201.076   86.588
