~VERSION INFORMATION
 VERS.                 2.0:   CWLS LOG ASCII STANDARD -VERSION 2.0
 WRAP.                  NO:   ONE LINE PER DEPTH STEP
~WELL INFORMATION BLOCK
#MNEM.UNIT           DATA                    DESCRIPTION OF MNEMONIC
#---------    -------------------            -------------------------------
# Generated from Intellog Unique Number	CW_79_81/WELL/2898
WELL.         MOBIL WABISKAW                 : Well_name    - WELL
LOC .         00/10-06-080-25W4/0            : Location     - LOCATION
UWI .         00/10-06-080-25W4/0            : Uwi          - UNIQUE WELL ID
ENTR.         JJ                             : Entered      - ENTERED BY
SRVC.         SCHLUMBERGER                   : Scn          - SERVICE COMPANY
DATE.         20 DEC 66                      : Date         - LOG DATE
STRT.M        329.184                        : top_depth    - START DEPTH
STOP.M        457.184                        : bot_depth    - STOP DEPTH
STEP.M        0.25                           : increment    - STEP LENGTH
 NULL. -999.2500:NULL Value
~CURVE INFORMATION BLOCK
#MNEM UNIT       ERCB CURVE CODE    CURVE DESCRIPTION
#-----------   ------------------   ----------------------------------
DEPT.M        00 001 00 00         : DEPTH        - DEPTH
DELT.US/F     00 520 00 00         : DELT         - SONIC TRAVEL TIME
GR  .API      00 310 00 00         : GR           - GAMMA RAY
RHOB.KG/M3    00 350 00 00         : DENS         - BULK DENSITY
ILD .OHMM     00 120 00 00         : RESD         - DEEP RESISTIVITY (DIL)
~PARAMETER INFORMATION
#MNEM.UNIT           DATA             DESCRIPTION OF MNEMONIC
#---------         -----------     ------------------------------
GL  .M        555.315              : gl           - GROUND LEVEL ELEVATION
EREF.M        559.308              : kb           - ELEVATION OF DEPTH REFERENCE
DATM.M        555.315              : datum        - DATUM ELEVATION
TDD .M        466.344              : tdd          - TOTAL DEPTH DRILLER
RUN .         ONE                  : Run          - RUN NUMBER
ENG .         DEMETRICK            : Engineer     - RECORDING ENGINEER
WIT .         SMITH                : Witness      - WITNESSED BY
BASE.         WCT                  : Branch       - HOME BASE OF LOGGING UNIT
MUD .         GEL                  : Mud_type     - MUD TYPE
MATR.         SANDSTONE            : Logunit      - NEUTRON MATRIX
TMAX.C        26.6667              : BHT          - MAXIMUM RECORDED TEMPERATURE
BHTD.M        466.649              : BHTDEP       - MAXIMUM RECORDED TEMPERATURE
RMT .C        22.2222              : MDTP         - TEMPERATURE OF MUD
MUDD.KG/M     1140                 : MWT          - MUD DENSITY
NEUT.         1                    : NEUTRON      - NEUTRON TYPE
RESI.         0                    : RESIST       - RESISTIVITY TYPE
RM  .OHMM     4.1                  : RM           - RESISTIVITY OF MUD
RMC .OHMM     2.98                 : RMC          - RESISTIVITY OF MUD CAKE
RMF .OHMM     3.22                 : RMF          - RESISTIVITY OF MUD FILTRATE
SUFT.C        5                    : SUFT         - SURFACE TEMPERATURE
~A  DEPTH     DELT       GR     DENS     RESD
# ...
  416.184  380.372   97.690 2294.630    8.467
  416.434  386.669   81.673 2331.530    8.712
  416.684  366.982   74.637 2355.980    9.735
  416.934  264.254   79.526 2417.930   11.066
  417.184  278.319   87.009 2471.340   11.884
  417.434  301.492   91.249 2498.660   12.764
  417.684  346.297   83.565 2427.090   13.132
  417.934  350.250   82.865 2322.050   12.392
  418.184  354.404   92.345 2323.050   11.242
  418.434  359.562  100.477 2350.370   10.072
  418.684  365.458  108.659 2351.780    9.538
  418.934  375.371  101.323 2324.230    9.024
  419.184  369.680   89.597 2313.010    8.879
  419.434  355.552   80.415 2332.580    9.225
  419.684  340.553   72.880 2317.060    9.613
  419.934  328.835   80.763 2326.820   10.883
  420.184  336.874   84.404 2357.600   12.377
  420.434  349.667   85.301 2400.200   13.463
  420.684  357.303   84.702 2376.740   13.707
  420.934  367.551   74.522 2334.710   12.845
  421.184  371.303   45.731 2311.460   13.478
  421.434  373.248   35.652 2291.640   16.142
  421.684  375.593   24.424 2250.660   24.689
  421.934  383.430   17.787 2209.840   31.206
  422.184  373.789   18.435 2178.680   40.491
  422.434  372.921   19.033 2111.380   44.343
  422.684  373.458   17.835 2094.820   73.083
  422.934  376.808   17.984 2094.580   83.383
  423.184  379.824   19.430 2091.960   83.286
  423.434  372.862   17.732 2101.300   81.537
  423.684  370.921   18.779 2116.790   79.180
  423.934  368.378   21.572 2115.730   76.824
  424.184  363.023   22.919 2110.440   76.100
  424.434  361.417   21.471 2119.830   77.227
  424.684  361.955   18.875 2129.770   78.950
  424.934  363.966   19.424 2127.910   81.084
  425.184  364.571   22.167 2114.880   82.809
  425.434  363.568   24.012 2101.990   83.915
  425.684  362.164   24.261 2097.330   83.602
  425.934  360.157   24.360 2102.370   81.456
  426.184  357.145   24.209 2102.980   49.939
  426.434  355.875   25.156 2095.660   48.223
  426.684  355.341   27.750 2100.130   46.057
  426.934  354.271   28.847 2114.360   43.094
  427.184  353.135   28.746 2114.760   38.047
  427.434  353.873   30.142 2097.000   30.467
  427.684  355.952   33.933 2097.180   27.055
  427.934  355.753   36.627 2109.600   24.603
  428.184  356.558   37.474 2123.060   22.989
  428.434  361.650   38.671 2137.340   22.090
  428.684  362.857   41.614 2137.700   21.579
  428.934  360.113   45.156 2126.100   21.069
  429.184  357.570   49.595 2125.670   20.680
  429.434  361.189   52.788 2139.310   20.476
  429.684  364.271   56.330 2151.750   20.088
  429.934  362.465   55.480 2155.780   19.578
  430.184  359.119   55.779 2164.110   18.679
  430.434  356.308   60.169 2173.300   17.575
  430.684  365.418   61.066 2192.850   16.472
  430.934  368.835   60.566 2186.340   14.940
  431.184  363.077   68.349 2158.170   13.408
  431.434  369.307   83.766 2130.850   11.875
  431.684  376.207   82.069 2161.390   10.486
  431.934  386.322   55.823 2185.250    9.812
  432.184  396.302   41.352 2228.470    9.301
  432.434  347.082   49.684 2257.000   10.016
  432.684  338.913   51.579 2224.960   13.347
  432.934  331.482   52.127 2194.550   15.513
  433.184  309.585   53.473 2245.320   17.373
  433.434  253.266   62.204 2304.250   19.539
  433.684  269.809   76.424 2528.900   16.474
  433.934  309.055   93.337 2545.610   14.063
  434.184  337.854  101.819 2498.680   12.756
  434.434  358.214   98.824 2413.480   11.428
  434.684  370.538   91.089 2345.950   10.140
  434.934  371.478   82.107 2310.880    8.935
  435.184  369.069   75.221 2303.720    9.180
  435.434  363.111   69.183 2297.590   10.877
  435.684  356.282   63.194 2291.680   13.717
  435.934  349.922   60.200 2280.450   18.744
  436.184  355.482   55.409 2258.220   23.198
  436.434  358.631   47.774 2152.770   28.675
  436.684  359.437   49.519 2147.020   34.437
  436.934  316.110   65.385 2150.900   36.399
  437.184  293.812   72.120 2168.820   32.271
  437.434  312.498   75.912 2209.600   25.733
  437.684  338.216   81.050 2235.890   21.892
  437.934  349.937   82.746 2239.360   18.929
  438.184  354.762   80.350 2232.810   16.743
  438.434  352.419   75.160 2236.840   15.435
  438.684  355.234   72.863 2245.190   14.720
  438.934  364.545   79.449 2231.740   14.210
  439.184  369.703   82.691 2210.310   13.331
  439.434  367.428   81.543 2213.170   11.370
  439.684  363.880   78.598 2222.940    9.633
  439.934  363.012   82.838 2224.940    8.162
  440.184  372.658   88.076 2228.610    6.568
  440.434  381.432   91.568 2234.720    5.894
  440.684  392.819   92.465 2246.940    5.097
  440.934  405.947   88.373 2265.660    4.730
  441.184  422.423   73.404 2276.480    5.139
  441.434  390.816   73.752 2291.350    6.569
  441.684  290.699   83.381 2345.780    7.223
  441.934  317.087   83.480 2467.890    8.388
  442.184  355.462   76.843 2349.210   10.002
  442.434  376.291   69.906 2270.450   10.493
  442.684  386.874   63.569 2220.730   11.024
  442.934  372.612   72.649 2169.120   11.678
  443.184  362.100   84.124 2126.880   12.312
  443.434  398.198   91.009 2134.030   12.026
  443.684  416.014   82.426 2099.970    9.922
  443.934  437.914   72.147 2059.990    8.675
  444.184  453.386   72.545 2014.290    7.756
  444.434  449.437   76.436 1969.420    7.307
  444.684  419.035   76.934 2007.960    6.898
  444.934  396.669   74.488 2122.940    6.571
  445.184  384.215   71.244 2234.450    6.224
  445.434  400.825   74.436 2257.260    6.061
  445.684  431.566   83.167 2263.980    5.857
  445.934  377.993   84.863 2269.470    5.693
  446.184  404.983   90.350 2296.990    5.530
  446.434  431.371   98.682 2271.070    5.387
  446.684  435.793  101.426 2261.890    5.285
  446.934  426.419  101.874 2224.150    5.245
  447.184  407.804   97.382 2276.540    5.388
  447.434  400.238   77.723 2329.120    7.043
  447.684  338.629   65.547 2364.590    8.903
  447.934  309.633   62.652 2402.920    9.761
  448.184  299.121   76.622 2462.640   10.170
  448.434  316.803   91.241 2355.170    9.925
  448.684  338.704  104.363 2291.920    9.189
  448.934  356.117   91.538 2206.290    8.147
  449.184  384.380   93.484 2165.710    7.391
  449.434  421.349   98.422 2218.500    6.595
  449.684  406.283  101.166 2241.090    6.574
  449.934  392.824   94.828 2251.100    6.861
  450.184  383.785   83.102 2248.820    7.229
  450.434  377.024   82.153 2235.550    7.699
  450.684  368.387   87.491 2206.810    8.005
  450.934  374.349   86.841 2189.870    8.251
  451.184  395.513   77.360 2194.950    8.169
  451.434  406.765   81.351 2182.090    7.597
  451.684  398.865   92.227 2178.210    7.495
  451.934  386.076   87.137 2186.750    7.904
  452.184  398.601   73.265 2202.250    8.558
  452.434  406.572   58.745 2187.740    9.498
  452.684  327.953   55.351 2188.350   10.929
  452.934  317.508   68.523 2226.450   11.542
  453.184  289.115   88.031 2367.950   11.889
  453.434  310.748   93.419 2340.390   11.808
  453.684  335.126   85.933 2300.230   11.522
  453.934  355.822   72.361 2263.720   11.032
  454.184  368.414   68.219 2225.370   11.134
  454.434  359.710   66.721 2179.050   11.931
  454.684  355.426   65.223 2168.460   13.014
  454.934  349.401   61.480 2187.190   13.607
  455.184  337.080   59.284 2192.470   13.444
  455.434  309.491   62.576 2204.090   12.197
  455.684  302.260   82.783 2243.420   10.972
  455.934  333.001   90.965 2265.020   10.338
  456.184  368.295   88.469 2221.570    9.725
  456.434  390.129   79.038 2190.360    9.256
  456.684  399.239   67.811 2145.710    9.276
  456.934  391.607   60.625 2102.470    9.419
  457.184  374.063   46.354 2120.590    9.563
