~VERSION INFORMATION
 VERS.                 2.0:   CWLS LOG ASCII STANDARD -VERSION 2.0
 WRAP.                  NO:   ONE LINE PER DEPTH STEP
~WELL INFORMATION BLOCK
#MNEM.UNIT           DATA                    DESCRIPTION OF MNEMONIC
#---------    -------------------            -------------------------------
# Generated from Intellog Unique Number	CS_71_72/WELL/867
WELL.         PEX PHILLIPS AEC GRIST         : Well_name    - WELL
LOC .         00/10-23-071-08W4/0            : Location     - LOCATION
UWI .         00/10-23-071-08W4/0            : Uwi          - UNIQUE WELL ID
ENTR.         SP                             : Entered      - ENTERED BY
SRVC.         SCHLUMBERGER                   : Scn          - SERVICE COMPANY
STRT.M        310                            : top_depth    - START DEPTH
STOP.M        530                            : bot_depth    - STOP DEPTH
STEP.M        0.25                           : increment    - STEP LENGTH
 NULL. -999.2500:NULL Value
~CURVE INFORMATION BLOCK
#MNEM UNIT       ERCB CURVE CODE    CURVE DESCRIPTION
#-----------   ------------------   ----------------------------------
DEPT.M        00 001 00 00         : DEPTH        - DEPTH
ILD .OHMM     00 120 00 00         : RESD         - DEEP RESISTIVITY (DIL)
DPHI.V/V      00 890 00 00         : PHID         - DENSITY POROSITY (LIMESTONE)
NPHI.V/V      00 330 00 00         : PHIN         - NEUTRON POROSITY (LIMESTONE)
GR  .API      00 310 00 00         : GR           - GAMMA RAY
~PARAMETER INFORMATION
#MNEM.UNIT           DATA             DESCRIPTION OF MNEMONIC
#---------         -----------     ------------------------------
GL  .M        670.2                : gl           - GROUND LEVEL ELEVATION
EREF.M        674                  : kb           - ELEVATION OF DEPTH REFERENCE
DATM.M        670.2                : datum        - DATUM ELEVATION
TDD .M        540                  : tdd          - TOTAL DEPTH DRILLER
RUN .         ONE                  : Run          - RUN NUMBER
ENG .         BILL                 : Engineer     - RECORDING ENGINEER
WIT .         JIM                  : Witness      - WITNESSED BY
MUD .         GEL                  : Mud_type     - MUD TYPE
MATR.         LIMESTONE            : Logunit      - NEUTRON MATRIX
TMAX.C        23                   : BHT          - MAXIMUM RECORDED TEMPERATURE
BHTD.M        540                  : BHTDEP       - MAXIMUM RECORDED TEMPERATURE
MATR.         1                    : LOGUNIT      - NEUTRON MATRIX
RMT .C        25                   : MDTP         - TEMPERATURE OF MUD
NEUT.         1                    : NEUTRON      - NEUTRON TYPE
RESI.         0                    : RESIST       - RESISTIVITY TYPE
RMC .OHMM     0.25                 : RMC          - RESISTIVITY OF MUD CAKE
RMF .OHMM     0.25                 : RMF          - RESISTIVITY OF MUD FILTRATE
SUFT.C        15                   : SUFT         - SURFACE TEMPERATURE
~A  DEPTH     RESD     PHID     PHIN       GR
  310.000    2.636    0.245    0.514   87.076
  310.250    2.768    0.246    0.519   89.750
  310.500    2.879    0.122    0.565   92.242
  310.750    2.923    0.095    0.584   94.429
  311.000    2.902    0.077    0.542   95.765
  311.250    2.886    0.214    0.529   96.856
  311.500    3.025    0.248    0.520   96.914
  311.750    3.146    0.265    0.504   94.599
  312.000    3.273    0.229    0.492   92.891
  312.250    3.455    0.205    0.501   92.888
  312.500    3.655    0.195    0.508   95.014
  312.750    3.725    0.208    0.524   96.167
  313.000    3.719    0.228    0.541   95.738
  313.250    3.583    0.210    0.508   94.640
  313.500    3.382    0.196    0.481   92.446
  313.750    3.181    0.187    0.496   90.860
  314.000    3.059    0.199    0.518   90.188
  314.250    2.915    0.219    0.521   92.375
  314.500    2.835    0.239    0.525   94.623
  314.750    2.841    0.251    0.535   92.855
  315.000    3.016    0.259    0.538   91.574
  315.250    3.287    0.274    0.533   93.396
  315.500    3.503    0.268    0.520   95.340
  315.750    3.478    0.246    0.507   93.328
  316.000    3.259    0.225    0.496   90.709
  316.250    3.211    0.218    0.490   88.150
  316.500    3.353    0.232    0.497   89.181
  316.750    3.328    0.238    0.508   92.950
  317.000    3.177    0.237    0.498   94.164
  317.250    3.038    0.224    0.483   92.518
  317.500    2.966    0.214    0.476   91.176
  317.750    3.017    0.227    0.485   89.590
  318.000    4.107    0.242    0.495   85.206
  318.250    6.454    0.259    0.509   77.596
  318.500    9.171    0.264    0.425   68.648
  318.750   16.213    0.286    0.299   60.004
  319.000   19.077    0.306    0.275   52.760
  319.250   19.404    0.318    0.292   51.235
  319.500   16.375    0.342    0.294   54.152
  319.750   11.464    0.373    0.378   59.078
  320.000    9.802    0.340    0.511   65.159
  320.250   12.040    0.322    0.319   68.990
  320.500   17.235    0.326    0.238   52.922
  320.750   25.280    0.355    0.184   43.548
  321.000   33.963    0.368    0.173   37.946
  321.250   40.565    0.365    0.183   39.221
  321.500   41.961    0.357    0.184   41.652
  321.750   40.581    0.353    0.176   41.222
  322.000   38.665    0.354    0.173   36.473
  322.250   33.681    0.360    0.196   32.453
  322.500   27.792    0.371    0.228   31.476
  322.750   21.603    0.373    0.258   30.195
  323.000   17.727    0.358    0.283   28.488
  323.250   14.600    0.344    0.305   26.842
  323.500   11.981    0.325    0.322   26.291
  323.750   10.301    0.289    0.330   28.661
  324.000    9.194    0.247    0.339   53.058
  324.250    8.792    0.226    0.358   68.207
  324.500    8.085    0.232    0.381   80.130
  324.750    7.675    0.224    0.403   84.264
  325.000    7.231    0.209    0.398   86.208
  325.250    6.902    0.198    0.409   89.369
  325.500    6.891    0.194    0.432   91.739
  325.750    7.035    0.226    0.469   92.891
  326.000    7.856    0.259    0.463   92.523
  326.250    8.203    0.277    0.427   85.887
  326.500    8.726    0.270    0.407   81.442
  326.750    9.009    0.265    0.406   79.370
  327.000    9.096    0.258    0.403   81.922
  327.250    9.063    0.251    0.400   83.805
  327.500    8.998    0.265    0.394   82.524
  327.750    8.949    0.254    0.391   81.729
  328.000    8.868    0.274    0.402   81.057
  328.250    8.673    0.302    0.416   74.604
  328.500    8.279    0.296    0.400   70.524
  328.750    7.684    0.212    0.369   67.234
  329.000    8.114    0.169    0.389   81.470
  329.250    8.794    0.140    0.407   88.708
  329.500    9.320    0.118    0.375   83.289
  329.750    9.787    0.186    0.383   75.497
  330.000    9.787    0.236    0.412   65.636
  330.250    9.789    0.275    0.412   51.819
  330.500    9.682    0.288    0.392   43.419
  330.750    9.329    0.296    0.370   43.841
  331.000    8.872    0.303    0.357   47.915
  331.250    8.250    0.307    0.349   52.962
  331.500    7.460    0.283    0.339   60.504
  331.750    6.809    0.211    0.356   70.237
  332.000    6.332    0.188    0.387   78.509
  332.250    5.966    0.175    0.425   84.713
  332.500    5.621    0.163    0.466   89.638
  332.750    5.198    0.156    0.472   96.450
  333.000    4.807    0.167    0.448   98.090
  333.250    4.437    0.200    0.462  107.822
  333.500    4.126    0.216    0.473  113.965
  333.750    3.844    0.209    0.480  117.734
  334.000    3.588    0.202    0.486  112.193
  334.250    3.343    0.218    0.496  108.965
  334.500    3.063    0.231    0.520  109.510
  334.750    2.790    0.238    0.558  111.758
  335.000    2.609    0.247    0.578  112.181
  335.250    2.765    0.262    0.548  108.222
  335.500    3.365    0.274    0.545  100.917
  335.750    4.954    0.276    0.563   88.257
  336.000    6.533    0.292    0.535   61.540
  336.250    7.994    0.313    0.425   43.586
  336.500    8.795    0.327    0.403   40.175
  336.750    9.217    0.332    0.390   37.677
  337.000    9.219    0.338    0.381   35.605
  337.250    9.118    0.342    0.372   36.332
  337.500    8.984    0.333    0.378   39.553
  337.750    8.803    0.328    0.387   44.540
  338.000    8.756    0.322    0.374   63.339
  338.250    9.074    0.316    0.360   87.737
  338.500    9.230    0.310    0.370  100.573
  338.750    9.283    0.307    0.379  112.800
  339.000    9.285    0.306    0.376   95.820
  339.250    9.339    0.309    0.370   74.397
  339.500    9.376    0.315    0.367   59.364
  339.750    9.430    0.325    0.376   47.738
  340.000    9.450    0.332    0.386   47.978
  340.250    9.417    0.323    0.390   54.790
  340.500    9.296    0.314    0.394   65.131
  340.750    9.109    0.320    0.393   71.639
  341.000    8.942    0.330    0.393   78.147
  341.250    8.729    0.330    0.400   84.046
  341.500    8.602    0.320    0.411   88.789
  341.750    8.539    0.312    0.415   90.854
  342.000    8.493    0.319    0.416   88.964
  342.250    8.432    0.331    0.420   90.787
  342.500    8.433    0.330    0.414   99.668
  342.750    8.435    0.320    0.411  107.332
  343.000    8.452    0.322    0.425  105.442
  343.250    8.549    0.331    0.423   89.131
  343.500    8.696    0.336    0.407   81.826
  343.750    8.862    0.340    0.398   79.875
  344.000    9.081    0.328    0.401   74.213
  344.250    9.272    0.300    0.402   70.741
  344.500    9.360    0.287    0.413   75.666
  344.750    9.328    0.282    0.421   79.679
  345.000    9.242    0.292    0.422   82.231
  345.250    9.006    0.291    0.434   81.680
  345.500    8.677    0.292    0.454   80.886
  345.750    8.631    0.318    0.481   74.554
  346.000    8.664    0.335    0.472   65.728
  346.250    8.896    0.349    0.429   55.745
  346.500    9.588    0.351    0.412   50.509
  346.750   11.976    0.353    0.427   48.680
  347.000   15.762    0.338    0.447   46.181
  347.250   19.911    0.051    0.430   44.231
  347.500   24.456    0.001    0.264   45.262
  347.750   26.359   -0.013    0.107   44.468
  348.000   21.269   -0.016    0.094   41.970
  348.250   16.781    0.034    0.184   44.766
  348.500   13.770    0.080    0.314   52.490
  348.750   11.861    0.244    0.363   57.842
  349.000   10.217    0.304    0.386   62.402
  349.250    9.555    0.329    0.401   69.397
  349.500    9.397    0.313    0.414   76.087
  349.750    9.364    0.302    0.422   77.118
  350.000    9.244    0.297    0.421   73.403
  350.250    9.194    0.294    0.418   71.757
  350.500    9.111    0.296    0.422   72.971
  350.750    9.045    0.304    0.432   77.409
  351.000    9.013    0.310    0.434   78.684
  351.250    9.065    0.315    0.437   76.125
  351.500    9.118    0.319    0.450   74.783
  351.750    9.137    0.322    0.456   75.692
  352.000    9.173    0.323    0.460   77.210
  352.250    9.175    0.321    0.473   78.119
  352.500    9.091    0.317    0.472   78.907
  352.750    8.694    0.312    0.454   77.261
  353.000    7.789    0.306    0.438   74.580
  353.250    7.189    0.295    0.443   75.733
