~VERSION INFORMATION
 VERS.                 2.0:   CWLS LOG ASCII STANDARD -VERSION 2.0
 WRAP.                  NO:   ONE LINE PER DEPTH STEP
~WELL INFORMATION BLOCK
#MNEM.UNIT           DATA                    DESCRIPTION OF MNEMONIC
#---------    -------------------            -------------------------------
# Generated from Intellog Unique Number	CS_69_70/WELL/878
NULL.         -999.25                        : NULL_VALUE
WELL.         SULPETRO LIMITED               : Well_name    - WELL              
LOC .         00/10-32-070-10W4/0            : Location     - LOCATION          
UWI .         00/10-32-070-10W4/0            : Uwi          - UNIQUE WELL ID    
ENTR.         SP                             : Entered      - ENTERED BY        
SRVC.         SCHLUMBERGER                   : Scn          - SERVICE COMPANY   
STRT.M        315                            : top_depth    - START DEPTH       
STOP.M        540                            : bot_depth    - STOP DEPTH        
STEP.M        0.25                           : increment    - STEP LENGTH       
~CURVE INFORMATION BLOCK
#MNEM UNIT       ERCB CURVE CODE    CURVE DESCRIPTION
#-----------   ------------------   ----------------------------------
DEPT.M        00 001 00 00         : DEPTH        - DEPTH                       
DPHI.V/V      00 890 00 00         : PHID         - DENSITY POROSITY (LIMESTONE)
NPHI.V/V      00 330 00 00         : PHIN         - NEUTRON POROSITY (LIMESTONE)
GR  .API      00 310 00 00         : GR           - GAMMA RAY                   
ILD .OHMM     00 120 00 00         : RESD         - DEEP RESISTIVITY (DIL)      
~PARAMETER INFORMATION       
#MNEM.UNIT           DATA             DESCRIPTION OF MNEMONIC
#---------         -----------     ------------------------------
GL  .M        657.1                : gl           - GROUND LEVEL ELEVATION      
EREF.M        660.4                : kb           - ELEVATION OF DEPTH REFERENCE
DATM.M        657.1                : datum        - DATUM ELEVATION             
TDD .M        545                  : tdd          - TOTAL DEPTH DRILLER         
RUN .         ONE                  : Run          - RUN NUMBER                  
ENG .         BILL                 : Engineer     - RECORDING ENGINEER          
WIT .         JIM                  : Witness      - WITNESSED BY                
MUD .         GEL                  : Mud_type     - MUD TYPE                    
MATR.         LIMESTONE            : Logunit      - NEUTRON MATRIX              
TMAX.C        15                   : BHT          - MAXIMUM RECORDED TEMPERATURE
BHTD.M        545                  : BHTDEP       - MAXIMUM RECORDED TEMPERATURE
MATR.         1                    : LOGUNIT      - NEUTRON MATRIX              
RMT .C        25                   : MDTP         - TEMPERATURE OF MUD          
NEUT.         1                    : NEUTRON      - NEUTRON TYPE                
RESI.         0                    : RESIST       - RESISTIVITY TYPE            
RMC .OHMM     0.25                 : RMC          - RESISTIVITY OF MUD CAKE     
RMF .OHMM     0.25                 : RMF          - RESISTIVITY OF MUD FILTRATE 
SUFT.C        15                   : SUFT         - SURFACE TEMPERATURE         
~A  DEPTH     PHID     PHIN       GR     RESD
# ...
  445.500    0.247    0.496   93.248    5.375
  445.750    0.255    0.484   92.522    5.316
  446.000    0.256    0.483   89.009    5.278
  446.250    0.235    0.490   85.860    5.231
  446.500    0.217    0.498   84.104    5.231
  446.750    0.216    0.482   83.922    5.213
  447.000    0.227    0.470   86.405    5.147
  447.250    0.237    0.463   89.917    5.081
  447.500    0.237    0.465   92.460    4.952
  447.750    0.225    0.471   87.737    4.879
  448.000    0.219    0.466   84.951    4.826
  448.250    0.225    0.471   86.888    4.791
  448.500    0.227    0.485   89.189    4.792
  448.750    0.233    0.500   90.703    4.866
  449.000    0.243    0.497   91.127    4.885
  449.250    0.249    0.498   91.066    4.960
  449.500    0.256    0.502   90.703    4.989
  449.750    0.262    0.509   90.642    4.999
  450.000    0.258    0.524   91.005    4.935
  450.250    0.246    0.518   91.611    4.641
  450.500    0.231    0.501   93.791    3.976
  450.750    0.221    0.507   95.547    3.523
  451.000    0.226    0.528   96.818    3.046
  451.250    0.255    0.557   97.000    2.576
  451.500    0.279    0.578   96.031    2.450
  451.750    0.297    0.575   93.972    2.455
  452.000    0.281    0.561   91.065    2.511
  452.250    0.261    0.553   89.793    2.602
  452.500    0.265    0.551   90.459    2.717
  452.750    0.267    0.545   91.791    3.006
  453.000    0.260    0.538   93.547    3.433
  453.250    0.249    0.517   93.971    3.862
  453.500    0.244    0.494   91.003    4.313
  453.750    0.241    0.468   88.097    4.648
  454.000    0.243    0.453   85.553    4.871
  454.250    0.265    0.440   83.494    4.845
  454.500    0.256    0.432   82.707    4.775
  454.750    0.261    0.427   82.282    4.802
  455.000    0.257    0.435   82.464    4.903
  455.250    0.266    0.460   84.765    5.015
  455.500    0.276    0.459   88.035    5.064
  455.750    0.256    0.460   88.156    5.141
  456.000    0.243    0.469   85.734    5.249
  456.250    0.241    0.473   81.737    5.460
  456.500    0.224    0.474   78.164    5.744
  456.750    0.187    0.464   75.923    6.272
  457.000    0.169    0.449   73.743    7.030
  457.250    0.126    0.354   72.410    8.179
  457.500    0.093    0.349   73.440    9.082
  457.750    0.119    0.378   74.772    9.187
  458.000    0.142    0.350   75.135    8.094
  458.250    0.115    0.316   79.253    6.856
  458.500    0.168    0.356   86.701    6.270
  458.750    0.212    0.422   90.698    5.964
  459.000    0.219    0.444   93.180    5.800
  459.250    0.214    0.451   92.757    5.727
  459.500    0.232    0.456   92.030    5.707
  459.750    0.254    0.449   92.999    5.687
  460.000    0.249    0.435   93.786    5.635
  460.250    0.248    0.429   93.483    5.594
  460.500    0.256    0.427   91.787    5.585
  460.750    0.266    0.426   90.273    5.555
  461.000    0.260    0.426   89.607    5.557
  461.250    0.243    0.436   89.849    5.558
  461.500    0.228    0.449   91.726    5.560
  461.750    0.237    0.466   92.392    5.541
  462.000    0.252    0.474   92.331    5.542
  462.250    0.241    0.470   91.362    5.543
  462.500    0.227    0.466   90.090    5.534
  462.750    0.218    0.466   88.758    5.545
  463.000    0.224    0.470   87.304    5.546
  463.250    0.235    0.455   87.789    5.548
  463.500    0.243    0.456   89.484    5.601
  463.750    0.237    0.463   91.058    5.719
  464.000    0.227    0.441   91.361    5.883
  464.250    0.234    0.427   92.209    6.097
  464.500    0.221    0.424   94.207    6.307
  464.750    0.214    0.423   94.934    6.439
  465.000    0.210    0.420   95.115    6.428
  465.250    0.220    0.422   95.902    6.182
  465.500    0.231    0.431   96.266    5.825
  465.750    0.226    0.442   95.841    5.103
  466.000    0.225    0.449   91.784    4.372
  466.250    0.237    0.458   87.000    3.760
  466.500    0.250    0.468   86.091    3.343
  466.750    0.249    0.477   85.909    2.929
  467.000    0.254    0.490   85.970    2.629
  467.250    0.271    0.537   86.273    2.400
  467.500    0.281    0.538   87.362    2.423
  467.750    0.281    0.536   88.634    2.577
  468.000    0.264    0.528   91.359    2.825
  468.250    0.263    0.506   92.691    3.190
  468.500    0.263    0.482   89.481    3.490
  468.750    0.284    0.464   84.697    3.782
  469.000    0.299    0.456   82.033    4.107
  469.250    0.273    0.455   80.337    4.304
  469.500    0.246    0.461   77.551    4.453
  469.750    0.233    0.472   72.101    4.615
  470.000    0.235    0.483   67.741    4.900
  470.250    0.202    0.277   61.867    5.059
  470.500    0.116    0.253   57.991    5.107
  470.750    0.057    0.410   69.194    4.857
  471.000    0.098    0.451   77.005    4.319
  471.250    0.139    0.471   80.760    3.965
  471.500    0.187    0.482   84.332    3.988
  471.750    0.269    0.488   85.301    4.290
  472.000    0.235    0.464   83.787    4.667
  472.250    0.198    0.451   82.394    4.984
  472.500    0.174    0.431   81.546    5.136
  472.750    0.146    0.414   81.425    5.042
  473.000    0.170    0.421   83.908    4.813
  473.250    0.226    0.437   86.754    4.460
  473.500    0.248    0.450   90.084    3.929
  473.750    0.239    0.470   94.989    3.354
  474.000    0.230    0.488   97.957    3.078
  474.250    0.224    0.502  100.439    2.955
  474.500    0.227    0.502   97.230    2.918
  474.750    0.236    0.503   95.776    2.902
  475.000    0.226    0.519   97.835    2.892
  475.250    0.223    0.534   99.228    2.882
  475.500    0.231    0.539  100.075    2.872
  475.750    0.223    0.506   99.893    2.872
  476.000    0.216    0.491   98.621    2.868
  476.250    0.229    0.475   96.562    2.858
  476.500    0.230    0.477   98.864    3.046
  476.750    0.232    0.488  101.043    3.086
  477.000    0.239    0.501  102.739    3.104
  477.250    0.246    0.518  101.467    3.152
  477.500    0.239    0.504   96.622    3.153
  477.750    0.228    0.493   95.472    3.107
  478.000    0.224    0.494   95.956    3.033
  478.250    0.217    0.503   96.925    2.874
  478.500    0.240    0.513   97.167    2.864
  478.750    0.240    0.512   96.016    2.974
  479.000    0.245    0.468   86.751    3.223
  479.250    0.253    0.400   82.269    3.694
  479.500    0.260    0.391   79.907    4.338
  479.750    0.265    0.392   80.210    5.114
  480.000    0.249    0.395   80.573    5.553
  480.250    0.239    0.399   79.847    5.863
  480.500    0.231    0.404   76.940    6.031
  480.750    0.226    0.408   73.730    6.452
  481.000    0.225    0.391   71.005    7.231
  481.250    0.176    0.359   69.430    7.779
  481.500    0.126    0.366   71.489    7.426
  481.750    0.162    0.386   73.427    7.089
  482.000    0.202    0.411   73.850    6.793
  482.250    0.239    0.398   71.731    6.546
  482.500    0.246    0.384   68.461    6.390
  482.750    0.264    0.380   67.370    6.333
  483.000    0.274    0.384   66.462    6.382
  483.250    0.265    0.391   66.280    6.443
  483.500    0.259    0.404   66.462    6.640
  483.750    0.252    0.401   66.946    6.805
  484.000    0.258    0.399   66.764    6.935
  484.250    0.260    0.403   67.067    7.015
  484.500    0.256    0.404   68.036    7.043
  484.750    0.245    0.398   70.458    7.044
  485.000    0.234    0.384   72.759    7.045
  485.250    0.232    0.374   74.273    7.140
  485.500    0.234    0.371   74.817    7.724
  485.750    0.171    0.366   72.758    8.339
  486.000    0.090    0.360   65.855    9.209
  486.250    0.047    0.315   60.465    9.869
  486.500    0.118    0.338   64.764   10.657
  486.750    0.183    0.368   71.365   11.572
  487.000    0.223    0.401   76.331   12.850
  487.250    0.255    0.417   75.483   15.433
  487.500    0.278    0.403   70.698   17.624
  487.750    0.288    0.389   65.854   19.865
  488.000    0.298    0.379   61.796   21.092
  488.250    0.309    0.374   59.919   19.325
  488.500    0.307    0.375   60.282   16.495
  488.750    0.290    0.388   64.400   14.944
