~VERSION INFORMATION
 VERS.                 2.0:   CWLS LOG ASCII STANDARD -VERSION 2.0
 WRAP.                  NO:   ONE LINE PER DEPTH STEP
~WELL INFORMATION BLOCK
#MNEM.UNIT           DATA                    DESCRIPTION OF MNEMONIC
#---------    -------------------            -------------------------------
# Generated from Intellog Unique Number	CW_82_90/WELL/901
WELL.         HB ET AL MUSKWA 10-23          : Well_name    - WELL
LOC .         00/10-23-083-03W5/0            : Location     - LOCATION
UWI .         00/10-23-083-03W5/0            : Uwi          - UNIQUE WELL ID
ENTR.         JAYE                           : Entered      - ENTERED BY
SRVC.         WESTERN ATLAS                  : Scn          - SERVICE COMPANY
DATE.         14 MAR 77                      : Date         - LOG DATE
STRT.M        274.32                         : top_depth    - START DEPTH
STOP.M        472.32                         : bot_depth    - STOP DEPTH
STEP.M        0.25                           : increment    - STEP LENGTH
 NULL. -999.2500:NULL Value
~CURVE INFORMATION BLOCK
#MNEM UNIT       ERCB CURVE CODE    CURVE DESCRIPTION
#-----------   ------------------   ----------------------------------
DEPT.M        00 001 00 00         : DEPTH        - DEPTH
CALI.MM       00 280 01 00         : CAL          - CALIPER
GR  .API      00 310 00 00         : GR           - GAMMA RAY
NPHI.V/V      00 330 00 00         : PHIN         - NEUTRON POROSITY (SANDSTONE)
DPHI.V/V      00 890 00 00         : PHID         - DENSITY POROSITY (SANDSTONE)
ILD .OHMM     00 120 00 00         : RESD         - DEEP RESISTIVITY (DLL)
~PARAMETER INFORMATION
#MNEM.UNIT           DATA             DESCRIPTION OF MNEMONIC
#---------         -----------     ------------------------------
GL  .M        624.352              : gl           - GROUND LEVEL ELEVATION
EREF.M        627.522              : kb           - ELEVATION OF DEPTH REFERENCE
DATM.M        624.352              : datum        - DATUM ELEVATION
TDD .M        475.488              : tdd          - TOTAL DEPTH DRILLER
RUN .         ONE                  : Run          - RUN NUMBER
ENG .         GORDON               : Engineer     - RECORDING ENGINEER
WIT .         ROKOSH               : Witness      - WITNESSED BY
BASE.         EDMONTON             : Branch       - HOME BASE OF LOGGING UNIT
MUD .         GEL CHEM             : Mud_type     - MUD TYPE
MATR.         SANDSTONE            : Logunit      - NEUTRON MATRIX
TMAX.C        21.1111              : BHT          - MAXIMUM RECORDED TEMPERATURE
BHTD.M        475.488              : BHTDEP       - MAXIMUM RECORDED TEMPERATURE
RMT .C        18.3333              : MDTP         - TEMPERATURE OF MUD
MUDD.KG/M     9200                 : MWT          - MUD DENSITY
NEUT.         0                    : NEUTRON      - NEUTRON TYPE
RESI.         1                    : RESIST       - RESISTIVITY TYPE
RM  .OHMM     3.2                  : RM           - RESISTIVITY OF MUD
RMC .OHMM     2                    : RMC          - RESISTIVITY OF MUD CAKE
RMF .OHMM     2.2                  : RMF          - RESISTIVITY OF MUD FILTRATE
SUFT.C        -17.7778             : SUFT         - SURFACE TEMPERATURE
~A  DEPTH      CAL       GR     PHIN     PHID     RESD
# ...
  383.820  186.849   80.769    0.373    0.290    8.868
  384.070  181.618   80.962    0.375    0.285    8.828
  384.320  190.528   84.546    0.379    0.258    7.552
  384.570  193.517   89.856    0.367    0.242    6.815
  384.820  199.926   96.644    0.371    0.229    5.884
  385.070  202.187  101.522    0.378    0.224    4.622
  385.320  200.059  101.655    0.381    0.224    4.442
  385.570  195.987  102.157    0.379    0.224    4.473
  385.820  193.562  104.571    0.372    0.222    4.595
  386.070  193.322  104.518    0.363    0.218    4.855
  386.320  197.453  102.433    0.354    0.212    5.166
  386.570  200.338  101.580    0.346    0.206    5.498
  386.820  201.762  100.603    0.340    0.202    5.797
  387.070  200.482   96.299    0.343    0.197    5.977
  387.320  200.236   93.721    0.348    0.196    6.107
  387.570  200.623   94.409    0.350    0.198    6.046
  387.820  201.634   96.699    0.352    0.201    5.847
  388.070  205.239   99.913    0.356    0.203    5.733
  388.320  207.917  102.325    0.365    0.204    5.635
  388.570  210.069  103.014    0.377    0.204    5.557
  388.820  210.142  103.638    0.387    0.204    5.524
  389.070  210.216  104.943    0.383    0.204    5.539
  389.320  210.390  105.815    0.375    0.204    5.505
  389.570  209.944  105.640    0.371    0.204    5.511
  389.820  209.808  105.096    0.367    0.205    5.517
  390.070  210.090  104.550    0.366    0.205    5.432
  390.320  210.366  104.313    0.366    0.206    5.378
  390.570  210.964  104.199    0.363    0.207    5.374
  390.820  212.284  104.270    0.363    0.209    5.441
  391.070  213.500  104.897    0.368    0.212    5.631
  391.320  212.948  104.600    0.373    0.218    6.016
  391.570  210.107  103.376    0.368    0.224    6.307
  391.820  206.227  101.413    0.361    0.227    6.651
  392.070  203.179  100.252    0.349    0.230    7.077
  392.320  202.005   99.644    0.339    0.237    7.631
  392.570  199.580   98.424    0.329    0.239    8.047
  392.820  197.359   97.630    0.331    0.242    8.188
  393.070  195.876   95.791    0.329    0.246    8.138
  393.320  194.280   94.569    0.318    0.253    8.071
  393.570  193.734   93.409    0.334    0.257    8.082
  393.820  196.822   92.986    0.345    0.260    8.075
  394.070  199.078   91.208    0.347    0.261    7.921
  394.320  201.123   87.583    0.350    0.261    7.460
  394.570  202.138   85.066    0.356    0.260    7.040
  394.820  203.663   83.166    0.361    0.262    6.655
  395.070  204.459   83.359    0.371    0.262    6.407
  395.320  204.436   84.972    0.370    0.260    6.768
  395.570  203.877   86.521    0.371    0.251    7.256
  395.820  203.532   88.750    0.382    0.245    7.939
  396.070  203.298   88.328    0.384    0.245    8.687
  396.320  203.161   85.872    0.373    0.248    9.523
  396.570  202.717   81.877    0.367    0.252   10.021
  396.820  202.575   79.544    0.363    0.255   10.164
  397.070  202.229   78.630    0.389    0.254   11.608
  397.320  201.894   80.426    0.395    0.250   11.705
  397.570  201.134   83.086    0.393    0.246   10.902
  397.820  201.098   83.774    0.379    0.237    9.622
  398.070  201.899   84.216    0.375    0.228    8.080
  398.320  202.494   84.841    0.379    0.218    6.395
  398.570  203.396   89.040    0.379    0.205    5.635
  398.820  203.574   92.872    0.377    0.195    5.247
  399.070  202.815   92.757    0.371    0.185    5.110
  399.320  201.534   90.857    0.362    0.178    5.570
  399.570  200.258   87.909    0.346    0.171    6.243
  399.820  198.978   84.529    0.333    0.166    7.062
  400.070  197.802   80.965    0.319    0.169    7.543
  400.320  196.524   80.480    0.332    0.178    7.939
  400.570  198.677   81.538    0.357    0.183    7.889
  400.820  201.869   89.743    0.366    0.183    7.095
  401.070  203.497   91.541    0.370    0.192    6.793
  401.320  203.988   91.734    0.370    0.202    4.211
  401.570  204.056   97.784    0.368    0.206    3.808
  401.820  204.029  100.751    0.369    0.206    3.613
  402.070  204.309  101.069    0.364    0.204    3.577
  402.320  204.484   98.246    0.352    0.198    3.835
  402.570  204.347   94.001    0.348    0.192    4.219
  402.820  204.001   88.466    0.349    0.191    4.835
  403.070  203.764   87.308    0.352    0.184    5.300
  403.320  204.360   87.066    0.353    0.171    5.724
  403.570  205.371   85.598    0.342    0.160    6.584
  403.820  208.146   83.265    0.324    0.140    7.659
  404.070  209.884   79.023    0.314    0.133    7.666
  404.320  207.663   75.458    0.307    0.141    6.767
  404.570  206.908   75.900    0.327    0.163    5.506
  404.820  207.708   85.400    0.339    0.175    4.817
  405.070  208.508   92.434    0.357    0.180    4.503
  405.320  209.097   97.066    0.373    0.184    4.360
  405.570  209.380  100.834    0.381    0.186    4.309
  405.820  209.030  100.351    0.372    0.186    4.283
  406.070  208.588   98.267    0.367    0.185    4.247
  406.320  208.762   96.549    0.362    0.185    4.121
  406.570  209.250   96.683    0.369    0.184    4.026
  406.820  209.631   97.308    0.370    0.185    3.906
  407.070  210.547   97.133    0.368    0.187    3.846
  407.320  215.082   96.467    0.366    0.189    3.795
  407.570  216.721   95.365    0.367    0.189    3.798
  407.820  217.001   94.451    0.370    0.188    3.831
  408.070  216.236   95.076    0.370    0.186    3.864
  408.320  215.898   96.935    0.368    0.183    3.940
  408.570  215.454   97.993    0.366    0.180    4.064
  408.820  214.379   98.433    0.362    0.178    4.151
  409.070  213.204   99.370    0.356    0.178    4.249
  409.320  212.440   98.514    0.370    0.178    4.334
  409.570  212.510   98.034    0.377    0.179    4.412
  409.820  212.269   98.719    0.371    0.180    4.449
  410.070  211.518  101.933    0.365    0.181    4.555
  410.320  210.237  104.962    0.361    0.181    4.618
  410.570  209.167  108.053    0.352    0.181    4.728
  410.820  208.095  110.715    0.344    0.181    4.968
  411.070  206.086  110.478    0.335    0.181    5.296
  411.320  202.833  109.191    0.331    0.176    5.699
  411.570  200.715  105.688    0.336    0.170    6.030
  411.820  200.684  102.740    0.329    0.165    6.465
  412.070  202.314   99.730    0.320    0.156    7.114
  412.320  202.805   93.084    0.307    0.151    8.681
  412.570  202.571   86.438    0.295    0.146    9.877
  412.820  202.016   82.750    0.287    0.153   10.847
  413.070  201.780   83.992    0.289    0.168   10.898
  413.320  197.170   87.085    0.301    0.179   10.190
  413.570  194.540   90.729    0.314    0.189    9.993
  413.820  193.048   93.141    0.318    0.193   10.135
  414.070  194.788   92.597    0.309    0.179   10.727
  414.320  197.562   87.923    0.302    0.144   11.608
  414.570  200.962   83.126    0.290    0.109   11.992
  414.820  195.730   81.041    0.317    0.119   12.072
  415.070  194.036   81.234    0.330    0.124   11.603
  415.320  198.167   85.066    0.331    0.122   10.570
  415.570  199.591   86.615    0.334    0.117    9.628
  415.820  208.506   88.350    0.338    0.129    8.421
  416.070  207.744   94.155    0.356    0.136    7.742
  416.320  207.819   96.814    0.359    0.135    7.305
  416.570  207.872   98.302    0.356    0.130    7.063
  416.820  208.067   97.326    0.352    0.122    7.029
  417.070  207.930   96.596    0.346    0.121    7.155
  417.320  206.852   96.173    0.340    0.128    7.230
  417.570  206.830   96.060    0.353    0.137    7.199
  417.820  206.270   95.823    0.355    0.146    7.155
  418.070  205.206   95.710    0.356    0.151    7.148
  418.320  204.439   96.336    0.359    0.154    7.145
  418.570  203.263   97.578    0.364    0.154    7.098
  418.820  201.156  101.531    0.369    0.153    7.172
  419.070  198.311  103.143    0.370    0.152    7.356
  419.320  195.465  102.662    0.368    0.152    7.586
  419.570  195.757  101.313    0.364    0.151    7.692
  419.820  197.911   99.906    0.359    0.150    7.816
  420.070  200.168   98.868    0.357    0.149    7.868
