~VERSION INFORMATION
 VERS.                 2.0:   CWLS LOG ASCII STANDARD -VERSION 2.0
 WRAP.                  NO:   ONE LINE PER DEPTH STEP
~WELL INFORMATION BLOCK
#MNEM.UNIT           DATA                    DESCRIPTION OF MNEMONIC
#---------    -------------------            -------------------------------
# Generated from Intellog Unique Number	CS_73_76/WELL/3277
WELL.         STAR OIL & GAS LTD.            : Well_name    - WELL
LOC .         00/14-04-076-10W4/0            : Location     - LOCATION
UWI .         00/14-04-076-10W4/0            : Uwi          - UNIQUE WELL ID
ENTR.         SP                             : Entered      - ENTERED BY
SRVC.         SCHLUMBERGER                   : Scn          - SERVICE COMPANY
STRT.M        265                            : top_depth    - START DEPTH
STOP.M        485                            : bot_depth    - STOP DEPTH
STEP.M        0.25                           : increment    - STEP LENGTH
 NULL. -999.2500:NULL Value
~CURVE INFORMATION BLOCK
#MNEM UNIT       ERCB CURVE CODE    CURVE DESCRIPTION
#-----------   ------------------   ----------------------------------
DEPT.M        00 001 00 00         : DEPTH        - DEPTH
ILD .OHMM     00 120 00 00         : RESD         - DEEP RESISTIVITY (DIL)
DPHI.V/V      00 890 00 00         : PHID         - DENSITY POROSITY (LIMESTONE)
NPHI.V/V      00 330 00 00         : PHIN         - NEUTRON POROSITY (LIMESTONE)
GR  .API      00 310 00 00         : GR           - GAMMA RAY
~PARAMETER INFORMATION
#MNEM.UNIT           DATA             DESCRIPTION OF MNEMONIC
#---------         -----------     ------------------------------
GL  .M        662.45               : gl           - GROUND LEVEL ELEVATION
EREF.M        665.5                : kb           - ELEVATION OF DEPTH REFERENCE
DATM.M        662.45               : datum        - DATUM ELEVATION
TDD .M        530                  : tdd          - TOTAL DEPTH DRILLER
RUN .         ONE                  : Run          - RUN NUMBER
ENG .         BILL                 : Engineer     - RECORDING ENGINEER
WIT .         JIM                  : Witness      - WITNESSED BY
MUD .         GEL                  : Mud_type     - MUD TYPE
MATR.         LIMESTONE            : Logunit      - NEUTRON MATRIX
TMAX.C        24                   : BHT          - MAXIMUM RECORDED TEMPERATURE
BHTD.M        530                  : BHTDEP       - MAXIMUM RECORDED TEMPERATURE
MATR.         1                    : LOGUNIT      - NEUTRON MATRIX
RMT .C        25                   : MDTP         - TEMPERATURE OF MUD
NEUT.         1                    : NEUTRON      - NEUTRON TYPE
RESI.         0                    : RESIST       - RESISTIVITY TYPE
RMC .OHMM     0.25                 : RMC          - RESISTIVITY OF MUD CAKE
RMF .OHMM     0.25                 : RMF          - RESISTIVITY OF MUD FILTRATE
SUFT.C        15                   : SUFT         - SURFACE TEMPERATURE
~A  DEPTH     RESD     PHID     PHIN       GR
# ...
  308.500   10.213    0.282    0.445   98.006
  308.750   10.411    0.285    0.434   99.252
  309.000   10.612    0.280    0.424  103.623
  309.250   10.614    0.280    0.418  106.743
  309.500   10.819    0.284    0.426  107.365
  309.750   11.028    0.275    0.421  104.235
  310.000   11.241    0.270    0.414   99.855
  310.250   11.457    0.267    0.410   97.352
  310.500   11.459    0.261    0.400   95.472
  310.750   11.247    0.261    0.389   94.843
  311.000   11.248    0.275    0.386   94.213
  311.250   11.039    0.272    0.405   95.461
  311.500   10.631    0.257    0.421   95.455
  311.750    9.674    0.258    0.439   92.952
  312.000    8.802    0.258    0.463   94.823
  312.250    8.162    0.252    0.473  101.692
  312.500    8.010    0.247    0.476  106.064
  312.750    8.321    0.240    0.463  109.185
  313.000    9.148    0.237    0.477  107.928
  313.250   10.646    0.295    0.515  103.551
  313.500   11.928    0.407    0.536   72.298
  313.750   14.692    0.514    0.551   57.919
  314.000   17.756    0.567    0.560   51.039
  314.250   19.522    0.527    0.442   56.659
  314.500   22.719    0.289    0.412   57.905
  314.750   24.051    0.277    0.400   58.525
  315.000   24.983    0.287    0.397   58.521
  315.250   25.465    0.285    0.388   58.517
  315.500   26.452    0.285    0.379   59.139
  315.750   27.480    0.294    0.378   59.759
  316.000   28.545    0.306    0.377   59.755
  316.250   29.095    0.319    0.371   59.124
  316.500   29.657    0.326    0.372   58.496
  316.750   30.229    0.331    0.374   56.617
  317.000   30.811    0.332    0.376   54.739
  317.250   31.406    0.330    0.379   54.733
  317.500   32.625    0.332    0.381   54.730
  317.750   32.631    0.334    0.384   55.349
  318.000   32.638    0.337    0.389   55.346
  318.250   32.643    0.353    0.399   55.342
  318.500   33.274    0.358    0.404   54.088
  318.750   33.279    0.347    0.408   52.209
  319.000   34.572    0.345    0.408   51.580
  319.250   35.915    0.339    0.382   52.199
  319.500   36.606    0.337    0.379   52.196
  319.750   36.611    0.340    0.388   52.816
  320.000   38.034    0.345    0.396   52.813
  320.250   38.037    0.345    0.404   52.183
  320.500   38.771    0.345    0.402   50.305
  320.750   38.779    0.337    0.391   50.925
  321.000   39.529    0.321    0.384   51.544
  321.250   40.296    0.324    0.382   52.165
  321.500   40.305    0.329    0.388   52.787
  321.750   41.083    0.331    0.386   53.407
  322.000   41.089    0.335    0.377   52.778
  322.250   41.094    0.337    0.375   51.524
  322.500   41.100    0.341    0.371   50.895
  322.750   40.338    0.342    0.371   51.513
  323.000   40.349    0.345    0.377   52.136
  323.250   40.354    0.345    0.381   52.755
  323.500   40.364    0.347    0.380   53.379
  323.750   40.373    0.351    0.378   53.998
  324.000   39.623    0.347    0.381   52.745
  324.250   39.626    0.341    0.389   52.115
  324.500   38.896    0.340    0.398   52.736
  324.750   38.902    0.339    0.403   55.230
  325.000   38.177    0.345    0.394   55.853
  325.250   37.471    0.345    0.392   57.097
  325.500   37.477    0.345    0.388   58.344
  325.750   37.484    0.346    0.389   59.589
  326.000   37.492    0.350    0.397   60.209
  326.250   36.798    0.349    0.399   59.581
  326.500   36.803    0.349    0.392   58.326
  326.750   36.122    0.351    0.385   58.323
  327.000   36.127    0.354    0.386   57.692
  327.250   36.136    0.357    0.394   57.063
  327.500   36.141    0.360    0.397   57.060
  327.750   31.068    0.357    0.381   57.681
  328.000   33.519    0.355    0.364   58.301
  328.250   34.164    0.351    0.355   58.922
  328.500   33.531    0.352    0.357   59.543
  328.750   34.183    0.355    0.359   59.539
  329.000   33.545    0.362    0.370   58.284
  329.250   32.923    0.365    0.386   56.405
  329.500   32.929    0.369    0.397   56.400
  329.750   32.319    0.366    0.399   57.646
  330.000   31.721    0.361    0.401   59.517
  330.250   31.133    0.355    0.406   59.513
  330.500   30.554    0.352    0.414   58.883
  330.750   29.985    0.351    0.418   58.255
  331.000   29.429    0.350    0.422   58.874
  331.250   29.433    0.354    0.428   61.371
  331.500   29.443    0.357    0.427   64.492
  331.750   29.447    0.359    0.412   58.862
  332.000   28.898    0.357    0.393   56.984
  332.250   28.361    0.354    0.386   57.604
  332.500   30.025    0.346    0.388   63.850
  332.750   31.189    0.341    0.398   69.471
  333.000   30.036    0.339    0.422   71.966
  333.250   27.852    0.340    0.437   68.210
  333.500   27.857    0.343    0.427   67.582
  333.750   27.340    0.346    0.423   65.702
  334.000   27.346    0.349    0.419   65.074
  334.250   27.351    0.349    0.423   63.194
  334.500   27.355    0.350    0.429   63.190
  334.750   27.365    0.351    0.428   62.559
  335.000   27.369    0.353    0.427   61.931
  335.250   27.373    0.350    0.411   60.052
  335.500   27.377    0.348    0.402   58.799
  335.750   27.382    0.346    0.398   57.545
  336.000   27.390    0.341    0.401   58.165
  336.250   27.395    0.341    0.433   59.411
  336.500   27.398    0.346    0.448   59.407
  336.750   26.892    0.349    0.449   58.153
  337.000   26.896    0.350    0.442   60.649
  337.250   26.396    0.353    0.438   63.769
  337.500   26.400    0.355    0.443   60.640
  337.750   25.910    0.356    0.453   58.135
  338.000   25.431    0.359    0.435   58.756
  338.250   25.439    0.359    0.424   60.626
  338.500   25.444    0.358    0.440   60.623
  338.750   25.449    0.356    0.440   60.619
  339.000   24.048    0.354    0.435   62.489
  339.250   24.052    0.354    0.429   61.859
  339.500   23.162    0.355    0.426   59.981
  339.750   23.166    0.355    0.422   59.350
  340.000   23.613    0.356    0.432   59.971
  340.250   23.174    0.356    0.437   59.968
  340.500   22.745    0.356    0.428   59.963
  340.750   22.749    0.356    0.424   60.584
  341.000   23.635    0.359    0.439   60.581
  341.250   24.090    0.354    0.455   61.199
  341.500   24.554    0.355    0.452   61.821
  341.750   25.028    0.359    0.439   62.440
  342.000   25.031    0.360    0.448   63.062
  342.250   24.566    0.355    0.444   63.058
  342.500   24.112    0.353    0.421   63.052
  342.750   24.115    0.349    0.434   63.049
  343.000   24.120    0.348    0.454   63.044
  343.250   24.128    0.349    0.434   63.041
  343.500   24.130    0.346    0.413   63.038
  343.750   23.682    0.342    0.408   63.032
  344.000   22.378    0.342    0.417   63.028
  344.250   20.363    0.342    0.428   63.650
  344.500   18.882    0.343    0.450   64.895
  344.750   17.508    0.342    0.463   66.142
  345.000   14.220    0.339    0.462   69.262
  345.250   10.913    0.317    0.455   74.257
  345.500    9.560    0.304    0.428   79.878
  345.750    8.219    0.280    0.421   87.374
  346.000    7.066    0.253    0.441   93.618
  346.250    6.429    0.238    0.442   94.864
  346.500    6.075    0.231    0.434   96.111
  346.750    5.633    0.228    0.427   96.732
  347.000    5.224    0.220    0.423   94.853
  347.250    5.030    0.222    0.437   96.722
  347.500    4.664    0.224    0.441   99.843
  347.750    4.326    0.225    0.470  102.339
  348.000    4.165    0.251    0.486  101.710
  348.250    4.088    0.262    0.494  104.831
  348.500    4.089    0.261    0.478  101.077
  348.750    4.168    0.259    0.465   95.447
  349.000    4.249    0.250    0.496   96.694
  349.250    4.671    0.256    0.499   94.189
  349.500    5.334    0.277    0.486   90.434
  349.750    6.446    0.288    0.469   87.305
  350.000    7.087    0.296    0.460   82.300
  350.250    7.224    0.305    0.464   79.796
  350.500    6.957    0.312    0.457   77.916
  350.750    5.759    0.319    0.452   77.289
  351.000    4.858    0.308    0.451   79.785
  351.250    4.098    0.295    0.480   85.405
  351.500    3.590    0.281    0.490   90.401
  351.750    3.086    0.255    0.491   92.272
