~VERSION INFORMATION
 VERS.                 2.0:   CWLS LOG ASCII STANDARD -VERSION 2.0
 WRAP.                  NO:   ONE LINE PER DEPTH STEP
~WELL INFORMATION BLOCK
#MNEM.UNIT           DATA                    DESCRIPTION OF MNEMONIC
#---------    -------------------            -------------------------------
# Generated from Intellog Unique Number	CS_71_72/WELL/904
WELL.         HUDSON'S BAY OIL & GAS         : Well_name    - WELL
LOC .         00/11-25-071-12W4/0            : Location     - LOCATION
UWI .         00/11-25-071-12W4/0            : Uwi          - UNIQUE WELL ID
ENTR.         SP                             : Entered      - ENTERED BY
SRVC.         SCHLUMBERGER                   : Scn          - SERVICE COMPANY
STRT.M        260                            : top_depth    - START DEPTH
STOP.M        480                            : bot_depth    - STOP DEPTH
STEP.M        0.25                           : increment    - STEP LENGTH
 NULL. -999.2500:NULL Value
~CURVE INFORMATION BLOCK
#MNEM UNIT       ERCB CURVE CODE    CURVE DESCRIPTION
#-----------   ------------------   ----------------------------------
DEPT.M        00 001 00 00         : DEPTH        - DEPTH
ILD .OHMM     00 120 00 00         : RESD         - DEEP RESISTIVITY (DIL)
DPHI.V/V      00 890 00 00         : PHID         - DENSITY POROSITY (LIMESTONE)
NPHI.V/V      00 330 00 00         : PHIN         - NEUTRON POROSITY (LIMESTONE)
GR  .API      00 310 00 00         : GR           - GAMMA RAY
~PARAMETER INFORMATION
#MNEM.UNIT           DATA             DESCRIPTION OF MNEMONIC
#---------         -----------     ------------------------------
GL  .M        599.3                : gl           - GROUND LEVEL ELEVATION
EREF.M        602.9                : kb           - ELEVATION OF DEPTH REFERENCE
DATM.M        599.3                : datum        - DATUM ELEVATION
TDD .M        486                  : tdd          - TOTAL DEPTH DRILLER
RUN .         ONE                  : Run          - RUN NUMBER
ENG .         BILL                 : Engineer     - RECORDING ENGINEER
WIT .         JIM                  : Witness      - WITNESSED BY
MUD .         GEL                  : Mud_type     - MUD TYPE
MATR.         LIMESTONE            : Logunit      - NEUTRON MATRIX
TMAX.C        18                   : BHT          - MAXIMUM RECORDED TEMPERATURE
BHTD.M        486                  : BHTDEP       - MAXIMUM RECORDED TEMPERATURE
MATR.         1                    : LOGUNIT      - NEUTRON MATRIX
RMT .C        25                   : MDTP         - TEMPERATURE OF MUD
NEUT.         1                    : NEUTRON      - NEUTRON TYPE
RESI.         0                    : RESIST       - RESISTIVITY TYPE
RMC .OHMM     0.25                 : RMC          - RESISTIVITY OF MUD CAKE
RMF .OHMM     0.25                 : RMF          - RESISTIVITY OF MUD FILTRATE
SUFT.C        15                   : SUFT         - SURFACE TEMPERATURE
~A  DEPTH     RESD     PHID     PHIN       GR
# ...
  390.500    4.804    0.226    0.494   93.366
  390.750    4.713    0.227    0.479   94.565
  391.000    4.660    0.228    0.474   87.515
  391.250    4.641    0.235    0.516   81.009
  391.500    4.665    0.228    0.527   77.112
  391.750    4.776    0.226    0.495   75.276
  392.000    4.891    0.229    0.478   74.168
  392.250    4.990    0.227    0.468   75.791
  392.500    5.062    0.225    0.437   80.080
  392.750    5.098    0.223    0.418   79.760
  393.000    5.115    0.232    0.418   75.682
  393.250    5.113    0.239    0.425   69.418
  393.500    5.083    0.252    0.472   68.493
  393.750    5.033    0.244    0.505   72.418
  394.000    4.957    0.236    0.488   77.617
  394.250    4.883    0.234    0.444   80.635
  394.500    4.800    0.233    0.447   77.100
  394.750    4.710    0.229    0.457   74.477
  395.000    4.570    0.227    0.437   77.676
  395.250    4.378    0.227    0.441   81.662
  395.500    4.193    0.228    0.472   78.128
  395.750    3.943    0.229    0.478   76.839
  396.000    3.687    0.232    0.486   83.736
  396.250    3.359    0.244    0.506   89.298
  396.500    3.141    0.252    0.545   84.735
  396.750    2.845    0.256    0.591   82.899
  397.000    2.646    0.254    0.624   80.396
  397.250    2.625    0.252    0.626   82.441
  397.500    2.821    0.277    0.602   88.612
  397.750    3.140    0.294    0.561   89.506
  398.000    3.406    0.305    0.574   81.848
  398.250    3.673    0.311    0.559   74.919
  398.500    3.933    0.301    0.533   68.050
  398.750    4.095    0.247    0.522   67.305
  399.000    4.217    0.216    0.539   67.412
  399.250    4.278    0.189    0.554   70.426
  399.500    4.308    0.217    0.472   73.748
  399.750    4.322    0.252    0.442   77.064
  400.000    4.329    0.270    0.520   82.931
  400.250    4.319    0.255    0.566   86.495
  400.500    4.317    0.245    0.459   80.838
  400.750    4.316    0.239    0.453   86.279
  401.000    4.330    0.237    0.442   83.534
  401.250    4.377    0.242    0.459   78.243
  401.500    4.490    0.248    0.477   73.861
  401.750    4.666    0.245    0.475   69.297
  402.000    4.895    0.233    0.443   67.280
  402.250    5.359    0.216    0.455   67.564
  402.500    6.248    0.190    0.477   69.066
  402.750    7.164    0.038    0.274   70.264
  403.000    7.558    0.013    0.174   60.241
  403.250    7.667    0.002    0.160   51.674
  403.500    7.593    0.010    0.161   54.144
  403.750    6.816    0.064    0.278   62.254
  404.000    6.074    0.135    0.354   70.850
  404.250    5.391    0.191    0.401   76.899
  404.500    4.939    0.216    0.426   79.550
  404.750    4.713    0.222    0.444   80.020
  405.000    4.599    0.216    0.454   83.219
  405.250    4.606    0.218    0.470   80.532
  405.500    4.613    0.219    0.465   77.787
  405.750    4.706    0.207    0.484   75.953
  406.000    4.937    0.217    0.487   79.209
  406.250    5.237    0.227    0.435   83.318
  406.500    5.658    0.224    0.444   80.149
  406.750    5.958    0.165    0.432   74.370
  407.000    6.157    0.073    0.269   67.017
  407.250    6.064    0.061    0.223   56.087
  407.500    5.777    0.156    0.212   60.921
  407.750    5.372    0.201    0.292   72.914
  408.000    5.051    0.208    0.373   77.142
  408.250    4.883    0.215    0.421   80.095
  408.500    4.827    0.220    0.451   82.932
  408.750    4.852    0.222    0.452   85.524
  409.000    4.904    0.226    0.447   78.351
  409.250    4.930    0.231    0.443   75.058
  409.500    4.954    0.236    0.457   78.013
  409.750    4.944    0.232    0.471   81.578
  410.000    4.914    0.225    0.469   86.171
  410.250    4.885    0.207    0.439   90.701
  410.500    4.820    0.196    0.417   93.779
  410.750    4.730    0.206    0.409   95.098
  411.000    4.564    0.215    0.377   91.625
  411.250    4.396    0.224    0.401   87.486
  411.500    4.322    0.223    0.426   78.494
  411.750    4.256    0.212    0.439   76.173
  412.000    3.951    0.206    0.444   79.432
  412.250    3.449    0.224    0.481   79.174
  412.500    3.050    0.233    0.512   78.974
  412.750    2.789    0.241    0.518   78.536
  413.000    2.574    0.251    0.495   77.849
  413.250    2.385    0.257    0.513   76.803
  413.500    2.272    0.257    0.560   74.907
  413.750    2.140    0.249    0.603   75.438
  414.000    2.123    0.244    0.634   78.698
  414.250    2.240    0.241    0.615   84.258
  414.500    2.420    0.249    0.571   86.852
  414.750    2.640    0.254    0.547   89.201
  415.000    2.971    0.257    0.561   80.331
  415.250    3.181    0.235    0.564   72.553
  415.500    3.393    0.221    0.515   78.115
  415.750    3.646    0.226    0.470   82.708
  416.000    3.720    0.236    0.470   73.960
  416.250    3.677    0.244    0.474   66.120
  416.500    3.568    0.255    0.480   69.558
  416.750    3.450    0.261    0.495   73.669
  417.000    3.398    0.249    0.514   73.227
  417.250    3.782    0.238    0.516   70.362
  417.500    4.467    0.241    0.478   74.773
  417.750    4.964    0.248    0.480   79.244
  418.000    5.364    0.105    0.501   72.920
  418.250    5.564    0.063    0.252   66.053
  418.500    5.697    0.095    0.263   59.427
  418.750    5.622    0.148    0.325   69.114
  419.000    5.355    0.187    0.366   74.555
  419.250    4.692    0.207    0.402   79.694
  419.500    3.977    0.208    0.441   85.318
  419.750    3.630    0.212    0.429   82.633
  420.000    3.331    0.217    0.452   85.523
  420.250    3.150    0.216    0.469   88.241
  420.500    2.967    0.212    0.488   90.226
  420.750    2.879    0.211    0.506   91.181
  421.000    2.758    0.210    0.514   85.828
  421.250    2.646    0.213    0.520   88.418
  421.500    2.611    0.210    0.528   91.193
  421.750    2.605    0.208    0.538   88.811
  422.000    2.624    0.203    0.543   82.730
  422.250    2.662    0.196    0.521   84.655
  422.500    2.772    0.185    0.495   90.279
  422.750    2.919    0.171    0.486   89.779
  423.000    2.972    0.164    0.469   81.391
  423.250    2.944    0.182    0.448   83.559
  423.500    2.856    0.201    0.471   89.488
  423.750    2.817    0.207    0.501   88.076
  424.000    2.833    0.202    0.521   83.935
  424.250    2.917    0.200    0.521   87.315
  424.500    3.026    0.200    0.507   92.274
  424.750    3.104    0.189    0.500   88.313
  425.000    3.203    0.170    0.426   84.358
  425.250    3.207    0.152    0.410   84.039
  425.500    3.101    0.190    0.426   88.145
  425.750    2.910    0.203    0.455   93.284
  426.000    2.661    0.202    0.487   96.240
  426.250    2.578    0.204    0.513   96.950
  426.500    2.635    0.209    0.543   96.389
  426.750    2.805    0.207    0.546   93.524
  427.000    3.181    0.200    0.498   94.658
  427.250    3.928    0.191    0.463   94.886
  427.500    4.316    0.180    0.437   91.596
  427.750    4.629    0.165    0.396   86.363
  428.000    4.820    0.155    0.376   81.981
  428.250    4.899    0.191    0.400   84.694
  428.500    4.934    0.202    0.429   88.376
  428.750    5.109    0.207    0.449   89.817
  429.000    5.459    0.204    0.426   88.587
  429.250    5.867    0.204    0.378   85.540
  429.500    6.352    0.209    0.362   72.666
  429.750    6.992    0.225    0.369   63.251
  430.000    7.754    0.237    0.366   56.201
  430.250    8.379    0.231    0.346   54.182
  430.500    9.788    0.130    0.252   53.009
  430.750   10.755    0.013    0.183   52.392
  431.000   11.532   -0.006    0.172   49.890
  431.250   11.573    0.015    0.197   54.179
  431.500   11.377    0.114    0.248   61.378
  431.750   10.838    0.185    0.314   69.793
  432.000   10.477    0.228    0.361   69.049
  432.250   10.512    0.251    0.335   59.996
  432.500   10.586    0.267    0.329   53.493
  432.750   10.330    0.267    0.374   58.268
  433.000    9.588    0.255    0.401   62.618
  433.250    8.670    0.246    0.422   65.573
  433.500    7.797    0.232    0.356   66.649
  433.750    7.400    0.212    0.331   76.879
