~VERSION INFORMATION
 VERS.                 2.0:   CWLS LOG ASCII STANDARD -VERSION 2.0
 WRAP.                  NO:   ONE LINE PER DEPTH STEP
~WELL INFORMATION BLOCK
#MNEM.UNIT           DATA                    DESCRIPTION OF MNEMONIC
#---------    -------------------            -------------------------------
# Generated from Intellog Unique Number	CC_84_87/WELL/1184
NULL.         -999.25                        : NULL_VALUE
WELL.         PCI PCEJ HANGST                : Well_name    - WELL              
LOC .         10-08-084-09W4                 : Location     - LOCATION          
UWI .         00/10-08-084-09W400            : Uwi          - UNIQUE WELL ID    
ENTR.         RJA                            : Entered      - ENTERED BY        
SRVC.         SCHLUMBERGER                   : Scn          - SERVICE COMPANY   
DATE.         17 MAR 85                      : Date         - LOG DATE
STRT.M        175                            : top_depth    - START DEPTH       
STOP.M        475.892                        : bot_depth    - STOP DEPTH        
STEP.M        0.3                            : increment    - STEP LENGTH       
~CURVE INFORMATION BLOCK
#MNEM UNIT       ERCB CURVE CODE    CURVE DESCRIPTION
#-----------   ------------------   ----------------------------------
DEPT.M        00 001 00 00         : DEPTH        - DEPTH                       
DPHI.V/V      00 890 00 00         : PHID         - DENSITY POROSITY (LIMESTONE)
NPHI.V/V      00 330 00 00         : PHIN         - NEUTRON POROSITY (LIMESTONE)
GR  .API      00 310 00 00         : GR           - GAMMA RAY                   
ILD .OHMM     00 120 00 00         : RESD         - DEEP RESISTIVITY (DIL)      
~PARAMETER INFORMATION       
#MNEM.UNIT           DATA             DESCRIPTION OF MNEMONIC
#---------         -----------     ------------------------------
GL  .M        716.37               : gl           - GROUND LEVEL ELEVATION      
EREF.M        719.37               : kb           - ELEVATION OF DEPTH REFERENCE
DATM.M        719.37               : datum        - DATUM ELEVATION             
TDD .M        488                  : tdd          - TOTAL DEPTH DRILLER         
RUN .         ONE                  : Run          - RUN NUMBER                  
ENG .         BILL                 : Engineer     - RECORDING ENGINEER          
WIT .         JIM                  : Witness      - WITNESSED BY                
MUD .         GEL                  : Mud_type     - MUD TYPE                    
MATR.         LIMESTONE            : Logunit      - NEUTRON MATRIX              
TMAX.C        19                   : BHT          - MAXIMUM RECORDED TEMPERATURE
BHTD.M        488                  : BHTDEP       - MAXIMUM RECORDED TEMPERATURE
MATR.         1                    : LOGUNIT      - NEUTRON MATRIX              
RMT .C        25                   : MDTP         - TEMPERATURE OF MUD          
NEUT.         1                    : NEUTRON      - NEUTRON TYPE                
RESI.         0                    : RESIST       - RESISTIVITY TYPE            
RMC .OHMM     0.25                 : RMC          - RESISTIVITY OF MUD CAKE     
RMF .OHMM     0.25                 : RMF          - RESISTIVITY OF MUD FILTRATE 
SUFT.C        4                    : SUFT         - SURFACE TEMPERATURE         
~A  DEPTH     PHID     PHIN       GR     RESD
# ...
  279.400    0.317    0.430   87.030   17.217
  279.700    0.316    0.443   87.009   14.826
  280.000    0.322    0.478   81.502   13.008
  280.300    0.322    0.450   80.269   12.767
  280.600    0.309    0.439   80.848   12.767
  280.900    0.276    0.450   86.284   12.298
  281.200    0.263    0.467   89.290   12.070
  281.500    0.292    0.455   88.042   10.590
  281.800    0.308    0.419   88.624   10.202
  282.100    0.251    0.407   92.242    9.827
  282.400    0.221    0.460  101.317    8.785
  282.700    0.199    0.514  105.540    7.425
  283.000    0.191    0.511  110.353    6.276
  283.300    0.200    0.500  110.946    5.304
  283.600    0.234    0.503  115.766    4.922
  283.900    0.195    0.509  106.027    4.400
  284.200    0.198    0.531  112.676    4.008
  284.500    0.237    0.579  116.291    3.719
  284.800    0.281    0.571  106.549    3.451
  285.100    0.303    0.538   85.875    4.160
  285.400    0.343    0.480   77.957    6.761
  285.700    0.343    0.411   80.354   13.247
  286.000    0.316    0.406   77.899   20.357
  286.300    0.313    0.414   70.587   20.740
  286.600    0.322    0.420   80.267   18.890
  286.900    0.313    0.427   85.093   16.886
  287.200    0.310    0.433   82.029   15.965
  287.500    0.337    0.426   82.604   17.204
  287.800    0.342    0.398   91.689   18.538
  288.100    0.325    0.412   98.944   18.887
  288.400    0.319    0.425   92.844   20.352
  288.699    0.340    0.428   83.098   21.930
  288.999    0.343    0.400   81.852   22.765
  289.299    0.336    0.388   79.386   22.343
  289.599    0.344    0.405   78.760   20.350
  289.899    0.340    0.408   81.155   17.200
  290.199    0.289    0.410   86.596   15.091
  290.499    0.267    0.418   89.601   12.519
  290.799    0.255    0.395   94.435   11.617
  291.099    0.225    0.411  110.192   10.004
  291.399    0.242    0.474   98.015    8.299
  291.699    0.288    0.469   81.592    8.777
  291.999    0.309    0.432   80.351   10.983
  292.299    0.325    0.432   88.827   14.809
  292.599    0.341    0.437  103.964   20.344
  292.899    0.342    0.426  104.553   23.186
  293.199    0.318    0.432   83.881   22.335
  293.499    0.309    0.422   74.746   21.116
  293.799    0.330    0.405   75.930   20.725
  294.099    0.337    0.414   74.687   18.877
  294.399    0.326    0.413   77.085   17.847
  294.699    0.305    0.406   78.878   16.874
  294.999    0.283    0.385   81.886   15.954
  295.299    0.274    0.359   87.930   15.368
  295.599    0.279    0.393   95.181   14.530
  295.899    0.279    0.402  100.001   13.234
  296.199    0.266    0.399  102.408   11.611
  296.499    0.247    0.423   96.309   11.185
  296.799    0.192    0.435   84.134   10.575
  297.099    0.158    0.438   73.787   10.978
  297.399    0.208    0.413   78.612   11.829
  297.699    0.254    0.397   81.625   12.279
  297.999    0.241    0.397   86.451   12.051
  298.299    0.235    0.393   85.814   11.609
  298.599    0.233    0.386   85.178   10.773
  298.899    0.246    0.408   89.399   10.377
  299.199    0.250    0.419   91.801    9.630
  299.499    0.243    0.413   91.762    8.609
  299.799    0.245    0.414   92.956    8.139
  300.099    0.252    0.437  101.429    8.139
  300.399    0.244    0.436  109.293    8.292
  300.699    0.237    0.446  112.294    7.695
  300.999    0.234    0.463  114.698    6.751
  301.299    0.227    0.475  116.491    6.149
  301.599    0.221    0.472  115.245    5.814
  301.899    0.209    0.463  110.962    5.814
  302.199    0.202    0.463  108.511    5.923
  302.499    0.227    0.446  109.085    6.264
  302.799    0.243    0.435  101.773    6.750
  303.099    0.270    0.463   95.674    7.838
  303.399    0.287    0.469   95.029    9.448
  303.699    0.256    0.460  101.680   10.768
  303.999    0.242    0.409  107.721   10.768
  304.299    0.234    0.423  110.122    9.447
  304.599    0.230    0.450  110.100    9.101
  304.899    0.234    0.445  106.425    8.445
  305.199    0.286    0.442   95.468    7.837
  305.499    0.309    0.479   92.406    7.837
  305.799    0.311    0.456   99.662    8.766
  306.099    0.300    0.458   96.591   10.566
  306.399    0.297    0.460   91.709   11.601
  306.699    0.302    0.450   88.037   12.269
  306.999    0.305    0.448   85.573   12.500
  307.299    0.293    0.437   82.509   12.735
  307.599    0.287    0.449   74.590   13.469
  307.899    0.288    0.437   65.460   14.514
  308.199    0.322    0.417   53.897   16.541
  308.499    0.340    0.407   43.544   19.569
  308.799    0.356    0.407   44.726   23.151
  309.099    0.361    0.422   46.523   24.032
  309.399    0.360    0.423   48.310   22.722
  309.699    0.349    0.439   47.070   22.300
  309.999    0.344    0.431   44.614   22.300
  310.299    0.344    0.398   43.973   22.720
  310.599    0.342    0.403   45.161   22.299
  310.899    0.344    0.393   47.563   22.298
  311.199    0.342    0.414   49.350   21.885
  311.499    0.347    0.424   49.324   21.884
  311.799    0.355    0.426   48.686   21.883
  312.099    0.349    0.403   49.263   21.883
  312.399    0.348    0.413   53.482   21.882
  312.699    0.351    0.431   51.629   21.882
  312.999    0.348    0.417   48.575   22.293
  313.298    0.348    0.403   46.116   22.713
  313.598    0.347    0.423   49.118   23.578
  313.898    0.307    0.431   47.270   25.885
  314.198    0.273    0.412   41.779   30.624
  314.498    0.127    0.130   39.926   34.902
  314.798    0.087    0.133   48.992   39.777
  315.098    0.285    0.232   53.219   38.317
  315.398    0.343    0.401   55.016   31.198
  315.698    0.342    0.453   53.158   27.889
  315.998    0.332    0.458   51.928   24.470
  316.298    0.325    0.455   50.679   22.287
  316.598    0.324    0.437   49.435   21.469
  316.898    0.339    0.422   49.412   21.468
  317.198    0.356    0.438   50.596   21.872
  317.498    0.360    0.432   51.163   21.467
  317.798    0.342    0.424   50.525   21.466
  318.098    0.337    0.438   51.113   21.466
  318.398    0.339    0.483   46.825   21.870
  318.698    0.112    0.430   43.774   22.702
  318.998    0.128    0.306   39.490   23.566
  319.298    0.195    0.350   41.894   24.009
  319.598    0.301    0.438   47.931   24.009
  319.898    0.334    0.448   47.907   22.699
  320.198    0.352    0.418   48.475   22.279
  320.498    0.356    0.429   51.480   21.866
  320.798    0.351    0.433   53.889   21.865
  321.098    0.345    0.428   52.639   22.277
  321.398    0.340    0.421   49.580   21.864
  321.698    0.342    0.430   49.549   21.863
  321.998    0.336    0.446   50.128   21.458
  322.298    0.331    0.448   48.282   21.457
  322.598    0.335    0.429   45.212   21.457
  322.898    0.352    0.422   47.000   21.456
  323.198    0.353    0.428   48.788   21.059
  323.498    0.349    0.437   48.770   21.058
  323.798    0.332    0.428   46.920   21.454
  324.098    0.330    0.461   47.496   21.454
  324.398    0.335    0.470   46.252   21.453
  324.698    0.346    0.454   45.015   21.857
  324.998    0.346    0.438   44.376   21.857
  325.298    0.344    0.428   47.382   21.856
  325.598    0.332    0.425   51.593   21.855
  325.898    0.332    0.423   52.181   21.855
  326.198    0.340    0.418   50.329   21.450
  326.498    0.354    0.456   52.120   21.449
  326.798    0.343    0.475   53.305   21.051
  327.098    0.329    0.461   52.056   21.051
  327.398    0.332    0.472   50.211   20.660
  327.698    0.343    0.461   51.400   20.660
  327.998    0.349    0.466   53.797   20.660
  328.298    0.345    0.470   50.729   21.049
  328.598    0.345    0.441   50.098   21.048
  328.898    0.342    0.433   51.881   21.047
  329.198    0.330    0.431   53.677   20.657
  329.498    0.336    0.430   55.477   20.274
  329.798    0.328    0.421   59.082   19.530
  330.098    0.329    0.418   60.271   19.530
  330.398    0.335    0.441   59.642   19.529
  330.698    0.334    0.460   57.183   19.897
  330.998    0.327    0.475   60.181   20.272
  331.298    0.327    0.471   62.589   21.043
