~VERSION INFORMATION
 VERS.                 2.0:   CWLS LOG ASCII STANDARD -VERSION 2.0
 WRAP.                  NO:   ONE LINE PER DEPTH STEP
~WELL INFORMATION BLOCK
#MNEM.UNIT           DATA                    DESCRIPTION OF MNEMONIC
#---------    -------------------            -------------------------------
# Generated from Intellog Unique Number	CS_73_76/WELL/3231
WELL.         10-08-076-05W4                 : Well_name    - WELL
LOC .         00/10-08-076-05W4/0            : Location     - LOCATION
UWI .         00/10-08-076-05W4/0            : Uwi          - UNIQUE WELL ID
ENTR.         SP                             : Entered      - ENTERED BY
SRVC.         SCHLUMBERGER                   : Scn          - SERVICE COMPANY
STRT.M        175                            : top_depth    - START DEPTH
STOP.M        420                            : bot_depth    - STOP DEPTH
STEP.M        0.25                           : increment    - STEP LENGTH
 NULL. -999.2500:NULL Value
~CURVE INFORMATION BLOCK
#MNEM UNIT       ERCB CURVE CODE    CURVE DESCRIPTION
#-----------   ------------------   ----------------------------------
DEPT.M        00 001 00 00         : DEPTH        - DEPTH
GR  .API      00 310 00 00         : GR           - GAMMA RAY
DPHI.V/V      00 890 00 00         : PHID         - DENSITY POROSITY (LIMESTONE)
NPHI.V/V      00 330 00 00         : PHIN         - NEUTRON POROSITY (LIMESTONE)
ILD .OHMM     00 120 00 00         : RESD         - DEEP RESISTIVITY (DIL)
~PARAMETER INFORMATION
#MNEM.UNIT           DATA             DESCRIPTION OF MNEMONIC
#---------         -----------     ------------------------------
GL  .M        578.86               : gl           - GROUND LEVEL ELEVATION
EREF.M        582.66               : kb           - ELEVATION OF DEPTH REFERENCE
DATM.M        578.86               : datum        - DATUM ELEVATION
TDD .M        429                  : tdd          - TOTAL DEPTH DRILLER
RUN .         ONE                  : Run          - RUN NUMBER
ENG .         BILL                 : Engineer     - RECORDING ENGINEER
WIT .         JIM                  : Witness      - WITNESSED BY
MUD .         GEL                  : Mud_type     - MUD TYPE
MATR.         LIMESTONE            : Logunit      - NEUTRON MATRIX
TMAX.C        21                   : BHT          - MAXIMUM RECORDED TEMPERATURE
BHTD.M        429                  : BHTDEP       - MAXIMUM RECORDED TEMPERATURE
MATR.         1                    : LOGUNIT      - NEUTRON MATRIX
RMT .C        25                   : MDTP         - TEMPERATURE OF MUD
NEUT.         1                    : NEUTRON      - NEUTRON TYPE
RESI.         0                    : RESIST       - RESISTIVITY TYPE
RMC .OHMM     0.25                 : RMC          - RESISTIVITY OF MUD CAKE
RMF .OHMM     0.25                 : RMF          - RESISTIVITY OF MUD FILTRATE
SUFT.C        15                   : SUFT         - SURFACE TEMPERATURE
~A  DEPTH       GR     PHID     PHIN     RESD
# ...
  392.500   74.261    0.270    0.408   15.167
  392.750   64.501    0.287    0.465   15.459
  393.000   57.791    0.319    0.481   16.367
  393.250   48.640    0.316    0.381   17.323
  393.500   50.465    0.292    0.359   17.659
  393.750   57.167    0.284    0.369   17.669
  394.000   62.651    0.287    0.386   17.678
  394.250   64.476    0.279    0.388   17.360
  394.500   65.081    0.270    0.384   17.370
  394.750   66.906    0.258    0.386   17.381
  395.000   67.512    0.255    0.381   17.387
  395.250   66.287    0.260    0.374   17.725
  395.500   62.016    0.264    0.377   18.072
  395.750   58.962    0.273    0.387   18.774
  396.000   58.958    0.285    0.397   19.502
  396.250   57.733    0.280    0.399   20.259
  396.500   56.511    0.270    0.378   20.653
  396.750   54.066    0.258    0.371   20.665
  397.000   52.844    0.258    0.358   19.544
  397.250   49.790    0.258    0.343   18.139
  397.500   50.395    0.248    0.354   16.835
  397.750   50.390    0.251    0.364   15.335
  398.000   53.436    0.254    0.369   14.235
  398.250   53.431    0.243    0.375   13.717
  398.500   45.501    0.243    0.364   13.469
  398.750   36.349    0.249    0.344   13.226
  399.000   32.078    0.265    0.327   12.990
  399.250   29.634    0.274    0.327   12.752
  399.500   30.238    0.270    0.321   12.521
  399.750   30.234    0.262    0.302   11.623
  400.000   28.402    0.264    0.309   11.199
  400.250   26.568    0.276    0.318   10.591
  400.500   27.172    0.292    0.320   10.207
  400.750   28.999    0.305    0.310   10.022
  401.000   28.995    0.298    0.287   10.412
  401.250   27.770    0.258    0.266   10.816
  401.500   26.547    0.248    0.260   10.622
  401.750   25.931    0.241    0.255   10.626
  402.000   25.928    0.244    0.248   10.240
  402.250   27.144    0.251    0.249    8.984
  402.500   28.968    0.257    0.263    8.183
  402.750   28.963    0.260    0.252    7.739
  403.000   33.837    0.265    0.257    7.890
  403.250   36.882    0.275    0.296    8.045
  403.500   35.658    0.251    0.301    8.517
  403.750   35.044    0.252    0.264    8.682
  404.000   33.821    0.264    0.265    8.687
  404.250   31.986    0.284    0.296    8.691
  404.500   29.544    0.297    0.308    8.221
  404.750   28.928    0.315    0.318    8.070
  405.000   28.924    0.321    0.336    7.491
  405.250   29.531    0.314    0.342    7.085
  405.500   32.575    0.309    0.342    6.700
  405.750   34.400    0.304    0.337    6.337
  406.000   30.736    0.297    0.328    5.993
  406.250   38.049    0.295    0.320    5.668
  406.500   47.191    0.271    0.330    5.360
  406.750   72.796    0.210    0.389    5.166
  407.000  103.889    0.244    0.446    5.072
  407.250  103.885    0.318    0.547    4.980
  407.500  103.270    0.301    0.601    5.078
  407.750  105.095    0.266    0.595    5.176
  408.000   98.384    0.285    0.550    5.689
  408.250   69.721    0.287    0.530    6.491
  408.500   63.010    0.196    0.524    8.135
  408.750   59.347    0.143    0.514   13.511
  409.000   60.563    0.163    0.481   16.309
  409.250   70.924    0.178    0.431   19.690
  409.500   87.383    0.176    0.408   22.467
  409.750   87.377    0.127    0.400   24.691
  410.000   77.618    0.021    0.397   27.652
  410.250   70.296    0.000    0.401   29.822
  410.500   75.170    0.075    0.396   31.563
  410.750   83.093    0.139    0.389   34.046
  411.000   84.308    0.207    0.395   37.417
  411.250   82.474    0.204    0.406   40.351
  411.500   81.251    0.209    0.402   44.346
  411.750   72.100    0.200    0.386   48.733
  412.000   69.656    0.154    0.364   56.666
  412.250   73.311    0.155    0.344   62.267
  412.500   81.233    0.199    0.359   69.733
  412.750   80.009    0.247    0.389   73.813
  413.000   76.346    0.260    0.395   73.845
  413.250   77.562    0.260    0.379   67.281
  413.500   76.948    0.253    0.355   62.437
  413.750   72.065    0.247    0.350   52.759
  414.000   69.621    0.262    0.347   46.286
  414.250   69.008    0.280    0.371   44.604
  414.500   64.126    0.268    0.380   52.847
  414.750   28.757    0.164    0.255   67.481
  415.000   20.826    0.136    0.190   91.182
  415.250   17.163    0.013    0.130  106.003
  415.500   15.329    0.007    0.117  132.842
  415.750   15.325    0.006    0.112  200.909
  416.000   17.759    0.015    0.110  224.941
  416.250   16.535    0.013    0.116  208.801
  416.500   18.970    0.011    0.117  186.654
  416.750   21.404    0.010    0.112  157.742
  417.000   23.229    0.006    0.116  128.370
  417.250   27.494    0.006    0.127  108.469
  417.500   32.367    0.007    0.132   86.639
  417.750   31.143    0.002    0.124  104.588
  418.000   27.481    0.000    0.113  131.086
  418.250   21.379    0.006    0.097  167.395
  418.500   17.716    0.012    0.093  226.146
  418.750   15.273    0.022    0.088  288.805
  419.000   14.049    0.023    0.079  348.638
  419.250   12.825    0.012    0.078  342.419
  419.500   14.041    0.015    0.083  323.766
  419.750   18.304    0.017    0.107  191.508
  420.000   21.958    0.027    0.130  144.590
