~VERSION INFORMATION
 VERS.                 2.0:   CWLS LOG ASCII STANDARD -VERSION 2.0
 WRAP.                  NO:   ONE LINE PER DEPTH STEP
~WELL INFORMATION BLOCK
#MNEM.UNIT           DATA                    DESCRIPTION OF MNEMONIC
#---------    -------------------            -------------------------------
# Generated from Intellog Unique Number	CW_79_81/WELL/2900
WELL.         MOBIL WABASCA 10-26            : Well_name    - WELL
LOC .         00/10-26-080-26W4/0            : Location     - LOCATION
UWI .         00/10-26-080-26W4/0            : Uwi          - UNIQUE WELL ID
ENTR.         JJ                             : Entered      - ENTERED BY
SRVC.         SCHLUMBERGER                   : Scn          - SERVICE COMPANY
DATE.         1 JAN 67                       : Date         - LOG DATE
STRT.M        329.184                        : top_depth    - START DEPTH
STOP.M        456.684                        : bot_depth    - STOP DEPTH
STEP.M        0.25                           : increment    - STEP LENGTH
 NULL. -999.2500:NULL Value
~CURVE INFORMATION BLOCK
#MNEM UNIT       ERCB CURVE CODE    CURVE DESCRIPTION
#-----------   ------------------   ----------------------------------
DEPT.M        00 001 00 00         : DEPTH        - DEPTH
DELT.US/F     00 520 00 00         : DELT         - SONIC TRAVEL TIME
GR  .API      00 310 00 00         : GR           - GAMMA RAY
RHOB.KG/M3    00 350 00 00         : DENS         - BULK DENSITY
ILD .OHMM     00 120 00 00         : RESD         - DEEP RESISTIVITY (DIL)
~PARAMETER INFORMATION
#MNEM.UNIT           DATA             DESCRIPTION OF MNEMONIC
#---------         -----------     ------------------------------
GL  .M        550.713              : gl           - GROUND LEVEL ELEVATION
EREF.M        554.706              : kb           - ELEVATION OF DEPTH REFERENCE
DATM.M        554.706              : datum        - DATUM ELEVATION
TDD .M        464.21               : tdd          - TOTAL DEPTH DRILLER
RUN .         ONE                  : Run          - RUN NUMBER
ENG .         CUFFY                : Engineer     - RECORDING ENGINEER
WIT .         SMITH                : Witness      - WITNESSED BY
BASE.         S.L.                 : Branch       - HOME BASE OF LOGGING UNIT
MUD .         GEL                  : Mud_type     - MUD TYPE
MATR.         LIMESTONE            : Logunit      - NEUTRON MATRIX
TMAX.C        33.8889              : BHT          - MAXIMUM RECORDED TEMPERATURE
BHTD.M        464.21               : BHTDEP       - MAXIMUM RECORDED TEMPERATURE
RMT .C        33.8889              : MDTP         - TEMPERATURE OF MUD
MUDD.KG/M     1140                 : MWT          - MUD DENSITY
NEUT.         1                    : NEUTRON      - NEUTRON TYPE
RESI.         0                    : RESIST       - RESISTIVITY TYPE
RM  .OHMM     0                    : RM           - RESISTIVITY OF MUD
RMC .OHMM     4.68                 : RMC          - RESISTIVITY OF MUD CAKE
RMF .OHMM     2.84                 : RMF          - RESISTIVITY OF MUD FILTRATE
SUFT.C        5                    : SUFT         - SURFACE TEMPERATURE
~A  DEPTH     DELT       GR     DENS     RESD
# ...
  416.184  370.663   20.239 2128.460    7.601
  416.434  379.432   17.280 2142.160    7.567
  416.684  384.174   15.614 2137.960    7.617
  416.934  373.400   17.029 2142.810    7.666
  417.184  365.987   19.986 2139.630    7.675
  417.434  365.014   23.091 2143.860    7.642
  417.684  367.535   25.151 2138.240    7.465
  417.934  368.318   22.839 2147.390    7.288
  418.184  366.538   19.732 2154.090    7.172
  418.434  364.435   18.614 2151.540    7.058
  418.684  359.640   17.794 2154.320    7.107
  418.934  355.382   17.562 2158.550    7.157
  419.184  353.741   17.984 2149.430    7.414
  419.434  355.254   18.552 2142.770    7.690
  419.684  358.319   19.721 2131.990    8.132
  419.934  358.288   20.889 2126.340    8.512
  420.184  356.244   21.854 2136.740    8.912
  420.434  352.930   23.069 2152.890    9.251
  420.684  351.426   25.579 2142.520    9.342
  420.934  353.139   28.186 2138.340    9.351
  421.184  355.124   32.732 2145.870    9.402
  421.434  355.230   34.491 2151.530    9.472
  421.684  353.997   28.252 2156.780    9.439
  421.934  352.559   33.198 2155.270    9.385
  422.184  353.540   37.245 2151.470    9.517
  422.434  358.010   40.500 2152.190    9.773
  422.684  360.939   42.858 2160.330   10.299
  422.934  360.233   44.573 2177.920   11.194
  423.184  358.735   44.990 2202.310   12.749
  423.434  354.543   42.038 2285.050   13.151
  423.684  340.813   41.010 2385.070   12.540
  423.934  314.328   42.029 2371.630   12.487
  424.184  297.578   46.428 2264.030   12.001
  424.434  327.028   52.614 2220.990   10.957
  424.684  355.477   63.119 2259.950   10.656
  424.934  382.714   75.865 2265.210   11.180
  425.184  363.681   78.024 2238.810   11.993
  425.434  347.534   62.542 2249.210   12.560
  425.684  354.418   54.067 2275.440   12.651
  425.934  352.114   53.797 2338.450   12.246
  426.184  339.727   57.346 2473.220   12.255
  426.434  321.503   59.702 2451.150   11.769
  426.684  305.357   62.808 2332.030   10.807
  426.934  336.691   67.501 2271.500    9.619
  427.184  357.145   68.718 2282.110    8.556
  427.434  355.769   71.775 2308.130    8.069
  427.684  355.539   75.771 2263.850    8.802
  427.934  365.789   80.516 2248.340    9.426
  428.184  382.149   81.483 2275.800   11.436
  428.434  384.671   75.244 2260.710   13.694
  428.684  359.190   84.959 2215.190   16.034
  428.934  352.718   83.242 2189.400   18.022
  429.184  363.969   61.002 2177.620   18.237
  429.434  366.623   63.112 2161.270   18.206
  429.684  367.408   67.512 2176.810   18.667
  429.934  367.375   70.269 2182.270   20.016
  430.184  364.261   70.639 2199.470   22.129
  430.434  358.926   69.418 2210.680   24.056
  430.684  353.728   70.138 2273.290   25.220
  430.934  341.480   71.251 2451.630   23.310
  431.184  304.783   64.914 2425.020   19.358
  431.434  254.795   54.898 2255.770   16.644
  431.684  277.327   60.139 2225.040   14.238
  431.934  298.990   70.798 2193.720   10.659
  432.184  365.516   80.314 2210.270    8.768
  432.434  363.606   82.376 2206.490    7.271
  432.684  359.816   83.293 2234.350    6.269
  432.934  366.170   84.210 2262.850    5.350
  433.184  383.735   87.959 2258.020    4.865
  433.434  395.864   93.153 2241.310    5.202
  433.684  381.797   83.634 2253.130    5.726
  433.934  379.691   77.593 2256.730    6.623
  434.184  399.876   84.427 2294.890    7.208
  434.434  373.455   90.960 2331.390    8.579
  434.684  346.969   84.173 2281.760   10.195
  434.934  365.207   79.277 2404.600   10.411
  435.184  398.624   82.282 2517.180    9.987
  435.434  368.441   79.470 2546.680    9.479
  435.684  306.699   66.075 2511.650    9.098
  435.934  305.797   50.148 2351.640    8.898
  436.184  338.874   66.772 2292.550    8.556
  436.434  361.008   74.943 2239.430    8.071
  436.684  372.194   83.066 2181.160    7.584
  436.934  387.816   81.947 2075.620    7.302
  437.184  405.578   75.908 2025.790    6.674
  437.434  416.634   78.612 2057.140    6.227
  437.684  431.114   89.472 2160.660    5.863
  437.934  428.599   89.393 2200.670    5.420
  438.184  410.710   70.683 2246.830    5.181
  438.434  383.552   72.792 2200.080    5.065
  438.684  396.350   83.450 2138.320    4.949
  438.934  412.037   89.586 2147.710    4.854
  439.184  424.500   89.164 2218.320    4.885
  439.434  432.262   87.148 2279.910    4.872
  439.684  409.936   89.164 2284.160    5.066
  439.934  402.119   93.066 2289.190    5.323
  440.184  394.903   96.211 2290.140    5.930
  440.434  386.081  100.956 2303.000    6.474
  440.684  387.993  100.885 2344.220    7.226
  440.934  389.989   98.920 2404.990    7.812
  441.184  334.623   91.781 2441.080    8.295
  441.434  323.582   82.312 2276.940    8.222
  441.684  337.791   73.888 2209.440    7.694
  441.934  353.410   69.241 2207.300    7.021
  442.184  376.143   71.202 2239.690    6.266
  442.434  385.117   80.319 2271.460    5.905
  442.684  389.521   93.414 2315.780    5.850
  442.934  382.775   99.001 2299.450    6.044
  443.184  375.296   92.811 2276.130    6.280
  443.434  364.525   88.909 2243.990    6.662
  443.684  366.506   94.299 2294.670    6.812
  443.934  372.860   87.912 2330.350    6.966
  444.184  367.056   82.070 2350.820    6.831
  444.434  369.649   78.566 2266.040    6.694
  444.684  380.903   77.546 2226.690    6.682
  444.934  395.044   83.137 2235.860    6.629
  445.184  410.397   90.265 2256.740    6.948
  445.434  392.637   99.580 2234.030    7.740
  445.684  393.553  105.123 2396.960    8.491
  445.934  368.542   99.725 2471.900    8.417
  446.184  332.722   81.116 2495.870    8.881
  446.434  296.965   72.093 2415.410   10.291
  446.684  307.817   61.530 2369.700   12.012
  446.934  334.244   76.213 2321.500   12.907
  447.184  346.844   84.984 2407.130   13.741
  447.434  307.531   90.075 2471.180   13.566
  447.684  256.596   78.023 2378.380   13.572
  447.934  258.116   63.187 2292.980   12.735
  448.184  282.464   57.046 2287.350   10.723
  448.434  318.501   63.581 2280.280    9.701
  448.684  334.988   73.244 2276.480    9.048
  448.934  340.405   74.761 2300.040    8.357
  449.184  334.400   64.644 2329.340    7.933
  449.434  324.968   59.250 2285.500    7.693
  449.684  338.843   63.250 2234.620    7.495
  449.934  360.506   72.468 2170.600    7.338
  450.184  366.857   83.471 2145.220    7.183
  450.434  358.638   79.073 2142.470    7.024
  450.684  354.841   59.764 2193.560    6.891
  450.934  348.440   52.435 2210.940    6.877
  451.184  341.422   54.741 2214.770    6.968
  451.434  336.564   60.034 2237.500    7.328
  451.684  328.540   64.579 2304.640    7.832
  451.934  323.549   67.084 2332.090    7.839
  452.184  316.067   71.584 2322.550    7.519
  452.434  322.419   76.180 2314.250    7.260
  452.684  328.971   76.600 2318.690    7.062
  452.934  326.990   70.260 2331.330    6.946
  453.184  325.221   65.115 2340.290    6.956
  453.434  339.358   64.245 2300.740    7.004
  453.684  348.668   67.795 2231.380    6.271
  453.934  359.520   81.186 2173.930    6.218
  454.184  376.413   93.483 2126.570    6.577
  454.434  397.272   97.383 2293.190    7.019
  454.684  364.473   91.544 2355.810    7.336
  454.934  340.534   90.324 2380.800    7.345
  455.184  335.874   93.032 2403.740    7.127
  455.434  334.900   97.375 2412.690    6.640
  455.684  331.992   93.970 2383.210    6.154
  455.934  329.275   99.012 2384.980    5.935
  456.184  331.324   67.876 2411.610    5.696
  456.434  333.251   34.404 2436.600    5.787
  456.684  334.897   21.159 2421.100    6.044
