~VERSION INFORMATION
 VERS.                 2.0:   CWLS LOG ASCII STANDARD -VERSION 2.0
 WRAP.                  NO:   ONE LINE PER DEPTH STEP
~WELL INFORMATION BLOCK
#MNEM.UNIT           DATA                    DESCRIPTION OF MNEMONIC
#---------    -------------------            -------------------------------
# Generated from Intellog Unique Number	CC_84_87/WELL/2343
WELL.         HB GORDON LAKE                 : Well_name    - WELL
LOC .         00/15-21-084-03W4/0            : Location     - LOCATION
UWI .         00/15-21-084-03W400            : Uwi          - UNIQUE WELL ID
ENTR.         DW                             : Entered      - ENTERED BY
SRVC.         SCHLUMBERGER                   : Scn          - SERVICE COMPANY
STRT.M        60.96                          : top_depth    - START DEPTH
STOP.M        289.21                         : bot_depth    - STOP DEPTH
STEP.M        0.25                           : increment    - STEP LENGTH
 NULL. -999.2500:NULL Value
~CURVE INFORMATION BLOCK
#MNEM UNIT       ERCB CURVE CODE    CURVE DESCRIPTION
#-----------   ------------------   ----------------------------------
DEPT.M        00 001 00 00         : DEPTH        - DEPTH
GR  .API      00 310 00 00         : GR           - GAMMA RAY
DPHI.V/V      00 890 00 00         : PHID         - DENSITY POROSITY (SANDSTONE)
NPHI.V/V      00 330 00 00         : PHIN         - NEUTRON POROSITY (SANDSTONE)
ILD .OHMM     00 120 00 00         : RESD         - DEEP RESISTIVITY (DIL)
~PARAMETER INFORMATION
#MNEM.UNIT           DATA             DESCRIPTION OF MNEMONIC
#---------         -----------     ------------------------------
GL  .M        456.59               : gl           - GROUND LEVEL ELEVATION
EREF.M        458.419              : kb           - ELEVATION OF DEPTH REFERENCE
DATM.M        458.419              : datum        - DATUM ELEVATION
TDD .M        291.389              : tdd          - TOTAL DEPTH DRILLER
RUN .         ONE                  : Run          - RUN NUMBER
ENG .         BILL                 : Engineer     - RECORDING ENGINEER
WIT .         JIM                  : Witness      - WITNESSED BY
MUD .         GEL                  : Mud_type     - MUD TYPE
MATR.         SANDSTONE            : Logunit      - NEUTRON MATRIX
TMAX.C        18.8889              : BHT          - MAXIMUM RECORDED TEMPERATURE
BHTD.M        291.389              : BHTDEP       - MAXIMUM RECORDED TEMPERATURE
MATR.         1                    : LOGUNIT      - NEUTRON MATRIX
RMT .C        25                   : MDTP         - TEMPERATURE OF MUD
NEUT.         1                    : NEUTRON      - NEUTRON TYPE
RESI.         0                    : RESIST       - RESISTIVITY TYPE
RMC .OHMM     0.25                 : RMC          - RESISTIVITY OF MUD CAKE
RMF .OHMM     0.25                 : RMF          - RESISTIVITY OF MUD FILTRATE
SUFT.C        15                   : SUFT         - SURFACE TEMPERATURE
~A  DEPTH       GR     PHID     PHIN     RESD
# ...
  191.460  100.872    0.181    0.484    6.392
  191.710   99.183    0.175    0.506    6.486
  191.960   96.057    0.186    0.503    6.398
  192.210   94.537    0.205    0.498    6.348
  192.460   96.384    0.212    0.497    6.431
  192.710  102.641    0.205    0.497    6.508
  192.960  107.467    0.199    0.499    6.502
  193.210  102.308    0.203    0.503    6.596
  193.460   98.071    0.216    0.513    6.893
  193.710   99.184    0.216    0.517    7.162
  193.960  101.824    0.208    0.510    7.340
  194.210  102.819    0.203    0.495    7.396
  194.460  102.705    0.195    0.480    7.276
  194.710  101.256    0.187    0.481    7.181
  194.960   99.830    0.185    0.483    6.970
  195.210   97.967    0.200    0.480    6.878
  195.460   97.655    0.209    0.477    6.891
  195.710   99.952    0.193    0.479    6.917
  195.960  100.928    0.182    0.481    7.144
  196.210  100.098    0.179    0.463    7.192
  196.460   99.055    0.194    0.456    7.097
  196.710   97.889    0.200    0.462    7.003
  196.960   95.292    0.181    0.458    6.875
  197.210   91.241    0.168    0.456    6.669
  197.460   88.481    0.185    0.489    6.563
  197.710   89.132    0.197    0.495    6.546
  197.960   91.663    0.198    0.474    6.597
  198.210   93.764    0.201    0.449    6.758
  198.460   96.848    0.207    0.443    6.956
  198.710  102.951    0.211    0.472    7.058
  198.960  106.023    0.213    0.504    7.270
  199.210  106.506    0.209    0.504    7.449
  199.460  104.171    0.200    0.478    7.453
  199.710  100.903    0.195    0.466    7.287
  199.960   99.705    0.201    0.476    7.077
  200.210   98.708    0.202    0.463    6.890
  200.460   97.646    0.197    0.455    6.432
  200.710   94.424    0.183    0.453    6.021
  200.960   90.789    0.186    0.452    5.887
  201.210   88.554    0.207    0.451    5.922
  201.460   87.128    0.212    0.448    6.018
  201.710   89.761    0.213    0.437    6.207
  201.960   93.094    0.202    0.443    6.334
  202.210   95.423    0.188    0.465    6.419
  202.460   93.680    0.190    0.478    6.529
  202.710   85.882    0.202    0.459    6.621
  202.960   79.004    0.204    0.411    6.629
  203.210   82.369    0.216    0.391    6.544
  203.460   90.525    0.208    0.418    6.447
  203.710   92.944    0.187    0.449    6.335
  203.960   87.680    0.187    0.444    6.102
  204.210   81.864    0.204    0.416    5.739
  204.460   79.614    0.207    0.395    5.367
  204.710   78.513    0.214    0.407    4.649
  204.960   75.691    0.237    0.427    3.951
  205.210   67.486    0.262    0.421    3.789
  205.460   56.274    0.285    0.390    4.094
  205.710   56.778    0.303    0.371    4.415
  205.960   78.111    0.243    0.390    4.630
  206.210   86.586    0.198    0.415    4.409
  206.460   77.925    0.211    0.424    3.928
  206.710   66.442    0.246    0.425    3.474
  206.960   55.321    0.273    0.420    3.089
  207.210   50.341    0.294    0.396    2.964
  207.460   56.043    0.296    0.373    3.178
  207.710   69.851    0.279    0.363    3.546
  207.960   82.306    0.226    0.379    4.077
  208.210   86.836    0.173    0.420    4.706
  208.460   86.186    0.195    0.442    5.213
  208.710   85.235    0.202    0.432    5.919
  208.960   89.908    0.218    0.433    5.675
  209.210   89.345    0.220    0.448    4.738
  209.460   77.843    0.219    0.454    4.018
  209.710   65.896    0.262    0.450    3.728
  209.960   61.653    0.281    0.446    3.777
  210.210   67.237    0.280    0.392    3.943
  210.460   73.925    0.238    0.372    4.148
  210.710   76.286    0.214    0.413    4.471
  210.960   79.173    0.240    0.433    4.900
  211.210   87.391    0.236    0.405    5.279
  211.460   92.321    0.213    0.427    5.564
  211.710   91.600    0.202    0.456    5.578
  211.960   87.171    0.193    0.475    5.417
  212.210   82.606    0.197    0.478    5.277
  212.460   81.314    0.227    0.450    5.213
  212.710   85.389    0.234    0.424    5.207
  212.960   95.223    0.219    0.436    5.340
  213.210   99.339    0.220    0.462    5.538
  213.460   98.506    0.224    0.479    5.641
  213.710   97.704    0.213    0.475    5.615
  213.960   95.125    0.207    0.448    5.529
  214.210   95.436    0.204    0.428    5.357
  214.460   95.732    0.205    0.436    5.327
  214.710   93.915    0.207    0.459    5.306
  214.960   95.170    0.206    0.454    5.411
  215.210  101.585    0.203    0.438    5.770
  215.460  104.594    0.200    0.482    5.950
  215.710  104.216    0.192    0.503    5.985
  215.960  101.626    0.212    0.503    5.857
  216.210   98.681    0.236    0.495    5.399
  216.460   91.489    0.229    0.471    4.759
  216.710   77.791    0.217    0.452    4.300
  216.960   70.075    0.230    0.469    3.929
  217.210   63.363    0.270    0.464    3.614
  217.460   59.550    0.300    0.443    3.451
  217.710   62.861    0.301    0.421    3.355
  217.960   72.409    0.286    0.408    3.518
  218.210   83.842    0.269    0.429    4.312
  218.460   92.214    0.249    0.442    4.811
  218.710   95.787    0.229    0.479    5.051
  218.960   92.668    0.236    0.506    5.026
  219.210   78.392    0.262    0.485    4.743
  219.460   58.862    0.273    0.449    4.390
  219.710   53.032    0.289    0.430    3.905
  219.960   43.500    0.304    0.421    3.395
  220.210   36.633    0.326    0.415    3.068
  220.460   37.856    0.342    0.410    3.002
  220.710   43.444    0.340    0.406    3.065
  220.960   51.507    0.320    0.410    3.110
  221.210   53.747    0.276    0.413    3.209
  221.460   53.838    0.286    0.416    3.252
  221.710   53.212    0.308    0.418    3.207
  221.960   51.439    0.302    0.420    3.182
  222.210   50.783    0.303    0.420    3.309
  222.460   55.502    0.306    0.408    3.618
  222.710   69.200    0.302    0.399    4.021
  222.960   75.646    0.289    0.399    4.467
  223.210   75.925    0.270    0.423    4.968
  223.460   78.760    0.261    0.453    5.363
  223.710   80.107    0.273    0.462    5.337
  223.960   80.477    0.274    0.499    4.912
  224.210   74.218    0.267    0.478    4.401
  224.460   68.205    0.260    0.437    3.783
  224.710   60.575    0.264    0.423    3.268
  224.960   48.361    0.291    0.420    3.066
  225.210   46.412    0.332    0.431    2.838
  225.460   46.707    0.344    0.434    2.756
  225.710   43.360    0.343    0.424    2.792
  225.960   40.638    0.342    0.422    2.826
  226.210   41.350    0.342    0.432    2.896
  226.460   44.055    0.340    0.439    3.086
  226.710   52.479    0.318    0.448    3.239
  226.960   57.152    0.282    0.437    3.322
  227.210   50.475    0.284    0.415    3.305
  227.460   41.823    0.309    0.397    3.266
  227.710   41.263    0.310    0.386    3.270
  227.960   44.888    0.299    0.386    3.266
  228.210   57.783    0.287    0.385    3.396
  228.460   60.947    0.271    0.394    3.580
  228.710   51.009    0.253    0.424    3.698
  228.960   40.598    0.264    0.433    3.848
  229.210   40.053    0.313    0.389    4.089
  229.460   52.756    0.320    0.372    4.103
  229.710   67.462    0.302    0.400    4.043
  229.960   69.838    0.255    0.437    3.972
  230.210   61.173    0.205    0.421    3.791
  230.460   52.221    0.218    0.382    3.500
  230.710   46.440    0.294    0.423    3.250
  230.960   41.893    0.315    0.448    3.050
  231.210   38.029    0.310    0.418    2.932
  231.460   35.344    0.306    0.385    2.873
  231.710   34.701    0.302    0.386    2.842
  231.960   35.868    0.305    0.402    2.849
  232.210   36.859    0.323    0.412    2.893
  232.460   37.836    0.340    0.417    2.940
  232.710   38.773    0.340    0.414    2.984
  232.960   39.961    0.317    0.407    3.033
  233.210   42.348    0.293    0.400    3.077
  233.460   46.377    0.301    0.393    3.076
  233.710   53.303    0.322    0.391    3.072
  233.960   73.032    0.283    0.398    3.458
  234.210   85.067    0.233    0.452    3.830
  234.460   82.393    0.237    0.513    3.926
  234.710   73.767    0.272    0.507    3.981
