~VERSION INFORMATION
 VERS.                 2.0:   CWLS LOG ASCII STANDARD -VERSION 2.0
 WRAP.                  NO:   ONE LINE PER DEPTH STEP
~WELL INFORMATION BLOCK
#MNEM.UNIT           DATA                    DESCRIPTION OF MNEMONIC
#---------    -------------------            -------------------------------
# Generated from Intellog Unique Number	CN_91_93/WELL/1166
WELL.         COSEKA RESOURCES LTD.          : Well_name    - WELL
LOC .         00/11-07-091-20W4/0            : Location     - LOCATION
UWI .         00/11-07-091-20W4/0            : Uwi          - UNIQUE WELL ID
ENTR.         JOETTE                         : Entered      - ENTERED BY
SRVC.         SCHLUMBERGER                   : Scn          - SERVICE COMPANY
DATE.         02/04/92                       : Date         - LOG DATE
STRT.F        524.934                        : top_depth    - START DEPTH
STOP.F        754.593                        : bot_depth    - STOP DEPTH
STEP.F        0.821                          : increment    - STEP LENGTH
 NULL. -999.2500:NULL Value
~CURVE INFORMATION BLOCK
#MNEM UNIT       ERCB CURVE CODE    CURVE DESCRIPTION
#-----------   ------------------   ----------------------------------
DEPT.F        00 001 00 00         : DEPTH        - DEPTH
ILD .OHMM     00 120 00 00         : RESD         - DEEP RESISTIVITY (DIL)
DPHI.V/V      00 890 00 00         : PHID         - DENSITY POROSITY (SANDSTONE)
NPHI.V/V      00 330 00 00         : PHIN         - NEUTRON POROSITY (SANDSTONE)
CALI.IN       00 280 01 00         : CAL          - CALIPER
GR  .API      00 310 00 00         : GR           - GAMMA RAY
~PARAMETER INFORMATION
#MNEM.UNIT           DATA             DESCRIPTION OF MNEMONIC
#---------         -----------     ------------------------------
GL  .F        1678.48              : gl           - GROUND LEVEL ELEVATION
EREF.F        1689.96              : kb           - ELEVATION OF DEPTH REFERENCE
DATM.F        1689.96              : datum        - DATUM ELEVATION
TDD .F        756.234              : tdd          - TOTAL DEPTH DRILLER
RUN .         ONE                  : Run          - RUN NUMBER
ENG .         BILL                 : Engineer     - RECORDING ENGINEER
WIT .         JIM                  : Witness      - WITNESSED BY
MUD .         GEL                  : Mud_type     - MUD TYPE
MATR.         SANDSTONE            : Logunit      - NEUTRON MATRIX
TMAX.F        78.8                 : BHT          - MAXIMUM RECORDED TEMPERATURE
BHTD.F        756.234              : BHTDEP       - MAXIMUM RECORDED TEMPERATURE
RMT .F        47                   : MDTP         - TEMPERATURE OF MUD
MUDD.LB/G     9.25                 : MWT          - MUD DENSITY
NEUT.         1                    : NEUTRON      - NEUTRON TYPE
RESI.         0                    : RESIST       - RESISTIVITY TYPE
RM  .OHMM     3.06                 : RM           - RESISTIVITY OF MUD
RMC .OHMM     4.8                  : RMC          - RESISTIVITY OF MUD CAKE
RMF .OHMM     2.25                 : RMF          - RESISTIVITY OF MUD FILTRATE
SUFT.F        39.2                 : SUFT         - SURFACE TEMPERATURE
~A  DEPTH     RESD     PHID     PHIN      CAL       GR
  524.934    8.495    0.214    0.420    8.110   88.113
  525.755   11.253    0.221    0.409    8.109   89.568
  526.575   13.254    0.215    0.383    8.090   86.925
  527.395    9.081    0.178    0.370    8.070   88.381
  528.215    6.451    0.204    0.436    8.050   96.863
  529.035    5.105    0.232    0.478    8.088   98.026
  529.856    4.424    0.245    0.516    8.088  100.067
  530.676    4.510    0.252    0.501    8.125   93.619
  531.496    6.902    0.261    0.479    8.163   88.342
  532.316   10.663    0.260    0.445    8.144   79.551
  533.136   13.500    0.259    0.408    8.105   71.933
  533.957   15.758    0.258    0.307    8.046   62.558
  534.777   16.960    0.261    0.308    7.969   65.769
  535.597   16.081    0.297    0.330    7.930   73.373
  536.417   12.730    0.311    0.359    7.930   77.754
  537.238    9.987    0.287    0.385    7.929   80.089
  538.058    7.905    0.239    0.435    7.986   85.643
  538.878    6.430    0.234    0.442    7.986   88.563
  539.698    6.153    0.246    0.452    8.004   87.969
  540.518    8.004    0.246    0.488    8.004   86.790
  541.339   10.604    0.190    0.432    8.041   84.733
  542.159   12.046    0.179    0.402    8.022   82.384
  542.979   13.201    0.182    0.409    7.983   78.863
  543.799   15.837    0.194    0.427    7.944   74.171
  544.619   16.288    0.207    0.411    7.944   71.237
  545.440   17.370    0.156    0.388    7.962   72.399
  546.260   18.027    0.159    0.380    8.000   74.733
  547.080   19.578    0.172    0.384    8.019   75.897
  547.900   22.242    0.175    0.395    8.018   71.498
  548.720   23.093    0.113    0.347    8.018   59.780
  549.541   24.848    0.078    0.329    8.017   58.601
  550.361   28.747    0.098    0.329    8.017   64.740
  551.181   27.755    0.138    0.341    8.017   66.488
  552.001   20.440    0.118    0.280    8.035   63.846
  552.822   16.327    0.096    0.239    8.073   65.888
  553.642   14.273    0.080    0.247    8.111   76.418
  554.462   12.708    0.119    0.293    8.149   88.120
  555.282   11.943    0.164    0.409    8.282   93.088
  556.102   11.851    0.211    0.399    8.378   94.543
  556.923   11.756    0.195    0.376    8.358   92.194
  557.743   11.350    0.195    0.387    8.185   91.892
  558.563   10.668    0.265    0.397    8.031   90.420
  559.383    9.582    0.262    0.403    7.992   91.877
  560.203    9.768    0.225    0.418    8.030   93.918
  561.024   12.259    0.200    0.434    8.125   88.935
  561.844   13.072    0.171    0.377    8.182   84.829
  562.664   12.175    0.184    0.341    8.124   80.430
  563.484   11.444    0.195    0.365    8.047   81.592
  564.304   10.564    0.208    0.347    7.970   86.560
  565.125    9.928    0.258    0.369    7.950   91.528
  565.945    9.498    0.244    0.386    8.007   93.277
  566.765    9.858    0.235    0.388    8.064   98.245
  567.585   10.708    0.231    0.398    8.044   95.603
  568.406   11.315    0.220    0.374    8.005   93.838
  569.226   11.960    0.182    0.367    7.986   97.052
  570.046   12.525    0.191    0.382    8.081   96.750
  570.866   13.003    0.218    0.379    8.196   96.156
  571.686   13.134    0.236    0.394    8.234   97.906
  572.507   13.150    0.244    0.398    8.176   95.849
  573.327   13.773    0.245    0.392    8.098   93.207
  574.147   15.092    0.244    0.391    8.040   91.441
  574.967   16.991    0.229    0.398    8.059   93.775
  575.787   16.407    0.207    0.384    8.174   90.256
  576.608   15.009    0.176    0.357    8.211   73.561
  577.428   13.727    0.128    0.260    8.134   80.871
  578.248   10.770    0.104    0.304    8.306   95.207
  579.068   11.589    0.193    0.418    8.613  100.469
  579.888   11.091    0.204    0.429    8.632   98.119
  580.709   10.422    0.189    0.393    8.459   94.305
  581.529    9.796    0.189    0.383    8.285   94.882
  582.349   10.168    0.206    0.395    8.323   98.681
  583.169   11.043    0.216    0.431    8.380  101.892
  583.990   11.255    0.220    0.413    8.360  102.762
  584.810   10.112    0.206    0.382    8.264  100.999
  585.630    9.333    0.154    0.379    8.225   98.062
  586.450    8.615    0.159    0.390    8.340  100.104
  587.270    8.703    0.191    0.413    8.589  100.683
  588.091    9.196    0.192    0.440    8.646  102.724
  588.911   10.833    0.195    0.473    8.626  103.886
  589.731   12.198    0.212    0.481    8.510   99.780
  590.551   14.368    0.205    0.467    8.318   95.967
  591.371   15.744    0.187    0.415    8.029   93.324
  592.192   18.048    0.170    0.343    7.913   90.389
  593.012   19.601    0.146    0.350    7.894   89.795
  593.832   19.626    0.166    0.373    7.893   89.201
  594.652   18.776    0.176    0.388    7.912   84.218
  595.472   17.022    0.134    0.294    7.911   75.721
  596.293   15.569    0.053    0.277    7.892   78.055
  597.113   14.368    0.106    0.319    7.853   90.927
  597.933   13.144    0.188    0.369    7.852   94.724
  598.753   12.924    0.208    0.382    7.871   95.594
  599.573   13.054    0.216    0.382    7.890   97.635
  600.394   12.723    0.226    0.383    7.908  105.240
  601.214   12.737    0.209    0.392    7.946  109.036
  602.034   13.705    0.204    0.391    8.022  105.809
  602.854   14.485    0.207    0.388    8.099  102.873
  603.675   14.373    0.211    0.389    8.098  103.452
  604.495   14.002    0.193    0.391    7.944   98.466
  605.315   12.809    0.189    0.385    7.790   95.531
  606.135   11.928    0.202    0.386    7.693   96.109
  606.955   11.212    0.210    0.389    7.635   96.101
  607.776   11.327    0.195    0.385    7.865  101.655
  608.596   12.637    0.180    0.398    8.133  107.502
  609.416   13.356    0.187    0.424    8.191  104.274
  610.236   13.615    0.188    0.393    8.152   89.922
  611.056   13.508    0.172    0.348    8.074   84.645
  611.877   13.403    0.067    0.329    7.958   98.103
  612.697   12.595    0.147    0.371    7.939  103.657
  613.517   10.913    0.193    0.397    7.958  101.600
  614.337    8.796    0.225    0.404    7.976   97.200
  615.157    7.285    0.225    0.387    7.995   97.778
  615.978    5.978    0.222    0.418    7.994  105.673
  616.798    5.827    0.231    0.484    7.975  116.498
  617.618    6.270    0.235    0.514    7.916  114.733
  618.438    6.871    0.213    0.514    7.858  104.772
  619.259    8.621    0.199    0.453    7.819   99.202
  620.079   11.419    0.181    0.429    7.800   94.803
  620.899   14.329    0.185    0.434    7.799   90.403
  621.719   13.349    0.200    0.451    7.818   86.883
  622.539   12.209    0.176    0.429    7.836   82.192
  623.360   12.222    0.116    0.395    7.874   83.648
  624.180   11.908    0.107    0.386    7.893   88.323
  625.000   11.292    0.131    0.407    7.892   96.512
  625.820   10.422    0.168    0.416    7.911  100.602
  626.640   10.155    0.190    0.425    7.930  105.864
  627.461    9.718    0.186    0.491    8.006  111.417
  628.281   11.550    0.207    0.476    8.063  110.239
  629.101   13.608    0.214    0.462    8.082  111.695
  629.921   14.644    0.200    0.440    8.082  110.223
  630.741   15.902    0.164    0.397    8.043   91.771
  631.562   16.809    0.127    0.345    7.946   86.203
  632.382   16.677    0.061    0.362    7.830   88.829
  633.202   16.395    0.094    0.392    7.753   96.724
  634.022   16.119    0.216    0.386    7.714   99.643
  634.843   15.849    0.203    0.374    7.694   99.343
  635.663   15.731    0.189    0.370    7.713   96.992
  636.483   15.744    0.186    0.372    7.712   95.230
  637.303   15.620    0.207    0.382    7.712   97.564
  638.123   14.945    0.220    0.391    7.711   99.898
  638.944   14.830    0.225    0.389    7.730   99.305
  639.764   17.155    0.227    0.372    7.730   96.369
  640.584   22.115    0.215    0.365    7.729   96.653
  641.404   25.356    0.215    0.344    7.748   94.012
  642.224   29.865    0.213    0.307    7.766   79.366
  643.045   35.818    0.162    0.347    7.766   78.773
  643.865   39.980    0.092    0.363    7.746   81.692
