~VERSION INFORMATION
 VERS.                 2.0:   CWLS LOG ASCII STANDARD -VERSION 2.0
 WRAP.                  NO:   ONE LINE PER DEPTH STEP
~WELL INFORMATION BLOCK
#MNEM.UNIT           DATA                    DESCRIPTION OF MNEMONIC
#---------    -------------------            -------------------------------
# Generated from Intellog Unique Number	CS_71_72/WELL/902
WELL.         BVX PCP WANDER                 : Well_name    - WELL
LOC .         00/11-22-071-14W4/0            : Location     - LOCATION
UWI .         00/11-22-071-14W4/0            : Uwi          - UNIQUE WELL ID
ENTR.         SP                             : Entered      - ENTERED BY
SRVC.         SCHLUMBERGER                   : Scn          - SERVICE COMPANY
STRT.M        335.28                         : top_depth    - START DEPTH
STOP.M        535.28                         : bot_depth    - STOP DEPTH
STEP.M        0.25                           : increment    - STEP LENGTH
 NULL. -999.2500:NULL Value
~CURVE INFORMATION BLOCK
#MNEM UNIT       ERCB CURVE CODE    CURVE DESCRIPTION
#-----------   ------------------   ----------------------------------
DEPT.M        00 001 00 00         : DEPTH        - DEPTH
GR  .API      00 310 00 00         : GR           - GAMMA RAY
DPHI.V/V      00 890 00 00         : PHID         - DENSITY POROSITY (SANDSTONE)
NPHI.V/V      00 330 00 00         : PHIN         - NEUTRON POROSITY (SANDSTONE)
ILD .OHMM     00 120 00 00         : RESD         - DEEP RESISTIVITY (DIL)
~PARAMETER INFORMATION
#MNEM.UNIT           DATA             DESCRIPTION OF MNEMONIC
#---------         -----------     ------------------------------
GL  .M        646.176              : gl           - GROUND LEVEL ELEVATION
EREF.M        649.224              : kb           - ELEVATION OF DEPTH REFERENCE
DATM.M        646.176              : datum        - DATUM ELEVATION
TDD .M        543.154              : tdd          - TOTAL DEPTH DRILLER
RUN .         ONE                  : Run          - RUN NUMBER
ENG .         BILL                 : Engineer     - RECORDING ENGINEER
WIT .         JIM                  : Witness      - WITNESSED BY
MUD .         GEL                  : Mud_type     - MUD TYPE
MATR.         SANDSTONE            : Logunit      - NEUTRON MATRIX
TMAX.C        25                   : BHT          - MAXIMUM RECORDED TEMPERATURE
BHTD.M        543.154              : BHTDEP       - MAXIMUM RECORDED TEMPERATURE
MATR.         1                    : LOGUNIT      - NEUTRON MATRIX
RMT .C        25                   : MDTP         - TEMPERATURE OF MUD
NEUT.         1                    : NEUTRON      - NEUTRON TYPE
RESI.         0                    : RESIST       - RESISTIVITY TYPE
RMC .OHMM     0.25                 : RMC          - RESISTIVITY OF MUD CAKE
RMF .OHMM     0.25                 : RMF          - RESISTIVITY OF MUD FILTRATE
SUFT.C        15                   : SUFT         - SURFACE TEMPERATURE
~A  DEPTH       GR     PHID     PHIN     RESD
# ...
  422.280   90.582    0.261    0.630    3.427
  422.530   89.087    0.274    0.655    3.396
  422.780   87.149    0.274    0.656    3.283
  423.030   90.902    0.271    0.635    3.158
  423.280   93.504    0.269    0.627    3.176
  423.530   91.364    0.265    0.648    3.489
  423.780   90.248    0.258    0.641    4.011
  424.030   88.556    0.254    0.588    4.498
  424.280   79.033    0.278    0.545    4.955
  424.530   80.290    0.297    0.563    5.245
  424.780   79.101    0.314    0.571    5.469
  425.030   76.897    0.334    0.568    5.647
  425.280   73.504    0.345    0.557    5.741
  425.530   70.863    0.344    0.570    5.751
  425.780   68.457    0.324    0.594    5.700
  426.030   67.817    0.328    0.528    5.647
  426.280   68.653    0.303    0.494    5.622
  426.530   70.447    0.300    0.515    5.605
  426.780   72.704    0.285    0.485    5.596
  427.030   78.106    0.279    0.565    5.577
  427.280   76.447    0.287    0.551    5.551
  427.530   75.582    0.297    0.551    5.546
  427.780   77.777    0.297    0.541    5.552
  428.030   80.518    0.299    0.523    5.583
  428.280   86.918    0.268    0.504    5.631
  428.530   89.760    0.232    0.536    5.682
  428.780   89.838    0.217    0.527    5.728
  429.030   87.799    0.219    0.518    5.749
  429.280   86.841    0.231    0.559    5.751
  429.530   87.709    0.243    0.544    5.759
  429.780   88.666    0.248    0.525    5.756
  430.030   88.719    0.242    0.526    5.806
  430.280   87.717    0.241    0.536    5.846
  430.530   86.832    0.244    0.510    5.876
  430.780   84.580    0.255    0.473    5.992
  431.030   81.002    0.234    0.563    6.088
  431.280   79.031    0.256    0.552    6.254
  431.530   77.485    0.251    0.503    6.292
  431.780   77.281    0.254    0.478    6.211
  432.030   78.642    0.269    0.473    6.108
  432.280   78.680    0.264    0.492    6.130
  432.530   74.588    0.242    0.528    6.587
  432.780   68.473    0.163    0.513    7.484
  433.030   65.748    0.104    0.393    8.297
  433.280   60.808    0.087    0.292    8.931
  433.530   65.083    0.135    0.314    9.856
  433.780   71.676    0.221    0.400    9.021
  434.030   77.520    0.299    0.552    7.772
  434.280   80.611    0.294    0.534    6.896
  434.530   80.663    0.279    0.516    6.262
  434.780   81.522    0.266    0.531    5.892
  435.030   82.982    0.260    0.548    5.826
  435.280   83.994    0.267    0.555    5.820
  435.530   84.796    0.275    0.560    5.848
  435.780   83.230    0.267    0.557    5.869
  436.030   81.477    0.258    0.562    5.889
  436.280   82.184    0.251    0.544    5.902
  436.530   84.576    0.249    0.531    5.904
  436.780   86.023    0.256    0.531    5.905
  437.030   87.353    0.250    0.542    5.887
  437.280   87.360    0.247    0.531    5.847
  437.530   87.391    0.254    0.543    5.757
  437.780   87.498    0.248    0.563    5.668
  438.030   87.166    0.254    0.551    5.627
  438.280   85.793    0.255    0.535    5.552
  438.530   84.515    0.248    0.533    5.495
  438.780   84.664    0.236    0.544    5.450
  439.030   85.307    0.232    0.560    5.446
  439.280   86.566    0.233    0.552    5.538
  439.530   86.541    0.220    0.545    5.697
  439.780   81.398    0.212    0.566    5.912
  440.030   74.906    0.199    0.538    6.032
  440.280   74.921    0.205    0.491    6.033
  440.530   75.671    0.244    0.503    5.972
  440.780   75.885    0.254    0.506    5.860
  441.030   77.334    0.265    0.497    5.726
  441.280   79.272    0.278    0.527    5.648
  441.530   81.339    0.270    0.509    5.599
  441.780   82.903    0.271    0.496    5.736
  442.030   83.283    0.258    0.511    5.725
  442.280   81.353    0.269    0.533    5.688
  442.530   80.266    0.279    0.539    5.550
  442.780   83.935    0.284    0.521    5.274
  443.030   85.187    0.276    0.516    4.795
  443.280   87.539    0.271    0.519    4.208
  443.530   91.979    0.287    0.505    3.695
  443.780   94.581    0.280    0.526    3.125
  444.030   97.458    0.261    0.623    2.613
  444.280  101.878    0.269    0.729    2.271
  444.530  102.648    0.291    0.696    2.004
  444.780  100.594    0.282    0.694    1.961
  445.030   98.803    0.273    0.715    2.227
  445.280   96.313    0.277    0.694    2.581
  445.530   95.572    0.270    0.634    2.971
  445.780   96.314    0.260    0.595    3.353
  446.030   95.948    0.265    0.562    3.794
  446.280   90.672    0.263    0.542    4.203
  446.530   87.583    0.263    0.553    4.504
  446.780   89.907    0.261    0.544    4.733
  447.030   92.256    0.250    0.536    4.834
  447.280   93.053    0.262    0.569    4.754
  447.530   92.929    0.248    0.553    4.631
  447.780   92.070    0.254    0.533    4.535
  448.030   90.296    0.246    0.510    4.537
  448.280   88.989    0.256    0.509    4.634
  448.530   86.553    0.249    0.536    4.838
  448.780   75.606    0.245    0.548    5.256
  449.030   71.630    0.232    0.528    5.689
  449.280   68.162    0.196    0.353    6.061
  449.530   69.425    0.150    0.463    6.299
  449.780   72.913    0.219    0.552    6.276
  450.030   76.217    0.284    0.579    5.593
  450.280   77.797    0.300    0.589    4.926
  450.530   78.704    0.299    0.592    4.557
  450.780   78.065    0.302    0.570    4.425
  451.030   77.400    0.288    0.549    4.464
  451.280   75.934    0.253    0.534    4.670
  451.530   71.374    0.256    0.507    4.671
  451.780   68.067    0.309    0.516    4.479
  452.030   64.937    0.323    0.481    4.168
  452.280   60.480    0.335    0.449    3.990
  452.530   55.620    0.334    0.385    4.024
  452.780   53.066    0.225    0.278    4.330
  453.030   50.289    0.169    0.219    5.486
  453.280   47.538    0.048    0.185    7.796
  453.530   46.092    0.041    0.165   10.311
  453.780   47.802    0.034    0.155   12.077
  454.030   50.009    0.039    0.153   13.334
  454.280   52.728    0.105    0.168   13.364
  454.530   56.013    0.145    0.227   10.635
  454.780   60.223    0.210    0.373    8.329
  455.030   62.838    0.274    0.483    6.333
  455.280   63.317    0.326    0.521    4.936
  455.530   61.616    0.300    0.494    4.204
  455.780   66.155    0.299    0.476    3.857
  456.030   69.151    0.345    0.502    3.744
  456.280   68.633    0.349    0.528    3.919
  456.530   67.075    0.326    0.525    4.078
  456.780   72.587    0.295    0.498    4.131
  457.030   76.114    0.274    0.485    4.178
  457.280   79.245    0.260    0.486    4.220
  457.530   81.211    0.247    0.490    4.221
  457.780   82.986    0.237    0.501    4.215
  458.030   83.079    0.231    0.513    4.200
  458.280   82.365    0.234    0.519    4.211
  458.530   81.947    0.239    0.543    4.195
  458.780   83.512    0.253    0.567    4.193
  459.030   82.997    0.249    0.553    4.184
  459.280   81.362    0.247    0.542    4.162
  459.530   80.817    0.270    0.565    4.153
  459.780   79.461    0.303    0.571    4.142
  460.030   78.701    0.307    0.556    4.135
  460.280   79.294    0.305    0.546    4.137
  460.530   79.963    0.314    0.559    4.153
  460.780   79.644    0.307    0.559    4.136
  461.030   77.695    0.311    0.535    4.165
  461.280   76.712    0.301    0.520    4.370
  461.530   76.960    0.283    0.517    4.489
  461.780   75.657    0.267    0.529    4.672
  462.030   74.174    0.246    0.511    4.764
  462.280   79.411    0.233    0.493    4.628
  462.530   84.299    0.238    0.482    4.377
  462.780   85.017    0.257    0.485    4.113
  463.030   87.052    0.252    0.517    4.127
  463.280   88.901    0.242    0.553    4.063
  463.530   91.673    0.254    0.571    4.117
  463.780   90.294    0.234    0.581    4.226
  464.030   90.017    0.239    0.556    4.354
  464.280   90.087    0.256    0.551    4.415
  464.530   91.342    0.257    0.549    4.411
  464.780   93.850    0.246    0.586    4.336
  465.030   93.475    0.232    0.614    4.289
  465.280   93.038    0.224    0.566    4.274
  465.530   91.835    0.244    0.551    4.256
