~VERSION INFORMATION
 VERS.                 2.0:   CWLS LOG ASCII STANDARD -VERSION 2.0
 WRAP.                  NO:   ONE LINE PER DEPTH STEP
~WELL INFORMATION BLOCK
#MNEM.UNIT           DATA                    DESCRIPTION OF MNEMONIC
#---------    -------------------            -------------------------------
# Generated from Intellog Unique Number	CS_67_68/WELL/818
WELL.         AMOCO CANADA PETROLEUM         : Well_name    - WELL
LOC .         00/11-03-068-18W4/0            : Location     - LOCATION
UWI .         00/11-03-068-18W4/0            : Uwi          - UNIQUE WELL ID
ENTR.         SP                             : Entered      - ENTERED BY
SRVC.         SCHLUMBERGER                   : Scn          - SERVICE COMPANY
STRT.M        289.560                        : top_depth    - START DEPTH
STOP.M        502.560                        : bot_depth    - STOP DEPTH
STEP.M        0.25                           : increment    - STEP LENGTH
 NULL. -999.2500:NULL Value
~CURVE INFORMATION BLOCK
#MNEM UNIT       ERCB CURVE CODE    CURVE DESCRIPTION
#-----------   ------------------   ----------------------------------
DEPT.M        00 001 00 00         : DEPTH        - DEPTH
GR  .API      00 310 00 00         : GR           - GAMMA RAY
DPHI.V/V      00 890 00 00         : PHID         - DENSITY POROSITY (SANDSTONE)
NPHI.V/V      00 330 00 00         : PHIN         - NEUTRON POROSITY (SANDSTONE)
ILD .OHMM     00 120 00 00         : RESD         - DEEP RESISTIVITY (DIL)
~PARAMETER INFORMATION
#MNEM.UNIT           DATA             DESCRIPTION OF MNEMONIC
#---------         -----------     ------------------------------
GL  .M        556.992              : gl           - GROUND LEVEL ELEVATION
EREF.M        561.137              : kb           - ELEVATION OF DEPTH REFERENCE
DATM.M        556.992              : datum        - DATUM ELEVATION
TDD .M        519.989              : tdd          - TOTAL DEPTH DRILLER
RUN .         ONE                  : Run          - RUN NUMBER
ENG .         BILL                 : Engineer     - RECORDING ENGINEER
WIT .         JIM                  : Witness      - WITNESSED BY
MUD .         GEL                  : Mud_type     - MUD TYPE
MATR.         SANDSTONE            : Logunit      - NEUTRON MATRIX
TMAX.C        31.6667              : BHT          - MAXIMUM RECORDED TEMPERATURE
BHTD.M        519.989              : BHTDEP       - MAXIMUM RECORDED TEMPERATURE
MATR.         1                    : LOGUNIT      - NEUTRON MATRIX
RMT .C        25                   : MDTP         - TEMPERATURE OF MUD
NEUT.         1                    : NEUTRON      - NEUTRON TYPE
RESI.         0                    : RESIST       - RESISTIVITY TYPE
RMC .OHMM     0.25                 : RMC          - RESISTIVITY OF MUD CAKE
RMF .OHMM     0.25                 : RMF          - RESISTIVITY OF MUD FILTRATE
SUFT.C        15                   : SUFT         - SURFACE TEMPERATURE
~A  DEPTH       GR     PHID     PHIN     RESD
# ...
  463.560   81.156    0.125    0.306    5.747
  463.810   85.546    0.113    0.319    5.388
  464.060   86.808    0.158    0.338    5.236
  464.310   87.122    0.172    0.358    5.261
  464.560   88.566    0.158    0.388    5.352
  464.810   91.362    0.150    0.378    5.416
  465.060   92.948    0.150    0.370    5.487
  465.310   92.767    0.172    0.377    5.522
  465.560   92.059    0.174    0.383    5.578
  465.810   90.582    0.172    0.386    5.591
  466.060   90.398    0.170    0.389    5.202
  466.310   90.606    0.180    0.385    5.224
  466.560   90.772    0.188    0.380    5.215
  466.810   90.971    0.198    0.386    5.182
  467.060   90.853    0.181    0.395    5.186
  467.310   90.215    0.167    0.403    5.210
  467.560   89.555    0.168    0.410    5.327
  467.810   87.660    0.174    0.411    5.370
  468.060   89.300    0.166    0.403    5.399
  468.310   91.908    0.179    0.401    5.407
  468.560   94.248    0.190    0.392    5.412
  468.810   95.004    0.170    0.379    5.430
  469.060   95.069    0.171    0.364    5.440
  469.310   92.342    0.184    0.366    5.445
  469.560   86.987    0.196    0.376    5.428
  469.810   83.588    0.176    0.393    5.394
  470.060   81.016    0.165    0.400    5.345
  470.310   78.345    0.160    0.394    5.199
  470.560   79.581    0.156    0.390    4.854
  470.810   88.850    0.192    0.390    4.095
  471.060   94.466    0.221    0.408    3.650
  471.310   98.348    0.202    0.441    3.081
  471.560   97.880    0.183    0.467    2.598
  471.810   96.463    0.198    0.484    2.395
  472.060   94.396    0.195    0.492    2.251
  472.310   93.140    0.195    0.484    2.451
  472.560   91.285    0.196    0.467    2.627
  472.810   87.016    0.180    0.435    2.953
  473.060   83.683    0.163    0.405    3.588
  473.310   83.056    0.148    0.407    3.961
  473.560   81.660    0.162    0.414    4.577
  473.810   80.647    0.171    0.408    5.172
  474.060   79.371    0.154    0.392    5.773
  474.310   77.058    0.155    0.384    6.318
  474.560   75.830    0.170    0.369    7.208
  474.810   72.928    0.158    0.332    7.832
  475.060   72.794    0.134    0.309    8.843
  475.310   83.263    0.109    0.304    7.949
  475.560   90.214    0.081    0.329    6.819
  475.810   93.301    0.115    0.352    6.142
  476.060   95.031    0.168    0.372    5.208
  476.310   95.053    0.181    0.391    4.787
  476.560   94.436    0.169    0.401    4.415
  476.810   93.341    0.167    0.411    4.191
  477.060   93.594    0.165    0.416    4.065
  477.310   96.603    0.156    0.420    3.957
  477.560   98.814    0.159    0.431    3.918
  477.810   99.847    0.161    0.447    3.870
  478.060   99.624    0.160    0.458    3.818
  478.310   98.403    0.167    0.446    3.749
  478.560   97.045    0.152    0.435    3.670
  478.810   93.627    0.140    0.428    3.606
  479.060   91.719    0.128    0.424    3.561
  479.310   94.597    0.161    0.414    3.504
  479.560   98.933    0.156    0.424    3.464
  479.810  103.710    0.152    0.435    3.439
  480.060  105.057    0.150    0.447    3.479
  480.310  103.167    0.150    0.453    3.517
  480.560  100.892    0.162    0.447    3.511
  480.810   99.793    0.148    0.439    3.370
  481.060  100.613    0.172    0.429    3.467
  481.310  100.651    0.172    0.422    3.667
  481.560   99.907    0.153    0.414    3.836
  481.810   98.438    0.142    0.411    3.929
  482.060   97.419    0.146    0.414    3.961
  482.310   96.936    0.186    0.425    3.957
  482.560   96.317    0.179    0.423    3.900
  482.810   93.497    0.164    0.417    3.832
  483.060   92.555    0.171    0.418    3.731
  483.310   92.188    0.158    0.408    3.616
  483.560   95.176    0.172    0.425    3.365
  483.810   98.621    0.199    0.445    3.115
  484.060   93.200    0.194    0.466    2.976
  484.310   87.016    0.181    0.448    3.577
  484.560   79.590    0.154    0.428    4.880
  484.810   69.031    0.110    0.399    6.523
  485.060   63.119    0.076    0.295    7.907
  485.310   62.493    0.055    0.286    9.243
  485.560   63.236    0.167    0.303   10.122
  485.810   63.337    0.200    0.315   10.146
  486.060   61.324    0.214    0.301    9.464
  486.310   58.667    0.198    0.289    8.787
  486.560   57.103    0.188    0.281    8.602
  486.810   56.559    0.209    0.275    9.064
  487.060   56.547    0.228    0.274    9.502
  487.310   57.480    0.239    0.281   10.019
  487.560   58.011    0.230    0.287   10.514
  487.810   58.309    0.216    0.292   11.437
  488.060   59.295    0.209    0.300   11.866
  488.310   62.302    0.201    0.311   12.262
  488.560   62.505    0.193    0.324   12.593
  488.810   62.522    0.192    0.323   12.984
  489.060   62.975    0.197    0.332   13.354
  489.310   65.265    0.199    0.344   13.618
  489.560   68.293    0.202    0.352   13.255
  489.810   71.714    0.215    0.334   12.452
  490.060   76.462    0.195    0.315   11.387
  490.310   81.360    0.172    0.305   10.553
  490.560   85.941    0.159    0.295    9.510
  490.810   87.885    0.147    0.310    8.693
  491.060   85.811    0.170    0.326    7.952
  491.310   83.934    0.186    0.349    7.431
  491.560   88.132    0.201    0.344    7.205
  491.810   92.773    0.216    0.338    6.968
  492.060   94.289    0.228    0.331    6.752
  492.310   92.994    0.218    0.325    6.448
  492.560   90.741    0.221    0.336    6.129
  492.810   88.848    0.223    0.354    5.868
  493.060   87.566    0.221    0.371    5.439
  493.310   86.924    0.240    0.376    5.155
  493.560   86.893    0.271    0.370    4.839
  493.810   88.995    0.298    0.360    4.458
  494.060   88.010    0.283    0.351    4.152
  494.310   85.582    0.274    0.347    3.874
  494.560   86.918    0.265    0.345    3.654
  494.810   89.169    0.253    0.328    3.544
  495.060   89.742    0.215    0.317    3.513
  495.310   87.553    0.168    0.303    3.577
  495.560   81.951    0.178    0.317    3.991
  495.810   74.753    0.227    0.328    4.863
  496.060   68.558    0.168    0.336    5.712
  496.310   60.561    0.083    0.341    6.810
  496.560   46.399    0.064    0.352    8.277
  496.810   26.710    0.123    0.343    9.863
  497.060   20.884    0.165    0.328   10.617
  497.310   19.151    0.188    0.311    9.695
  497.560   23.175    0.160    0.293    8.946
  497.810   25.229    0.121    0.289    8.087
  498.060   24.945    0.084    0.308    7.425
  498.310   24.647    0.105    0.317    6.805
  498.560   24.309    0.093    0.309    6.383
  498.810   23.995    0.070    0.324    7.165
  499.060   22.948    0.117    0.340    7.866
  499.310   22.239    0.133    0.330    8.663
  499.560   21.679    0.114    0.271    9.567
  499.810   21.512    0.093    0.259   10.586
  500.060   21.411    0.072    0.282   11.364
  500.310   21.332    0.081    0.293   12.031
  500.560   21.283    0.077    0.279   12.576
  500.810   21.383    0.059    0.270   12.565
  501.060   21.684    0.042    0.265   12.233
  501.310   22.138    0.020    0.259   11.750
  501.560   22.987    0.004    0.251   11.057
  501.810   23.902    0.017    0.240   10.310
  502.060   25.530    0.015    0.248    9.408
  502.310   27.205    0.031    0.263    8.287
  502.560   28.802    0.044    0.264    7.433
