~VERSION INFORMATION
 VERS.                 2.0:   CWLS LOG ASCII STANDARD -VERSION 2.0
 WRAP.                  NO:   ONE LINE PER DEPTH STEP
~WELL INFORMATION BLOCK
#MNEM.UNIT           DATA                    DESCRIPTION OF MNEMONIC
#---------    -------------------            -------------------------------
# Generated from Intellog Unique Number	nealta/WELL/2359
WELL.         HB MARTEN HILLS 10-34          : Well_name    - WELL              
LOC .         10-34-074-01W5                 : Location     - LOCATION          
UWI .         00/10-34-074-01W5/0            : Uwi          - UNIQUE WELL ID    
ENTR.         JAYE                           : Entered      - ENTERED BY        
SRVC.         SCHLUMBERGER                   : Scn          - SERVICE COMPANY   
DATE.         27 MAR 74                      : Date         - LOG DATE          
STRT.M        454.152                        : top_depth    - START DEPTH       
STOP.M        655.402                        : bot_depth    - STOP DEPTH        
STEP.M        0.25                           : increment    - STEP LENGTH       
NULL.         -999.250                       : null         - NULL VALUE       
~CURVE INFORMATION BLOCK
#MNEM UNIT       ERCB CURVE CODE    CURVE DESCRIPTION
#-----------   ------------------   ----------------------------------
DEPT.M        00 001 00 00         : DEPTH        - DEPTH                       
DPHI.V/V      00 890 00 00         : PHID         - DENSITY POROSITY (SANDSTONE)
CALI.MM       00 280 01 00         : CAL          - CALIPER                     
GR  .API      00 310 00 00         : GR           - GAMMA RAY                   
ILD .OHMM     00 120 00 00         : RESD         - DEEP RESISTIVITY (DIL)      
NPHI.V/V      00 330 00 00         : PHIN         - NEUTRON POROSITY (SANDSTONE)
~PARAMETER INFORMATION       
#MNEM.UNIT           DATA             DESCRIPTION OF MNEMONIC
#---------         -----------     ------------------------------
GL  .M        721.766              : gl           - GROUND LEVEL ELEVATION      
EREF.M        725.119              : kb           - ELEVATION OF DEPTH REFERENCE
DATM.M        721.766              : datum        - DATUM ELEVATION             
TDD .M        685.8                : tdd          - TOTAL DEPTH DRILLER         
RUN .         ONE                  : Run          - RUN NUMBER                  
ENG .         SIROIS/SMILEY        : Engineer     - RECORDING ENGINEER          
WIT .         FILLO/JASTER         : Witness      - WITNESSED BY                
BASE.         EDM                  : Branch       - HOME BASE OF LOGGING UNIT   
MUD .         GEL CHEM             : Mud_type     - MUD TYPE                    
MATR.         SANDSTONE            : Logunit      - NEUTRON MATRIX              
TMAX.C        26.6667              : BHT          - MAXIMUM RECORDED TEMPERATURE
BHTD.M        685.8                : BHTDEP       - MAXIMUM RECORDED TEMPERATURE
RMT .C        -12.3889             : MDTP         - TEMPERATURE OF MUD          
MUDD.KG/M     7800                 : MWT          - MUD DENSITY                 
NEUT.         1                    : NEUTRON      - NEUTRON TYPE                
RESI.         0                    : RESIST       - RESISTIVITY TYPE            
RM  .OHMM     4.1                  : RM           - RESISTIVITY OF MUD          
RMC .OHMM     2.5                  : RMC          - RESISTIVITY OF MUD CAKE     
RMF .OHMM     2.13                 : RMF          - RESISTIVITY OF MUD FILTRATE 
SUFT.C        -17.7778             : SUFT         - SURFACE TEMPERATURE         
~A  DEPTH     PHID      CAL       GR     RESD     PHIN
# ...
  563.652    0.257  204.619   61.318    4.493    0.446
  563.902    0.249  204.373   61.108    4.586    0.460
  564.152    0.236  204.128   59.117    4.768    0.474
  564.402    0.223  203.764   56.582    4.912    0.466
  564.652    0.233  203.732   55.817    5.419    0.458
  564.902    0.249  203.683   56.838    6.169    0.451
  565.152    0.242  203.336   59.757    6.830    0.422
  565.402    0.230  203.088   62.316    7.207    0.410
  565.652    0.233  202.943   64.072    7.343    0.436
  565.902    0.224  202.799   65.335    7.090    0.439
  566.152    0.196  202.752   65.006    6.733    0.376
  566.402    0.174  202.818   62.458    6.162    0.359
  566.652    0.184  202.876   60.409    5.786    0.375
  566.902    0.214  203.349   63.028    5.227    0.379
  567.152    0.217  204.355   66.625    4.757    0.394
  567.402    0.212  204.621   67.028    4.410    0.425
  567.652    0.216  205.302   65.224    4.211    0.419
  567.902    0.206  206.615   64.771    3.999    0.416
  568.152    0.200  207.611   67.323    3.798    0.438
  568.402    0.215  208.934   71.846    3.620    0.470
  568.652    0.227  209.099   73.663    3.495    0.472
  568.902    0.218  209.050   74.682    3.394    0.482
  569.152    0.208  208.596   72.756    3.289    0.473
  569.402    0.205  208.247   72.239    3.289    0.466
  569.652    0.192  207.790   76.576    3.308    0.464
  569.902    0.185  207.532   78.639    3.358    0.480
  570.152    0.204  207.489   77.016    3.434    0.489
  570.402    0.199  207.659   73.982    3.505    0.495
  570.652    0.199  208.546   74.880    3.584    0.486
  570.902    0.191  209.237   77.495    3.699    0.463
  571.152    0.171  209.609   75.816    3.782    0.447
  571.402    0.186  209.677   76.403    3.889    0.462
  571.652    0.189  209.635   80.185    3.925    0.417
  571.902    0.169  210.208   82.004    3.883    0.417
  572.152    0.170  211.319   81.612    3.798    0.431
  572.402    0.183  212.842   81.893    3.742    0.443
  572.652    0.178  213.218   84.941    3.708    0.467
  572.902    0.158  213.579   85.901    3.654    0.480
  573.152    0.181  213.648   83.971    3.628    0.455
  573.402    0.189  213.608   85.296    3.588    0.429
  573.652    0.169  213.578   86.442    3.602    0.424
  573.902    0.161  213.636   84.082    3.616    0.433
  574.152    0.160  213.591   82.335    3.677    0.474
  574.402    0.156  213.645   85.507    3.760    0.489
  574.652    0.124  213.613   86.525    3.837    0.450
  574.902    0.133  213.561   87.300    4.057    0.431
  575.152    0.137  213.209   89.611    4.321    0.403
  575.402    0.144  212.857   92.964    4.526    0.408
  575.652    0.145  212.911   93.123    4.628    0.431
  575.902    0.151  212.977   86.893    4.689    0.402
  576.152    0.118  213.044   86.071    4.751    0.379
  576.402    0.121  213.102   87.948    4.760    0.403
  576.652    0.146  212.955   90.816    4.743    0.430
  576.902    0.142  213.020   89.746    4.682    0.448
  577.152    0.148  212.989   88.182    4.589    0.427
  577.402    0.160  213.036   86.257    4.538    0.435
  577.652    0.164  212.697   84.509    4.505    0.423
  577.902    0.142  212.434   83.133    4.506    0.419
  578.152    0.133  212.081   85.441    4.548    0.444
  578.402    0.130  211.625   87.077    4.600    0.455
  578.652    0.140  211.177   85.704    4.686    0.416
  578.902    0.124  210.914   85.614    4.748    0.400
  579.152    0.110  210.360   87.194    4.846    0.403
  579.402    0.122  209.894   88.206    4.937    0.422
  579.652    0.139  209.747   88.735    5.011    0.428
  579.902    0.134  209.713   88.896    5.143    0.426
  580.152    0.125  209.877   90.041    5.457    0.404
  580.402    0.117  209.934   90.689    5.888    0.389
  580.652    0.132  210.103   88.763    6.376    0.399
  580.902    0.141  209.854   85.969    7.687    0.407
  581.152    0.142  209.083   77.959    7.919    0.397
  581.402    0.118  207.898   72.041    7.618    0.345
  581.652    0.070  207.228   73.120    7.261    0.313
  581.902    0.073  206.357   78.623    6.832    0.371
  582.152    0.104  205.483   85.723    6.404    0.395
  582.402    0.143  204.821   87.848    5.753    0.428
  582.652    0.149  204.055   87.028    5.018    0.447
  582.902    0.157  203.596   85.777    4.765    0.465
  583.152    0.168  203.341   86.299    4.653    0.467
  583.402    0.150  202.884   88.246    4.602    0.471
  583.652    0.157  202.631   89.383    4.585    0.477
  583.902    0.171  202.382   89.298    4.594    0.441
  584.152    0.170  202.255   93.941    4.603    0.462
  584.402    0.153  202.102   97.484    4.595    0.483
  584.652    0.146  202.153   97.270    4.596    0.466
  584.902    0.157  202.119   94.547    4.613    0.455
  585.152    0.164  201.966   93.168    4.623    0.464
  585.402    0.171  202.029   95.172    4.657    0.461
  585.652    0.163  201.882   96.006    4.701    0.441
  585.902    0.170  201.740   93.281    4.737    0.431
  586.152    0.155  201.807   93.192    4.790    0.444
  586.402    0.149  201.562   94.702    4.862    0.450
  586.652    0.121  201.296   97.503    4.935    0.449
  586.902    0.132  201.368   93.731    5.028    0.433
  587.152    0.149  201.524   90.513    5.132    0.438
  587.402    0.142  201.590   89.689    5.228    0.418
  587.652    0.139  201.858   89.668    5.277    0.390
  587.902    0.114  202.544   84.541    5.278    0.406
  588.152    0.122  203.344   86.359    5.240    0.433
  588.402    0.145  203.922   94.873    5.144    0.438
  588.652    0.160  204.193   91.532    5.041    0.437
  588.902    0.141  204.363   86.961    4.968    0.441
  589.152    0.130  204.519   84.112    4.886    0.446
  589.402    0.134  205.935   86.298    4.824    0.453
  589.652    0.140  208.502   93.829    4.762    0.471
  589.902    0.133  210.744   92.698    4.737    0.478
  590.152    0.134  212.164   87.455    4.720    0.458
  590.402    0.138  212.434   86.690    4.729    0.428
  590.652    0.128  212.388   88.878    4.773    0.413
  590.902    0.132  212.345   85.166    4.945    0.428
  591.152    0.146  212.308   90.059    5.084    0.421
  591.402    0.155  211.739   84.074    5.415    0.447
  591.652    0.163  210.969   79.198    5.672    0.476
  591.902    0.181  209.367   75.977    6.304    0.488
  592.152    0.191  207.557   78.411    7.150    0.459
  592.402    0.203  206.370   77.157    7.975    0.435
  592.652    0.188  205.717   72.341    8.716    0.415
  592.902    0.191  205.561   65.926    9.215    0.397
  593.152    0.172  205.411   56.996    9.563    0.415
  593.402    0.183  205.182   54.452    9.944    0.441
  593.652    0.209  205.027   56.701   10.281    0.440
  593.902    0.197  205.192   58.579   10.749    0.422
  594.152    0.196  205.666   62.303   11.280    0.418
  594.402    0.188  206.670   60.989   11.903    0.416
  594.652    0.169  207.245   59.862   12.331    0.412
  594.902    0.178  206.783   59.771   12.539    0.407
  595.152    0.194  204.870   59.934   12.540    0.405
  595.402    0.204  203.998   60.031   12.426    0.406
  595.652    0.210  203.652   59.758   12.223    0.415
  595.902    0.216  203.914   59.431   11.868    0.433
  596.152    0.211  204.287   58.481   11.544    0.429
  596.402    0.208  204.777   56.800   11.105    0.422
  596.652    0.209  205.147   55.422   10.644    0.419
  596.902    0.204  205.722   54.908   10.164    0.423
  597.152    0.197  206.832   58.568    9.869    0.420
  597.402    0.195  207.199   64.254    9.653    0.437
  597.652    0.186  208.092   67.855    9.460    0.410
  597.902    0.187  209.721   69.856    9.322    0.394
  598.152    0.178  210.726   65.841    9.169    0.387
  598.402    0.159  210.778   63.541    8.986    0.406
  598.652    0.138  210.532   64.747    8.838    0.380
  598.902    0.138  210.186   66.444    8.613    0.361
  599.152    0.155  209.724   66.358    8.286    0.377
  599.402    0.178  209.154   63.811    7.956    0.409
  599.652    0.203  208.706   63.545    7.556    0.421
  599.902    0.217  208.970   66.651    6.979    0.470
