~VERSION INFORMATION
 VERS.                 2.0:   CWLS LOG ASCII STANDARD -VERSION 2.0
 WRAP.                  NO:   ONE LINE PER DEPTH STEP
~WELL INFORMATION BLOCK
#MNEM.UNIT           DATA                    DESCRIPTION OF MNEMONIC
#---------    -------------------            -------------------------------
# Generated from Intellog Unique Number	CW_70_72/WELL/1070
NULL.         -999.25                        : NULL_VALUE
WELL.         CNW PETER 15-13                : Well_name    - WELL              
LOC .         15-13-072-01W5                 : Location     - LOCATION          
UWI .         00/15-13-072-01W5/0            : Uwi          - UNIQUE WELL ID    
ENTR.         JAYE                           : Entered      - ENTERED BY        
SRVC.         COMPUTALOG                     : Scn          - SERVICE COMPANY   
DATE.         5 DEC 88                       : Date         - LOG DATE          
STRT.M        415                            : top_depth    - START DEPTH       
STOP.M        650                            : bot_depth    - STOP DEPTH        
STEP.M        0.25                           : increment    - STEP LENGTH       
~CURVE INFORMATION BLOCK
#MNEM UNIT       ERCB CURVE CODE    CURVE DESCRIPTION
#-----------   ------------------   ----------------------------------
DEPT.M        00 001 00 00         : DEPTH        - DEPTH                       
DPHI.V/V      00 890 00 00         : PHID         - DENSITY POROSITY (SANDSTONE)
NPHI.V/V      00 330 00 00         : PHIN         - NEUTRON POROSITY (SANDSTONE)
GR  .API      00 310 00 00         : GR           - GAMMA RAY                   
CALI.MM       00 280 01 00         : CAL          - CALIPER                     
ILD .OHMM     00 120 00 00         : RESD         - DEEP RESISTIVITY (DIL)      
~PARAMETER INFORMATION       
#MNEM.UNIT           DATA             DESCRIPTION OF MNEMONIC
#---------         -----------     ------------------------------
GL  .M        631.9                : gl           - GROUND LEVEL ELEVATION      
EREF.M        636.2                : kb           - ELEVATION OF DEPTH REFERENCE
DATM.M        631.9                : datum        - DATUM ELEVATION             
TDD .M        667                  : tdd          - TOTAL DEPTH DRILLER         
RUN .         ONE                  : Run          - RUN NUMBER                  
ENG .         HOMER                : Engineer     - RECORDING ENGINEER          
WIT .         TOPIC                : Witness      - WITNESSED BY                
BASE.         EDM                  : Branch       - HOME BASE OF LOGGING UNIT   
MUD .         GEL CHEM             : Mud_type     - MUD TYPE                    
MATR.         SANDSTONE            : Logunit      - NEUTRON MATRIX              
TMAX.C        30                   : BHT          - MAXIMUM RECORDED TEMPERATURE
BHTD.M        667                  : BHTDEP       - MAXIMUM RECORDED TEMPERATURE
RMT .C        17                   : MDTP         - TEMPERATURE OF MUD          
MUDD.KG/M     1180                 : MWT          - MUD DENSITY                 
NEUT.         1                    : NEUTRON      - NEUTRON TYPE                
RESI.         0                    : RESIST       - RESISTIVITY TYPE            
RM  .OHMM     4                    : RM           - RESISTIVITY OF MUD          
RMC .OHMM     3.3                  : RMC          - RESISTIVITY OF MUD CAKE     
RMF .OHMM     4.3                  : RMF          - RESISTIVITY OF MUD FILTRATE 
SUFT.C        0                    : SUFT         - SURFACE TEMPERATURE         
~A  DEPTH     PHID     PHIN       GR      CAL     RESD
# ...
  451.500    0.229    0.423   95.268  202.689    3.720
  451.750    0.234    0.417   99.367  203.205    3.586
  452.000    0.248    0.413   95.826  203.211    3.463
  452.250    0.272    0.431   86.967  203.115    3.439
  452.500    0.292    0.444   77.130  202.511    3.491
  452.750    0.272    0.431   74.689  202.110    3.598
  453.000    0.243    0.421   83.129  203.646    3.764
  453.250    0.220    0.427   88.450  204.059    3.937
  453.500    0.230    0.429   85.642  202.334    4.110
  453.750    0.254    0.434   78.923  200.303    4.158
  454.000    0.257    0.444   75.015  198.680    4.106
  454.250    0.265    0.449   70.129  197.567    4.002
  454.500    0.281    0.448   65.549  196.962    3.773
  454.750    0.297    0.442   60.785  196.662    3.583
  455.000    0.303    0.436   56.449  196.568    3.397
  455.250    0.306    0.424   52.419  196.472    3.280
  455.500    0.308    0.417   49.122  196.275    3.197
  455.750    0.308    0.404   46.987  196.078    3.163
  456.000    0.305    0.400   46.013  196.390    3.176
  456.250    0.303    0.412   44.244  197.008    3.219
  456.500    0.307    0.421   43.575  197.321    3.293
  456.750    0.309    0.427   46.697  198.142    3.356
  457.000    0.309    0.433   51.163  200.085    3.452
  457.250    0.305    0.433   55.324  201.110    3.551
  457.500    0.300    0.421   58.445  202.238    3.666
  457.750    0.290    0.413   62.300  202.753    3.764
  458.000    0.278    0.431   65.238  202.658    3.822
  458.250    0.265    0.447   68.665  202.665    3.831
  458.500    0.248    0.434   68.547  202.264    3.825
  458.750    0.267    0.415   59.932  201.761    3.799
  459.000    0.301    0.420   52.846  200.953    3.730
  459.250    0.318    0.422   47.898  200.553    3.649
  459.500    0.329    0.411   46.252  200.151    3.564
  459.750    0.314    0.396   47.968  200.464    3.429
  460.000    0.303    0.385   49.194  200.572    3.342
  460.250    0.295    0.388   49.809  200.885    3.252
  460.500    0.303    0.398   50.730  201.197    3.187
  460.750    0.307    0.404   52.324  201.305    3.230
  461.000    0.288    0.405   55.262  202.026    3.323
  461.250    0.257    0.405   62.539  204.477    3.482
  461.500    0.205    0.415   76.602  207.337    3.663
  461.750    0.185    0.429   83.146  209.482    3.817
  462.000    0.172    0.450   87.246  211.323    3.911
  462.250    0.174    0.468   87.311  212.450    3.972
  462.500    0.174    0.479   87.559  214.392    3.988
  462.750    0.172    0.476   89.030  215.723    3.960
  463.000    0.174    0.473   89.218  216.240    3.918
  463.250    0.180    0.469   85.982  214.412    3.833
  463.500    0.189    0.462   85.925  209.529    3.729
  463.750    0.206    0.460   83.973  205.053    3.615
  464.000    0.225    0.465   80.738  202.818    3.524
  464.250    0.246    0.456   76.463  201.908    3.564
  464.500    0.258    0.443   75.367  203.647    3.749
  464.750    0.253    0.466   77.877  207.830    4.108
  465.000    0.254    0.493   80.754  219.043    4.715
  465.250    0.272    0.492   84.303  228.524    5.214
  465.500    0.284    0.522   87.241  216.204    5.766
  465.750    0.493    0.589   72.208  205.412    6.201
  466.000    0.649    0.684   60.476  202.057    6.262
  466.250    0.556    0.530   46.971  204.000    5.892
  466.500    0.509    0.500   62.012  208.082    5.554
  466.750    0.327    0.512   79.926  210.227    5.055
  467.000    0.277    0.530   89.710  209.419    4.765
  467.250    0.361    0.524   84.947  207.184    4.525
  467.500    0.330    0.507   84.950  203.625    4.411
  467.750    0.277    0.472   84.221  200.677    4.356
  468.000    0.252    0.444   82.880  195.999    4.310
  468.250    0.251    0.432   80.194  194.783    4.263
  468.500    0.261    0.415   75.614  194.585    4.171
  468.750    0.271    0.412   70.545  194.796    3.991
  469.000    0.272    0.452   69.387  195.108    3.776
  469.250    0.264    0.459   75.687  195.013    3.553
  469.500    0.275    0.445   74.041  195.223    3.444
  469.750    0.293    0.429   69.155  195.332    3.414
  470.000    0.310    0.432   63.474  195.339    3.473
  470.250    0.319    0.436   62.745  195.345    3.572
  470.500    0.301    0.437   69.045  195.760    3.723
  470.750    0.284    0.442   75.773  197.905    3.865
  471.000    0.271    0.439   78.955  201.172    3.990
  471.250    0.256    0.459   82.015  203.115    4.059
  471.500    0.229    0.455   82.386  204.547    4.114
  471.750    0.209    0.454   82.634  204.860    4.146
  472.000    0.202    0.456   83.678  204.867    4.148
  472.250    0.193    0.455   84.415  204.976    4.119
  472.500    0.182    0.458   81.058  204.982    4.075
  472.750    0.197    0.484   78.250  205.091    4.046
  473.000    0.211    0.483   79.965  204.893    4.041
  473.250    0.215    0.471   79.541  204.899    4.095
  473.500    0.215    0.468   78.078  204.906    4.228
  473.750    0.211    0.469   80.588  204.913    4.472
  474.000    0.205    0.461   84.504  204.920    4.846
  474.250    0.201    0.440   78.029  204.926    5.479
  474.500    0.208    0.395   64.036  204.730    6.208
  474.750    0.174    0.308   56.277  204.532    7.299
  475.000    0.088    0.259   48.273  203.418    7.663
  475.250    0.053    0.210   40.331  201.490    6.608
  475.500    0.073    0.186   32.878  200.274    5.848
  475.750    0.123    0.215   27.381  199.058    5.372
  476.000    0.216    0.247   28.485  198.249    4.879
  476.250    0.237    0.272   28.856  197.746    4.474
  476.500    0.234    0.281   29.104  197.551    4.225
  476.750    0.227    0.283   29.904  197.556    4.111
  477.000    0.221    0.290   29.968  199.396    4.044
  477.250    0.244    0.303   29.911  200.116    3.986
  477.500    0.255    0.321   30.099  197.576    3.943
  477.750    0.244    0.310   30.836  197.787    3.945
  478.000    0.226    0.300   31.695  198.099    3.991
  478.250    0.221    0.291   33.167  198.412    4.007
  478.500    0.233    0.291   35.738  198.724    4.039
  478.750    0.252    0.313   37.759  198.832    4.056
  479.000    0.269    0.326   40.208  199.044    4.095
  479.250    0.239    0.306   33.916  199.355    4.127
  479.500    0.225    0.291   32.453  199.260    4.152
  479.750    0.228    0.292   31.357  199.267    4.161
  480.000    0.253    0.311   31.483  199.273    4.170
  480.250    0.277    0.327   34.483  199.281    4.157
  480.500    0.251    0.319   37.787  199.490    4.174
  480.750    0.238    0.303   35.224  199.498    4.183
  481.000    0.227    0.291   32.416  199.606    4.208
  481.250    0.211    0.279   29.731  199.918    4.226
  481.500    0.201    0.269   26.250  200.434    4.243
  481.750    0.213    0.257   24.971  201.154    4.245
  482.000    0.222    0.251   29.498  201.466    4.247
  482.250    0.223    0.259   32.558  201.371    4.264
  482.500    0.219    0.264   30.301  200.766    4.274
  482.750    0.213    0.270   27.799  199.143    4.291
  483.000    0.207    0.267   27.558  197.927    4.301
  483.250    0.201    0.265   28.723  197.324    4.319
  483.500    0.197    0.259   28.483  197.227    4.353
  483.750    0.194    0.251   28.671  197.336    4.403
  484.000    0.189    0.242   30.508  197.751    4.471
  484.250    0.195    0.234   30.329  197.961    4.498
  484.500    0.204    0.242   32.975  198.171    4.474
  484.750    0.206    0.251   46.002  198.280    4.402
  485.000    0.200    0.271   31.441  198.286    4.267
  485.250    0.198    0.290   37.069  197.783    4.045
  485.500    0.232    0.317   44.652  197.179    3.640
  485.750    0.245    0.351   53.642  196.269    3.400
  486.000    0.255    0.379   59.330  195.257    3.235
  486.250    0.250    0.387   62.757  194.551    3.147
  486.500    0.267    0.379   57.260  194.150    3.091
  486.750    0.279    0.376   53.596  193.851    3.069
  487.000    0.283    0.381   55.617  193.654    3.070
  487.250    0.278    0.403   56.233  193.661    3.106
  487.500    0.275    0.414   54.953  193.362    3.130
  487.750    0.277    0.403   56.730  193.267    3.161
