~VERSION INFORMATION
 VERS.                 2.0:   CWLS LOG ASCII STANDARD -VERSION 2.0
 WRAP.                  NO:   ONE LINE PER DEPTH STEP
~WELL INFORMATION BLOCK
#MNEM.UNIT           DATA                    DESCRIPTION OF MNEMONIC
#---------    -------------------            -------------------------------
# Generated from Intellog Unique Number	CS_73_76/WELL/849
WELL.         PEX KIRBY                      : Well_name    - WELL
LOC .         00/11-21-073-07W4/0            : Location     - LOCATION
UWI .         00/11-21-073-07W4/0            : Uwi          - UNIQUE WELL ID
ENTR.         SP                             : Entered      - ENTERED BY
SRVC.         SCHLUMBERGER                   : Scn          - SERVICE COMPANY
STRT.M        345                            : top_depth    - START DEPTH
STOP.M        570                            : bot_depth    - STOP DEPTH
STEP.M        0.25                           : increment    - STEP LENGTH
 NULL. -999.2500:NULL Value
~CURVE INFORMATION BLOCK
#MNEM UNIT       ERCB CURVE CODE    CURVE DESCRIPTION
#-----------   ------------------   ----------------------------------
DEPT.M        00 001 00 00         : DEPTH        - DEPTH
ILD .OHMM     00 120 00 00         : RESD         - DEEP RESISTIVITY (DIL)
DPHI.V/V      00 890 00 00         : PHID         - DENSITY POROSITY (LIMESTONE)
NPHI.V/V      00 330 00 00         : PHIN         - NEUTRON POROSITY (LIMESTONE)
GR  .API      00 310 00 00         : GR           - GAMMA RAY
~PARAMETER INFORMATION
#MNEM.UNIT           DATA             DESCRIPTION OF MNEMONIC
#---------         -----------     ------------------------------
GL  .M        731                  : gl           - GROUND LEVEL ELEVATION
EREF.M        734.2                : kb           - ELEVATION OF DEPTH REFERENCE
DATM.M        731                  : datum        - DATUM ELEVATION
TDD .M        582                  : tdd          - TOTAL DEPTH DRILLER
RUN .         ONE                  : Run          - RUN NUMBER
ENG .         BILL                 : Engineer     - RECORDING ENGINEER
WIT .         JIM                  : Witness      - WITNESSED BY
MUD .         GEL                  : Mud_type     - MUD TYPE
MATR.         LIMESTONE            : Logunit      - NEUTRON MATRIX
TMAX.C        29                   : BHT          - MAXIMUM RECORDED TEMPERATURE
BHTD.M        582                  : BHTDEP       - MAXIMUM RECORDED TEMPERATURE
MATR.         1                    : LOGUNIT      - NEUTRON MATRIX
RMT .C        25                   : MDTP         - TEMPERATURE OF MUD
NEUT.         1                    : NEUTRON      - NEUTRON TYPE
RESI.         0                    : RESIST       - RESISTIVITY TYPE
RMC .OHMM     0.25                 : RMC          - RESISTIVITY OF MUD CAKE
RMF .OHMM     0.25                 : RMF          - RESISTIVITY OF MUD FILTRATE
SUFT.C        15                   : SUFT         - SURFACE TEMPERATURE
~A  DEPTH     RESD     PHID     PHIN       GR
# ...
  475.500    7.124    0.232    0.400   75.895
  475.750    7.262    0.234    0.396   77.714
  476.000    7.264    0.231    0.392   81.975
  476.250    7.404    0.226    0.375   83.793
  476.500    7.548    0.228    0.381   83.784
  476.750    7.693    0.248    0.392   83.168
  477.000    7.695    0.252    0.402   81.329
  477.250    7.844    0.228    0.411   81.319
  477.500    7.846    0.214    0.416   81.921
  477.750    7.850    0.198    0.401   83.741
  478.000    8.001    0.189    0.384   84.953
  478.250    8.004    0.208    0.382   86.162
  478.500    8.158    0.226    0.378   84.933
  478.750    8.473    0.228    0.373   83.096
  479.000    8.637    0.215    0.358   83.698
  479.250    8.803    0.245    0.354   86.128
  479.500    8.482    0.257    0.354   89.777
  479.750    7.725    0.236    0.367   93.427
  480.000    7.169    0.205    0.381   95.249
  480.250    6.408    0.194    0.388   95.239
  480.500    5.517    0.185    0.395   95.231
  480.750    4.662    0.179    0.407   95.221
  481.000    4.246    0.205    0.416   98.263
  481.250    3.588    0.230    0.422   89.107
  481.500    3.268    0.218    0.430   84.219
  481.750    3.032    0.222    0.447   84.822
  482.000    2.868    0.256    0.454   86.031
  482.250    2.711    0.284    0.463   87.851
  482.500    2.663    0.283    0.455   90.277
  482.750    2.664    0.272    0.455   90.271
  483.000    2.715    0.277    0.454   87.215
  483.250    2.767    0.287    0.438   79.890
  483.500    2.874    0.285    0.433   84.150
  483.750    3.042    0.278    0.436   85.967
  484.000    3.158    0.270    0.427   86.570
  484.250    3.470    0.283    0.418   87.782
  484.500    3.742    0.289    0.408   90.822
  484.750    4.432    0.287    0.399   92.643
  485.000    4.690    0.265    0.392   87.146
  485.250    5.876    0.243    0.385   88.966
  485.500    7.644    0.232    0.385   82.250
  485.750   10.322    0.221    0.383   81.632
  486.000   16.505    0.211    0.369   81.013
  486.250   28.983    0.227    0.357   79.783
  486.500   38.416    0.258    0.319   76.116
  486.750   43.014    0.300    0.288   70.010
  487.000   43.836    0.380    0.278   65.733
  487.250   45.529    0.408    0.270   62.066
  487.500   46.411    0.425    0.261   59.008
  487.750   45.566    0.431    0.253   58.998
  488.000   43.087    0.439    0.256   62.040
  488.250   39.986    0.415    0.255   63.858
  488.500   37.809    0.396    0.246   61.412
  488.750   35.090    0.412    0.260   63.233
  489.000   34.448    0.437    0.316   66.272
  489.250   37.151    0.392    0.342   62.603
  489.500   38.579    0.368    0.332   60.767
  489.750   44.012    0.337    0.293   60.147
  490.000   46.580    0.406    0.291   61.969
  490.250   48.372    0.390    0.304   61.348
  490.500   50.245    0.358    0.309   60.122
  490.750   50.255    0.175    0.323   57.065
  491.000   49.339    0.152    0.330   58.886
  491.250   48.438    0.375    0.362   53.999
  491.500   46.670    0.450    0.396   49.721
  491.750   47.571    0.433    0.402   52.151
  492.000   50.341    0.366    0.402   57.021
  492.250   52.296    0.367    0.408   60.062
  492.500   52.308    0.374    0.410   60.052
  492.750   51.359    0.384    0.406   60.653
  493.000   50.419    0.360    0.364   61.861
  493.250   48.578    0.316    0.327   62.465
  493.500   46.807    0.078    0.378   56.359
  493.750   45.096    0.240    0.412   51.471
  494.000   42.646    0.308    0.424   55.120
  494.250   41.087    0.336    0.421   58.161
  494.500   38.855    0.341    0.410   56.934
  494.750   38.867    0.332    0.404   61.192
  495.000   40.368    0.333    0.401   63.623
  495.250   41.935    0.324    0.398   56.905
  495.500   43.549    0.323    0.395   58.116
  495.750   44.382    0.319    0.383   60.547
  496.000   46.975    0.310    0.376   60.536
  496.250   47.874    0.318    0.383   61.140
  496.500   49.722    0.335    0.384   61.740
  496.750   50.681    0.311    0.382   58.073
  497.000   47.929    0.250    0.393   53.796
  497.250   42.841    0.323    0.404   56.834
  497.500   36.884    0.340    0.397   59.264
  497.750   34.229    0.345    0.397   60.477
  498.000   35.554    0.344    0.390   59.857
  498.250   36.926    0.324    0.401   59.240
  498.500   37.634    0.306    0.415   58.620
  498.750   39.090    0.325    0.403   58.003
  499.000   39.842    0.320    0.398   57.994
  499.250   39.858    0.325    0.406   56.153
  499.500   39.873    0.327    0.402   55.537
  499.750   39.884    0.327    0.391   55.528
  500.000   39.161    0.326    0.384   57.958
  500.250   38.445    0.337    0.378   56.730
  500.500   37.041    0.348    0.376   56.721
  500.750   35.688    0.331    0.382   59.762
  501.000   35.042    0.319    0.389   62.800
  501.250   35.714    0.290    0.378   65.230
  501.500   37.092    0.269    0.389   65.833
  501.750   37.108    0.306    0.401   62.775
  502.000   34.439    0.320    0.402   59.717
  502.250   29.648    0.327    0.405   60.927
  502.500   27.003    0.321    0.392   65.798
  502.750   25.059    0.306    0.383   61.516
  503.000   24.148    0.223    0.377   60.292
  503.250   23.706    0.165    0.377   57.845
  503.500   22.842    0.248    0.388   63.322
  503.750   22.007    0.289    0.388   64.534
  504.000   18.597    0.304    0.379   62.696
  504.250   17.258    0.311    0.374   67.564
  504.500   16.627    0.315    0.366   65.727
  504.750   17.596    0.303    0.362   71.813
  505.000   20.073    0.292    0.358   77.293
  505.250   24.681    0.293    0.359   79.726
  505.500   29.784    0.309    0.354   81.545
  505.750   33.976    0.318    0.359   80.928
  506.000   33.987    0.326    0.371   79.088
  506.250   28.185    0.319    0.372   80.909
  506.500   24.267    0.312    0.359   76.022
  506.750   20.505    0.312    0.346   69.917
  507.000   19.028    0.264    0.340   69.905
  507.250   17.330    0.221    0.339   70.509
  507.500   17.665    0.226    0.329   68.060
  507.750   18.350    0.230    0.323   64.390
  508.000   19.060    0.238    0.325   63.164
  508.250   19.794    0.260    0.346   62.546
  508.500   20.173    0.257    0.356   57.659
  508.750   21.752    0.242    0.337   54.602
  509.000   24.813    0.258    0.320   55.201
  509.250   28.304    0.275    0.335   55.194
  509.500   31.693    0.280    0.346   53.965
  509.750   33.536    0.258    0.352   50.907
  510.000   35.492    0.240    0.341   50.288
  510.250   37.558    0.278    0.331   52.720
  510.500   38.280    0.308    0.327   49.053
  510.750   38.294    0.274    0.352   41.115
  511.000   36.896    0.284    0.362   44.765
  511.250   31.767    0.317    0.357   47.805
  511.500   27.349    0.314    0.357   45.357
  511.750   22.680    0.302    0.363   41.690
  512.000   18.809    0.313    0.357   38.023
  512.250   16.811    0.321    0.348   39.235
  512.500   13.941    0.264    0.356   53.248
  512.750   11.779    0.246    0.368   62.388
  513.000   10.728    0.223    0.363   77.014
  513.250   10.732    0.203    0.351   92.858
  513.500   11.792    0.191    0.339  101.996
  513.750   12.716    0.177    0.329  105.647
  514.000   13.971    0.202    0.322   97.711
  514.250   15.066    0.210    0.321   82.458
  514.500   15.647    0.210    0.322   71.473
  514.750   15.651    0.240    0.317   65.976
  515.000   15.367    0.279    0.311   57.430
  515.250   14.261    0.303    0.314   51.325
  515.500   13.741    0.276    0.322   48.266
  515.750   13.240    0.237    0.310   60.452
  516.000   12.756    0.196    0.305   76.298
  516.250   12.524    0.194    0.305   83.605
  516.500   12.296    0.207    0.303   86.647
  516.750   12.301    0.202    0.300   85.418
  517.000   12.303    0.174    0.314   82.970
  517.250   12.080    0.187    0.320   82.960
  517.500   11.858    0.223    0.323   85.390
  517.750   11.642    0.179    0.337   87.211
  518.000   12.092    0.162    0.344   89.032
  518.250   12.559    0.149    0.331   90.242
  518.500   14.326    0.139    0.327   90.234
  518.750   19.714    0.168    0.325   88.397
