~VERSION INFORMATION
 VERS.                 2.0:   CWLS LOG ASCII STANDARD -VERSION 2.0
 WRAP.                  NO:   ONE LINE PER DEPTH STEP
~WELL INFORMATION BLOCK
#MNEM.UNIT           DATA                    DESCRIPTION OF MNEMONIC
#---------    -------------------            -------------------------------
# Generated from Intellog Unique Number	CS_71_72/WELL/856
WELL.         PEX PHILLIPS AEC WIAU          : Well_name    - WELL
LOC .         00/10-15-071-07W4/0            : Location     - LOCATION
UWI .         00/10-15-071-07W4/0            : Uwi          - UNIQUE WELL ID
ENTR.         SP                             : Entered      - ENTERED BY
SRVC.         SCHLUMBERGER                   : Scn          - SERVICE COMPANY
STRT.M        290                            : top_depth    - START DEPTH
STOP.M        507                            : bot_depth    - STOP DEPTH
STEP.M        0.25                           : increment    - STEP LENGTH
 NULL. -999.2500:NULL Value
~CURVE INFORMATION BLOCK
#MNEM UNIT       ERCB CURVE CODE    CURVE DESCRIPTION
#-----------   ------------------   ----------------------------------
DEPT.M        00 001 00 00         : DEPTH        - DEPTH
ILD .OHMM     00 120 00 00         : RESD         - DEEP RESISTIVITY (DIL)
DPHI.V/V      00 890 00 00         : PHID         - DENSITY POROSITY (LIMESTONE)
NPHI.V/V      00 330 00 00         : PHIN         - NEUTRON POROSITY (LIMESTONE)
GR  .API      00 310 00 00         : GR           - GAMMA RAY
~PARAMETER INFORMATION
#MNEM.UNIT           DATA             DESCRIPTION OF MNEMONIC
#---------         -----------     ------------------------------
GL  .M        647.2                : gl           - GROUND LEVEL ELEVATION
EREF.M        650.2                : kb           - ELEVATION OF DEPTH REFERENCE
DATM.M        647.2                : datum        - DATUM ELEVATION
TDD .M        510                  : tdd          - TOTAL DEPTH DRILLER
RUN .         ONE                  : Run          - RUN NUMBER
ENG .         BILL                 : Engineer     - RECORDING ENGINEER
WIT .         JIM                  : Witness      - WITNESSED BY
MUD .         GEL                  : Mud_type     - MUD TYPE
MATR.         LIMESTONE            : Logunit      - NEUTRON MATRIX
TMAX.C        25                   : BHT          - MAXIMUM RECORDED TEMPERATURE
BHTD.M        510                  : BHTDEP       - MAXIMUM RECORDED TEMPERATURE
MATR.         1                    : LOGUNIT      - NEUTRON MATRIX
RMT .C        25                   : MDTP         - TEMPERATURE OF MUD
NEUT.         1                    : NEUTRON      - NEUTRON TYPE
RESI.         0                    : RESIST       - RESISTIVITY TYPE
RMC .OHMM     0.25                 : RMC          - RESISTIVITY OF MUD CAKE
RMF .OHMM     0.25                 : RMF          - RESISTIVITY OF MUD FILTRATE
SUFT.C        15                   : SUFT         - SURFACE TEMPERATURE
~A  DEPTH     RESD     PHID     PHIN       GR
# ...
  377.000    4.653    0.311    0.505   72.408
  377.250    4.592    0.323    0.494   77.188
  377.500    4.549    0.308    0.485   80.334
  377.750    4.548    0.302    0.483   83.902
  378.000    4.598    0.304    0.511   83.109
  378.250    4.744    0.295    0.519   77.527
  378.500    4.905    0.289    0.504   74.612
  378.750    5.089    0.288    0.477   73.150
  379.000    5.291    0.295    0.463   73.508
  379.250    5.561    0.305    0.464   74.591
  379.500    5.707    0.305    0.457   75.676
  379.750    5.791    0.299    0.454   76.943
  380.000    5.737    0.300    0.460   77.906
  380.250    5.588    0.309    0.471   79.172
  380.500    5.454    0.304    0.481   80.378
  380.750    5.453    0.295    0.487   80.370
  381.000    5.482    0.287    0.485   78.546
  381.250    5.584    0.295    0.483   76.600
  381.500    5.859    0.311    0.493   73.987
  381.750    6.217    0.326    0.506   72.225
  382.000    6.757    0.334    0.519   70.157
  382.250    7.385    0.329    0.516   68.273
  382.500    8.331    0.315    0.479   66.630
  382.750    9.771    0.305    0.469   66.138
  383.000   10.800    0.300    0.462   66.738
  383.250   11.185    0.300    0.458   68.305
  383.500   10.696    0.303    0.483   69.574
  383.750    9.782    0.315    0.500   72.353
  384.000    8.717    0.329    0.487   75.437
  384.250    7.870    0.344    0.485   77.493
  384.500    7.373    0.353    0.494   80.456
  384.750    7.116    0.320    0.501   84.205
  385.000    6.893    0.299    0.505   86.622
  385.250    6.893    0.269    0.497   85.891
  385.500    6.840    0.273    0.479   83.824
  385.750    6.801    0.261    0.469   84.907
  386.000    6.737    0.251    0.466   86.598
  386.250    6.748    0.248    0.462   87.865
  386.500    6.697    0.245    0.463   89.069
  386.750    6.609    0.249    0.470   89.607
  387.000    6.523    0.246    0.480   89.057
  387.250    6.473    0.244    0.488   87.899
  387.500    6.448    0.247    0.497   84.680
  387.750    6.679    0.239    0.505   80.069
  388.000    7.368    0.232    0.514   75.820
  388.250    8.204    0.225    0.485   71.329
  388.500    8.950    0.177    0.435   68.292
  388.750    9.496    0.137    0.391   72.286
  389.000    9.406    0.103    0.365   80.035
  389.250    8.429    0.157    0.343   83.544
  389.500    7.781    0.231    0.429   86.751
  389.750    7.183    0.246    0.459   89.530
  390.000    6.818    0.246    0.460   88.676
  390.250    6.531    0.247    0.467   86.549
  390.500    6.386    0.238    0.470   88.421
  390.750    6.337    0.229    0.470   89.990
  391.000    6.324    0.225    0.477   89.741
  391.250    6.312    0.229    0.485   88.583
  391.500    6.217    0.272    0.476   89.244
  391.750    6.068    0.257    0.474   91.418
  392.000    5.792    0.247    0.484   94.079
  392.250    5.549    0.234    0.488   96.678
  392.500    5.257    0.235    0.502   98.187
  392.750    4.755    0.256    0.518   98.907
  393.000    4.349    0.267    0.521   99.203
  393.250    3.955    0.268    0.519   99.073
  393.500    3.617    0.279    0.523   99.009
  393.750    3.408    0.267    0.531   98.939
  394.000    3.320    0.255    0.542   98.812
  394.250    3.295    0.254    0.549   98.324
  394.500    3.337    0.255    0.543   98.923
  394.750    3.374    0.261    0.529  101.280
  395.000    3.399    0.255    0.522  101.698
  395.250    3.398    0.244    0.533   98.236
  395.500    3.335    0.281    0.526   94.957
  395.750    3.316    0.305    0.543   92.406
  396.000    3.352    0.319    0.566   89.248
  396.250    3.472    0.344    0.581   87.242
  396.500    3.858    0.322    0.553   87.236
  396.750    4.041    0.308    0.527   87.775
  397.000    4.368    0.292    0.504   85.647
  397.250    4.609    0.270    0.480   82.428
  397.500    4.800    0.271    0.494   81.150
  397.750    4.944    0.287    0.495   81.992
  398.000    4.989    0.290    0.493   83.136
  398.250    4.924    0.286    0.490   83.372
  398.500    4.877    0.270    0.488   82.154
  398.750    4.831    0.283    0.505   79.845
  399.000    4.822    0.300    0.522   76.747
  399.250    4.830    0.306    0.529   74.499
  399.500    4.965    0.299    0.516   71.523
  399.750    5.287    0.302    0.497   68.971
  400.000    6.043    0.313    0.478   67.389
  400.250    6.854    0.320    0.455   65.140
  400.500    7.464    0.269    0.421   65.194
  400.750    7.688    0.218    0.401   68.097
  401.000    7.216    0.235    0.443   69.545
  401.250    6.442    0.291    0.476   71.356
  401.500    5.667    0.325    0.490   72.380
  401.750    5.251    0.341    0.495   70.010
  402.000    4.947    0.344    0.490   65.276
  402.250    4.792    0.348    0.484   63.028
  402.500    4.800    0.354    0.481   63.445
  402.750    4.862    0.354    0.484   64.771
  403.000    4.915    0.351    0.481   65.735
  403.250    4.998    0.358    0.474   67.364
  403.500    4.997    0.361    0.483   68.328
  403.750    5.005    0.359    0.505   69.352
  404.000    5.013    0.355    0.508   69.891
  404.250    5.069    0.359    0.509   70.793
  404.500    5.124    0.353    0.518   72.301
  404.750    5.190    0.346    0.525   74.234
  405.000    5.257    0.346    0.521   77.314
  405.250    5.394    0.334    0.496   78.281
  405.500    5.525    0.319    0.477   81.969
  405.750    5.617    0.311    0.465   84.207
  406.000    5.679    0.300    0.463   86.202
  406.250    5.330    0.288    0.452   86.923
  406.500    5.511    0.280    0.439   83.583
  406.750    5.408    0.281    0.440   79.394
  407.000    5.338    0.282    0.469   77.025
  407.250    5.447    0.284    0.490   79.442
  407.500    5.652    0.301    0.504   81.497
  407.750    6.019    0.289    0.480   82.823
  408.000    6.176    0.281    0.452   82.635
  408.250    5.928    0.278    0.443   81.719
  408.500    5.585    0.275    0.450   81.227
  408.750    5.291    0.272    0.454   81.277
  409.000    5.155    0.283    0.467   81.396
  409.250    4.893    0.295    0.489   82.058
  409.500    4.679    0.312    0.498   82.778
  409.750    4.271    0.319    0.493   83.741
  410.000    4.084    0.320    0.496   84.826
  410.250    3.913    0.341    0.518   86.149
  410.500    3.898    0.355    0.537   86.449
  410.750    3.955    0.337    0.530   87.109
  411.000    4.029    0.307    0.513   84.497
  411.250    4.066    0.291    0.516   86.611
  411.500    3.997    0.291    0.531   89.392
  411.750    3.829    0.298    0.507   92.657
  412.000    3.601    0.290    0.507   95.015
  412.250    3.110    0.299    0.531   97.854
  412.500    2.631    0.329    0.564   98.335
  412.750    2.397    0.313    0.588   98.632
  413.000    2.301    0.299    0.594   96.323
  413.250    2.258    0.289    0.601   92.921
  413.500    2.266    0.273    0.603   91.825
  413.750    2.270    0.281    0.601   92.121
  414.000    2.265    0.298    0.609   92.963
  414.250    2.265    0.312    0.606   93.442
  414.500    2.285    0.321    0.594   93.860
  414.750    2.354    0.311    0.579   93.853
  415.000    2.525    0.309    0.569   92.575
  415.250    2.990    0.303    0.559   89.780
  415.500    3.526    0.288    0.545   86.501
  415.750    4.007    0.276    0.526   83.707
  416.000    4.639    0.289    0.506   81.398
  416.250    5.272    0.287    0.485   79.998
  416.500    5.815    0.277    0.469   80.173
  416.750    5.935    0.229    0.443   81.923
  417.000    6.011    0.201    0.417   83.190
  417.250    5.966    0.195    0.418   83.727
  417.500    5.888    0.235    0.446   83.541
  417.750    5.789    0.257    0.475   82.564
  418.000    5.619    0.271    0.491   81.831
  418.250    5.303    0.272    0.491   81.641
  418.500    4.987    0.275    0.490   81.876
  418.750    4.630    0.261    0.495   82.296
  419.000    4.394    0.246    0.492   83.865
  419.250    4.148    0.248    0.489   84.768
  419.500    4.492    0.232    0.491   85.307
  419.750    5.220    0.234    0.495   84.391
  420.000    5.780    0.260    0.483   81.294
  420.250    6.201    0.241    0.477   78.016
