~VERSION INFORMATION
 VERS.                 2.0:   CWLS LOG ASCII STANDARD -VERSION 2.0
 WRAP.                  NO:   ONE LINE PER DEPTH STEP
~WELL INFORMATION BLOCK
#MNEM.UNIT           DATA                    DESCRIPTION OF MNEMONIC
#---------    -------------------            -------------------------------
# Generated from Intellog Unique Number	CS_67_68/WELL/2209
WELL.         11-24-067-04W4                 : Well_name    - WELL
LOC .         00/11-24-067-04W4/0            : Location     - LOCATION
UWI .         00/11-24-067-04W4/0            : Uwi          - UNIQUE WELL ID
ENTR.         SP                             : Entered      - ENTERED BY
SRVC.         SCHLUMBERGER                   : Scn          - SERVICE COMPANY
STRT.M        320                            : top_depth    - START DEPTH
STOP.M        553                            : bot_depth    - STOP DEPTH
STEP.M        0.25                           : increment    - STEP LENGTH
 NULL. -999.2500:NULL Value
~CURVE INFORMATION BLOCK
#MNEM UNIT       ERCB CURVE CODE    CURVE DESCRIPTION
#-----------   ------------------   ----------------------------------
DEPT.M        00 001 00 00         : DEPTH        - DEPTH
ILD .OHMM     00 120 00 00         : RESD         - DEEP RESISTIVITY (DIL)
DPHI.V/V      00 890 00 00         : PHID         - DENSITY POROSITY (LIMESTONE)
NPHI.V/V      00 330 00 00         : PHIN         - NEUTRON POROSITY (LIMESTONE)
GR  .API      00 310 00 00         : GR           - GAMMA RAY
CALI.MM       00 280 01 00         : CAL          - CALIPER
~PARAMETER INFORMATION
#MNEM.UNIT           DATA             DESCRIPTION OF MNEMONIC
#---------         -----------     ------------------------------
GL  .M        674.8                : gl           - GROUND LEVEL ELEVATION
EREF.M        678                  : kb           - ELEVATION OF DEPTH REFERENCE
DATM.M        678                  : datum        - DATUM ELEVATION
TDD .M        558                  : tdd          - TOTAL DEPTH DRILLER
RUN .         ONE                  : Run          - RUN NUMBER
ENG .         BILL                 : Engineer     - RECORDING ENGINEER
WIT .         JIM                  : Witness      - WITNESSED BY
MUD .         GEL                  : Mud_type     - MUD TYPE
MATR.         LIMESTONE            : Logunit      - NEUTRON MATRIX
TMAX.C        18.3                 : BHT          - MAXIMUM RECORDED TEMPERATURE
BHTD.M        556.5                : BHTDEP       - MAXIMUM RECORDED TEMPERATURE
MATR.         1                    : LOGUNIT      - NEUTRON MATRIX
RMT .C        25                   : MDTP         - TEMPERATURE OF MUD
NEUT.         1                    : NEUTRON      - NEUTRON TYPE
RESI.         0                    : RESIST       - RESISTIVITY TYPE
RMC .OHMM     0.25                 : RMC          - RESISTIVITY OF MUD CAKE
RMF .OHMM     0.25                 : RMF          - RESISTIVITY OF MUD FILTRATE
SUFT.C        15                   : SUFT         - SURFACE TEMPERATURE
~A  DEPTH     RESD     PHID     PHIN       GR      CAL
# ...
  466.000   12.233    0.301    0.506   60.736  161.665
  466.250   12.727    0.292    0.474   63.803  161.997
  466.500   10.840    0.287    0.461   68.453  162.125
  466.750    9.588    0.277    0.461   73.290  162.357
  467.000    8.432    0.265    0.469   77.698  162.483
  467.250    7.615    0.254    0.469   81.373  162.507
  467.500    7.182    0.247    0.471   84.683  162.436
  467.750    7.319    0.247    0.481   85.918  162.256
  468.000    7.572    0.259    0.477   79.835  161.570
  468.250    7.968    0.270    0.456   77.959  160.890
  468.500    8.353    0.274    0.446   79.685  160.505
  468.750    7.938    0.262    0.452   80.064  160.534
  469.000    6.280    0.254    0.448   80.631  160.966
  469.250    4.849    0.246    0.447   84.550  160.890
  469.500    3.999    0.242    0.467   87.920  160.920
  469.750    3.478    0.243    0.497   89.829  160.839
  470.000    3.070    0.244    0.515   88.989  160.764
  470.250    2.820    0.264    0.533   86.686  160.588
  470.500    2.556    0.276    0.544   82.373  160.309
  470.750    2.308    0.286    0.548   80.072  160.132
  471.000    2.077    0.286    0.572   79.475  160.159
  471.250    2.038    0.279    0.566   81.200  160.087
  471.500    2.046    0.280    0.555   83.045  160.111
  471.750    2.053    0.279    0.562   83.793  159.323
  472.000    2.053    0.275    0.571   81.490  158.438
  472.250    2.034    0.290    0.551   78.334  157.646
  472.500    1.985    0.300    0.539   75.849  157.166
  472.750    1.962    0.300    0.534   73.669  157.194
  473.000    1.933    0.299    0.533   72.404  157.119
  473.250    1.933    0.314    0.558   75.473  157.244
  473.500    1.940    0.314    0.572   77.254  157.271
  473.750    1.951    0.295    0.563   79.407  157.297
  474.000    1.985    0.285    0.572   79.848  157.324
  474.250    2.030    0.288    0.566   78.828  157.147
  474.500    2.100    0.293    0.535   79.454  157.382
  474.750    2.193    0.283    0.520   80.750  157.507
  475.000    2.269    0.276    0.531   79.791  157.530
  475.250    2.357    0.273    0.538   79.745  157.455
  475.500    2.392    0.269    0.536   82.325  157.484
  475.750    2.406    0.265    0.535   85.573  157.713
  476.000    2.420    0.261    0.545   88.454  158.045
  476.250    2.433    0.261    0.552   90.117  158.177
  476.500    2.456    0.268    0.559   88.304  158.299
  476.750    2.537    0.274    0.550   89.176  158.123
  477.000    2.715    0.272    0.531   90.532  158.150
  477.250    2.841    0.269    0.527   92.074  157.871
  477.500    3.170    0.271    0.535   93.125  157.697
  477.750    3.490    0.276    0.501   89.177  157.719
  478.000    3.991    0.283    0.483   84.372  157.747
  478.250    4.624    0.291    0.470   81.094  157.976
  478.500    5.439    0.285    0.476   82.756  158.307
  478.750    6.185    0.279    0.485   84.848  158.843
  479.000    6.797    0.269    0.478   85.350  159.580
  479.250    7.193    0.246    0.451   78.717  160.013
  479.500    7.344    0.223    0.433   74.340  160.649
  479.750    7.372    0.178    0.420   74.052  160.778
  480.000    7.193    0.224    0.465   74.434  160.399
  480.250    5.596    0.244    0.485   77.439  160.323
  480.500    4.312    0.262    0.470   84.591  160.348
  480.750    3.510    0.255    0.474   90.341  160.580
  481.000    3.035    0.243    0.515   96.765  160.812
  481.250    2.746    0.233    0.542  101.233  160.940
  481.500    2.551    0.226    0.549  104.176  160.860
  481.750    2.433    0.229    0.544  105.716  160.887
  482.000    2.503    0.230    0.532  107.563  160.611
  482.250    2.589    0.229    0.528  109.470  160.534
  482.500    2.761    0.228    0.532  111.256  160.262
  482.750    2.928    0.227    0.493  112.246  159.977
  483.000    3.128    0.227    0.459   98.536  159.799
  483.250    3.386    0.232    0.435   87.266  159.527
  483.500    3.631    0.232    0.457   86.916  159.651
  483.750    4.074    0.223    0.512   90.958  159.778
  484.000    4.667    0.216    0.488   86.582  160.107
  484.250    5.532    0.219    0.423   79.827  160.342
  484.500    6.707    0.155    0.404   74.657  160.364
  484.750    8.720    0.130    0.394   70.708  160.189
  485.000   10.473    0.103    0.383   70.540  160.113
  485.250   11.083    0.115    0.266   69.763  159.935
  485.500   10.238    0.080    0.231   66.729  159.761
  485.750    9.457    0.063    0.264   69.433  159.582
  486.000    8.381    0.204    0.391   70.786  159.102
  486.250    7.371    0.269    0.415   67.569  158.921
  486.500    6.482    0.289    0.399   68.866  158.440
  486.750    5.648    0.272    0.388   72.360  158.264
  487.000    5.584    0.257    0.457   70.974  158.089
  487.250    6.160    0.264    0.461   67.634  158.115
  487.500    6.519    0.276    0.409   68.444  158.143
  487.750    6.978    0.280    0.379   72.791  158.169
  488.000    7.384    0.284    0.357   76.222  158.293
  488.250    7.683    0.290    0.391   79.592  158.322
  488.500    7.568    0.294    0.404   80.401  158.350
  488.750    7.398    0.301    0.413   79.441  158.373
  489.000    7.356    0.310    0.422   73.905  158.398
  489.250    7.273    0.315    0.411   68.003  158.429
  489.500    7.329    0.306    0.399   67.775  158.452
  489.750    7.440    0.297    0.400   74.074  158.484
  490.000    7.610    0.290    0.407   80.434  158.811
  490.250    7.800    0.284    0.404   86.307  159.039
  490.500    7.963    0.278    0.397   89.312  159.782
  490.750    8.024    0.272    0.413   92.439  160.720
  491.000    7.993    0.256    0.409   95.139  162.169
  491.250    8.008    0.227    0.392   97.412  163.721
  491.500    8.039    0.195    0.384   99.320  164.459
  491.750    8.099    0.181    0.379   94.027  164.283
  492.000    8.099    0.202    0.360   82.514  163.493
  492.250    8.099    0.220    0.343   70.207  162.910
  492.500    8.099    0.210    0.339   70.650  162.128
  492.750    8.038    0.203    0.351   78.719  162.051
  493.000    8.053    0.197    0.357   85.078  161.769
  493.250    8.099    0.203    0.363   78.018  161.700
  493.500    8.130    0.214    0.360   72.665  161.720
  493.750    8.114    0.230    0.347   67.618  161.650
  494.000    8.099    0.241    0.353   68.366  161.673
  494.250    8.053    0.239    0.370   69.052  161.393
  494.500    8.053    0.231    0.372   69.251  161.318
  494.750    8.038    0.227    0.364   73.903  161.344
  495.000    8.008    0.222    0.362   79.470  161.071
  495.250    7.977    0.231    0.376   75.278  160.789
  495.500    7.932    0.226    0.383   72.547  160.407
  495.750    7.932    0.204    0.368   79.885  159.827
  496.000    7.872    0.197    0.384   86.245  159.444
  496.250    7.872    0.190    0.371   86.688  158.963
  496.500    7.857    0.179    0.358   86.459  158.785
  496.750    7.813    0.184    0.363   88.491  158.507
  497.000    7.784    0.191    0.376   89.724  158.536
  497.250    7.740    0.198    0.383   90.472  158.560
  497.500    7.739    0.213    0.389   89.816  158.585
  497.750    7.828    0.198    0.389   86.355  158.816
  498.000    8.144    0.167    0.383   85.333  158.942
  498.250    8.522    0.133    0.354   81.995  158.969
  498.500    8.767    0.095    0.327   79.144  159.200
  498.750    8.766    0.211    0.300   76.536  159.231
  499.000    8.221    0.244    0.345   77.162  159.251
  499.250    7.798    0.261    0.362   74.981  159.178
  499.500    7.466    0.284    0.367   75.546  159.103
  499.750    7.258    0.301    0.389   79.773  159.134
  500.000    7.382    0.297    0.400   85.404  159.359
  500.250    7.666    0.283    0.397   88.465  159.588
  500.500    7.872    0.272    0.386   92.690  159.816
  500.750    8.113    0.262    0.389   96.489  160.048
  501.000    8.268    0.255    0.394   96.322  160.382
  501.250    8.378    0.246    0.394   97.496  160.408
  501.500    8.314    0.236    0.388   99.892  160.439
  501.750    8.082    0.221    0.383  101.432  160.257
  502.000    7.812    0.203    0.382   91.016  159.978
  502.250    7.480    0.235    0.375   75.659  159.695
