~VERSION INFORMATION
 VERS.                 2.0:   CWLS LOG ASCII STANDARD -VERSION 2.0
 WRAP.                  NO:   ONE LINE PER DEPTH STEP
~WELL INFORMATION BLOCK
#MNEM.UNIT           DATA                    DESCRIPTION OF MNEMONIC
#---------    -------------------            -------------------------------
# Generated from Intellog Unique Number	CW_73_75/WELL/913
WELL.         GULF POC DROWNED 10-15         : Well_name    - WELL
LOC .         00/10-15-075-20W4/0            : Location     - LOCATION
UWI .         00/10-15-075-20W4/0            : Uwi          - UNIQUE WELL ID
ENTR.         JAYE                           : Entered      - ENTERED BY
SRVC.         SCHLUMBERGER                   : Scn          - SERVICE COMPANY
DATE.         18 JAN 77                      : Date         - LOG DATE
STRT.M        292.608                        : top_depth    - START DEPTH
STOP.M        478.608                        : bot_depth    - STOP DEPTH
STEP.M        0.25                           : increment    - STEP LENGTH
 NULL. -999.2500:NULL Value
~CURVE INFORMATION BLOCK
#MNEM UNIT       ERCB CURVE CODE    CURVE DESCRIPTION
#-----------   ------------------   ----------------------------------
DEPT.M        00 001 00 00         : DEPTH        - DEPTH
ILD .OHMM     00 120 00 00         : RESD         - DEEP RESISTIVITY (DIL)
CALI.MM       00 280 01 00         : CAL          - CALIPER
GR  .API      00 310 00 00         : GR           - GAMMA RAY
NPHI.V/V      00 330 00 00         : PHIN         - NEUTRON POROSITY (SANDSTONE)
DPHI.V/V      00 890 00 00         : PHID         - DENSITY POROSITY (SANDSTONE)
~PARAMETER INFORMATION
#MNEM.UNIT           DATA             DESCRIPTION OF MNEMONIC
#---------         -----------     ------------------------------
GL  .M        609.6                : gl           - GROUND LEVEL ELEVATION
EREF.M        613.867              : kb           - ELEVATION OF DEPTH REFERENCE
DATM.M        609.6                : datum        - DATUM ELEVATION
TDD .M        504.444              : tdd          - TOTAL DEPTH DRILLER
RUN .         ONE                  : Run          - RUN NUMBER
MATR.         SANDSTONE            : Logunit      - NEUTRON MATRIX
TMAX.C        13.0556              : BHT          - MAXIMUM RECORDED TEMPERATURE
BHTD.M        504.139              : BHTDEP       - MAXIMUM RECORDED TEMPERATURE
RMT .C        13.3333              : MDTP         - TEMPERATURE OF MUD
MUDD.KG/M     0                    : MWT          - MUD DENSITY
NEUT.         1                    : NEUTRON      - NEUTRON TYPE
RESI.         0                    : RESIST       - RESISTIVITY TYPE
RM  .OHMM     2.61                 : RM           - RESISTIVITY OF MUD
RMC .OHMM     0                    : RMC          - RESISTIVITY OF MUD CAKE
RMF .OHMM     5.13                 : RMF          - RESISTIVITY OF MUD FILTRATE
SUFT.C        -17.7778             : SUFT         - SURFACE TEMPERATURE
~A  DEPTH     RESD      CAL       GR     PHIN     PHID
# ...
  402.108    8.297  169.114   61.637    0.399    0.292
  402.358    9.505  169.534   57.855    0.330    0.253
  402.608   11.530  169.646   54.989    0.189    0.151
  402.858   14.377  169.653   52.977    0.177    0.106
  403.108   16.112  169.557   51.272    0.183    0.116
  403.358   16.198  169.461   51.093    0.201    0.155
  403.608   16.436  168.640   52.991    0.258    0.191
  403.858   16.555  165.855   55.927    0.311    0.235
  404.108   15.896  163.691   56.908    0.356    0.318
  404.358   13.468  162.147   56.974    0.370    0.321
  404.608   10.739  160.914   58.321    0.365    0.241
  404.858    7.984  160.714   61.868    0.367    0.247
  405.108    6.058  160.721   64.865    0.404    0.305
  405.358    5.586  160.833   65.114    0.417    0.327
  405.608    5.699  161.977   64.996    0.385    0.315
  405.858    6.213  164.673   61.458    0.337    0.296
  406.108    6.899  167.783   54.805    0.321    0.275
  406.358    7.425  167.481   55.054    0.323    0.207
  406.608    9.605  165.110   59.150    0.332    0.226
  406.858   11.292  166.357   58.849    0.284    0.242
  407.108   11.249  168.433   56.594    0.236    0.143
  407.358   10.526  171.646   62.217    0.191    0.118
  407.608    9.168  174.446   70.588    0.210    0.122
  407.858    8.059  171.868   76.029    0.310    0.178
  408.108    6.765  167.325   82.141    0.474    0.317
  408.358    5.882  167.850   88.680    0.479    0.310
  408.608    5.285  168.685   93.632    0.471    0.302
  408.858    4.715  169.312   95.895    0.464    0.295
  409.108    4.190  170.354   98.221    0.466    0.294
  409.358    3.704  172.327  100.057    0.496    0.286
  409.608    3.390  177.608  103.176    0.518    0.259
  409.858    3.371  184.130  105.685    0.525    0.276
  410.108    3.491  183.621  105.689    0.516    0.291
  410.358    3.777  179.284  102.701    0.484    0.274
  410.608    4.103  176.397   99.896    0.478    0.283
  410.858    4.327  175.887  100.022    0.476    0.285
  411.108    4.522  175.584  101.005    0.472    0.272
  411.358    4.726  175.384  101.680    0.465    0.266
  411.608    4.911  174.668  102.173    0.459    0.265
  411.858    5.076  172.814  100.773    0.451    0.248
  412.108    5.207  171.994   98.883    0.445    0.232
  412.358    5.294  172.207   98.338    0.453    0.236
  412.608    5.401  173.147   99.137    0.457    0.249
  412.858    5.490  173.878  101.401    0.445    0.247
  413.108    5.510  174.608  101.649    0.443    0.234
  413.358    5.570  175.340  101.409    0.445    0.235
  413.608    5.611  175.761  103.857    0.452    0.243
  413.858    5.693  175.975  103.922    0.448    0.248
  414.108    5.734  175.776  100.629    0.453    0.245
  414.358    5.650  175.680  103.259    0.460    0.238
  414.608    5.316  175.480  104.852    0.463    0.234
  414.858    4.956  175.488  105.406    0.459    0.234
  415.108    3.816  175.701  106.143    0.456    0.222
  415.358    2.660  176.020  107.064    0.462    0.213
  415.608    2.889  176.233  107.984    0.467    0.228
  415.858    3.268  176.241  110.736    0.469    0.222
  416.108    3.589  176.352  115.321    0.452    0.236
  416.358    4.059  176.256  116.731    0.448    0.215
  416.608    4.417  176.677  114.963    0.452    0.225
  416.858    4.642  177.304  111.609    0.457    0.234
  417.108    4.727  177.933  108.987    0.462    0.226
  417.358    4.788  177.940  106.304    0.468    0.213
  417.608    4.912  177.430  103.743    0.470    0.211
  417.858    5.181  175.783  100.694    0.462    0.227
  418.108    5.494  169.792   96.240    0.451    0.233
  418.358    5.752  166.386   97.099    0.450    0.251
  418.608    5.978  165.049   97.042    0.458    0.265
  418.858    6.077  164.850   97.291    0.453    0.258
  419.108    6.132  165.271  100.654    0.446    0.249
  419.358    6.153  167.346  105.606    0.443    0.249
  419.608    6.164  172.938  108.725    0.433    0.246
  419.858    6.163  175.635  110.317    0.434    0.239
  420.108    6.162  175.850  110.505    0.436    0.239
  420.358    6.173  175.236  107.211    0.439    0.238
  420.608    6.217  174.520  103.368    0.438    0.238
  420.858    6.251  174.527  103.983    0.438    0.232
  421.108    6.319  174.741  105.514    0.440    0.231
  421.358    6.377  174.852  106.923    0.440    0.229
  421.608    6.447  174.653  107.233    0.441    0.236
  421.858    6.458  173.833  104.061    0.448    0.233
  422.108    6.516  172.495  105.043    0.452    0.224
  422.358    6.552  171.986  106.758    0.443    0.218
  422.608    6.551  171.993  105.235    0.432    0.222
  422.858    6.538  173.551  102.796    0.430    0.231
  423.108    6.453  172.008  104.145    0.425    0.233
  423.358    6.405  170.670  105.065    0.408    0.244
  423.608    6.357  171.608  106.535    0.415    0.230
  423.858    6.298  173.685  108.250    0.428    0.230
  424.108    6.274  175.347  107.826    0.441    0.232
  424.358    6.193  176.802  105.265    0.451    0.228
  424.608    6.101  177.223  103.132    0.460    0.221
  424.858    6.000  176.093  101.426    0.469    0.239
  425.108    5.934  173.411   96.422    0.463    0.237
  425.358    5.998  170.936   96.061    0.447    0.223
  425.608    6.223  169.806   96.981    0.421    0.214
  425.858    6.660  169.503   94.909    0.391    0.205
  426.108    7.644  169.924   87.889    0.339    0.171
  426.358    9.290  171.069   76.473    0.244    0.143
  426.608   12.560  171.697   66.339    0.192    0.079
  426.858   15.095  170.670   62.434    0.211    0.046
  427.108   16.578  166.954   65.615    0.237    0.073
  427.358   16.394  167.375   68.123    0.274    0.138
  427.608   14.814  167.693   69.165    0.365    0.155
  427.858   12.714  165.839   69.353    0.419    0.242
  428.108   10.851  163.778   68.869    0.438    0.351
  428.358    8.263  163.062   69.118    0.431    0.337
  428.608    7.171  162.965   71.138    0.425    0.332
  428.858    6.735  163.697   72.974    0.425    0.324
  429.108    6.431  164.221   74.445    0.425    0.330
  429.358    6.267  164.539   74.754    0.424    0.335
  429.608    6.095  164.857   74.514    0.431    0.330
  429.858    5.983  165.174   73.969    0.422    0.325
  430.108    5.819  165.388   73.118    0.420    0.328
  430.358    5.598  165.602   72.267    0.421    0.340
  430.608    5.415  165.609   71.600    0.433    0.336
  430.858    5.306  165.618   71.117    0.439    0.328
  431.108    5.453  165.831   70.754    0.426    0.324
  431.358    5.858  166.356   70.330    0.423    0.287
  431.608    6.493  166.983   69.907    0.407    0.272
  431.858    7.453  167.921   69.728    0.381    0.225
  432.108    8.245  169.170   70.343    0.356    0.212
  432.358    8.020  171.557   71.875    0.325    0.199
  432.608    7.574  173.735   74.138    0.350    0.205
  432.858    6.946  172.294   77.136    0.447    0.232
  433.108    6.334  170.544   78.422    0.433    0.297
  433.358    5.916  169.724   79.770    0.423    0.296
  433.608    5.723  168.698   82.829    0.418    0.287
  433.858    5.546  168.291   90.589    0.419    0.281
  434.108    5.404  169.230   99.083    0.410    0.277
  434.358    5.314  170.580  101.164    0.403    0.272
  434.608    5.226  175.035   97.076    0.430    0.268
  434.858    5.140  176.594   95.859    0.435    0.269
  435.108    5.018  175.670   98.734    0.432    0.270
  435.358    4.827  175.471  104.296    0.440    0.261
  435.608    4.601  176.513  107.477    0.449    0.252
  435.858    4.305  177.865  109.496    0.440    0.251
  436.108    3.992  178.803  112.860    0.440    0.255
  436.358    3.715  179.949  114.330    0.452    0.265
  436.608    3.528  180.472  112.746    0.469    0.264
  436.858    3.700  181.411  111.102    0.471    0.254
  437.108    3.895  181.624  110.557    0.484    0.258
  437.358    4.108  182.356  109.706    0.501    0.279
  437.608    4.332  182.260  108.183    0.513    0.282
  437.858    4.646  182.061  107.089    0.517    0.271
  438.108    5.074  181.344  105.443    0.502    0.265
  438.358    5.441  179.593  103.127    0.479    0.270
