~VERSION INFORMATION
 VERS.                 2.0:   CWLS LOG ASCII STANDARD -VERSION 2.0
 WRAP.                  NO:   ONE LINE PER DEPTH STEP
~WELL INFORMATION BLOCK
#MNEM.UNIT           DATA                    DESCRIPTION OF MNEMONIC
#---------    -------------------            -------------------------------
# Generated from Intellog Unique Number	CX_WELLS/WELL/4017
WELL.         HOMESTEAD LOCHIEL              : Well_name    - WELL
LOC .         00/10-05-079-04W4/0            : Location     - LOCATION
UWI .         00/10-05-079-04W4/0            : Uwi          - UNIQUE WELL ID
ENTR.         T                              : Entered      - ENTERED BY
SRVC.         SCHLUMBERGER                   : Scn          - SERVICE COMPANY
STRT.F        390                            : top_depth    - START DEPTH
STOP.F        1250.4                         : bot_depth    - STOP DEPTH
STEP.F        0.82                           : increment    - STEP LENGTH
 NULL. -999.2500:NULL Value
~CURVE INFORMATION BLOCK
#MNEM UNIT       ERCB CURVE CODE    CURVE DESCRIPTION
#-----------   ------------------   ----------------------------------
DEPT.F        00 001 00 00         : DEPTH        - DEPTH
GR  .API      00 310 00 00         : GR           - GAMMA RAY
NPHI.V/V      00 330 00 00         : PHIN         - NEUTRON POROSITY (SANDSTONE)
DPHI.V/V      00 890 00 00         : PHID         - DENSITY POROSITY (SANDSTONE)
ILD .OHMM     00 120 00 00         : RESD         - DEEP RESISTIVITY (DIL)
~PARAMETER INFORMATION
#MNEM.UNIT           DATA             DESCRIPTION OF MNEMONIC
#---------         -----------     ------------------------------
GL  .F        1695                 : gl           - GROUND LEVEL ELEVATION
EREF.F        1707                 : kb           - ELEVATION OF DEPTH REFERENCE
DATM.F        1707                 : datum        - DATUM ELEVATION
TDD .F        1290                 : tdd          - TOTAL DEPTH DRILLER
RUN .         ONE                  : Run          - RUN NUMBER
ENG .         BILL                 : Engineer     - RECORDING ENGINEER
WIT .         JIM                  : Witness      - WITNESSED BY
MUD .         GEL                  : Mud_type     - MUD TYPE
MATR.         SANDSTONE            : Logunit      - NEUTRON MATRIX
TMAX.F        69                   : BHT          - MAXIMUM RECORDED TEMPERATURE
BHTD.F        1290                 : BHTDEP       - MAXIMUM RECORDED TEMPERATURE
MATR.         1                    : LOGUNIT      - NEUTRON MATRIX
RMT .F        77                   : MDTP         - TEMPERATURE OF MUD
NEUT.         1                    : NEUTRON      - NEUTRON TYPE
RESI.         4.5                  : RESIST       - RESISTIVITY TYPE
RMC .OHMM     4.5                  : RMC          - RESISTIVITY OF MUD CAKE
RMF .OHMM     4.5                  : RMF          - RESISTIVITY OF MUD FILTRATE
SUFT.F        59                   : SUFT         - SURFACE TEMPERATURE
~A  DEPTH       GR     PHIN     PHID     RESD
# ...
  818.150   74.628    0.437    0.253   11.288
  818.970   75.263    0.460    0.283    8.695
  819.790   77.126    0.458    0.288    8.385
  820.610   77.767    0.457    0.282    8.238
  821.430   78.417    0.455    0.281    8.399
  822.251   79.051    0.452    0.291    8.895
  823.071   79.701    0.448    0.290    9.240
  823.891   80.350    0.445    0.286   10.157
  824.711   80.992    0.442    0.290   10.551
  825.531   81.634    0.440    0.287   11.174
  826.352   82.276    0.449    0.279   11.393
  827.172   82.926    0.444    0.272   11.197
  827.992   83.560    0.438    0.264   10.992
  828.812   86.034    0.437    0.276   10.601
  829.633   87.897    0.442    0.284   10.221
  830.453   90.363    0.445    0.276    9.855
  831.273   93.447    0.473    0.262    9.153
  832.093   97.150    0.479    0.246    8.660
  832.913   99.013    0.456    0.235    7.748
  833.734  100.266    0.445    0.224    7.332
  834.554  100.297    0.434    0.237    7.341
  835.374  100.336    0.434    0.252    7.484
  836.194   99.757    0.433    0.258    7.634
  837.014   98.574    0.431    0.259    7.644
  837.835   97.979    0.431    0.260    7.506
  838.655   96.789    0.435    0.262    7.239
  839.475   95.614    0.440    0.265    6.600
  840.295   95.638    0.449    0.260    6.361
  841.115   95.661    0.469    0.235    5.800
  841.936   96.921    0.473    0.228    5.592
  842.756   98.174    0.484    0.222    5.596
  843.576  100.037    0.491    0.245    5.602
  844.396  100.679    0.488    0.244    5.607
  845.217  100.710    0.484    0.241    5.612
  846.037  100.749    0.484    0.243    5.618
  846.857  100.772    0.486    0.247    5.517
  847.677  102.041    0.481    0.252    5.321
  848.497  102.064    0.481    0.255    5.226
  849.318  103.316    0.488    0.258    5.039
  850.138  105.180    0.511    0.262    4.682
  850.958  107.043    0.534    0.277    4.350
  851.778  107.074    0.549    0.280    4.115
  852.598  106.502    0.551    0.288    3.967
  853.419  106.526    0.540    0.292    3.684
  854.239  105.962    0.526    0.291    3.487
  855.059  105.985    0.531    0.286    3.363
  855.879  105.398    0.536    0.281    3.494
  856.699  104.826    0.524    0.272    3.767
  857.520  103.033    0.505    0.267    4.547
  858.340  101.835    0.494    0.261    5.186
  859.160  100.026    0.485    0.246    5.916
  859.980   97.012    0.475    0.231    7.140
  860.801   94.601    0.465    0.202    7.147
  861.621   93.403    0.449    0.183    6.764
  862.441   94.052    0.441    0.168    6.400
  863.261  100.190    0.466    0.196    5.946
  864.081  108.160    0.473    0.242    5.626
  864.902  105.146    0.475    0.261    5.528
  865.722  100.894    0.473    0.270    5.531
  866.542   94.819    0.469    0.261    5.640
  867.362   89.354    0.466    0.244    5.752
  868.182   82.676    0.471    0.244    5.979
  869.003   80.867    0.482    0.286    5.982
  869.823   84.570    0.490    0.302    5.878
  870.643   89.487    0.495    0.299    5.774
  871.463   90.128    0.505    0.286    5.672
  872.283   89.557    0.516    0.287    5.572
  873.104   88.969    0.511    0.294    5.577
  873.924   88.993    0.505    0.294    5.586
  874.744   88.421    0.500    0.295    5.589
  875.564   87.841    0.498    0.291    5.594
  876.385   87.873    0.492    0.266    5.704
  877.205   87.293    0.485    0.257    5.927
  878.025   87.332    0.482    0.255    6.158
  878.845   87.363    0.478    0.253    6.280
  879.665   87.394    0.474    0.249    6.524
  880.486   88.028    0.469    0.248    6.908
  881.306   88.686    0.466    0.255    6.914
  882.126   88.709    0.466    0.273    6.922
  882.946   88.733    0.466    0.277    6.928
  883.766   88.764    0.463    0.263    7.063
  884.587   88.192    0.457    0.273    7.073
  885.407   87.605    0.456    0.285    7.076
  886.227   87.033    0.458    0.278    6.451
  887.047   86.469    0.458    0.269    5.880
  887.867   87.096    0.454    0.257    5.261
  888.688   88.348    0.459    0.211    4.536
  889.508   89.601    0.486    0.230    4.057
  890.328   90.242    0.503    0.258    3.564
  891.148   90.281    0.520    0.269    3.309
  891.969   90.312    0.534    0.276    2.906
  892.789   90.962    0.548    0.273    2.699
  893.609   90.978    0.546    0.276    2.604
  894.429   90.398    0.535    0.281    2.605
  895.249   88.597    0.531    0.285    2.559
  896.070   88.018    0.539    0.289    2.514
  896.890   92.966    0.559    0.290    2.517
  897.710   94.195    0.551    0.283    2.518
  898.530   96.058    0.551    0.274    2.522
  899.350   97.921    0.552    0.269    2.571
  900.171   99.174    0.552    0.268    2.774
  900.991   99.205    0.548    0.268    2.936
  901.811   98.633    0.546    0.265    3.351
  902.631   95.611    0.520    0.257    3.480
  903.451   91.970    0.515    0.246    3.897
  904.272   89.567    0.501    0.237    4.283
  905.092   92.659    0.478    0.227    4.706
  905.912   95.141    0.467    0.229    5.172
  906.732   96.377    0.443    0.231    5.684
  907.552   95.195    0.437    0.235    5.798
  908.373   94.013    0.427    0.238    5.802
  909.193   94.028    0.455    0.239    5.699
  910.013   94.670    0.453    0.249    5.395
  910.833   94.701    0.451    0.260    5.105
  911.654   95.954    0.462    0.233    4.742
  912.474   97.817    0.491    0.236    4.571
  913.294  100.291    0.481    0.242    4.168
  914.114   98.490    0.461    0.245    4.018
  914.934   98.529    0.464    0.244    3.948
  915.755  100.400    0.467    0.245    3.878
  916.575  102.263    0.471    0.246    3.880
  917.395  102.913    0.478    0.246    3.814
  918.215  103.539    0.486    0.239    3.746
  919.035  103.578    0.479    0.234    3.749
  919.856  102.380    0.481    0.236    3.683
  920.676  101.198    0.486    0.235    3.686
  921.496  100.610    0.495    0.235    3.690
  922.316  100.039    0.502    0.235    3.694
  923.136  100.070    0.503    0.237    4.060
  923.957   99.483    0.497    0.236    4.217
  924.777   98.903    0.487    0.237    4.813
  925.597   97.721    0.468    0.241    4.998
  926.417   96.531    0.435    0.251    5.599
  927.238   94.745    0.425    0.255    5.817
  928.058   94.158    0.419    0.248    5.715
  928.878   94.189    0.414    0.233    5.510
  929.698   93.617    0.419    0.221    5.515
  930.518   93.022    0.442    0.218    5.624
  931.339   91.840    0.442    0.211    5.955
  932.159   91.253    0.431    0.184    6.185
  932.979   88.841    0.407    0.126    6.547
  933.799   80.934    0.395    0.051    7.195
  934.619   78.522    0.380    0.147    8.525
  935.440   83.439    0.399    0.190    8.856
  936.260   86.523    0.399    0.225    8.699
  937.080   84.112    0.392    0.226    8.233
  937.900   81.090    0.387    0.232    7.366
  938.720   78.067    0.429    0.260    6.349
  939.541   76.266    0.439    0.274    5.472
  940.361   75.687    0.431    0.268    4.988
  941.181   75.123    0.425    0.261    4.381
  942.001   77.605    0.420    0.261    3.919
  942.822   78.842    0.465    0.263    3.640
  943.642   81.926    0.498    0.264    3.510
  944.462   86.232    0.488    0.267    3.786
  945.282   87.485    0.464    0.268    4.084
  946.102   85.073    0.444    0.273    4.242
  946.923   78.387    0.435    0.276    4.491
  947.743   69.869    0.407    0.314    5.031
  948.563   64.412    0.390    0.314    5.325
  949.383   66.275    0.396    0.313    5.853
  950.203   70.581    0.400    0.309    6.195
  951.024   73.657    0.399    0.288    6.811
  951.844   91.406    0.389    0.243    7.073
  952.664   96.330    0.395    0.267    7.349
  953.484   93.911    0.393    0.270    7.636
  954.304   91.507    0.383    0.264    7.787
  955.125   91.530    0.377    0.204    7.943
  955.945   95.226    0.370    0.191    7.803
  956.765  105.035    0.389    0.197    7.523
  957.585  112.394    0.420    0.198    7.256
  958.406  114.868    0.435    0.198    7.126
  959.226  115.510    0.448    0.203    6.745
  960.046  115.557    0.459    0.201    6.505
