~VERSION INFORMATION
 VERS.                 2.0:   CWLS LOG ASCII STANDARD -VERSION 2.0
 WRAP.                  NO:   ONE LINE PER DEPTH STEP
~WELL INFORMATION BLOCK
#MNEM.UNIT           DATA                    DESCRIPTION OF MNEMONIC
#---------    -------------------            -------------------------------
# Generated from Intellog Unique Number	CW_73_75/WELL/2746
WELL.         GAO ET AL KELLY                : Well_name    - WELL
LOC .         00/11-21-073-19W4/0            : Location     - LOCATION
UWI .         00/11-21-073-19W4/0            : Uwi          - UNIQUE WELL ID
ENTR.         JAYE                           : Entered      - ENTERED BY
SRVC.         SCHLUMBERGER                   : Scn          - SERVICE COMPANY
DATE.         20 JAN 77                      : Date         - LOG DATE
STRT.M        350.52                         : top_depth    - START DEPTH
STOP.M        585.27                         : bot_depth    - STOP DEPTH
STEP.M        0.25                           : increment    - STEP LENGTH
 NULL. -999.2500:NULL Value
~CURVE INFORMATION BLOCK
#MNEM UNIT       ERCB CURVE CODE    CURVE DESCRIPTION
#-----------   ------------------   ----------------------------------
DEPT.M        00 001 00 00         : DEPTH        - DEPTH
ILD .OHMM     00 120 00 00         : RESD         - DEEP RESISTIVITY (DIL)
NPHI.V/V      00 330 00 00         : PHIN         - NEUTRON POROSITY (SANDSTONE)
DPHI.V/V      00 890 00 00         : PHID         - DENSITY POROSITY (SANDSTONE)
GR  .API      00 310 00 00         : GR           - GAMMA RAY
CALI.MM       00 280 01 00         : CAL          - CALIPER
~PARAMETER INFORMATION
#MNEM.UNIT           DATA             DESCRIPTION OF MNEMONIC
#---------         -----------     ------------------------------
GL  .M        654.71               : gl           - GROUND LEVEL ELEVATION
EREF.M        658.368              : kb           - ELEVATION OF DEPTH REFERENCE
DATM.M        654.71               : datum        - DATUM ELEVATION
TDD .M        620.268              : tdd          - TOTAL DEPTH DRILLER
RUN .         ONE                  : Run          - RUN NUMBER
MATR.         SANDSTONE            : Logunit      - NEUTRON MATRIX
TMAX.C        30                   : BHT          - MAXIMUM RECORDED TEMPERATURE
BHTD.M        620.268              : BHTDEP       - MAXIMUM RECORDED TEMPERATURE
RMT .C        15.5556              : MDTP         - TEMPERATURE OF MUD
MUDD.KG/M     0                    : MWT          - MUD DENSITY
NEUT.         1                    : NEUTRON      - NEUTRON TYPE
RESI.         0                    : RESIST       - RESISTIVITY TYPE
RM  .OHMM     8.1                  : RM           - RESISTIVITY OF MUD
RMC .OHMM     9.2                  : RMC          - RESISTIVITY OF MUD CAKE
RMF .OHMM     6.3                  : RMF          - RESISTIVITY OF MUD FILTRATE
SUFT.C        -17.7778             : SUFT         - SURFACE TEMPERATURE
~A  DEPTH     RESD     PHIN     PHID       GR      CAL
  350.520    2.952    0.517    0.191  148.487  204.650
  350.770    2.850    0.514    0.242  144.469  204.836
  351.020    2.812    0.509    0.205  143.616  204.321
  351.270    2.734    0.513    0.214  149.932  203.595
  351.520    2.639    0.520    0.197  155.401  203.704
  351.770    2.580    0.506    0.191  152.846  205.750
  352.020    2.556    0.508    0.212  146.581  209.449
  352.270    2.587    0.519    0.237  143.171  213.032
  352.520    2.707    0.535    0.223  142.191  217.061
  352.770    2.858    0.546    0.253  142.863  220.339
  353.020    2.969    0.558    0.243  142.797  224.237
  353.270    3.061    0.570    0.237  144.309  217.739
  353.520    3.048    0.554    0.221  146.740  211.662
  353.770    3.030    0.508    0.204  151.536  207.851
  354.020    2.951    0.510    0.218  157.916  204.866
  354.270    2.923    0.522    0.210  162.111  200.319
  354.520    3.019    0.534    0.196  159.976  198.248
  354.770    3.194    0.541    0.238  154.378  198.678
  355.020    3.486    0.537    0.253  151.517  200.501
  355.270    3.860    0.523    0.269  147.679  203.387
  355.520    4.330    0.509    0.287  140.016  206.258
  355.770    4.947    0.494    0.318  132.471  215.306
  356.020    5.409    0.457    0.357  126.631  193.676
  356.270    5.753    0.419    0.384  125.106  168.446
  356.520    5.943    0.447    0.267  143.283  166.272
  356.770    5.950    0.465    0.255  152.947  177.505
  357.020    5.871    0.454    0.241  158.843  186.553
  357.270    5.782    0.420    0.229  157.804  187.051
  357.520    5.738    0.406    0.238  139.922  166.662
  357.770    5.734    0.415    0.256  128.912  163.878
  358.020    5.730    0.430    0.263  132.622  164.289
  358.270    5.727    0.435    0.259  135.837  165.097
  358.520    5.724    0.418    0.251  139.975  166.322
  358.770    5.732    0.406    0.247  132.909  166.422
  359.020    5.698    0.403    0.246  135.405  166.003
  359.270    5.612    0.406    0.247  140.566  167.354
  359.520    5.537    0.400    0.252  149.260  168.873
  359.770    5.434    0.402    0.237  155.337  171.445
  360.020    5.284    0.428    0.220  159.035  174.625
  360.270    5.138    0.440    0.205  153.133  175.647
  360.520    5.088    0.436    0.182  147.170  175.536
  360.770    5.237    0.446    0.193  144.250  171.936
  361.020    5.439    0.462    0.237  144.186  169.138
  361.270    5.588    0.487    0.243  144.848  168.419
  361.520    5.719    0.499    0.228  143.569  168.622
  361.770    5.675    0.461    0.257  136.571  167.377
  362.020    5.349    0.439    0.260  131.036  165.818
  362.270    5.014    0.414    0.239  133.776  166.222
  362.520    4.787    0.427    0.257  137.717  168.382
  362.770    4.595    0.451    0.265  143.001  170.545
  363.020    4.436    0.457    0.254  147.862  173.311
  363.270    4.337    0.460    0.233  152.541  176.592
  363.520    4.471    0.466    0.240  156.547  180.913
  363.770    4.679    0.478    0.254  155.996  181.834
  364.020    5.004    0.484    0.244  148.270  181.625
  364.270    5.491    0.483    0.242  147.174  177.917
  364.520    5.788    0.471    0.257  151.671  173.576
  364.770    6.190    0.454    0.250  158.600  168.525
  365.020    6.452    0.437    0.236  160.359  165.124
  365.270    6.497    0.409    0.229  150.987  163.897
  365.520    6.434    0.403    0.232  144.175  164.285
  365.770    6.267    0.410    0.239  147.395  165.096
  366.020    6.128    0.398    0.249  152.679  164.585
  366.270    6.025    0.396    0.246  155.473  164.685
  366.520    5.923    0.399    0.238  144.460  164.977
  366.770    5.920    0.402    0.224  137.893  166.316
  367.020    5.960    0.410    0.231  142.030  169.905
  367.270    6.089    0.431    0.196  143.239  175.151
  367.520    6.176    0.436    0.157  140.735  180.293
  367.770    6.298    0.427    0.153  134.103  172.462
  368.020    6.387    0.408    0.215  123.945  165.145
  368.270    6.467    0.390    0.235  126.921  173.192
  368.520    6.595    0.395    0.191  141.754  176.043
  368.770    6.787    0.418    0.172  148.862  174.592
  369.020    7.011    0.402    0.196  141.138  166.861
  369.270    7.281    0.380    0.210  139.982  166.449
  369.520    7.439    0.380    0.203  143.319  173.443
  369.770    7.491    0.395    0.215  143.861  173.845
  370.020    7.086    0.406    0.224  134.432  167.041
  370.270    6.778    0.399    0.232  124.274  165.910
  370.520    6.424    0.377    0.221  131.262  171.869
  370.770    6.021    0.392    0.198  138.495  179.582
  371.020    5.759    0.411    0.173  146.760  189.460
  371.270    5.600    0.431    0.198  152.350  197.292
  371.520    5.577    0.448    0.174  156.725  200.573
  371.770    5.523    0.452    0.161  158.666  199.120
  372.020    5.500    0.449    0.161  154.526  193.859
  372.270    5.477    0.444    0.162  147.896  187.892
  372.520    5.374    0.438    0.174  145.458  187.879
  372.770    5.274    0.436    0.208  146.307  190.449
  373.020    5.091    0.446    0.203  151.410  198.262
  373.270    4.887    0.444    0.192  156.335  204.020
  373.520    4.769    0.435    0.210  154.869  198.876
  373.770    4.828    0.425    0.180  156.022  196.494
  374.020    5.164    0.438    0.168  161.186  197.307
  374.270    5.835    0.456    0.156  169.935  201.217
  374.520    6.380    0.458    0.165  174.917  202.968
  374.770    6.761    0.478    0.188  169.622  199.450
  375.020    6.997    0.473    0.199  156.546  186.262
  375.270    7.149    0.446    0.234  142.070  177.507
  375.520    7.144    0.389    0.251  124.129  170.701
  375.770    7.050    0.360    0.231  126.622  171.530
  376.020    6.906    0.393    0.193  133.667  179.446
  376.270    6.653    0.435    0.182  129.167  181.597
  376.520    6.434    0.405    0.203  129.953  175.104
  376.770    6.143    0.399    0.216  136.088  174.476
  377.020    5.919    0.410    0.189  142.410  177.469
  377.270    5.599    0.409    0.197  148.366  183.224
  377.520    5.278    0.411    0.204  155.168  188.358
  377.770    5.011    0.426    0.180  164.407  193.191
  378.020    4.972    0.444    0.161  169.694  198.132
  378.270    5.024    0.435    0.170  167.380  199.360
  378.520    5.161    0.421    0.169  166.527  201.714
  378.770    5.244    0.417    0.153  166.034  205.329
  379.020    5.222    0.426    0.137  167.247  204.690
  379.270    5.162    0.424    0.161  154.107  203.452
  379.520    5.075    0.407    0.177  141.456  203.648
  379.770    4.953    0.391    0.162  142.851  204.152
  380.020    4.852    0.410    0.164  148.135  205.611
  380.270    4.787    0.436    0.151  154.699  207.030
  380.520    4.776    0.455    0.150  161.626  207.742
  380.770    4.782    0.467    0.171  163.994  206.607
  381.020    4.762    0.454    0.193  162.473  204.326
  381.270    4.759    0.427    0.192  158.090  193.831
  381.520    4.766    0.414    0.171  147.200  190.214
  381.770    4.720    0.432    0.171  151.270  193.909
  382.020    4.665    0.449    0.163  158.988  197.398
  382.270    4.757    0.483    0.181  166.102  198.113
  382.520    4.870    0.502    0.169  167.735  195.742
  382.770    5.039    0.522    0.171  167.066  193.260
  383.020    5.186    0.507    0.217  163.594  191.606
  383.270    5.319    0.482    0.175  158.484  192.012
  383.520    5.494    0.466    0.158  154.282  195.101
  383.770    5.613    0.470    0.177  158.048  195.411
  384.020    5.714    0.487    0.170  162.969  194.669
  384.270    5.858    0.480    0.174  168.560  193.838
  384.520    5.931    0.468    0.169  173.121  192.095
  384.770    5.960    0.454    0.157  175.241  193.002
  385.020    5.936    0.456    0.168  174.509  194.951
  385.270    5.911    0.449    0.181  171.950  195.049
  385.520    5.822    0.438    0.186  165.073  192.889
  385.770    5.713    0.438    0.174  163.003  188.033
  386.020    5.535    0.464    0.154  164.822  186.077
  386.270    5.412    0.481    0.159  167.860  187.936
  386.520    5.359    0.468    0.186  171.382  189.771
  386.770    5.446    0.467    0.169  174.000  191.508
