~VERSION INFORMATION
 VERS.                 2.0:   CWLS LOG ASCII STANDARD -VERSION 2.0
 WRAP.                  NO:   ONE LINE PER DEPTH STEP
~WELL INFORMATION BLOCK
#MNEM.UNIT           DATA                    DESCRIPTION OF MNEMONIC
#---------    -------------------            -------------------------------
# Generated from Intellog Unique Number	CW_70_72/WELL/3034
NULL.         -999.25                        : NULL_VALUE
WELL.         MIAMI AMOCO HONDO 11-32        : Well_name    - WELL              
LOC .         11-32-070-02W5                 : Location     - LOCATION          
UWI .         00/11-32-070-02W5/0            : Uwi          - UNIQUE WELL ID    
ENTR.         J                              : Entered      - ENTERED BY        
SRVC.         SCHLUMBERGER                   : Scn          - SERVICE COMPANY   
DATE.         30 JAN 75                      : Date         - LOG DATE          
STRT.M        417.576                        : top_depth    - START DEPTH       
STOP.M        634.076                        : bot_depth    - STOP DEPTH        
STEP.M        0.25                           : increment    - STEP LENGTH       
~CURVE INFORMATION BLOCK
#MNEM UNIT       ERCB CURVE CODE    CURVE DESCRIPTION
#-----------   ------------------   ----------------------------------
DEPT.M        00 001 00 00         : DEPTH        - DEPTH                       
ILD .OHMM     00 120 00 00         : RESD         - DEEP RESISTIVITY (DIL)      
CALI.MM       00 280 01 00         : CAL          - CALIPER                     
GR  .API      00 310 00 00         : GR           - GAMMA RAY                   
NPHI.V/V      00 330 00 00         : PHIN         - NEUTRON POROSITY (SANDSTONE)
DPHI.V/V      00 890 00 00         : PHID         - DENSITY POROSITY (SANDSTONE)
~PARAMETER INFORMATION       
#MNEM.UNIT           DATA             DESCRIPTION OF MNEMONIC
#---------         -----------     ------------------------------
GL  .M        591.617              : gl           - GROUND LEVEL ELEVATION      
EREF.M        596.189              : kb           - ELEVATION OF DEPTH REFERENCE
DATM.M        591.617              : datum        - DATUM ELEVATION             
TDD .M        653.796              : tdd          - TOTAL DEPTH DRILLER         
RUN .         ONE                  : Run          - RUN NUMBER                  
ENG .         LAVERDIERE           : Engineer     - RECORDING ENGINEER          
WIT .         MCTAGGART            : Witness      - WITNESSED BY                
BASE.         EDM                  : Branch       - HOME BASE OF LOGGING UNIT   
MUD .         GEL                  : Mud_type     - MUD TYPE                    
MATR.         SANDSTONE            : Logunit      - NEUTRON MATRIX              
TMAX.C        28.3333              : BHT          - MAXIMUM RECORDED TEMPERATURE
BHTD.M        653.796              : BHTDEP       - MAXIMUM RECORDED TEMPERATURE
RMT .C        19.4444              : MDTP         - TEMPERATURE OF MUD          
MUDD.KG/M     1152                 : MWT          - MUD DENSITY                 
NEUT.         1                    : NEUTRON      - NEUTRON TYPE                
RESI.         0                    : RESIST       - RESISTIVITY TYPE            
RM  .OHMM     0.61                 : RM           - RESISTIVITY OF MUD          
RMC .OHMM     0.92                 : RMC          - RESISTIVITY OF MUD CAKE     
RMF .OHMM     0.25                 : RMF          - RESISTIVITY OF MUD FILTRATE 
SUFT.C        -17.7778             : SUFT         - SURFACE TEMPERATURE         
~A  DEPTH     RESD      CAL       GR     PHIN     PHID
# ...
  490.576    1.584  160.301   46.529    0.536    0.389
  490.826    1.611  160.307   47.079    0.582    0.385
  491.076    1.687  160.107   48.117    0.453    0.354
  491.326    1.731  160.216   49.094    0.445    0.379
  491.576    1.754  160.531   50.859    0.457    0.391
  491.826    1.757  160.642   53.781    0.472    0.335
  492.076    1.694  161.163   58.160    0.448    0.292
  492.326    1.634  161.683   62.358    0.431    0.258
  492.576    1.613  162.307   69.959    0.432    0.224
  492.826    1.652  163.446   79.505    0.456    0.195
  493.076    1.811  165.511   84.857    0.473    0.176
  493.326    1.996  167.266   87.110    0.471    0.188
  493.576    2.228  169.744   86.810    0.462    0.196
  493.826    2.446  171.088   86.692    0.475    0.189
  494.076    2.512  171.712   86.149    0.515    0.186
  494.326    2.422  172.028   86.700    0.542    0.189
  494.576    2.300  172.652   88.466    0.543    0.209
  494.826    2.123  172.245   87.680    0.512    0.219
  495.076    2.024  170.399   84.949    0.475    0.198
  495.326    1.952  165.056   78.692    0.445    0.212
  495.576    1.945  161.768   73.044    0.437    0.189
  495.826    2.124  160.643   72.015    0.436    0.191
  496.076    2.350  161.678   70.256    0.437    0.177
  496.326    2.448  161.479   68.072    0.424    0.188
  496.576    2.475  159.943   67.894    0.442    0.183
  496.826    2.412  158.610   68.444    0.435    0.168
  497.076    2.366  157.279   69.360    0.426    0.181
  497.326    2.356  156.360   69.790    0.437    0.199
  497.576    2.227  155.542   69.854    0.432    0.221
  497.826    2.104  154.108   69.128    0.422    0.247
  498.076    2.033  152.673   67.674    0.422    0.262
  498.326    1.993  150.827   64.942    0.435    0.263
  498.576    2.000  149.085   61.786    0.421    0.248
  498.826    2.031  149.710   60.088    0.419    0.258
  499.076    2.050  150.435   60.700    0.427    0.270
  499.326    2.046  152.603   62.283    0.431    0.258
  499.576    2.013  154.566   64.414    0.425    0.253
  499.826    1.909  155.189   63.020    0.435    0.268
  500.076    1.814  155.607   60.107    0.449    0.252
  500.326    1.731  153.248   59.564    0.448    0.249
  500.576    1.683  151.196   60.115    0.433    0.263
  500.826    1.611  151.201   60.727    0.418    0.263
  501.076    1.594  151.723   61.096    0.429    0.257
  501.326    1.595  151.935   61.404    0.446    0.273
  501.576    1.609  152.045   61.712    0.435    0.270
  501.826    1.615  153.390   61.654    0.420    0.257
  502.076    1.665  154.735   61.475    0.413    0.272
  502.326    1.683  155.668   62.451    0.420    0.256
  502.576    1.699  156.497   62.151    0.428    0.241
  502.826    1.711  157.018   58.570    0.432    0.263
  503.076    1.727  156.819   57.722    0.437    0.259
  503.326    1.751  156.927   58.395    0.440    0.255
  503.576    1.761  157.141   59.371    0.424    0.263
  503.826    1.768  157.765   60.591    0.416    0.269
  504.076    1.761  158.285   61.081    0.426    0.252
  504.326    1.758  158.703   60.781    0.422    0.271
  504.576    1.759  158.504   58.597    0.429    0.266
  504.826    1.762  157.894   58.297    0.446    0.248
  505.076    1.756  156.973   60.306    0.431    0.271
  505.326    1.752  155.334   61.221    0.422    0.269
  505.576    1.743  154.310   62.016    0.422    0.252
  505.826    1.740  153.390   62.202    0.440    0.244
  506.076    1.732  153.089   61.537    0.427    0.257
  506.326    1.733  152.890   60.568    0.420    0.259
  506.576    1.723  152.999   58.749    0.417    0.268
  506.826    1.713  153.212   56.808    0.412    0.275
  507.076    1.705  153.940   53.651    0.422    0.275
  507.326    1.711  154.357   52.562    0.435    0.274
  507.576    1.734  154.671   52.747    0.443    0.270
  507.826    1.776  154.576   56.094    0.434    0.257
  508.076    1.835  154.891   58.711    0.426    0.265
  508.326    1.909  156.134   57.864    0.442    0.270
  508.576    1.937  156.653   53.918    0.450    0.267
  508.826    1.973  157.997   51.733    0.455    0.263
  509.076    1.959  158.314   52.770    0.431    0.259
  509.326    1.894  157.702   54.051    0.422    0.269
  509.576    1.861  156.577   53.933    0.417    0.264
  509.826    1.795  155.450   52.965    0.413    0.276
  510.076    1.749  154.945   54.488    0.401    0.280
  510.326    1.718  155.568   57.531    0.384    0.265
  510.576    1.754  156.396   55.589    0.404    0.252
  510.826    1.813  157.742   54.438    0.397    0.258
  511.076    1.863  158.674   58.151    0.392    0.267
  511.326    1.944  158.887   61.253    0.398    0.252
  511.576    2.009  158.790   63.567    0.412    0.225
  511.826    2.093  158.796   60.471    0.411    0.228
  512.076    2.203  157.672   58.651    0.401    0.247
  512.326    2.297  156.031   57.623    0.423    0.244
  512.576    2.446  155.832   57.323    0.456    0.244
  512.826    2.603  158.102   57.448    0.436    0.251
  513.076    2.833  159.859   57.998    0.422    0.237
  513.326    2.972  159.967   60.373    0.447    0.250
  513.576    2.907  159.151   62.929    0.469    0.264
  513.826    2.732  158.129   63.176    0.466    0.277
  514.076    2.462  158.137   61.174    0.447    0.285
  514.326    2.151  158.145   59.658    0.443    0.287
  514.576    1.935  157.944   61.425    0.465    0.308
  514.826    1.811  158.156   59.666    0.447    0.321
  515.076    1.686  158.264   57.057    0.442    0.305
  515.326    1.582  158.888   55.359    0.485    0.329
  515.576    1.537  159.513   54.694    0.541    0.339
  515.826    1.521  159.725   54.272    0.574    0.355
  516.076    1.513  159.938   55.674    0.559    0.360
  516.326    1.513  160.047   58.839    0.464    0.328
  516.576    1.497  160.055   60.544    0.464    0.300
  516.826    1.488  160.060   60.791    0.464    0.281
  517.076    1.486  160.066   56.844    0.445    0.272
  517.326    1.514  160.072   52.108    0.381    0.246
  517.576    1.593  160.285   48.343    0.350    0.205
  517.826    1.793  160.706   49.625    0.349    0.147
  518.076    1.986  161.020   51.573    0.353    0.191
  518.326    2.429  161.539   53.886    0.345    0.200
  518.576    2.935  162.370   55.227    0.336    0.181
  518.826    3.129  162.684   55.048    0.328    0.162
  519.076    3.079  162.693   53.593    0.339    0.171
  519.326    3.012  162.698   53.597    0.353    0.193
  519.576    2.796  162.087   56.458    0.387    0.218
  519.826    2.538  161.991   59.926    0.403    0.249
  520.076    2.380  161.894   64.427    0.415    0.240
  520.326    2.180  161.283   68.200    0.425    0.263
  520.576    1.997  160.671   70.513    0.436    0.257
  520.826    1.863  160.165   68.572    0.445    0.253
  521.076    1.760  159.862   63.166    0.449    0.244
  521.326    1.646  160.590   57.336    0.432    0.266
  521.576    1.561  161.626   55.091    0.431    0.258
  521.826    1.565  162.351   56.310    0.438    0.261
  522.076    1.605  162.156   56.982    0.434    0.248
  522.326    1.674  161.336   56.682    0.394    0.240
  522.576    1.769  158.974   61.427    0.369    0.167
  522.826    1.904  155.277   66.597    0.404    0.226
  523.076    2.134  153.224   70.004    0.428    0.259
  523.326    2.254  153.025   66.787    0.416    0.256
  523.576    2.243  153.548   67.520    0.410    0.269
  523.826    2.166  153.554   67.585    0.420    0.240
  524.076    2.021  152.942   66.313    0.424    0.248
  524.326    1.878  152.949   64.250    0.415    0.254
  524.576    1.763  153.059   61.519    0.430    0.243
  524.826    1.715  154.403   62.312    0.416    0.228
  525.076    1.693  156.982   61.709    0.329    0.186
  525.326    1.725  159.767   57.884    0.248    0.138
  525.576    1.800  162.656   52.964    0.214    0.046
  525.826    2.114  159.266   51.267    0.200    0.027
  526.076    3.175  154.846   52.729    0.205    0.022
  526.326    5.612  156.500   53.098    0.222    0.046
  526.576    7.664  161.755   52.980    0.237    0.037
  526.826    8.604  160.321   53.713    0.227    0.018
