~VERSION INFORMATION
 VERS.                 2.0:   CWLS LOG ASCII STANDARD -VERSION 2.0
 WRAP.                  NO:   ONE LINE PER DEPTH STEP
~WELL INFORMATION BLOCK
#MNEM.UNIT           DATA                    DESCRIPTION OF MNEMONIC
#---------    -------------------            -------------------------------
# Generated from Intellog Unique Number	CN_91_93/WELL/3281
NULL.         -999.2500                      : Null_value
WELL.         PARAMOUNT RESOURCES LTD.       : Well_name    - WELL              
LOC .         00/11-31-093-18W4/0            : Location     - LOCATION          
UWI .         00/11-31-093-18W400            : Uwi          - UNIQUE WELL ID    
ENTR.         JOETTE                         : Entered      - ENTERED BY        
SRVC.         COMPUTALOG                     : Scn          - SERVICE COMPANY   
DATE.         04/29/92                       : Date         - LOG DATE          
STRT.M        85                             : top_depth    - START DEPTH       
STOP.M        240                            : bot_depth    - STOP DEPTH        
STEP.M        0.25                           : increment    - STEP LENGTH       
~CURVE INFORMATION BLOCK
#MNEM UNIT       ERCB CURVE CODE    CURVE DESCRIPTION
#-----------   ------------------   ----------------------------------
DEPT.M        00 001 00 00         : DEPTH        - DEPTH                       
CALI.MM       00 280 01 00         : CAL          - CALIPER                     
GR  .API      00 310 00 00         : GR           - GAMMA RAY                   
NPHI.V/V      00 330 00 00         : PHIN         - NEUTRON POROSITY (SANDSTONE)
DPHI.V/V      00 890 00 00         : PHID         - DENSITY POROSITY (SANDSTONE)
ILD .OHMM     00 120 00 00         : RESD         - DEEP RESISTIVITY (DIL)      
~PARAMETER INFORMATION       
#MNEM.UNIT           DATA             DESCRIPTION OF MNEMONIC
#---------         -----------     ------------------------------
GL  .M        521                  : gl           - GROUND LEVEL ELEVATION      
EREF.M        524.8                : kb           - ELEVATION OF DEPTH REFERENCE
DATM.M        524.8                : datum        - DATUM ELEVATION             
TDD .M        241.5                : tdd          - TOTAL DEPTH DRILLER         
RUN .         ONE                  : Run          - RUN NUMBER                  
ENG .         BILL                 : Engineer     - RECORDING ENGINEER          
WIT .         JIM                  : Witness      - WITNESSED BY                
MUD .         GEL                  : Mud_type     - MUD TYPE                    
MATR.         SANDSTONE            : Logunit      - NEUTRON MATRIX              
TMAX.C        21                   : BHT          - MAXIMUM RECORDED TEMPERATURE
BHTD.M        241.5                : BHTDEP       - MAXIMUM RECORDED TEMPERATURE
RMT .C        16                   : MDTP         - TEMPERATURE OF MUD          
MUDD.KG/M     1080                 : MWT          - MUD DENSITY                 
NEUT.         1                    : NEUTRON      - NEUTRON TYPE                
RESI.         0                    : RESIST       - RESISTIVITY TYPE            
RM  .OHMM     3.9                  : RM           - RESISTIVITY OF MUD          
RMC .OHMM     3.9                  : RMC          - RESISTIVITY OF MUD CAKE     
RMF .OHMM     3.9                  : RMF          - RESISTIVITY OF MUD FILTRATE 
SUFT.C        4                    : SUFT         - SURFACE TEMPERATURE         
~A  DEPTH      CAL       GR     PHIN     PHID     RESD
# ...
  121.500  168.943   83.720    0.479    0.258    6.614
  121.750  168.950   75.446    0.490    0.236    5.710
  122.000  168.464   78.407    0.459    0.207    5.354
  122.250  166.501   85.802    0.475    0.133    5.354
  122.500  165.522   93.198    0.512    0.197    5.019
  122.750  164.052   98.524    0.550    0.234    4.706
  123.000  164.059  102.372    0.549    0.260    4.620
  123.250  164.559  100.307    0.534    0.269    4.748
  123.500  165.058   98.834    0.516    0.266    4.925
  123.750  165.065  101.203    0.497    0.258    4.925
  124.000  164.580  100.912    0.488    0.252    5.108
  124.250  164.587   95.890    0.491    0.255    5.298
  124.500  163.609   92.642    0.479    0.252    5.396
  124.750  162.631   90.873    0.481    0.246    5.106
  125.000  163.132   93.834    0.479    0.249    4.832
  125.250  164.126   97.090    0.503    0.256    4.531
  125.500  164.132  100.938    0.524    0.241    4.327
  125.750  164.140  104.490    0.532    0.228    4.248
  126.000  164.146  103.903    0.529    0.221    4.247
  126.250  164.154   99.472    0.524    0.247    4.405
  126.500  163.668   95.042    0.517    0.261    4.828
  126.750  164.169   90.317    0.504    0.267    5.243
  127.000  166.639   85.000    0.471    0.269    5.852
  127.250  165.169   84.413    0.463    0.267    6.240
  127.500  162.711   86.191    0.467    0.260    6.070
  127.750  159.763   88.856    0.476    0.250    5.958
  128.000  164.699   93.296    0.491    0.237    6.124
  128.250  166.676   90.047    0.501    0.243    6.411
  128.500  166.683   71.426    0.499    0.259    6.898
  128.750  164.228   64.039    0.484    0.275    7.355
  129.000  160.787   60.792    0.477    0.283    7.629
  129.250  158.329   59.022    0.460    0.300    7.913
  129.500  158.829   51.340    0.459    0.302    7.488
  129.750  159.821   70.265    0.433    0.276    6.957
  130.000  156.874   86.826    0.433    0.225    6.464
  130.250  159.836   86.831    0.451    0.179    6.061
  130.500  163.292   89.496    0.456    0.209    6.060
  130.750  166.256   86.248    0.427    0.252    6.461
  131.000  168.236   79.748    0.444    0.268    6.763
  131.250  169.229   75.023    0.460    0.268    6.825
  131.500  167.758   75.618    0.427    0.288    6.700
  131.750  166.780   80.944    0.441    0.290    6.340
  132.000  170.237   88.931    0.495    0.273    6.000
  132.250  169.750   93.666    0.504    0.256    5.574
  132.500  166.308   93.966    0.496    0.233    5.132
  132.750  162.867   99.292    0.499    0.209    4.812
  133.000  161.889  106.983    0.509    0.200    4.595
  133.250  160.418  110.240    0.513    0.221    4.389
  133.500  160.918  109.949    0.502    0.233    4.348
  133.750  161.417  107.588    0.499    0.238    4.387
  134.000  161.917  104.044    0.516    0.241    4.509
  134.250  160.939   99.319    0.535    0.242    4.677
  134.500  161.440  100.506    0.510    0.245    4.807
  134.750  161.941  102.284    0.487    0.249    4.851
  135.000  162.440  102.879    0.493    0.254    4.850
  135.250  162.452  101.997    0.481    0.260    4.761
  135.500  162.947   98.453    0.469    0.271    4.631
  135.750  163.448   96.683    0.468    0.274    4.588
  136.000  162.469   99.053    0.505    0.269    4.546
  136.250  162.969   99.058    0.505    0.270    4.672
  136.500  165.440   95.514    0.480    0.266    4.936
  136.750  165.941   91.972    0.463    0.260    5.215
  137.000  165.454   86.654    0.481    0.262    5.611
  137.250  163.491   80.745    0.485    0.253    6.321
  137.500  160.543   77.498    0.472    0.249    7.253
  137.750  157.593   79.572    0.464    0.288    8.634
  138.000  155.137   80.167    0.460    0.286    8.955
  138.250  158.102   79.285    0.457    0.284    8.475
  138.500  160.571   81.063    0.459    0.284    7.521
  138.750  162.550   84.911    0.455    0.280    6.433
  139.000  162.065   85.211    0.451    0.267    6.201
  139.250  161.086   90.241    0.470    0.234    5.868
  139.500  160.108  102.367    0.492    0.206    5.552
  139.750  160.115  109.172    0.509    0.199    5.303
  140.000  161.601  107.107    0.479    0.183    5.206
  140.250  159.145  109.476    0.469    0.195    5.017
  140.500  161.616  108.003    0.482    0.188    4.836
  140.750  164.579  105.345    0.496    0.173    4.836
  141.000  166.065  102.098    0.511    0.169    4.703
  141.250  166.072  102.399    0.519    0.197    4.492
  141.500  165.094  105.063    0.509    0.217    4.250
  141.750  162.639  109.798    0.524    0.229    3.985
  142.000  160.181  109.507    0.538    0.244    3.806
  142.250  158.219  107.442    0.529    0.249    3.635
  142.500  157.733  105.672    0.512    0.262    3.346
  142.750  157.739  103.311    0.518    0.273    3.167
  143.000  157.747   98.882    0.532    0.286    3.052
  143.250  157.757   94.747    0.534    0.287    2.942
  143.500  157.762   96.820    0.536    0.284    2.888
  143.750  159.740  102.738    0.543    0.291    2.887
  144.000  160.240  100.082    0.550    0.290    2.995
  144.250  157.786   98.313    0.557    0.280    3.193
  144.500  157.793   98.908    0.553    0.273    3.436
  144.750  158.292   95.956    0.531    0.268    3.871
  145.000  159.285   93.003    0.489    0.261    4.566
  145.250  161.264   88.869    0.467    0.252    5.191
  145.500  161.762   85.030    0.454    0.234    6.351
  145.750  158.814   79.713    0.417    0.208    8.062
  146.000  154.878   68.778    0.355    0.160   10.422
  146.250  150.945   60.800    0.241    0.083   12.181
  146.500  150.461   62.874    0.265    0.088   14.367
  146.750  151.945   69.679    0.293    0.142   16.790
  147.000  152.938   71.752    0.322    0.199   12.631
  147.250  153.930   76.191    0.385    0.209   11.312
  147.500  150.488   82.700    0.421    0.212    8.910
  147.750  150.496   85.365    0.440    0.239    7.834
  148.000  155.430   88.917    0.450    0.245    6.889
  148.250  154.452   87.740    0.462    0.239    6.459
  148.500  154.459   86.266    0.456    0.229    6.458
  148.750  160.872   84.200    0.447    0.242    6.457
  149.000  152.010   82.431    0.433    0.250    6.398
  149.250  149.554   87.461    0.433    0.242    6.110
  149.500  158.923   93.674    0.443    0.236    5.835
  149.750  164.351   96.635    0.448    0.246    5.781
  150.000  162.880   92.796    0.455    0.254    6.051
  150.250  161.411   87.183    0.465    0.272    6.277
  150.500  163.388   80.388    0.465    0.277    6.632
  150.750  164.380   72.705    0.458    0.269    7.202
  151.000  159.460   67.980    0.447    0.262    8.811
  151.250  159.467   65.028    0.444    0.289    9.056
  151.500  161.446   63.258    0.434    0.321    9.656
  151.750  162.932   62.375    0.413    0.331   10.108
  152.000  163.432   64.450    0.431    0.318   10.107
  152.250  161.962   67.706    0.428    0.293    9.741
  152.500  159.997   70.372    0.413    0.277    9.050
  152.750  156.555   68.897    0.405    0.254    7.958
  153.000  157.548   72.745    0.430    0.186    6.934
  153.250  160.513   79.253    0.493    0.236    5.877
  153.500  164.461   84.284    0.527    0.251    4.758
  153.750  163.483   89.315    0.538    0.260    4.146
  154.000  162.012   91.092    0.526    0.258    4.107
  154.250  161.035   93.166    0.505    0.253    4.183
  154.500  161.535   91.398    0.461    0.243    4.378
  154.750  162.035   93.471    0.477    0.240    4.711
  155.000  162.535   93.475    0.488    0.234    5.070
  155.250  162.542   95.846    0.481    0.233    5.506
  155.500  164.519   96.737    0.463    0.226    6.089
  155.750  164.035   97.037    0.432    0.224    6.433
  156.000  159.607   99.998    0.440    0.245    6.374
  156.250  159.122  102.071    0.471    0.258    5.976
  156.500  160.608  100.302    0.514    0.260    5.552
  156.750  161.108   97.054    0.507    0.264    5.303
  157.000  160.623   94.102    0.497    0.266    5.158
  157.250  158.166   89.080    0.496    0.257    5.205
  157.500  159.159   82.285    0.462    0.240    5.349
  157.750  162.123   74.011    0.303    0.153    6.082
