~VERSION INFORMATION
 VERS.                 2.0:   CWLS LOG ASCII STANDARD -VERSION 2.0
 WRAP.                  NO:   ONE LINE PER DEPTH STEP
~WELL INFORMATION BLOCK
#MNEM.UNIT           DATA                    DESCRIPTION OF MNEMONIC
#---------    -------------------            -------------------------------
# Generated from Intellog Unique Number	CS_73_76/WELL/806
WELL.         PACIFIC PHILLIPS AEC WIAU      : Well_name    - WELL
LOC .         00/10-03-073-07W4/0            : Location     - LOCATION
UWI .         00/10-03-073-07W4/0            : Uwi          - UNIQUE WELL ID
ENTR.         SP                             : Entered      - ENTERED BY
SRVC.         SCHLUMBERGER                   : Scn          - SERVICE COMPANY
STRT.M        340                            : top_depth    - START DEPTH
STOP.M        560                            : bot_depth    - STOP DEPTH
STEP.M        0.25                           : increment    - STEP LENGTH
 NULL. -999.2500:NULL Value
~CURVE INFORMATION BLOCK
#MNEM UNIT       ERCB CURVE CODE    CURVE DESCRIPTION
#-----------   ------------------   ----------------------------------
DEPT.M        00 001 00 00         : DEPTH        - DEPTH
ILD .OHMM     00 120 00 00         : RESD         - DEEP RESISTIVITY (DIL)
DPHI.V/V      00 890 00 00         : PHID         - DENSITY POROSITY (LIMESTONE)
NPHI.V/V      00 330 00 00         : PHIN         - NEUTRON POROSITY (LIMESTONE)
GR  .API      00 310 00 00         : GR           - GAMMA RAY
~PARAMETER INFORMATION
#MNEM.UNIT           DATA             DESCRIPTION OF MNEMONIC
#---------         -----------     ------------------------------
GL  .M        720.71               : gl           - GROUND LEVEL ELEVATION
EREF.M        723.71               : kb           - ELEVATION OF DEPTH REFERENCE
DATM.M        720.71               : datum        - DATUM ELEVATION
TDD .M        573                  : tdd          - TOTAL DEPTH DRILLER
RUN .         ONE                  : Run          - RUN NUMBER
ENG .         BILL                 : Engineer     - RECORDING ENGINEER
WIT .         JIM                  : Witness      - WITNESSED BY
MUD .         GEL                  : Mud_type     - MUD TYPE
MATR.         LIMESTONE            : Logunit      - NEUTRON MATRIX
TMAX.C        16                   : BHT          - MAXIMUM RECORDED TEMPERATURE
BHTD.M        573                  : BHTDEP       - MAXIMUM RECORDED TEMPERATURE
MATR.         1                    : LOGUNIT      - NEUTRON MATRIX
RMT .C        25                   : MDTP         - TEMPERATURE OF MUD
NEUT.         1                    : NEUTRON      - NEUTRON TYPE
RESI.         0                    : RESIST       - RESISTIVITY TYPE
RMC .OHMM     0.25                 : RMC          - RESISTIVITY OF MUD CAKE
RMF .OHMM     0.25                 : RMF          - RESISTIVITY OF MUD FILTRATE
SUFT.C        15                   : SUFT         - SURFACE TEMPERATURE
~A  DEPTH     RESD     PHID     PHIN       GR
# ...
  383.500   16.515    0.263    0.416   49.178
  383.750   16.206    0.285    0.410   50.397
  384.000   16.202    0.279    0.408   54.048
  384.250   16.194    0.265    0.413   54.662
  384.500   16.493    0.255    0.409   53.455
  384.750   17.107    0.262    0.407   51.034
  385.000   18.075    0.267    0.409   48.611
  385.250   18.748    0.279    0.402   44.974
  385.500   19.448    0.295    0.400   43.768
  385.750   20.174    0.290    0.401   44.987
  386.000   20.922    0.287    0.400   43.172
  386.250   21.306    0.301    0.392   37.715
  386.500   21.697    0.289    0.400   37.721
  386.750   21.691    0.283    0.402   40.157
  387.000   21.685    0.281    0.390   41.985
  387.250   21.278    0.291    0.385   39.565
  387.500   20.501    0.285    0.402   37.748
  387.750   20.120    0.270    0.407   35.935
  388.000   19.747    0.285    0.397   35.939
  388.250   19.018    0.286    0.392   37.161
  388.500   18.664    0.287    0.394   40.814
  388.750   18.317    0.287    0.404   43.856
  389.000   17.977    0.276    0.418   45.077
  389.250   17.973    0.298    0.406   36.583
  389.500   17.967    0.315    0.397   33.551
  389.750   17.959    0.308    0.400   35.989
  390.000   17.954    0.304    0.412   37.210
  390.250   17.948    0.297    0.415   34.787
  390.500   17.942    0.294    0.418   32.365
  390.750   17.938    0.298    0.418   36.624
  391.000   17.603    0.288    0.427   38.451
  391.250   17.596    0.284    0.431   42.105
  391.500   17.591    0.274    0.418   44.538
  391.750   17.264    0.278    0.415   41.509
  392.000   16.942    0.294    0.408   40.908
  392.250   16.628    0.310    0.415   42.737
  392.500   16.316    0.297    0.433   45.173
  392.750   15.719    0.294    0.440   42.751
  393.000   15.425    0.321    0.454   40.328
  393.250   14.862    0.317    0.430   44.589
  393.500   13.800    0.286    0.422   46.415
  393.750   12.812    0.269    0.419   51.282
  394.000   11.897    0.274    0.422   55.540
  394.250   10.645    0.274    0.413   61.012
  394.500    9.351    0.248    0.413   68.309
  394.750    8.683    0.254    0.419   70.743
  395.000    8.061    0.238    0.439   73.786
  395.250    7.911    0.229    0.466   88.975
  395.500    8.514    0.223    0.493   91.410
  395.750    8.833    0.235    0.491   88.381
  396.000    9.507    0.245    0.472   85.352
  396.250   10.421    0.251    0.450   82.930
  396.500   10.613    0.241    0.451   81.722
  396.750   11.008    0.239    0.456   82.337
  397.000   10.605    0.247    0.449   84.775
  397.250   10.603    0.251    0.444   85.994
  397.500   10.598    0.254    0.452   87.215
  397.750   10.994    0.259    0.451   85.400
  398.000   11.617    0.246    0.453   79.333
  398.250   12.974    0.243    0.470   73.268
  398.500   14.489    0.235    0.476   65.379
  398.750   15.592    0.240    0.467   59.313
  399.000   15.880    0.258    0.450   56.892
  399.250   15.875    0.275    0.447   58.721
  399.500   13.689    0.284    0.453   66.016
  399.750   12.025    0.286    0.461   73.917
  400.000   10.563    0.260    0.453   79.997
  400.250    9.452    0.235    0.480   82.433
  400.500    8.459    0.217    0.493   83.654
  400.750    7.430    0.214    0.511   83.662
  401.000    6.773    0.209    0.510   85.490
  401.250    6.060    0.197    0.517   87.926
  401.500    5.524    0.208    0.498   92.184
  401.750    5.420    0.197    0.504   94.012
  402.000    5.419    0.197    0.511   91.590
  402.250    6.052    0.206    0.492   86.131
  402.500    7.277    0.219    0.492   80.674
  402.750    8.912    0.242    0.456   76.430
  403.000    9.773    0.237    0.438   74.007
  403.250   10.914    0.226    0.429   70.977
  403.500   11.532    0.238    0.450   67.341
  403.750   11.742    0.246    0.457   64.916
  404.000   11.739    0.250    0.469   60.673
  404.250   11.735    0.281    0.477   57.643
  404.500   11.516    0.297    0.450   54.613
  404.750   11.300    0.311    0.445   57.657
  405.000   11.297    0.297    0.454   61.309
  405.250   11.293    0.283    0.471   62.529
  405.500   11.500    0.277    0.475   58.893
  405.750   11.711    0.282    0.471   54.649
  406.000   12.146    0.294    0.474   52.833
  406.250   12.369    0.307    0.465   54.057
  406.500   12.366    0.312    0.460   52.849
  406.750   12.589    0.305    0.451   51.640
  407.000   12.356    0.296    0.447   52.863
  407.250   12.128    0.288    0.449   55.905
  407.500   11.683    0.289    0.441   58.341
  407.750   11.048    0.288    0.449   61.993
  408.000   10.644    0.274    0.459   64.429
  408.250   10.447    0.268    0.475   66.257
  408.500   10.253    0.275    0.467   67.479
  408.750   10.250    0.274    0.460   66.270
  409.000   10.437    0.269    0.443   63.847
  409.250   10.826    0.261    0.422   65.677
  409.500   10.822    0.253    0.413   67.505
  409.750   10.819    0.245    0.412   67.512
  410.000   10.616    0.246    0.423   66.913
  410.250   10.613    0.256    0.421   66.922
  410.500   10.609    0.272    0.413   67.536
  410.750   10.412    0.272    0.415   67.542
  411.000   10.218    0.261    0.423   67.546
  411.250    9.664    0.250    0.425   64.516
  411.500    9.485    0.240    0.431   71.205
  411.750    9.659    0.233    0.455   73.639
  412.000   10.019    0.229    0.471   76.684
  412.250   10.983    0.243    0.485   68.191
  412.500   11.392    0.256    0.459   63.338
  412.750   11.818    0.305    0.436   57.878
  413.000   12.035    0.305    0.436   51.811
  413.250   12.482    0.316    0.449   50.603
  413.500   12.479    0.317    0.456   54.864
  413.750   12.020    0.302    0.465   56.690
  414.000   11.796    0.305    0.470   52.449
  414.250   11.365    0.309    0.472   51.239
  414.500   11.155    0.313    0.466   49.423
  414.750   11.152    0.311    0.453   48.824
  415.000   11.356    0.304    0.450   50.044
  415.250   11.996    0.286    0.456   51.873
  415.500   12.445    0.281    0.467   49.453
  415.750   13.148    0.287    0.448   48.850
  416.000   13.146    0.299    0.437   51.898
  416.250   13.387    0.308    0.436   52.510
  416.500   12.896    0.310    0.440   51.301
  416.750   12.195    0.293    0.445   51.307
  417.000   12.193    0.285    0.453   53.136
  417.250   11.746    0.284    0.445   52.536
  417.500   11.744    0.293    0.439   52.542
  417.750   11.739    0.299    0.434   54.980
  418.000   11.953    0.300    0.436   56.808
  418.250   11.950    0.294    0.436   54.992
  418.500   11.945    0.305    0.428   51.964
  418.750   11.943    0.306    0.436   51.970
  419.000   11.505    0.320    0.455   53.191
  419.250   10.881    0.327    0.479   54.413
  419.500   10.291    0.343    0.508   56.241
  419.750    9.734    0.369    0.630   59.893
  420.000    9.206    0.353    0.504   62.330
  420.250    8.707    0.271    0.470   62.942
  420.500    8.388    0.254    0.462   64.164
  420.750    8.385    0.266    0.462   65.386
  421.000    8.538    0.289    0.462   66.608
  421.250    8.535    0.277    0.461   69.043
  421.500    8.693    0.291    0.472   69.657
  421.750    8.851    0.282    0.468   66.629
  422.000    8.687    0.277    0.463   66.027
  422.250    8.064    0.283    0.460   66.034
  422.500    7.770    0.281    0.458   67.867
  422.750    7.486    0.270    0.470   69.089
  423.000    7.080    0.260    0.487   69.701
  423.250    6.695    0.249    0.499   70.312
  423.500    6.572    0.260    0.487   70.320
  423.750    6.331    0.235    0.478   70.327
  424.000    6.213    0.231    0.480   73.371
  424.250    5.876    0.235    0.487   77.631
  424.500    5.258    0.240    0.503   80.064
  424.750    4.619    0.236    0.504   84.323
  425.000    4.210    0.225    0.493   86.758
  425.250    4.056    0.219    0.499   88.587
  425.500    4.054    0.215    0.512   88.594
  425.750    4.205    0.234    0.515   84.960
  426.000    4.362    0.230    0.503   84.357
  426.250    4.610    0.228    0.497   83.150
  426.500    4.782    0.228    0.496   80.728
  426.750    5.439    0.234    0.506   77.699
