~VERSION INFORMATION
 VERS.                 2.0:   CWLS LOG ASCII STANDARD -VERSION 2.0
 WRAP.                  NO:   ONE LINE PER DEPTH STEP
~WELL INFORMATION BLOCK
#MNEM.UNIT           DATA                    DESCRIPTION OF MNEMONIC
#---------    -------------------            -------------------------------
# Generated from Intellog Unique Number	CW_73_75/WELL/3024
WELL.         HOME ALMX KCL MARTEN H 11-15   : Well_name    - WELL
LOC .         00/11-15-073-24W4/0            : Location     - LOCATION
UWI .         00/11-15-073-24W4/0            : Uwi          - UNIQUE WELL ID
ENTR.         JJ                             : Entered      - ENTERED BY
SRVC.         SCHLUMBERGER                   : Scn          - SERVICE COMPANY
DATE.         6 FEB 69                       : Date         - LOG DATE
STRT.M        457.2                          : top_depth    - START DEPTH
STOP.M        585.2                          : bot_depth    - STOP DEPTH
STEP.M        0.25                           : increment    - STEP LENGTH
 NULL. -999.2500:NULL Value
~CURVE INFORMATION BLOCK
#MNEM UNIT       ERCB CURVE CODE    CURVE DESCRIPTION
#-----------   ------------------   ----------------------------------
DEPT.M        00 001 00 00         : DEPTH        - DEPTH
DELT.US/F     00 520 00 00         : DELT         - SONIC TRAVEL TIME
GR  .API      00 310 00 00         : GR           - GAMMA RAY
CALI.MM       00 280 01 00         : CAL          - CALIPER
ILD .OHMM     00 120 00 00         : RESD         - DEEP RESISTIVITY (DIL)
~PARAMETER INFORMATION
#MNEM.UNIT           DATA             DESCRIPTION OF MNEMONIC
#---------         -----------     ------------------------------
GL  .M        629.107              : gl           - GROUND LEVEL ELEVATION
EREF.M        632.521              : kb           - ELEVATION OF DEPTH REFERENCE
DATM.M        629.168              : datum        - DATUM ELEVATION
TDD .M        1179.58              : tdd          - TOTAL DEPTH DRILLER
RUN .         ONE                  : Run          - RUN NUMBER
ENG .         JOHNSON              : Engineer     - RECORDING ENGINEER
WIT .         DAWSON               : Witness      - WITNESSED BY
BASE.         EDMONTON             : Branch       - HOME BASE OF LOGGING UNIT
MUD .         GEL                  : Mud_type     - MUD TYPE
MATR.         SANDSTONE            : Logunit      - NEUTRON MATRIX
TMAX.C        35.5556              : BHT          - MAXIMUM RECORDED TEMPERATURE
BHTD.M        1179.88              : BHTDEP       - MAXIMUM RECORDED TEMPERATURE
RMT .C        16.6667              : MDTP         - TEMPERATURE OF MUD
MUDD.KG/M     1188                 : MWT          - MUD DENSITY
NEUT.         1                    : NEUTRON      - NEUTRON TYPE
RESI.         0                    : RESIST       - RESISTIVITY TYPE
RM  .OHMM     2.08                 : RM           - RESISTIVITY OF MUD
RMC .OHMM     1.32                 : RMC          - RESISTIVITY OF MUD CAKE
RMF .OHMM     1.5                  : RMF          - RESISTIVITY OF MUD FILTRATE
SUFT.C        5                    : SUFT         - SURFACE TEMPERATURE
~A  DEPTH     DELT       GR      CAL     RESD
  457.200  301.859   42.087  175.809    9.062
  457.450  322.337   40.160  174.684    8.460
  457.700  339.017   45.092  174.282    7.938
  457.950  353.274   48.681  173.981    7.456
  458.200  364.257   47.599  173.694    7.214
  458.450  361.360   46.767  173.510    7.134
  458.700  351.330   48.516  173.017    6.651
  458.950  342.216   51.906  172.821    6.210
  459.200  353.789   56.538  172.328    5.768
  459.450  374.464   59.630  172.238    5.647
  459.700  376.215   60.189  172.155    5.927
  459.950  370.571   61.245  171.975    6.287
  460.200  372.519   61.057  172.203    6.527
  460.450  374.533   59.825  172.333    6.767
  460.700  372.359   57.652  172.987    7.127
  460.950  367.631   57.414  174.909    7.407
  461.200  358.449   58.569  175.877    8.128
  461.450  346.126   52.816  176.846   10.333
  461.700  320.775   47.758  177.400   15.505
  461.950  307.796   51.645  176.581   20.115
  462.200  240.280   47.534  175.762   27.291
  462.450  229.005   41.284  175.262   31.501
  462.700  222.245   35.134  174.976   31.660
  462.950  212.281   34.698  174.890   29.014
  463.200  203.296   37.889  176.185   15.059
  463.450  211.923   35.317  177.366   11.410
  463.700  232.073   39.804  178.755    9.645
  463.950  257.985   43.588  180.353    7.920
  464.200  326.256   50.557  182.166    7.278
  464.450  342.807   57.176  183.978    6.595
  464.700  343.773   65.734  184.634    6.114
  464.950  341.008   63.908  184.975    5.712
  465.200  348.981   61.483  184.995    5.310
  465.450  357.151   63.931  185.121    5.229
  465.700  370.424   68.216  185.778    5.188
  465.950  372.371   70.313  186.957    5.348
  466.200  371.831   67.741  189.830    5.548
  466.450  373.786   66.610  191.007    5.547
  466.700  380.054   68.212  191.981    5.707
  466.950  377.227   64.247  192.526    5.786
  467.200  377.473   62.869  192.555    5.826
  467.450  377.721   65.612  192.994    5.905
  467.700  381.895   69.401  193.227    5.784
  467.950  380.375   68.120  194.200    5.503
  468.200  381.146   64.753  196.014    5.261
  468.450  373.601   64.665  197.717    5.020
  468.700  370.706   67.212  201.634    4.899
  468.950  375.209   70.999  203.981    4.859
  469.200  405.638   73.344  204.418    5.058
  469.450  400.974   76.287  206.439    5.539
  469.700  407.439   73.665  213.509    6.099
  469.950  393.940   67.763  212.382    6.740
  470.200  407.084   61.862  205.882    7.221
  470.450  391.619   61.923  200.228    8.182
  470.700  383.812   59.202  197.837    8.061
  470.950  375.219   55.538  197.539    7.379
  471.200  375.336   54.603  197.567    6.416
  471.450  380.756   58.591  197.272    5.693
  471.700  386.700   63.075  197.194    5.252
  471.950  384.720   63.484  197.004    5.171
  472.200  385.295   61.607  197.034    5.331
  472.450  386.655   58.537  198.739    6.172
  472.700  386.640   62.771  202.337    7.735
  472.950  385.642   63.728  204.358    8.776
  473.200  386.610   56.982  198.496    9.177
  473.450  390.064   55.305  197.155    8.815
  473.700  390.771   52.781  196.127    8.173
  473.950  389.578   52.446  195.621    7.731
  474.200  387.599   52.704  195.436    7.490
  474.450  387.780   52.071  195.256    7.329
  474.700  389.664   51.087  194.961    7.368
  474.950  393.117   50.355  194.879    7.368
  475.200  391.729   50.613  194.796    7.487
  475.450  380.518   52.812  194.724    7.526
  475.700  361.779   56.947  194.532    7.486
  475.950  386.119   54.275  194.553    7.325
  476.200  393.568   54.933  194.054    7.244
  476.450  393.222   51.018  192.604    7.323
  476.700  391.639   55.901  190.840    7.443
  476.950  389.661   57.552  189.393    7.643
  477.200  382.575   56.866  188.469    8.043
  477.450  372.936   54.245  187.969    9.165
  477.700  354.655   48.889  187.472   10.888
  477.950  324.457   48.803  187.075   12.772
  478.200  299.693   54.280  186.360   14.095
  478.450  258.106   51.805  184.281   14.816
  478.700  226.925   47.247  181.361   14.855
  478.950  217.157   45.469  179.809   13.090
  479.200  216.810   41.207  179.723   11.967
  479.450  221.383   42.412  180.383   11.044
  479.700  225.557   42.621  181.039   10.161
  479.950  227.832   38.508  182.112    9.398
  480.200  232.468   39.761  183.931    8.596
  480.450  233.499   43.304  185.948    7.873
  480.700  236.957   44.654  186.600    7.311
  480.950  256.844   47.598  186.203    6.589
  481.200  310.974   50.639  183.285    6.508
  481.450  338.326   57.210  181.837    6.668
  481.700  365.220   52.601  181.228    6.947
  481.950  373.978   47.992  181.254    7.067
  482.200  377.041   47.654  181.177    7.227
  482.450  378.858   54.026  180.991    7.587
  482.700  382.443   54.040  181.019    7.667
  482.950  381.448   53.254  181.350    7.546
  483.200  371.678   56.545  181.270    7.184
  483.450  364.004   56.160  181.401    6.902
  483.700  372.496   56.322  181.429    6.782
  483.950  380.014   53.797  181.768    6.580
  484.200  380.651   51.423  181.900    6.500
  484.450  378.146   54.515  181.922    6.579
  484.700  379.378   53.782  182.471    7.180
  484.950  384.079   50.613  182.386    8.021
  485.200  384.653   53.854  182.310    9.384
  485.450  371.740   54.662  182.018   10.586
  485.700  358.370   51.195  181.724   11.267
  485.950  326.340   46.286  181.324   11.587
  486.200  320.040   41.083  180.829   11.386
  486.450  332.137   41.093  181.270   10.904
  486.700  306.000   42.695  181.718   10.462
  486.950  259.435   45.836  181.632   10.020
  487.200  297.261   52.356  182.081    9.739
  487.450  340.065   53.162  182.207    8.856
  487.700  366.369   53.770  181.815    8.133
  487.950  374.670   56.067  181.834    7.531
  488.200  379.238   50.910  182.598    6.969
  488.450  379.024   55.643  183.148    6.608
  488.700  376.845   55.208  185.483    6.286
  488.950  374.412   54.971  189.084    6.045
  489.200  370.470   57.317  192.051    6.245
  489.450  367.902   61.603  198.176    6.364
  489.700  373.125   65.986  199.889    6.564
  489.950  375.987   71.164  201.700    6.964
  490.200  374.863   64.172  203.726    7.164
  490.450  370.003   61.498  205.114    7.123
  490.700  363.441   68.269  207.663    7.042
  490.950  374.359   70.117  209.575    6.962
  491.200  382.135   66.403  211.289    6.921
  491.450  379.959   71.185  211.839    6.840
  491.700  398.147   72.934  211.961    6.799
  491.950  408.935   70.463  215.986    6.799
  492.200  400.868   66.400  221.056    6.637
  492.450  386.447   62.733  218.136    6.717
  492.700  396.452   59.317  216.481    6.997
  492.950  383.997   55.404  214.923    7.116
  493.200  364.143   54.023  210.535    7.156
  493.450  362.753   60.244  211.612    7.035
  493.700  363.589   61.451  211.528    6.874
  493.950  363.510   60.069  209.655    6.432
  494.200  362.055   62.018  209.473    5.990
  494.450  363.477   66.552  211.704    5.789
  494.700  365.100   70.687  215.306    5.588
  494.950  367.112   72.536  216.910    5.627
  495.200  368.278   65.890  217.353    5.987
  495.450  369.051   67.193  217.280    6.267
  495.700  369.947   71.081  217.409    6.708
  495.950  369.871   67.614  216.803    7.068
  496.200  369.789   61.712  216.192    7.428
  496.450  370.167   67.090  216.112    7.748
  496.700  369.892   69.983  215.288    8.108
  496.950  367.980   63.735  213.106    8.909
  497.200  364.364   64.393  210.392    9.390
  497.450  367.753   65.149  207.157    9.550
  497.700  368.719   55.421  204.762    9.268
  497.950  362.485   58.164  202.789    8.826
  498.200  352.191   58.624  203.027    8.024
  498.450  345.566   55.356  203.891    7.421
  498.700  359.954   58.944  206.121    7.261
  498.950  368.190   62.782  209.302    7.099
  499.200  367.062   64.932  211.328    7.139
  499.450  370.190   65.589  211.347    7.178
  499.700  378.421   63.811  207.481    7.338
  499.950  371.403   60.592  205.296    7.618
  500.200  355.738   61.800  204.587    7.817
  500.450  356.970   63.202  204.083    7.857
