~VERSION INFORMATION
 VERS.                 2.0:   CWLS LOG ASCII STANDARD -VERSION 2.0
 WRAP.                  NO:   ONE LINE PER DEPTH STEP
~WELL INFORMATION BLOCK
#MNEM.UNIT           DATA                    DESCRIPTION OF MNEMONIC
#---------    -------------------            -------------------------------
# Generated from Intellog Unique Number	CW_82_90/WELL/993
WELL.         11-09-082-19W4                 : Well_name    - WELL
LOC .         00/11-09-082-19W4/0            : Location     - LOCATION
UWI .         00/11-09-082-19W400            : Uwi          - UNIQUE WELL ID
ENTR.         JAYE                           : Entered      - ENTERED BY
SRVC.         SCHLUMBERGER                   : Scn          - SERVICE COMPANY
DATE.         8 MAR 74                       : Date         - LOG DATE
STRT.M        173.736                        : top_depth    - START DEPTH
STOP.M        365.736                        : bot_depth    - STOP DEPTH
STEP.M        0.25                           : increment    - STEP LENGTH
 NULL. -999.2500:NULL Value
~CURVE INFORMATION BLOCK
#MNEM UNIT       ERCB CURVE CODE    CURVE DESCRIPTION
#-----------   ------------------   ----------------------------------
DEPT.M        00 001 00 00         : DEPTH        - DEPTH
CALI.MM       00 280 01 00         : CAL          - CALIPER
GR  .API      00 310 00 00         : GR           - GAMMA RAY
NPHI.V/V      00 330 00 00         : PHIN         - NEUTRON POROSITY (SANDSTONE)
DPHI.V/V      00 890 00 00         : PHID         - DENSITY POROSITY (SANDSTONE)
ILD .OHMM     00 120 00 00         : RESD         - DEEP RESISTIVITY (DIL)
~PARAMETER INFORMATION
#MNEM.UNIT           DATA             DESCRIPTION OF MNEMONIC
#---------         -----------     ------------------------------
GL  .M        584.911              : gl           - GROUND LEVEL ELEVATION
EREF.M        588.264              : kb           - ELEVATION OF DEPTH REFERENCE
DATM.M        584.911              : datum        - DATUM ELEVATION
TDD .M        387.096              : tdd          - TOTAL DEPTH DRILLER
RUN .         ONE                  : Run          - RUN NUMBER
ENG .         BOYKO                : Engineer     - RECORDING ENGINEER
BASE.         EDMONTON             : Branch       - HOME BASE OF LOGGING UNIT
MATR.         SANDSTONE            : Logunit      - NEUTRON MATRIX
TMAX.C        30                   : BHT          - MAXIMUM RECORDED TEMPERATURE
BHTD.M        387.096              : BHTDEP       - MAXIMUM RECORDED TEMPERATURE
RMT .C        21.1111              : MDTP         - TEMPERATURE OF MUD
MUDD.KG/M     9000                 : MWT          - MUD DENSITY
NEUT.         0                    : NEUTRON      - NEUTRON TYPE
RESI.         0                    : RESIST       - RESISTIVITY TYPE
RM  .OHMM     2.07                 : RM           - RESISTIVITY OF MUD
RMC .OHMM     0                    : RMC          - RESISTIVITY OF MUD CAKE
RMF .OHMM     1.65                 : RMF          - RESISTIVITY OF MUD FILTRATE
SUFT.C        4                    : SUFT         - SURFACE TEMPERATURE
~A  DEPTH      CAL       GR     PHIN     PHID     RESD
# ...
  283.236  165.943   83.338    0.533    0.268    7.679
  283.486  167.380   85.905    0.499    0.267    6.778
  283.736  168.403   88.164    0.486    0.258    6.105
  283.986  169.320   91.095    0.503    0.233    5.609
  284.236  169.927   91.095    0.523    0.219    5.425
  284.486  170.017   90.775    0.543    0.211    5.352
  284.736  168.756   87.024    0.507    0.207    5.427
  284.986  167.499   86.594    0.494    0.219    5.623
  285.236  169.556   87.811    0.511    0.212    5.557
  285.486  174.829   90.315    0.507    0.198    5.473
  285.736  178.442   93.862    0.507    0.199    5.160
  285.986  179.983   94.835    0.535    0.216    5.035
  286.236  180.072   92.559    0.600    0.229    5.021
  286.486  177.357   88.385    0.585    0.228    5.036
  286.736  174.754   88.385    0.558    0.226    5.098
  286.986  169.348   83.464    0.527    0.227    5.197
  287.236  165.599   82.724    0.509    0.217    5.750
  287.486  164.236   82.724    0.495    0.241    6.306
  287.736  163.910   81.296    0.487    0.268    7.290
  287.986  164.103   80.985    0.489    0.264    8.597
  288.236  164.190   79.078    0.455    0.252    9.191
  288.486  164.279   72.391    0.437    0.245    9.647
  288.736  164.265   70.423    0.434    0.249   10.034
  288.986  164.356   76.849    0.467    0.256   10.342
  289.236  164.543   86.828    0.476    0.246    9.964
  289.486  164.738   91.661    0.441    0.234   10.966
  289.736  164.725   86.384    0.423    0.218   12.471
  289.986  164.187   69.520    0.361    0.179   14.182
  290.236  163.968   68.905    0.265    0.116   15.327
  290.486  163.433   70.856    0.275    0.076   15.740
  290.736  163.109   74.281    0.305    0.108   15.586
  290.986  162.887   78.195    0.503    0.182   14.584
  291.236  162.353   78.195    0.516    0.239   12.993
  291.486  162.233   82.894    0.514    0.240   10.645
  291.736  162.113   82.645    0.509    0.238    8.363
  291.986  162.306   81.595    0.493    0.231    8.043
  292.236  162.398   76.986    0.469    0.212    8.245
  292.486  162.484   75.697    0.439    0.220    9.636
  292.736  162.367   69.439    0.246    0.186   11.765
  292.986  162.766   60.485    0.210    0.122   12.831
  293.236  163.062   58.517    0.199    0.010   15.896
  293.486  163.876   62.921    0.202    0.021   19.268
  293.736  164.276   71.858    0.233    0.115   19.010
  293.986  164.056   80.246    0.479    0.160   14.908
  294.236  163.521   85.200    0.500    0.208   10.634
  294.486  163.195   85.200    0.517    0.199    9.915
  294.736  163.388   84.873    0.525    0.203   10.237
  294.986  163.060   84.197    0.502    0.213   10.135
  295.236  162.626   81.187    0.464    0.218   10.074
  295.486  162.405   84.305    0.460    0.221    9.902
  295.736  162.288   88.891    0.468    0.222    9.301
  295.986  162.483   89.251    0.484    0.204    9.011
  296.236  162.778   85.139    0.480    0.207    8.906
  296.486  163.076   84.090    0.462    0.216    8.738
  296.736  163.160   86.713    0.480    0.214    8.543
  296.986  163.356   87.505    0.495    0.211    8.157
  297.236  163.342   86.884    0.502    0.190    7.801
  297.486  163.845   88.285    0.490    0.201    7.911
  297.736  165.695   90.667    0.493    0.197    8.064
  297.986  167.336   89.006    0.504    0.189    8.102
  298.236  167.636   88.324    0.479    0.196    8.125
  298.486  168.138   88.620    0.461    0.200    8.088
  298.736  168.123   91.188    0.468    0.201    8.083
  298.986  166.863   91.609    0.474    0.194    8.077
  299.236  165.395   87.557    0.483    0.206    8.101
  299.486  164.866   88.773    0.490    0.213    8.080
  299.736  164.954   92.934    0.497    0.216    8.015
  299.986  165.251   92.863    0.494    0.213    7.965
  300.236  164.612   86.663    0.495    0.211    7.901
  300.486  164.908   85.924    0.516    0.214    7.852
  300.736  166.446   87.387    0.514    0.209    7.776
  300.986  167.880   88.728    0.506    0.191    7.671
  301.236  168.801   87.678    0.505    0.217    7.568
  301.486  168.997   90.792    0.504    0.207    7.412
  301.736  168.567   90.476    0.499    0.200    7.353
  301.986  168.552   90.902    0.496    0.199    7.281
  302.236  169.051   89.299    0.497    0.202    7.249
  302.486  169.248   88.681    0.507    0.205    7.228
  302.736  169.544   88.122    0.501    0.204    7.186
  302.986  168.801   85.966    0.502    0.216    7.076
  303.236  169.408   85.471    0.469    0.196    6.893
  303.486  171.777   85.218    0.491    0.205    6.641
  303.736  175.912   84.044    0.601    0.181    6.203
  303.986  177.244   84.467    0.560    0.200    5.742
  304.236  175.052   85.681    0.512    0.229    5.462
  304.486  163.632   87.700    0.501    0.243    5.776
  304.736  162.474   91.858    0.518    0.193    6.976
  304.986  163.184   93.198    0.523    0.172    8.579
  305.236  164.930   91.169    0.461    0.168    9.882
  305.486  165.334   92.448    0.459    0.157   11.486
  305.736  165.424   88.087    0.464    0.156   11.433
  305.986  165.513   78.278    0.448    0.142   10.489
  306.236  165.289   72.264    0.397    0.147    8.346
  306.486  165.171   74.768    0.423    0.167    7.449
  306.736  166.503   78.683    0.441    0.179    7.022
  306.986  167.940   83.025    0.490    0.184    6.966
  307.236  167.716   82.403    0.516    0.192    6.999
  307.486  166.562   80.804    0.533    0.223    7.031
  307.736  165.615   78.406    0.470    0.226    7.156
  307.986  165.388   75.578    0.430    0.232    7.349
  308.236  165.582   74.224    0.431    0.240    7.587
  308.486  166.086   73.175    0.428    0.229    7.849
  308.736  166.171   71.819    0.391    0.222    8.329
  308.986  165.951   69.299    0.357    0.195    9.454
  309.236  165.525   66.411    0.321    0.162   10.733
  309.486  165.508   64.381    0.293    0.127   12.116
  309.736  165.488   64.494    0.275    0.100   13.483
  309.986  165.684   63.262    0.252    0.076   16.283
  310.236  165.977   60.190    0.244    0.062   20.358
  310.486  166.175   61.285    0.263    0.046   21.642
  310.736  166.782   62.626    0.294    0.076   18.830
  310.986  167.802   68.499    0.317    0.151   15.173
  311.236  168.408   70.203    0.358    0.169   13.693
  311.486  168.392   70.446    0.353    0.170   12.133
  311.736  168.276   72.583    0.361    0.167   10.848
  311.986  168.571   75.639    0.396    0.215    9.824
  312.236  168.661   75.876    0.430    0.247    9.142
  312.486  168.542   78.625    0.448    0.247    8.874
  312.736  166.558   85.847    0.467    0.229    8.643
  312.986  164.572   88.290    0.509    0.208    8.481
  313.236  164.455   89.876    0.519    0.209    8.274
  313.486  164.544   88.516    0.478    0.222    8.195
  313.736  165.462   88.329    0.536    0.196    8.026
  313.986  167.105   89.547    0.542    0.204    7.816
  314.236  168.231   89.967    0.505    0.196    7.656
  314.486  168.528   91.123    0.487    0.184    7.512
  314.736  168.821   93.438    0.499    0.183    7.358
  314.986  169.016   93.682    0.511    0.179    7.247
  315.236  169.621   96.800    0.513    0.170    7.123
  315.486  169.918   94.892    0.487    0.173    7.093
  315.736  170.215   95.310    0.464    0.175    7.074
  315.986  169.887   96.654    0.465    0.185    7.095
  316.236  168.941   97.380    0.482    0.202    7.101
  316.486  167.371   97.982    0.473    0.186    7.161
  316.736  165.591   97.982    0.474    0.173    7.782
  316.986  165.164   99.377    0.514    0.193    8.242
  317.236  165.459  100.107    0.505    0.166    8.313
  317.486  165.755  104.017    0.505    0.156    8.396
  317.736  166.049  104.381    0.511    0.159    8.465
  317.986  166.134  102.038    0.556    0.164    8.507
  318.236  166.125   97.067    0.521    0.163    8.182
  318.486  166.108   95.840    0.468    0.169    8.266
  318.736  166.612   96.690    0.441    0.174    8.335
  318.986  168.360   97.908    0.466    0.176    8.405
  319.236  169.897  102.557    0.487    0.170    8.322
  319.486  170.611  104.142    0.502    0.173    8.003
