~VERSION INFORMATION
 VERS.                 2.0:   CWLS LOG ASCII STANDARD -VERSION 2.0
 WRAP.                  NO:   ONE LINE PER DEPTH STEP
~WELL INFORMATION BLOCK
#MNEM.UNIT           DATA                    DESCRIPTION OF MNEMONIC
#---------    -------------------            -------------------------------
# Generated from Intellog Unique Number	CS_71_72/WELL/906
WELL.         PETRO-CANADA EXPLORATION       : Well_name    - WELL
LOC .         00/11-26-072-08W4/0            : Location     - LOCATION
UWI .         00/11-26-072-08W4/0            : Uwi          - UNIQUE WELL ID
ENTR.         SP                             : Entered      - ENTERED BY
SRVC.         SCHLUMBERGER                   : Scn          - SERVICE COMPANY
STRT.M        305                            : top_depth    - START DEPTH
STOP.M        543                            : bot_depth    - STOP DEPTH
STEP.M        0.25                           : increment    - STEP LENGTH
 NULL. -999.2500:NULL Value
~CURVE INFORMATION BLOCK
#MNEM UNIT       ERCB CURVE CODE    CURVE DESCRIPTION
#-----------   ------------------   ----------------------------------
DEPT.M        00 001 00 00         : DEPTH        - DEPTH
ILD .OHMM     00 120 00 00         : RESD         - DEEP RESISTIVITY (DIL)
DPHI.V/V      00 890 00 00         : PHID         - DENSITY POROSITY (LIMESTONE)
NPHI.V/V      00 330 00 00         : PHIN         - NEUTRON POROSITY (LIMESTONE)
GR  .API      00 310 00 00         : GR           - GAMMA RAY
~PARAMETER INFORMATION
#MNEM.UNIT           DATA             DESCRIPTION OF MNEMONIC
#---------         -----------     ------------------------------
GL  .M        680.2                : gl           - GROUND LEVEL ELEVATION
EREF.M        683.7                : kb           - ELEVATION OF DEPTH REFERENCE
DATM.M        680.2                : datum        - DATUM ELEVATION
TDD .M        545                  : tdd          - TOTAL DEPTH DRILLER
RUN .         ONE                  : Run          - RUN NUMBER
ENG .         BILL                 : Engineer     - RECORDING ENGINEER
WIT .         JIM                  : Witness      - WITNESSED BY
MUD .         GEL                  : Mud_type     - MUD TYPE
MATR.         LIMESTONE            : Logunit      - NEUTRON MATRIX
TMAX.C        24                   : BHT          - MAXIMUM RECORDED TEMPERATURE
BHTD.M        545                  : BHTDEP       - MAXIMUM RECORDED TEMPERATURE
MATR.         1                    : LOGUNIT      - NEUTRON MATRIX
RMT .C        25                   : MDTP         - TEMPERATURE OF MUD
NEUT.         1                    : NEUTRON      - NEUTRON TYPE
RESI.         0                    : RESIST       - RESISTIVITY TYPE
RMC .OHMM     0.25                 : RMC          - RESISTIVITY OF MUD CAKE
RMF .OHMM     0.25                 : RMF          - RESISTIVITY OF MUD FILTRATE
SUFT.C        15                   : SUFT         - SURFACE TEMPERATURE
~A  DEPTH     RESD     PHID     PHIN       GR
  305.000    2.556    0.276    0.514   94.775
  305.250    2.505    0.268    0.518   91.857
  305.500    2.553    0.261    0.532   87.604
  305.750    2.645    0.252    0.531   85.659
  306.000    2.715    0.255    0.517   85.232
  306.250    2.819    0.265    0.528   88.269
  306.500    2.862    0.267    0.540   90.577
  306.750    2.976    0.261    0.551   91.548
  307.000    3.061    0.256    0.539   90.089
  307.250    3.131    0.257    0.525   87.475
  307.500    3.149    0.251    0.515   85.591
  307.750    3.149    0.242    0.531   89.721
  308.000    3.144    0.247    0.543   95.188
  308.250    3.104    0.237    0.524   98.529
  308.500    3.082    0.233    0.513   96.523
  308.750    3.071    0.238    0.511   97.008
  309.000    3.101    0.248    0.520   99.133
  309.250    3.148    0.253    0.538   96.763
  309.500    3.208    0.258    0.562   91.720
  309.750    3.238    0.250    0.556   89.046
  310.000    3.245    0.248    0.538   94.512
  310.250    3.288    0.232    0.518   94.633
  310.500    3.326    0.220    0.517   94.267
  310.750    3.395    0.216    0.517   99.552
  311.000    3.505    0.221    0.531   99.733
  311.250    3.632    0.228    0.504   96.087
  311.500    3.756    0.231    0.489   98.577
  311.750    3.921    0.225    0.473   98.698
  312.000    4.055    0.200    0.465   96.266
  312.250    4.117    0.138    0.497   91.709
  312.500    4.164    0.131    0.490   87.151
  312.750    4.227    0.144    0.466   85.571
  313.000    4.158    0.205    0.472   89.337
  313.250    3.818    0.212    0.479   92.434
  313.500    3.652    0.214    0.448   97.354
  313.750    3.481    0.215    0.477  101.059
  314.000    3.392    0.222    0.509  104.764
  314.250    3.418    0.227    0.504  101.239
  314.500    3.483    0.223    0.488   99.477
  314.750    3.589    0.219    0.505   98.443
  315.000    3.874    0.215    0.513   97.834
  315.250    3.918    0.213    0.507   96.497
  315.500    3.905    0.220    0.504   94.126
  315.750    3.639    0.227    0.502   92.850
  316.000    4.069    0.234    0.509   92.545
  316.250    4.070    0.221    0.517   91.633
  316.500    4.063    0.211    0.519   90.599
  316.750    4.019    0.208    0.497   90.294
  317.000    4.013    0.220    0.478   92.177
  317.250    4.097    0.223    0.462   93.391
  317.500    4.324    0.241    0.512   92.539
  317.750    5.075    0.260    0.533   86.767
  318.000    6.135    0.278    0.428   81.298
  318.250    7.081    0.338    0.414   75.586
  318.500    8.233    0.422    0.418   69.996
  318.750    9.292    0.520    0.506   61.854
  319.000    9.416    0.552    0.578   59.666
  319.250    9.383    0.219    0.630   66.348
  319.500    9.813    0.201    0.621   74.792
  319.750   10.912    0.247    0.459   67.561
  320.000   13.192    0.303    0.425   60.877
  320.250   15.197    0.312    0.406   55.348
  320.500   17.474    0.304    0.389   51.519
  320.750   19.576    0.289    0.383   51.215
  321.000   22.300    0.287    0.402   53.036
  321.250   25.885    0.299    0.406   55.344
  321.500   26.917    0.315    0.406   48.296
  321.750   29.986    0.327    0.429   39.911
  322.000   33.719    0.335    0.433   33.713
  322.250   36.195    0.331    0.387   30.188
  322.500   36.404    0.329    0.354   32.192
  322.750   33.929    0.310    0.346   38.084
  323.000   29.797    0.297    0.349   46.224
  323.250   25.782    0.286    0.347   55.093
  323.500   22.641    0.274    0.355   65.359
  323.750   20.675    0.268    0.380   71.495
  324.000   19.091    0.275    0.407   74.957
  324.250   17.727    0.285    0.387   78.540
  324.500   16.832    0.242    0.378   85.829
  324.750   15.776    0.220    0.386   90.506
  325.000   14.979    0.210    0.394   93.847
  325.250   14.302    0.226    0.402   95.608
  325.500   15.097    0.258    0.416   88.559
  325.750   16.694    0.280    0.434   83.516
  326.000   18.189    0.290    0.443   80.113
  326.250   18.672    0.269    0.401   79.808
  326.500   18.781    0.248    0.394   81.933
  326.750   18.542    0.243    0.402   81.750
  327.000   18.069    0.248    0.413   87.399
  327.250   16.470    0.246    0.417   91.044
  327.500   14.014    0.262    0.417   84.238
  327.750   12.103    0.279    0.410   79.013
  328.000   10.629    0.142    0.401   78.951
  328.250    9.851    0.104    0.410   83.871
  328.500    9.945    0.082    0.415   86.968
  328.750   10.596    0.128    0.407   89.276
  329.000   11.502    0.159    0.414   90.490
  329.250   13.078    0.164    0.436   90.185
  329.500   15.121    0.198    0.453   87.815
  329.750   17.290    0.265    0.467   77.547
  330.000   19.119    0.266    0.332   61.689
  330.250   20.033    0.251    0.316   50.874
  330.500   18.637    0.254    0.330   53.668
  330.750   14.998    0.237    0.354   57.191
  331.000   13.122    0.227    0.378   61.260
  331.250   10.960    0.220    0.402   68.610
  331.500    9.643    0.200    0.411   74.502
  331.750    8.421    0.180    0.406   84.647
  332.000    7.506    0.170    0.417   96.432
  332.250    6.728    0.159    0.440  110.283
  332.500    6.178    0.167    0.469  110.282
  332.750    5.652    0.185    0.490  114.291
  333.000    5.142    0.181    0.494  117.692
  333.250    4.713    0.176    0.494  117.326
  333.500    4.401    0.186    0.481  112.891
  333.750    4.163    0.206    0.478  109.548
  334.000    3.844    0.219    0.519  112.889
  334.250    3.623    0.227    0.552  118.598
  334.500    3.447    0.232    0.566  120.542
  334.750    3.551    0.235    0.569  110.759
  335.000    4.191    0.248    0.566  102.921
  335.250    6.159    0.260    0.537   92.896
  335.500    8.884    0.274    0.459   85.544
  335.750   12.052    0.289    0.429   76.855
  336.000   16.079    0.287    0.418   79.284
  336.250   18.181    0.290    0.411   82.321
  336.500   16.726    0.278    0.405   83.535
  336.750   14.798    0.217    0.407   87.058
  337.000   13.020    0.201    0.421   91.674
  337.250   11.779    0.187    0.436   94.468
  337.500   10.938    0.180    0.443   95.500
  337.750   10.444    0.159    0.452   91.246
  338.000   10.943    0.083    0.391   76.725
  338.250   13.254    0.166    0.375   67.125
  338.500   16.174    0.269    0.415   61.049
  338.750   19.301    0.318    0.411   57.524
  339.000   21.583    0.336    0.397   56.551
  339.250   24.404    0.336    0.412   57.644
  339.500   27.391    0.342    0.421   59.283
  339.750   28.700    0.343    0.429   60.133
  340.000   29.518    0.332    0.440   55.515
  340.250   29.689    0.330    0.402   54.906
  340.500   29.862    0.328    0.388   60.737
  340.750   29.538    0.323    0.394   66.387
  341.000   29.271    0.322    0.400   66.446
  341.250   29.222    0.327    0.396   63.894
  341.500   28.904    0.331    0.391   60.126
  341.750   28.750    0.339    0.386   55.083
  342.000   28.543    0.346    0.383   51.497
  342.250   28.549    0.352    0.400   49.066
  342.500   28.609    0.359    0.407   48.215
  342.750   28.668    0.348    0.397   58.845
  343.000   28.462    0.346    0.390   67.775
  343.250   28.048    0.342    0.389   78.527
  343.500   27.640    0.333    0.382   87.700
  343.750   26.053    0.332    0.397   94.625
  344.000   25.528    0.343    0.414   99.484
  344.250   24.239    0.351    0.424   94.684
  344.500   22.551    0.349    0.436   84.416
  344.750   20.825    0.339    0.448   80.952
  345.000   20.031    0.314    0.442   84.535
  345.250   19.338    0.297    0.428   88.605
  345.500   17.890    0.288    0.440   91.581
  345.750   16.397    0.282    0.438   91.823
  346.000   15.482    0.285    0.452   84.471
  346.250   15.429    0.296    0.483   84.895
  346.500   14.194    0.300    0.472   87.020
  346.750   12.817    0.246    0.454   84.954
  347.000   11.510    0.223    0.445   88.112
  347.250    9.996    0.209    0.439   90.663
  347.500    8.665    0.189    0.431   88.353
  347.750    7.796    0.186    0.427   83.309
  348.000    7.513    0.214    0.436   79.906
  348.250    8.140    0.248    0.440   77.232
