~Version Information
VERS.                2.00:
WRAP.                  NO:
~Well Information Block
#MNEM.UNIT       Data Type    Information
#---------    -------------   -------------------
FLD.   :FIELD
FLD.   :FIELD
FLD.   :FIELD
FLD.   :FIELD
STRT.M          1950.0000:
STOP.M          4060.0000:
STEP.M             0.8202:
NULL.           -999.2500:
COMP.  MUTUAL EXPLORATION FUNDS:COMPANY
WELL.  MUTES IOE SEAFORTH:WELL
FLD.   :FIELD
LOC.   15-20-095-20W4:LOCATION
CTRY.  CANADA:COUNTRY
PROV.  ALBERTA:PROVINCE
SRVC.  SCHLUMBERGER:SERVICE COMPANY
DATE.  01 MAR 69:LOG DATE
UWI.   00/15-20-095-20W4/0:UNIQUE WELL ID
~Curve Information Block
#MNEM.UNIT        API CODE    Curve Description
#---------    ------------    -----
DEPT.M                    :   DEPTH
CALI.in                   :   CALI
GR  .API                  :   GR
SNP .V/V                  :   SNP
~A  Depth           CALI          GR         SNP
# ...
2891.5896         9.1733     12.4091      0.0025
2892.4098         9.1418     13.6674      0.0040
2893.2300         9.1406     13.7450      0.0099
2894.0502         9.1424     14.5815      0.0146
2894.8704         9.1457     13.8327      0.0137
2895.6906         9.1206     12.2826      0.0114
2896.5108         9.1137     10.7166      0.0082
2897.3310         9.1157     10.6729      0.0063
2898.1512         9.0903     11.4925      0.0061
2898.9714         9.0834     11.9495      0.0060
2899.7916         9.0855     11.2012      0.0052
2900.6118         9.0536      9.6554      0.0074
2901.4320         9.0523      9.6268      0.0060
2902.2522         9.0552      9.2674      0.0057
2903.0724         9.0586      8.8963      0.0067
2903.8926         9.0621      8.5248      0.0077
2904.7128         9.0656      8.5453      0.0071
2905.5330         9.0691     11.2125      0.0096
2906.3532         9.0726     13.1029      0.0113
2907.1734         9.1127     12.7893      0.0116
2907.9936         9.1198     11.4418      0.0116
2908.8138         9.1983     11.2169      0.0135
2909.6340         9.2457     12.9036      0.0171
2910.4542         9.2826     14.3117      0.0227
2911.2744         9.3346     16.6346      0.0289
2912.0946         9.3795     18.4151      0.0503
2912.9148         9.6255     19.7470      0.0850
2913.7350         9.9685     20.2695      0.1122
2914.5552        11.9376     18.8628      0.1009
2915.3754        12.5702     16.6019      0.0838
2916.1956        12.9869     15.3101      0.0836
2917.0158        13.1741     15.5473      0.0950
2917.8360        13.3452     16.1992      0.0932
2918.6562        13.8643     16.0672      0.0768
2919.4764        14.1274     15.7194      0.0677
2920.2966        14.1316     16.4585      0.0720
2921.1168        14.1351     17.3083      0.0705
2921.9370        14.3566     17.7839      0.0544
2922.7572        14.6479     18.6189      0.0478
2923.5774        14.8272     18.6953      0.0427
2924.3976        14.8397     17.2051      0.0860
2925.2178        14.8436     15.2759      0.1107
2926.0380        14.7696     15.1852      0.1748
2926.8582        13.9639     15.1817      0.1748
2927.6784        13.3062     15.2145      0.1393
2928.4986        13.4140     14.8689      0.1391
2929.3188        14.1794     14.1230      0.1327
2930.1390        12.6614     13.7253      0.0974
2930.9592        11.3552     13.3519      0.0501
2931.7794        11.0134     12.9803      0.0204
2932.5996        10.8842     12.6088      0.0186
2933.4198        10.7739     11.8630      0.0191
2934.2400        10.6805     11.4636      0.0205
2935.0602        10.5792     10.7175      0.0206
2935.8804        10.3477     13.0104      0.0249
2936.7006        10.1134     14.3395      0.0623
2937.5208         9.9152     15.3742      0.2291
2938.3410        10.1711     15.9419      0.2864
2939.1612        13.9422     16.0834      0.2596
2939.9814        14.3698     16.1394      0.2365
2940.8016        13.2935     16.8427      0.1189
2941.6218        13.0482     16.0106      0.0851
2942.4420        13.5256     15.8805      0.0721
2943.2622        13.3930     16.2179      0.1748
2944.0824        11.8065     14.9314      0.1396
2944.9026        11.2313     13.7948      0.1111
2945.7228        10.8882     11.9380      0.0851
2946.5430        10.4156     10.7586      0.0619
2947.3632         9.9537      9.9765      0.0401
2948.1834         9.7122     10.7945      0.0296
2949.0036         9.4413     11.8201      0.0235
2949.8238         9.2040     12.5680      0.1502
2950.6440         9.1103     13.3919      0.2397
2951.4642         9.1034     14.0671      0.2701
2952.2844         9.2932     14.2088      0.2661
2953.1046         9.6249     13.2486      0.1831
2953.9248         9.7606     12.1120      0.1384
2954.7450         9.6870     11.2743      0.1094
2955.5652         9.5323      9.8375      0.0865
2956.3854         9.4062      9.9219      0.0670
2957.2056         9.3340     11.3214      0.0441
2958.0258         9.2950     12.9815      0.0353
2958.8460         9.2963     14.3095      0.0617
2959.6662         9.3388     15.0740      0.1021
2960.4864         9.6734     15.7195      0.1343
2961.3066        10.3113     16.4089      0.1306
2962.1268        11.7616     16.9198      0.1175
2962.9470        13.4689     16.7387      0.1147
2963.7672        13.4632     16.3851      0.1113
2964.5874        13.6334     15.7916      0.0902
2965.4076        14.1664     15.6228      0.0780
2966.2278        14.5741     15.3417      0.0952
2967.0480        14.8043     15.2751      0.1265
2967.8682        14.8600     15.6739      0.2651
2968.6884        13.9392     16.4959      0.2300
2969.5086        12.9551     16.5855      0.1814
2970.3288        12.0498     15.8672      0.1216
2971.1490        10.9965     15.8498      0.0845
2971.9692        14.8918     15.8813      0.0628
2972.7894        14.9641     16.2280      0.0514
2973.6096        14.9685     15.2062      0.0424
2974.4298        14.9720     15.9509      0.0483
2975.2500        14.9755     16.4106      0.0766
2976.0702        14.9790     16.0706      0.1144
2976.8904        14.9825     14.5498      0.1396
2977.7106        14.5554     13.3597      0.1276
2978.5308        13.8605     12.1864      0.1095
2979.3510        14.0042     12.5180      0.1022
2980.1712        14.7113     13.7386      0.1264
2980.9914        14.8816     15.0973      0.2403
2981.8116        14.9155     16.2952      0.2647
2982.6318        14.8579     16.6613      0.1735
2983.4520        13.4607     16.7504      0.1435
2984.2722        12.1310     16.4783      0.1199
2985.0924         9.7390     15.8006      0.0948
2985.9126         9.3819     14.4493      0.0765
2986.7328         9.3400     12.8837      0.0807
2987.5530         9.3023     10.9342      0.0673
2988.3732         9.2650     11.2861      0.0558
2989.1934         9.2996     10.1582      0.0445
2990.0136         9.3657     12.5729      0.0507
2990.8338         9.5777     13.9411      0.0824
2991.6540        10.0777     15.2373      0.1884
2992.4742        10.7895     16.1738      0.1689
2993.2944        13.3062     16.3554      0.1379
2994.1146        14.0666     15.7323      0.1155
2994.9348        14.3507     15.3200      0.0981
2995.7550        14.5963     16.3205      0.1148
2996.5752        14.8671     17.3446      0.1367
2997.3954        14.8315     17.3719      0.1960
2998.2156        14.0264     17.4058      0.0995
2999.0358        12.6515     17.7977      0.0724
2999.8560        12.5047     17.1648      0.0576
3000.6762        13.8662     16.4085      0.0469
3001.4964        14.5056     16.6973      0.0591
3002.3166        14.9281     17.4872      0.0861
3003.1368        14.9689     16.8843      0.1361
3003.9570        14.9383     15.7762      0.1768
3004.7772        14.7921     14.6118      0.2349
3005.5974        14.2969     14.4907      0.2301
3006.4176        14.1581     14.8034      0.2003
3007.2378        14.4634     15.8115      0.1724
3008.0580        14.0225     16.5343      0.1380
3008.8782        14.3075     15.9002      0.1181
3009.6984        14.4549     14.4237      0.1065
3010.5186        14.5849     14.6555      0.1475
3011.3388        14.7904     15.0790      0.2167
3012.1590        12.6764     15.5225      0.2578
3012.9792        12.5837     15.2208      0.2882
3013.7994        12.6172     15.5371      0.2930
3014.6196        12.5477     16.4203      0.2785
3015.4398        12.9414     16.1294      0.2407
3016.2600        12.9950     14.9275      0.2591
3017.0802        11.7441     14.0472      0.2104
3017.9004        10.7664     12.6915      0.1272
3018.7206        10.0197     11.1437      0.0675
3019.5408         9.7250     11.6473      0.0472
3020.3610         9.5527     11.8313      0.0291
3021.1812         9.4919     11.8792      0.0287
3022.0014         9.8855     12.6719      0.0487
3022.8216        11.7648     13.9171      0.0877
3023.6418        13.4877     15.2759      0.1347
3024.4620        14.2890     16.8841      0.1018
3025.2822        14.7214     16.5297      0.0598
