~VERSION INFORMATION
 VERS.                 2.0:   CWLS LOG ASCII STANDARD -VERSION 2.0
 WRAP.                  NO:   ONE LINE PER DEPTH STEP
~WELL INFORMATION BLOCK
#MNEM.UNIT           DATA                    DESCRIPTION OF MNEMONIC
#---------    -------------------            -------------------------------
# Generated from Intellog Unique Number	CW_76_78/WELL/2814
WELL.         11-10-076-02W5                 : Well_name    - WELL
LOC .         00/11-10-076-02W5/0            : Location     - LOCATION
UWI .         00/11-10-076-02W5/0            : Uwi          - UNIQUE WELL ID
ENTR.         JJ                             : Entered      - ENTERED BY
SRVC.         WESTERN ATLAS                  : Scn          - SERVICE COMPANY
DATE.         30 JAN 71                      : Date         - LOG DATE
STRT.M        685.8                          : top_depth    - START DEPTH
STOP.M        807.8                          : bot_depth    - STOP DEPTH
STEP.M        0.25                           : increment    - STEP LENGTH
 NULL. -999.2500:NULL Value
~CURVE INFORMATION BLOCK
#MNEM UNIT       ERCB CURVE CODE    CURVE DESCRIPTION
#-----------   ------------------   ----------------------------------
DEPT.M        00 001 00 00         : DEPTH        - DEPTH
DELT.US/F     00 520 00 00         : DELT         - SONIC TRAVEL TIME
CALI.MM       00 280 01 00         : CAL          - CALIPER
GR  .API      00 310 00 00         : GR           - GAMMA RAY
ILD .OHMM     00 120 00 00         : RESD         - DEEP RESISTIVITY (DIL)
~PARAMETER INFORMATION
#MNEM.UNIT           DATA             DESCRIPTION OF MNEMONIC
#---------         -----------     ------------------------------
GL  .M        900.989              : gl           - GROUND LEVEL ELEVATION
EREF.M        904.646              : kb           - ELEVATION OF DEPTH REFERENCE
DATM.M        904.646              : datum        - DATUM ELEVATION
TDD .M        811.378              : tdd          - TOTAL DEPTH DRILLER
RUN .         ONE                  : Run          - RUN NUMBER
ENG .         SUPRONOVICH-COLE     : Engineer     - RECORDING ENGINEER
WIT .         KVILL                : Witness      - WITNESSED BY
BASE.         EDMONTON             : Branch       - HOME BASE OF LOGGING UNIT
MUD .         GEL                  : Mud_type     - MUD TYPE
MATR.         SANDSTONE            : Logunit      - NEUTRON MATRIX
TMAX.C        26.6667              : BHT          - MAXIMUM RECORDED TEMPERATURE
BHTD.M        810.463              : BHTDEP       - MAXIMUM RECORDED TEMPERATURE
RMT .C        7.22222              : MDTP         - TEMPERATURE OF MUD
MUDD.KG/M     1176                 : MWT          - MUD DENSITY
NEUT.         1                    : NEUTRON      - NEUTRON TYPE
RESI.         0                    : RESIST       - RESISTIVITY TYPE
RM  .OHMM     6                    : RM           - RESISTIVITY OF MUD
RMC .OHMM     0                    : RMC          - RESISTIVITY OF MUD CAKE
RMF .OHMM     0                    : RMF          - RESISTIVITY OF MUD FILTRATE
SUFT.C        5                    : SUFT         - SURFACE TEMPERATURE
~A  DEPTH     DELT      CAL       GR     RESD
# ...
  772.800  358.729  190.505   89.096   10.260
  773.050  344.546  191.378   91.472   10.652
  773.300  330.754  191.928   89.291   11.304
  773.550  336.264  194.217   85.942   11.697
  773.800  331.081  196.297   84.938   11.850
  774.050  330.655  192.999   82.077   11.586
  774.300  320.910  192.534   78.483   11.102
  774.550  305.551  194.413   80.121   10.895
  774.800  289.740  194.977   85.423   11.787
  775.050  260.687  191.773   78.456   12.894
  775.300  273.242  190.906   77.111   13.985
  775.550  319.970  193.802   77.965   13.521
  775.800  347.330  194.671   67.526   11.863
  776.050  348.537  191.977   70.338   10.501
  776.300  341.396  190.700   83.952    8.921
  776.550  335.303  190.443   93.119    7.741
  776.800  335.396  190.594   85.564    7.537
  777.050  329.368  192.077   96.639    7.847
  777.300  301.948  193.748   96.809    8.700
  777.550  262.721  196.034   94.977    9.909
  777.800  243.321  198.024   82.384   10.520
  778.050  261.876  198.479   84.608   10.654
  778.300  329.995  198.229   72.214    9.751
  778.550  339.943  197.556   76.492    7.912
  778.800  335.018  197.605   93.385    6.710
  779.050  322.141  198.164  100.936    6.366
  779.300  333.062  200.046  107.707    6.360
  779.550  317.383  202.331   99.908    6.434
  779.800  326.741  203.504   99.296    6.646
  780.050  335.514  201.929   91.937    6.641
  780.300  339.135  200.549   95.630    6.516
  780.550  341.257  200.294  102.694    6.352
  780.800  332.549  202.384  107.267    6.186
  781.050  341.715  202.740  108.411    6.179
  781.300  340.052  202.179   96.995    6.273
  781.550  328.739  199.989   97.604    6.526
  781.800  341.226  198.005  104.424    6.940
  782.050  328.284  195.314  107.579    7.410
  782.300  281.821  193.731  109.168    8.341
  782.550  303.960  193.070  109.289    9.631
  782.800  320.497  194.544   96.893   10.301
  783.050  310.487  194.796   90.023   10.875
  783.300  304.782  191.806   97.870   11.125
  783.550  311.728  191.346   91.635   11.320
  783.800  323.174  191.594   92.199   11.472
  784.050  333.182  192.769   96.036   11.866
  784.300  345.417  193.932   96.792   12.576
  784.550  289.560  196.521   91.974   13.547
  784.800  249.420  196.263   85.251   14.657
  785.050  242.933  193.771   78.530   15.405
  785.300  299.183  193.423   72.246   15.679
  785.550  311.541  195.203   77.499   14.338
  785.800  318.098  196.877   82.559   12.440
  786.050  320.933  198.251   87.624   10.880
  786.300  309.552  198.804   91.016   10.198
  786.550  297.721  198.763   92.409   10.470
  786.800  267.235  199.107   95.512   11.122
  787.050  299.940  199.170   94.709   11.515
  787.300  304.148  199.210   91.799   11.509
  787.550  311.482  199.172   91.332   10.966
  787.800  312.630  199.410   94.043   10.124
  788.050  302.291  199.764   93.287    9.677
  788.300  288.109  200.229   94.190    9.652
  788.550  285.535  201.094   97.879    9.468
  788.800  297.436  202.052  102.450    8.964
  789.050  307.778  203.225  101.007    8.362
  789.300  320.721  204.400   99.372    7.737
  789.550  338.039  204.440  100.763    7.072
  789.800  339.574  200.115  106.462    6.269
  790.050  334.191  195.485  110.102    6.126
  790.300  307.947  193.809  113.838    6.217
  790.550  308.241  193.353  120.413    6.571
  790.800  325.361  194.116   96.333    7.022
  791.050  333.219  195.483   97.580    7.337
  791.300  339.904  195.836  106.354    7.390
  791.550  345.029  193.243  107.751    7.188
  791.800  340.887  193.609  102.099    7.139
  792.050  274.140  196.813   97.969    7.531
  792.300  263.153  198.788   93.985    8.342
  792.550  259.143  198.125   90.240    9.511
  792.800  285.718  194.717   83.861    9.625
  793.050  307.796  193.546   83.006    8.602
  793.300  329.287  195.629   91.877    7.282
  793.550  331.734  197.923   97.671    6.658
  793.800  324.399  197.764   99.454    6.335
  794.050  321.752  197.714   99.382    5.954
  794.300  325.118  197.659  102.045    5.983
  794.550  340.936  199.851   94.147    5.957
  794.800  338.425  200.613   99.603    6.015
  795.050  345.111  200.862  101.630    5.987
  795.300  330.341  200.415  107.224    5.999
  795.550  307.679  199.849  100.550    6.093
  795.800  334.255  199.084   97.300    6.127
  796.050  342.571  198.522  103.048    6.381
  796.300  312.020  197.760  106.830    6.634
  796.550  313.881  197.805  101.722    6.647
  796.800  339.153  197.454   95.682    6.424
  797.050  346.296  197.192   96.829    6.137
  797.300  361.523  197.252  106.047    5.513
  797.550  340.622  195.367  112.233    5.029
  797.800  406.331  192.565  115.431    5.064
  798.050  391.365  189.358  106.167    6.731
  798.300  374.963  186.466   97.050    9.812
  798.550  366.449  185.496   79.372   12.157
  798.800  360.162  185.150   56.660   13.525
  799.050  354.065  185.501   46.662   14.478
  799.300  346.401  185.756   44.241   14.131
  799.550  339.656  185.699   45.585   12.830
  799.800  330.229  185.753   53.283   10.894
  800.050  322.957  185.997   50.423    9.751
  800.300  320.973  186.260   55.335    8.690
  800.550  325.705  186.412   59.026    8.066
  800.800  329.582  186.450   60.175    7.383
  801.050  329.548  186.509   58.492    6.604
  801.300  327.496  187.072   54.552    6.216
  801.550  325.966  186.919   52.374    5.870
  801.800  325.546  186.968   54.797    5.625
  802.050  327.212  187.012   59.515    5.540
  802.300  333.244  186.966   65.649    5.813
  802.550  323.427  186.814   69.288    6.426
  802.800  295.357  186.753   69.123    6.996
  803.050  277.783  186.416   67.139    7.567
  803.300  287.273  186.749   70.338    7.901
  803.550  325.328  187.206   69.922    7.815
  803.800  325.426  189.505   64.618    7.032
  804.050  323.885  191.679   68.113    6.230
  804.300  323.473  191.324   68.626    5.586
  804.550  324.614  188.018   68.599    5.082
  804.800  327.449  187.257   68.427    4.820
  805.050  330.027  187.204   68.011    4.753
  805.300  332.862  188.380   70.528    4.705
  805.550  337.529  189.237   73.534    4.719
  805.800  347.740  190.607   72.093    4.733
  806.050  366.492  192.184   68.546    4.769
  806.300  342.719  191.927   69.845    4.802
  806.550  322.864  187.608   72.066    4.778
  806.800  322.437  188.783   69.351    4.650
  807.050  324.170  189.844   74.267    4.385
  807.300  326.161  190.603   72.234    4.021
  807.550  326.586  191.376   65.072    3.656
  807.800  326.292  192.029   69.497    3.391
