~VERSION INFORMATION
 VERS.                 2.0:   CWLS LOG ASCII STANDARD -VERSION 2.0
 WRAP.                  NO:   ONE LINE PER DEPTH STEP
~WELL INFORMATION BLOCK
#MNEM.UNIT           DATA                    DESCRIPTION OF MNEMONIC
#---------    -------------------            -------------------------------
# Generated from Intellog Unique Number	CW_70_72/WELL/3023
NULL.         -999.25                        : NULL_VALUE
WELL.         CHIEFCO POR ER AL RANCH 10-23  : Well_name    - WELL              
LOC .         10-23-070-26W4                 : Location     - LOCATION          
UWI .         00/10-23-070-26W4/0            : Uwi          - UNIQUE WELL ID    
ENTR.         J                              : Entered      - ENTERED BY        
SRVC.         WESTERN ATLAS                  : Scn          - SERVICE COMPANY   
DATE.         17 JUNE 75                     : Date         - LOG DATE          
STRT.M        454.152                        : top_depth    - START DEPTH       
STOP.M        670.652                        : bot_depth    - STOP DEPTH        
STEP.M        0.25                           : increment    - STEP LENGTH       
~CURVE INFORMATION BLOCK
#MNEM UNIT       ERCB CURVE CODE    CURVE DESCRIPTION
#-----------   ------------------   ----------------------------------
DEPT.M        00 001 00 00         : DEPTH        - DEPTH                       
ILD .OHMM     00 120 00 00         : RESD         - DEEP RESISTIVITY (DIL)      
CALI.MM       00 280 01 00         : CAL          - CALIPER                     
GR  .API      00 310 00 00         : GR           - GAMMA RAY                   
NPHI.V/V      00 330 00 00         : PHIN         - NEUTRON POROSITY (SANDSTONE)
DPHI.V/V      00 890 00 00         : PHID         - DENSITY POROSITY (SANDSTONE)
~PARAMETER INFORMATION       
#MNEM.UNIT           DATA             DESCRIPTION OF MNEMONIC
#---------         -----------     ------------------------------
GL  .M        633.191              : gl           - GROUND LEVEL ELEVATION      
EREF.M        635.813              : kb           - ELEVATION OF DEPTH REFERENCE
DATM.M        633.191              : datum        - DATUM ELEVATION             
TDD .M        688.543              : tdd          - TOTAL DEPTH DRILLER         
RUN .         ONE                  : Run          - RUN NUMBER                  
ENG .         GAU-ROBERGE          : Engineer     - RECORDING ENGINEER          
WIT .         COULSON              : Witness      - WITNESSED BY                
MUD .         MUD GEL              : Mud_type     - MUD TYPE                    
MATR.         SANDSTONE            : Logunit      - NEUTRON MATRIX              
TMAX.C        27.2222              : BHT          - MAXIMUM RECORDED TEMPERATURE
BHTD.M        687.629              : BHTDEP       - MAXIMUM RECORDED TEMPERATURE
RMT .C        15.5556              : MDTP         - TEMPERATURE OF MUD          
MUDD.KG/M     1140                 : MWT          - MUD DENSITY                 
NEUT.         1                    : NEUTRON      - NEUTRON TYPE                
RESI.         0                    : RESIST       - RESISTIVITY TYPE            
RM  .OHMM     2.9                  : RM           - RESISTIVITY OF MUD          
RMC .OHMM     0.25                 : RMC          - RESISTIVITY OF MUD CAKE     
RMF .OHMM     0.25                 : RMF          - RESISTIVITY OF MUD FILTRATE 
SUFT.C        -17.7778             : SUFT         - SURFACE TEMPERATURE         
~A  DEPTH     RESD      CAL       GR     PHIN     PHID
# ...
  527.152    1.663  158.108   65.605    0.400    0.311
  527.402    1.660  151.727   67.822    0.385    0.307
  527.652    1.663  150.622   63.075    0.380    0.307
  527.902    1.667  152.822   61.932    0.387    0.310
  528.152    1.736  155.550   62.316    0.384    0.311
  528.402    1.846  156.093   63.744    0.377    0.299
  528.652    2.032  157.264   65.901    0.386    0.291
  528.902    2.440  159.570   68.239    0.384    0.270
  529.152    2.930  161.569   71.251    0.352    0.199
  529.402    3.604  164.290   73.468    0.292    0.185
  529.652    3.852  164.941   73.427    0.272    0.199
  529.902    3.468  162.188   70.268    0.301    0.224
  530.152    2.911  161.280   70.959    0.417    0.303
  530.402    2.615  163.069   74.647    0.442    0.374
  530.652    2.355  170.549   80.040    0.458    0.401
  530.902    2.453  165.720   85.741    0.421    0.264
  531.152    2.720  162.857   88.018    0.384    0.246
  531.402    2.990  161.442   84.800    0.394    0.237
  531.652    3.126  161.880   83.412    0.392    0.229
  531.902    3.280  164.092   87.589    0.369    0.225
  532.152    3.317  165.256   89.743    0.373    0.222
  532.402    3.300  167.463   88.478    0.383    0.222
  532.652    3.276  168.629   92.656    0.391    0.219
  532.902    3.258  170.110   95.054    0.394    0.214
  533.152    3.253  170.869   93.363    0.397    0.216
  533.402    3.321  166.138   92.585    0.397    0.232
  533.652    3.421  153.854   93.277    0.385    0.254
  533.902    3.550  149.859   90.667    0.359    0.265
  534.152    3.698  154.332   85.248    0.324    0.206
  534.402    3.824  157.881   81.783    0.332    0.214
  534.652    3.946  160.500   81.986    0.347    0.232
  534.902    3.991  162.909   83.350    0.378    0.225
  535.152    3.999  166.464   83.125    0.391    0.211
  535.402    3.934  168.150   83.999    0.384    0.207
  535.652    3.870  168.280   86.765    0.375    0.200
  535.902    3.828  168.834   92.343    0.366    0.193
  536.152    3.704  169.075   90.838    0.370    0.203
  536.402    3.583  169.307   89.877    0.387    0.211
  536.652    3.499  169.455   90.567    0.407    0.202
  536.902    3.467  169.583   95.045    0.417    0.201
  537.152    3.520  169.401   95.921    0.422    0.215
  537.402    3.560  168.707   91.172    0.421    0.215
  537.652    3.640  165.535   88.869    0.381    0.225
  537.902    3.729  161.427   88.645    0.398    0.233
  538.152    3.856  162.493   87.866    0.398    0.222
  538.402    3.972  165.833   89.172    0.385    0.217
  538.652    4.040  168.245   92.059    0.393    0.202
  538.902    4.018  169.622   95.682    0.376    0.199
  539.152    3.909  170.481   92.708    0.408    0.199
  539.402    3.686  170.924   92.667    0.434    0.195
  539.652    3.405  170.550   94.699    0.439    0.195
  539.902    3.082  169.129   98.263    0.421    0.200
  540.152    2.724  165.851  100.176    0.418    0.221
  540.402    2.425  162.364  101.536    0.417    0.234
  540.652    2.237  160.323   96.546    0.409    0.261
  540.902    2.062  159.013   83.549    0.407    0.304
  541.152    2.021  158.218   75.380    0.413    0.293
  541.402    2.063  157.830   67.332    0.416    0.298
  541.652    2.340  157.863   66.129    0.411    0.296
  541.902    2.552  157.585   72.015    0.389    0.277
  542.152    2.821  157.411   78.511    0.373    0.249
  542.402    3.134  157.234   84.821    0.362    0.248
  542.652    3.438  157.364   83.131    0.378    0.239
  542.902    3.771  160.190   84.249    0.390    0.218
  543.152    3.907  164.983   87.750    0.404    0.187
  543.402    3.951  168.639   91.556    0.398    0.173
  543.652    3.981  168.669   92.368    0.390    0.185
  543.902    4.109  166.009   90.616    0.415    0.210
  544.152    4.163  161.484   87.335    0.472    0.296
  544.402    4.088  159.656   83.566    0.618    0.487
  544.652    3.818  161.030   77.655    0.775    0.598
  544.902    3.313  162.931   69.853    0.749    0.290
  545.152    2.786  162.551   67.550    0.428    0.252
  545.402    2.167  161.229   73.434    0.390    0.261
  545.652    1.944  158.054   82.680    0.379    0.291
  545.902    1.783  157.153   77.443    0.375    0.307
  546.152    1.703  159.563   67.930    0.366    0.308
  546.402    1.675  161.253   66.788    0.377    0.306
  546.652    1.697  160.765   69.983    0.387    0.307
  546.902    1.726  156.553   69.329    0.390    0.301
  547.152    1.768  153.069   68.679    0.377    0.299
  547.402    1.795  155.897   71.446    0.369    0.296
  547.652    1.842  159.346   75.130    0.380    0.295
  547.902    1.884  160.715   75.329    0.392    0.294
  548.152    1.895  160.441   74.192    0.393    0.294
  548.402    1.885  159.335   73.476    0.394    0.288
  548.652    1.871  158.746   73.430    0.413    0.288
  548.902    1.875  158.678   73.449    0.428    0.290
  549.152    1.924  158.706   74.628    0.423    0.290
  549.402    2.030  158.732   78.191    0.411    0.296
  549.652    2.248  158.876   82.181    0.408    0.292
  549.902    2.535  159.729   78.412    0.400    0.292
  550.152    3.247  160.799   74.582    0.390    0.272
  550.402    4.340  161.546   72.157    0.368    0.263
  550.652    5.418  162.303   74.195    0.335    0.229
  550.902    6.567  164.925   76.592    0.294    0.174
  551.152    6.980  167.539   74.594    0.275    0.181
  551.402    7.204  167.465   67.648    0.268    0.193
  551.652    6.438  164.294   63.877    0.280    0.218
  551.902    5.701  158.319   63.836    0.321    0.285
  552.152    5.057  154.735   66.361    0.359    0.301
  552.402    4.291  155.802   67.113    0.345    0.292
  552.652    3.615  156.762   68.051    0.342    0.290
  552.902    2.984  157.413   70.326    0.359    0.300
  553.152    2.509  157.446   74.192    0.381    0.293
  553.402    2.197  157.477   76.351    0.397    0.287
  553.652    2.141  157.918   77.164    0.416    0.286
  553.902    2.235  158.160   78.285    0.409    0.283
  554.152    2.397  158.602   78.543    0.394    0.279
  554.402    2.601  159.467   78.562    0.371    0.271
  554.652    2.744  160.849   75.283    0.353    0.244
  554.902    2.864  161.489   71.146    0.324    0.192
  555.152    2.918  161.528   67.802    0.296    0.174
  555.402    2.870  159.901   67.944    0.255    0.196
  555.652    2.752  156.002   70.530    0.328    0.228
  555.902    2.509  152.619   75.497    0.396    0.293
  556.152    2.406  151.305   80.526    0.405    0.284
  556.402    2.469  152.686   82.868    0.381    0.275
  556.652    2.530  154.785   83.069    0.410    0.284
  556.902    2.535  156.985   81.864    0.433    0.265
  557.152    2.390  158.772   78.951    0.432    0.279
  557.402    2.274  159.528   76.342    0.416    0.293
  557.652    2.116  155.838   74.468    0.403    0.298
  557.902    2.066  150.699   73.383    0.390    0.299
  558.152    2.125  152.485   72.424    0.396    0.299
  558.402    2.276  154.583   73.851    0.416    0.293
  558.652    2.433  156.687   76.618    0.395    0.263
  558.902    2.501  157.750   80.181    0.382    0.259
  559.152    2.511  158.095   82.275    0.384    0.254
  559.402    2.461  158.025   81.011    0.397    0.255
  559.652    2.421  157.743   81.826    0.393    0.255
  559.902    2.395  156.221   81.903    0.388    0.267
  560.152    2.347  151.709   78.625    0.383    0.272
  560.402    2.360  150.698   79.924    0.376    0.264
  560.652    2.423  156.220   82.388    0.383    0.257
  560.902    2.515  157.594   83.141    0.398    0.257
  561.152    2.571  158.035   83.279    0.377    0.257
  561.402    2.644  158.375   82.993    0.381    0.238
  561.652    2.719  154.579   81.912    0.397    0.215
  561.902    2.750  156.382   80.710    0.370    0.234
  562.152    2.812  158.270   80.484    0.383    0.258
  562.402    2.940  159.953   80.928    0.408    0.279
  562.652    3.201  160.922   80.029    0.357    0.236
  562.902    3.844  160.635   77.726    0.335    0.217
  563.152    4.852  159.837   74.201    0.316    0.205
  563.402    5.148  162.351   63.465    0.241    0.099
