~VERSION INFORMATION
 VERS.                 2.0:   CWLS LOG ASCII STANDARD -VERSION 2.0
 WRAP.                  NO:   ONE LINE PER DEPTH STEP
~WELL INFORMATION BLOCK
#MNEM.UNIT           DATA                    DESCRIPTION OF MNEMONIC
#---------    -------------------            -------------------------------
# Generated from Intellog Unique Number	CW_76_78/WELL/2582
WELL.         BAYSEL WILLOW R                : Well_name    - WELL
LOC .         00/11-25-078-03W5/0            : Location     - LOCATION
UWI .         00/11-25-078-03W5/0            : Uwi          - UNIQUE WELL ID
ENTR.         MAX                            : Entered      - ENTERED BY
SRVC.         SCHLUMBERGER                   : Scn          - SERVICE COMPANY
STRT.M        347.472                        : top_depth    - START DEPTH
STOP.M        609.722                        : bot_depth    - STOP DEPTH
STEP.M        0.25                           : increment    - STEP LENGTH
 NULL. -999.2500:NULL Value
~CURVE INFORMATION BLOCK
#MNEM UNIT       ERCB CURVE CODE    CURVE DESCRIPTION
#-----------   ------------------   ----------------------------------
DEPT.M        00 001 00 00         : DEPTH        - DEPTH
ILD .OHMM     00 120 00 00         : RESD         - DEEP RESISTIVITY (DIL)
NPHI.V/V      00 330 00 00         : PHIN         - NEUTRON POROSITY (SANDSTONE)
DPHI.V/V      00 890 00 00         : PHID         - DENSITY POROSITY (SANDSTONE)
CALI.MM       00 280 01 00         : CAL          - CALIPER
GR  .API      00 310 00 00         : GR           - GAMMA RAY
~PARAMETER INFORMATION
#MNEM.UNIT           DATA             DESCRIPTION OF MNEMONIC
#---------         -----------     ------------------------------
GL  .M        649.102              : gl           - GROUND LEVEL ELEVATION
EREF.M        653.308              : kb           - ELEVATION OF DEPTH REFERENCE
DATM.M        649.102              : datum        - DATUM ELEVATION
TDD .M        619.963              : tdd          - TOTAL DEPTH DRILLER
RUN .         ONE                  : Run          - RUN NUMBER
ENG .         BILL                 : Engineer     - RECORDING ENGINEER
WIT .         JIM                  : Witness      - WITNESSED BY
MUD .         GEL                  : Mud_type     - MUD TYPE
MATR.         SANDSTONE            : Logunit      - NEUTRON MATRIX
TMAX.C        27.2222              : BHT          - MAXIMUM RECORDED TEMPERATURE
BHTD.M        619.963              : BHTDEP       - MAXIMUM RECORDED TEMPERATURE
RMT .C        12.2222              : MDTP         - TEMPERATURE OF MUD
MUDD.KG/M     9100                 : MWT          - MUD DENSITY
NEUT.         1                    : NEUTRON      - NEUTRON TYPE
RESI.         0                    : RESIST       - RESISTIVITY TYPE
RM  .OHMM     0.25                 : RM           - RESISTIVITY OF MUD
RMC .OHMM     0.25                 : RMC          - RESISTIVITY OF MUD CAKE
RMF .OHMM     1.3                  : RMF          - RESISTIVITY OF MUD FILTRATE
SUFT.C        -15                  : SUFT         - SURFACE TEMPERATURE
~A  DEPTH     RESD     PHIN     PHID      CAL       GR
# ...
  493.472   10.812    0.489    0.244  152.537   75.325
  493.722   10.523    0.455    0.214  153.030   73.839
  493.972   10.335    0.411    0.184  154.009   71.465
  494.222   11.298    0.386    0.185  153.493   68.204
  494.472   13.032    0.396    0.177  153.474   63.172
  494.722   15.303    0.387    0.102  153.949   59.025
  494.972   17.809    0.307    0.010  153.949   59.017
  495.222   19.470    0.211   -0.009  153.907   61.662
  495.472   18.613    0.198   -0.019  154.391   64.900
  495.722   16.867    0.205   -0.007  154.370   70.497
  495.972   15.012    0.235    0.011  154.340   73.144
  496.222   13.243    0.289    0.097  154.333   75.496
  496.472   10.974    0.376    0.177  155.312   72.236
  496.722    9.767    0.469    0.204  155.298   71.634
  496.972    9.337    0.444    0.192  155.777   74.573
  497.222    9.588    0.422    0.192  155.754   78.401
  497.472   10.024    0.446    0.196  155.740   79.570
  497.722   10.387    0.479    0.212  155.717   78.673
  497.972   10.477    0.483    0.226  155.696   79.254
  498.222   10.289    0.471    0.250  156.178   80.129
  498.472    9.925    0.484    0.237  156.659   82.771
  498.722    9.488    0.502    0.243  157.641   83.354
  498.972    9.235    0.499    0.233  158.120   83.341
  499.222    8.988    0.491    0.214  158.101   81.559
  499.472    8.986    0.472    0.192  158.101   77.113
  499.722    8.984    0.443    0.175  158.064   76.810
  499.972    9.062    0.416    0.162  157.044   77.978
  500.222    9.141    0.400    0.150  157.044   80.920
  500.472    9.387    0.421    0.165  156.504   82.978
  500.722    9.554    0.482    0.190  156.486   83.851
  500.972    9.637    0.496    0.210  156.967   82.953
  501.222    9.548    0.472    0.230  157.449   83.534
  501.472    9.294    0.477    0.235  157.425   84.997
  501.722    8.965    0.489    0.233  158.407   84.691
  501.972    8.648    0.491    0.228  159.386   84.382
  502.222    8.342    0.483    0.219  160.868   84.371
  502.472    8.192    0.466    0.182  161.347   84.361
  502.722    8.044    0.423    0.188  160.330   85.235
  502.972    8.042    0.438    0.190  158.807   86.406
  503.222    8.040    0.474    0.202  157.791   84.327
  503.472    8.111    0.496    0.196  158.273   84.316
  503.722    8.329    0.473    0.183  159.749   86.667
  503.972    8.401    0.436    0.173  160.733   87.541
  504.222    8.399    0.403    0.166  160.715   89.301
  504.472    8.248    0.399    0.156  160.194   88.699
  504.722    7.815    0.406    0.149  159.173   83.668
  504.972    7.406    0.420    0.155  158.652   84.835
  505.222    7.143    0.465    0.172  158.634   87.777
  505.472    7.015    0.498    0.183  159.617   89.241
  505.722    7.076    0.516    0.200  160.097   87.755
  505.972    6.949    0.499    0.201  160.576   86.857
  506.222    6.949    0.485    0.199  161.557   87.732
  506.472    6.884    0.483    0.191  163.036   89.491
  506.722    6.760    0.486    0.187  163.520   89.774
  506.972    6.760    0.492    0.188  162.497   90.648
  507.222    6.817    0.481    0.185  160.981   92.705
  507.472    7.063    0.467    0.180  158.458   92.696
  507.722    7.060    0.467    0.177  159.441   90.616
  507.972    7.123    0.475    0.174  164.421   90.604
  508.222    7.121    0.509    0.170  162.897   90.296
  508.472    6.931    0.491    0.176  160.379   89.696
  508.722    6.867    0.468    0.179  159.346   88.503
  508.972    6.805    0.480    0.175  158.339   87.901
  509.222    6.742    0.502    0.178  157.821   88.481
  509.472    6.680    0.495    0.183  158.805   90.240
  509.722    6.619    0.495    0.188  159.286   89.638
  509.972    6.617    0.496    0.194  159.763   88.149
  510.222    6.735    0.470    0.196  160.747   87.547
  510.472    7.104    0.447    0.195  162.221   85.765
  510.722    7.493    0.457    0.194  161.705   81.028
  510.972    7.834    0.441    0.190  160.187   80.721
  511.222    7.903    0.429    0.177  158.668   82.778
  511.472    7.900    0.419    0.168  158.150   86.306
  511.722    7.899    0.445    0.176  159.126   87.184
  511.972    7.757    0.452    0.180  160.110   86.877
  512.222    7.549    0.461    0.174  159.592   86.867
  512.472    7.348    0.466    0.184  158.068   90.985
  512.722    7.087    0.467    0.187  157.050   93.339
  512.972    6.898    0.471    0.187  157.531   93.916
  513.222    6.835    0.482    0.185  159.013   93.905
  513.472    7.146    0.474    0.181  159.992   94.190
  513.722    7.404    0.442    0.179  159.474   93.883
  513.972    7.535    0.416    0.175  158.455   91.510
  514.222    7.533    0.433    0.163  156.434   90.316
  514.472    7.398    0.449    0.158  156.413   91.190
  514.722    7.331    0.429    0.162  157.395   93.542
  514.972    7.135    0.401    0.175  159.376   93.236
  515.222    6.821    0.392    0.175  160.358   92.929
  515.472    6.521    0.413    0.164  161.337   93.803
  515.722    6.234    0.428    0.165  162.314   98.220
  515.972    5.960    0.439    0.160  163.295  101.161
  516.222    5.801    0.463    0.157  165.774  100.559
  516.472    5.748    0.481    0.176  167.256   97.004
  516.722    6.009    0.505    0.179  166.740   94.333
  516.972    6.628    0.509    0.189  165.219   92.257
  517.222    7.577    0.492    0.184  163.200   86.634
  517.472    8.741    0.463    0.161  162.679   87.509
  517.722   10.543    0.475    0.168  162.161   88.384
  517.972   11.945    0.494    0.158  160.142   85.420
  518.222   13.414    0.483    0.200  155.121   80.683
  518.472   16.035    0.464    0.245  153.601   75.653
  518.722   18.662    0.431    0.257  153.584   71.507
  518.972   19.164    0.423    0.256  155.064   70.610
  519.222   19.158    0.449    0.243  157.545   70.894
  519.472   19.850    0.477    0.223  160.024   64.091
  519.722   20.386    0.458    0.208  160.003   62.897
  519.972   21.121    0.424    0.168  158.987   67.020
  520.222   21.117    0.391    0.137  157.966   72.617
  520.472   20.008    0.448    0.185  157.966   71.721
  520.722   17.969    0.477    0.243  157.427   71.415
  520.972   16.282    0.474    0.258  156.908   72.290
  521.222   13.735    0.479    0.248  156.885   74.051
  521.472   11.381    0.461    0.240  156.864   76.991
  521.722   10.405    0.458    0.222  157.351   81.703
  521.972   10.310    0.477    0.189  157.832   82.283
  522.222   11.786    0.502    0.181  158.807   81.681
  522.472   13.474    0.508    0.194  158.790   76.651
  522.722   14.996    0.491    0.222  158.269   74.867
  522.972   14.464    0.470    0.213  157.751   75.446
  523.222   13.953    0.445    0.199  157.730   77.793
  523.472   13.460    0.439    0.179  157.730   79.554
  523.722   12.753    0.429    0.158  158.181   80.724
  523.972   12.084    0.404    0.157  158.674   81.893
  524.222   11.048    0.422    0.166  161.154   83.656
  524.472    9.746    0.433    0.181  163.133   86.597
  524.722    8.990    0.435    0.180  163.612   88.355
  524.972    8.146    0.439    0.193  163.598   89.231
  525.222    7.858    0.443    0.186  164.073   94.240
  525.472    7.786    0.457    0.183  164.556   94.228
  525.722    7.714    0.477    0.174  165.036   91.265
  525.972    7.713    0.495    0.157  165.003   87.710
  526.222    7.780    0.497    0.161  164.996   88.585
  526.472    7.778    0.486    0.171  164.996   90.049
  526.722    7.776    0.470    0.186  164.950   90.330
  526.972    7.704    0.451    0.190  164.941   89.137
  527.222    7.566    0.452    0.182  164.941   87.652
  527.472    7.430    0.445    0.173  164.897   85.870
  527.722    7.362    0.460    0.175  164.880   84.084
  527.972    7.295    0.468    0.183  165.364   84.370
  528.222    7.293    0.475    0.190  165.343   87.606
  528.472    7.291    0.460    0.193  165.820   88.183
  528.722    7.289    0.453    0.182  165.804   88.173
  528.972    7.287    0.454    0.173  165.783   89.343
  529.222    7.220    0.460    0.175  165.262   89.628
  529.472    7.218    0.484    0.162  165.230   91.089
  529.722    7.216    0.500    0.155  165.223   91.375
