~VERSION INFORMATION
 VERS.                 2.0:   CWLS LOG ASCII STANDARD -VERSION 2.0
 WRAP.                  NO:   ONE LINE PER DEPTH STEP
~WELL INFORMATION BLOCK
#MNEM.UNIT           DATA                    DESCRIPTION OF MNEMONIC
#---------    -------------------            -------------------------------
# Generated from Intellog Unique Number	CC_80_83/WELL/2326
WELL.         NOVALTA NEWBY                  : Well_name    - WELL
LOC .         00/12-07-083-04W4/0            : Location     - LOCATION
UWI .         00/12-07-083-04W4/0            : Uwi          - UNIQUE WELL ID
ENTR.         DW                             : Entered      - ENTERED BY
SRVC.         SCHLUMBERGER                   : Scn          - SERVICE COMPANY
STRT.M        70                             : top_depth    - START DEPTH
STOP.M        279.75                         : bot_depth    - STOP DEPTH
STEP.M        0.25                           : increment    - STEP LENGTH
 NULL. -999.2500:NULL Value
~CURVE INFORMATION BLOCK
#MNEM UNIT       ERCB CURVE CODE    CURVE DESCRIPTION
#-----------   ------------------   ----------------------------------
DEPT.M        00 001 00 00         : DEPTH        - DEPTH
GR  .API      00 310 00 00         : GR           - GAMMA RAY
DPHI.V/V      00 890 00 00         : PHID         - DENSITY POROSITY (SANDSTONE)
NPHI.V/V      00 330 00 00         : PHIN         - NEUTRON POROSITY (SANDSTONE)
ILD .OHMM     00 120 00 00         : RESD         - DEEP RESISTIVITY (DIL)
~PARAMETER INFORMATION
#MNEM.UNIT           DATA             DESCRIPTION OF MNEMONIC
#---------         -----------     ------------------------------
GL  .M        462.29               : gl           - GROUND LEVEL ELEVATION
EREF.M        465.29               : kb           - ELEVATION OF DEPTH REFERENCE
DATM.M        465.29               : datum        - DATUM ELEVATION
TDD .M        288.9                : tdd          - TOTAL DEPTH DRILLER
RUN .         ONE                  : Run          - RUN NUMBER
ENG .         BILL                 : Engineer     - RECORDING ENGINEER
WIT .         JIM                  : Witness      - WITNESSED BY
MUD .         GEL                  : Mud_type     - MUD TYPE
MATR.         SANDSTONE            : Logunit      - NEUTRON MATRIX
TMAX.C        19                   : BHT          - MAXIMUM RECORDED TEMPERATURE
BHTD.M        288.9                : BHTDEP       - MAXIMUM RECORDED TEMPERATURE
MATR.         1                    : LOGUNIT      - NEUTRON MATRIX
RMT .C        25                   : MDTP         - TEMPERATURE OF MUD
NEUT.         1                    : NEUTRON      - NEUTRON TYPE
RESI.         0                    : RESIST       - RESISTIVITY TYPE
RMC .OHMM     0.25                 : RMC          - RESISTIVITY OF MUD CAKE
RMF .OHMM     0.25                 : RMF          - RESISTIVITY OF MUD FILTRATE
SUFT.C        15                   : SUFT         - SURFACE TEMPERATURE
~A  DEPTH       GR     PHID     PHIN     RESD
# ...
  244.000   52.704    0.322    0.378    1.353
  244.250   49.714    0.329    0.379    1.312
  244.500   42.367    0.337    0.369    1.240
  244.750   37.795    0.340    0.348    1.186
  245.000   41.880    0.307    0.323    1.249
  245.250   49.311    0.275    0.324    1.369
  245.500   50.868    0.308    0.358    1.404
  245.750   53.611    0.320    0.356    1.414
  246.000   59.563    0.312    0.339    1.544
  246.250   67.402    0.282    0.333    1.643
  246.500   74.294    0.254    0.332    1.678
  246.750   74.007    0.260    0.346    1.687
  247.000   63.390    0.294    0.384    1.572
  247.250   52.312    0.329    0.392    1.364
  247.500   44.717    0.349    0.367    1.220
  247.750   49.428    0.338    0.336    1.141
  248.000   60.066    0.311    0.351    1.119
  248.250   59.217    0.307    0.398    1.144
  248.500   45.457    0.334    0.405    1.161
  248.750   37.491    0.337    0.397    1.163
  249.000   34.840    0.335    0.367    1.137
  249.250   33.251    0.340    0.351    1.086
  249.500   31.956    0.348    0.355    1.042
  249.750   30.849    0.357    0.363    1.040
  250.000   29.288    0.363    0.374    1.076
  250.250   28.734    0.350    0.361    1.092
  250.500   28.251    0.341    0.347    1.115
  250.750   27.913    0.345    0.343    1.099
  251.000   28.328    0.352    0.345    1.067
  251.250   29.599    0.355    0.345    1.050
  251.500   31.759    0.354    0.335    1.016
  251.750   34.913    0.349    0.333    1.012
  252.000   36.860    0.342    0.338    1.040
  252.250   35.481    0.345    0.346    1.076
  252.500   32.690    0.343    0.353    1.106
  252.750   31.861    0.335    0.348    1.114
  253.000   32.431    0.343    0.344    1.095
  253.250   30.942    0.361    0.391    1.080
  253.500   29.692    0.359    0.387    1.034
  253.750   28.722    0.336    0.366    1.001
  254.000   27.832    0.323    0.360    0.991
  254.250   27.440    0.336    0.353    0.974
  254.500   27.496    0.355    0.349    0.959
  254.750   28.488    0.355    0.352    0.957
  255.000   29.805    0.343    0.351    0.969
  255.250   32.205    0.336    0.353    0.986
  255.500   34.245    0.343    0.359    1.000
  255.750   34.220    0.353    0.358    1.019
  256.000   33.720    0.353    0.352    1.052
  256.250   35.029    0.342    0.347    1.069
  256.500   38.370    0.334    0.338    1.086
  256.750   41.878    0.334    0.355    1.096
  257.000   43.124    0.342    0.378    1.087
  257.250   42.224    0.349    0.369    1.068
  257.500   41.193    0.341    0.347    1.052
  257.750   39.624    0.332    0.337    1.034
  258.000   38.504    0.328    0.330    1.029
  258.250   37.383    0.326    0.327    1.040
  258.500   36.824    0.330    0.330    1.058
  258.750   36.769    0.342    0.339    1.074
  259.000   36.253    0.352    0.350    1.091
  259.250   37.656    0.348    0.366    1.110
  259.500   39.700    0.335    0.377    1.102
  259.750   39.359    0.332    0.367    1.070
  260.000   37.417    0.337    0.345    1.042
  260.250   36.045    0.334    0.335    1.028
  260.500   35.048    0.325    0.340    1.011
  260.750   34.478    0.318    0.340    1.008
  261.000   34.775    0.312    0.324    1.037
  261.250   38.223    0.308    0.314    1.057
  261.500   44.372    0.302    0.306    1.038
  261.750   47.366    0.314    0.321    1.006
  262.000   42.559    0.357    0.381    0.992
  262.250   35.597    0.365    0.379    0.977
  262.500   31.893    0.353    0.362    0.959
  262.750   31.039    0.345    0.348    0.952
  263.000   30.464    0.344    0.342    0.957
  263.250   33.269    0.338    0.342    0.980
  263.500   52.174    0.323    0.329    1.028
  263.750   86.181    0.325    0.322    1.075
  264.000   72.139    0.334    0.354    1.159
  264.250   54.236    0.332    0.339    1.242
  264.500   61.466    0.303    0.311    1.388
  264.750   72.236    0.272    0.344    1.633
  265.000   80.277    0.274    0.379    1.875
  265.250   89.884    0.258    0.385    2.103
  265.500   99.770    0.222    0.387    2.238
  265.750   99.161    0.211    0.395    2.284
  266.000   87.462    0.247    0.398    2.224
  266.250   76.385    0.290    0.389    2.067
  266.500   72.946    0.300    0.373    1.912
  266.750   71.660    0.303    0.362    1.833
  267.000   74.045    0.286    0.354    1.943
  267.250   84.776    0.247    0.349    1.970
  267.500   94.734    0.235    0.351    1.875
  267.750   85.767    0.283    0.359    1.784
  268.000   64.946    0.329    0.361    1.674
  268.250   72.252    0.265    0.358    1.656
  268.500   86.384    0.215    0.357    1.828
  268.750  101.936    0.208    0.359    2.139
  269.000  111.182    0.220    0.362    2.368
  269.250  105.930    0.237    0.365    2.381
  269.500   94.721    0.231    0.365    2.261
  269.750   82.558    0.190    0.367    2.120
  270.000   70.674    0.179    0.376    2.045
  270.250   81.897    0.195    0.387    2.131
  270.500  106.634    0.220    0.405    2.361
  270.750  121.828    0.242    0.433    2.626
  271.000  129.376    0.249    0.463    2.830
  271.250  129.704    0.253    0.479    2.930
  271.500  128.438    0.252    0.496    2.964
  271.750  127.886    0.253    0.506    3.080
  272.000  125.467    0.272    0.527    3.198
  272.250  118.327    0.251    0.506    3.237
  272.500  107.778    0.147    0.389    3.288
  272.750   99.340    0.105    0.330    3.320
  273.000   98.516    0.094    0.295    3.573
  273.250  104.365    0.110    0.354    3.752
  273.500  111.714    0.124    0.428    3.732
  273.750  117.449    0.117    0.408    3.664
  274.000  116.477    0.126    0.360    3.678
  274.250   99.757    0.140    0.337    4.016
  274.500   89.427    0.133    0.342    4.560
  274.750   75.669    0.110    0.310    5.114
  275.000   59.996    0.072    0.253    5.994
  275.250   45.774    0.035    0.217    7.835
  275.500   27.297    0.031    0.196    9.962
  275.750   29.175    0.039    0.185   10.172
  276.000   31.756    0.068    0.189   10.399
  276.250   31.769    0.089    0.191   10.571
  276.500   30.776    0.081    0.187   10.585
  276.750   25.131    0.060    0.190   10.757
  277.000   18.011    0.054    0.201   10.736
  277.250   19.020    0.062    0.203   10.718
  277.500   23.086    0.074    0.204   10.868
  277.750   24.792    0.081    0.198   10.981
  278.000   24.946    0.076    0.190   10.857
  278.250   24.569    0.076    0.188   10.735
  278.500   22.369    0.109    0.189   10.931
  278.750   20.755    0.144    0.188   11.114
  279.000   19.637    0.153    0.183   11.169
  279.250   18.870    0.140    0.178   11.026
  279.500   18.637    0.110    0.172   10.909
  279.750   18.645    0.070    0.164   10.919
