~VERSION INFORMATION
 VERS.                 2.0:   CWLS LOG ASCII STANDARD -VERSION 2.0
 WRAP.                  NO:   ONE LINE PER DEPTH STEP
~WELL INFORMATION BLOCK
#MNEM.UNIT           DATA                    DESCRIPTION OF MNEMONIC
#---------    -------------------            -------------------------------
# Generated from Intellog Unique Number	CW_73_75/WELL/3023
WELL.         RANGER ET AL MARTEN H 11-15    : Well_name    - WELL
LOC .         00/11-15-073-23W4/0            : Location     - LOCATION
UWI .         00/11-15-073-23W4/0            : Uwi          - UNIQUE WELL ID
ENTR.         JJ                             : Entered      - ENTERED BY
SRVC.         SCHLUMBERGER                   : Scn          - SERVICE COMPANY
DATE.         13 NOV 70                      : Date         - LOG DATE
STRT.M        502.92                         : top_depth    - START DEPTH
STOP.M        697.92                         : bot_depth    - STOP DEPTH
STEP.M        0.25                           : increment    - STEP LENGTH
 NULL. -999.2500:NULL Value
~CURVE INFORMATION BLOCK
#MNEM UNIT       ERCB CURVE CODE    CURVE DESCRIPTION
#-----------   ------------------   ----------------------------------
DEPT.M        00 001 00 00         : DEPTH        - DEPTH
DPHI.V/V      00 890 00 00         : PHID         - DENSITY POROSITY (SANDSTONE)
GR  .API      00 310 00 00         : GR           - GAMMA RAY
CALI.MM       00 280 01 00         : CAL          - CALIPER
NPHI.V/V      00 330 00 00         : PHIN         - NEUTRON POROSITY (SANDSTONE)
ILD .OHMM     00 120 00 00         : RESD         - DEEP RESISTIVITY (DIL)
~PARAMETER INFORMATION
#MNEM.UNIT           DATA             DESCRIPTION OF MNEMONIC
#---------         -----------     ------------------------------
GL  .M        717.499              : gl           - GROUND LEVEL ELEVATION
EREF.M        720.547              : kb           - ELEVATION OF DEPTH REFERENCE
DATM.M        720.547              : datum        - DATUM ELEVATION
TDD .M        701.04               : tdd          - TOTAL DEPTH DRILLER
RUN .         ONE                  : Run          - RUN NUMBER
ENG .         SLADEN               : Engineer     - RECORDING ENGINEER
WIT .         BROWN                : Witness      - WITNESSED BY
BASE.         EDMONTON             : Branch       - HOME BASE OF LOGGING UNIT
MUD .         GEL CHEM-LCM         : Mud_type     - MUD TYPE
MATR.         SANDSTONE            : Logunit      - NEUTRON MATRIX
TMAX.C        20                   : BHT          - MAXIMUM RECORDED TEMPERATURE
BHTD.M        701.345              : BHTDEP       - MAXIMUM RECORDED TEMPERATURE
RMT .C        7.22222              : MDTP         - TEMPERATURE OF MUD
MUDD.KG/M     1068                 : MWT          - MUD DENSITY
NEUT.         0                    : NEUTRON      - NEUTRON TYPE
RESI.         0                    : RESIST       - RESISTIVITY TYPE
RM  .OHMM     2.13                 : RM           - RESISTIVITY OF MUD
RMC .OHMM     0                    : RMC          - RESISTIVITY OF MUD CAKE
RMF .OHMM     2.91                 : RMF          - RESISTIVITY OF MUD FILTRATE
SUFT.C        5                    : SUFT         - SURFACE TEMPERATURE
~A  DEPTH     PHID       GR      CAL     PHIN     RESD
# ...
  575.920    0.277   60.289  151.404    0.297    6.126
  576.170    0.285   58.039  150.801    0.283    6.162
  576.420    0.289   65.821  149.992    0.305    6.182
  576.670    0.270   68.340  150.743    0.323    6.169
  576.920    0.267   71.042  150.864    0.339    6.157
  577.170    0.259   75.213  150.984    0.338    6.144
  577.420    0.226   77.061  151.217    0.335    6.108
  577.670    0.239   73.648  151.340    0.328    6.111
  577.920    0.219   79.225  151.459    0.347    6.315
  578.170    0.202   81.685  151.482    0.327    6.672
  578.420    0.204   82.553  150.779    0.316    7.125
  578.670    0.210   83.421  151.522    0.301    7.409
  578.920    0.200   79.089  155.064    0.296    7.783
  579.170    0.174   84.240  160.157    0.261    8.066
  579.420    0.204   96.118  155.205    0.233    8.230
  579.670    0.231   91.543  151.807    0.305    7.857
  579.920    0.219   83.297  150.384    0.321    7.404
  580.170    0.205   74.562  151.121    0.330    7.007
  580.420    0.223   73.840  151.866    0.320    6.826
  580.670    0.246   74.524  151.991    0.311    6.750
  580.920    0.252   74.779  153.049    0.338    6.770
  581.170    0.242   75.893  153.069    0.311    6.781
  581.420    0.232   79.820  151.950    0.294    6.800
  581.670    0.232   79.892  150.933    0.285    6.860
  581.920    0.243   78.803  150.537    0.304    6.912
  582.170    0.226   78.264  150.454    0.332    6.980
  582.420    0.222   78.705  151.407    0.319    7.017
  582.670    0.227   80.368  152.048    0.303    7.013
  582.920    0.239   79.158  153.317    0.312    7.008
  583.170    0.246   78.495  153.332    0.326    7.004
  583.420    0.240   79.670  152.836    0.325    6.983
  583.670    0.225   79.744  152.541    0.316    6.946
  583.920    0.246   78.836  152.666    0.323    6.918
  584.170    0.251   80.928  154.761    0.310    6.978
  584.420    0.215   85.407  158.096    0.293    7.077
  584.670    0.192   84.257  160.806    0.306    7.290
  584.920    0.183   87.448  163.728    0.281    7.502
  585.170    0.172   89.175  163.333    0.287    7.674
  585.420    0.180   82.273  158.590    0.281    7.815
  585.670    0.182   82.835  154.878    0.281    7.866
  585.920    0.187   85.538  153.864    0.298    7.813
  586.170    0.178   84.877  157.302    0.287    7.657
  586.420    0.171   88.376  163.020    0.293    7.524
  586.670    0.167   94.872  165.944    0.288    7.392
  586.920    0.162   86.993  166.061    0.269    7.339
  587.170    0.159   83.028  166.496    0.263    7.304
  587.420    0.173   85.549  166.520    0.256    7.339
  587.670    0.170   88.252  166.125    0.269    7.391
  587.920    0.145   89.548  166.349    0.275    7.555
  588.170    0.135   93.842  166.058    0.286    7.726
  588.420    0.149   91.835  166.082    0.287    7.987
  588.670    0.148   88.788  166.409    0.277    8.080
  588.920    0.148   85.437  167.050    0.261    8.067
  589.170    0.153   82.817  167.385    0.269    7.910
  589.420    0.159   85.766  167.403    0.259    7.657
  589.670    0.160   88.776  167.422    0.281    7.404
  589.920    0.154   93.374  166.825    0.294    7.095
  590.170    0.175   95.773  164.874    0.306    6.914
  590.420    0.201   92.665  161.992    0.305    6.926
  590.670    0.197   88.088  158.492    0.289    7.050
  590.920    0.199   86.877  157.480    0.291    7.166
  591.170    0.211   89.519  157.085    0.297    7.218
  591.420    0.208   92.895  157.103    0.293    7.246
  591.670    0.201   93.824  157.432    0.281    7.209
  591.920    0.193   96.038  158.383    0.285    7.132
  592.170    0.179   95.867  158.715    0.269    7.064
  592.420    0.190   99.794  159.047    0.273    6.955
  592.670    0.206   95.952  159.068    0.292    6.854
  592.920    0.194   87.400  158.257    0.317    6.714
  593.170    0.181   87.350  155.380    0.315    6.598
  593.420    0.183   86.078  153.534    0.311    6.562
  593.670    0.203   90.312  151.793    0.295    6.590
  593.920    0.205   89.159  152.746    0.288    6.705
  594.170    0.193   88.500  154.118    0.278    6.909
  594.420    0.193   89.428  154.754    0.277    7.065
  594.670    0.191   85.096  156.225    0.288    7.166
  594.920    0.196   82.356  159.365    0.289    7.210
  595.170    0.188   88.425  159.785    0.288    7.204
  595.420    0.165   87.641  161.567    0.293    7.185
  595.670    0.162   86.612  161.175    0.293    7.148
  595.920    0.165   88.216  155.187    0.287    7.112
  596.170    0.179   90.736  153.664    0.293    7.086
  596.420    0.185   88.362  154.707    0.286    7.087
  596.670    0.169   90.085  158.767    0.292    7.131
  596.920    0.174   88.690  162.722    0.296    7.174
  597.170    0.192   85.828  165.228    0.296    7.363
  597.420    0.171   87.184  165.665    0.297    7.503
  597.670    0.193   90.255  160.817    0.289    7.546
  597.920    0.190   87.456  157.624    0.266    7.558
  598.170    0.180   89.977  159.929    0.273    7.458
  598.420    0.176   91.087  162.740    0.285    7.156
  598.670    0.177   92.262  165.349    0.282    6.792
  598.920    0.177   93.373  166.410    0.273    6.610
  599.170    0.181   93.752  166.947    0.275    6.446
  599.420    0.181   91.440  167.171    0.296    6.433
  599.670    0.170   90.781  167.189    0.286    6.526
  599.920    0.154   89.933  166.277    0.288    6.530
  600.170    0.170   86.336  162.155    0.283    6.445
  600.420    0.184   83.840  158.135    0.267    6.352
  600.670    0.168   88.439  157.533    0.290    6.219
  600.920    0.158   91.754  162.420    0.302    6.047
  601.170    0.149   89.748  167.830    0.308    5.882
  601.420    0.159   87.132  169.405    0.290    5.853
  601.670    0.163   86.163  163.725    0.271    5.889
  601.920    0.157   83.727  156.907    0.286    6.438
  602.170    0.147   82.760  147.917    0.293    7.084
  602.420    0.137   82.713  144.206    0.280    7.504
  602.670    0.138   76.912  147.853    0.265    8.037
  602.920    0.126   74.722  156.677    0.216    8.194
  603.170    0.166   80.973  164.465    0.184    7.982
  603.420    0.215   76.521  156.926    0.240    7.816
  603.670    0.219   69.313  155.083    0.276    7.194
  603.920    0.198   62.351  154.483    0.289    7.574
  604.170    0.175   51.536  155.225    0.275    8.990
  604.420    0.148   45.920  157.006    0.242   11.359
  604.670    0.014   43.853  162.933    0.168   14.964
  604.920    0.032   42.456  167.299    0.123   16.259
  605.170    0.048   53.297  169.185    0.105   15.661
  605.420    0.166   63.463  167.343    0.107   13.082
  605.670    0.232   68.000  164.666    0.131   10.849
  605.920    0.240   70.643  156.091    0.268    8.126
  606.170    0.233   70.104  150.620    0.304    6.621
  606.420    0.239   68.403  157.274    0.318    5.704
  606.670    0.271   65.356  157.600    0.301    5.306
  606.920    0.248   68.610  153.685    0.321    5.165
  607.170    0.239   73.516  150.285    0.314    5.185
  607.420    0.227   73.222  148.859    0.306    5.350
  607.670    0.204   70.849  150.952    0.293    5.586
  607.920    0.188   71.961  154.700    0.285    5.910
  608.170    0.204   69.526  155.856    0.306    6.467
  608.420    0.197   67.398  156.704    0.298    7.008
  608.670    0.181   70.222  157.142    0.288    7.396
  608.920    0.166   67.973  158.510    0.282    7.737
  609.170    0.177   68.779  158.946    0.271    8.045
  609.420    0.191   70.931  158.859    0.269    8.194
  609.670    0.188   71.310  159.083    0.258    8.238
  609.920    0.184   68.325  160.040    0.256    8.241
  610.170    0.172   77.757  161.818    0.266    8.172
  610.420    0.171   86.455  164.013    0.257    8.056
  610.670    0.173   91.361  165.693    0.264    8.003
  610.920    0.154   81.035  166.025    0.259    8.032
  611.170    0.156   76.886  165.732    0.271    8.172
  611.420    0.168   78.368  165.128    0.264    8.224
  611.670    0.173   81.498  163.596    0.278    8.308
  611.920    0.175   84.996  161.855    0.264    8.383
  612.170    0.162   81.033  159.700    0.271    8.427
