~VERSION INFORMATION
 VERS.                 2.0:   CWLS LOG ASCII STANDARD -VERSION 2.0
 WRAP.                  NO:   ONE LINE PER DEPTH STEP
~WELL INFORMATION BLOCK
#MNEM.UNIT           DATA                    DESCRIPTION OF MNEMONIC
#---------    -------------------            -------------------------------
# Generated from Intellog Unique Number	CS_73_76/WELL/3278
WELL.         BOW VALLEY EXPLORATION         : Well_name    - WELL
LOC .         00/15-06-075-13W4/0            : Location     - LOCATION
UWI .         00/15-06-075-13W4/0            : Uwi          - UNIQUE WELL ID
ENTR.         SP                             : Entered      - ENTERED BY
SRVC.         SCHLUMBERGER                   : Scn          - SERVICE COMPANY
STRT.M        375                            : top_depth    - START DEPTH
STOP.M        615                            : bot_depth    - STOP DEPTH
STEP.M        0.25                           : increment    - STEP LENGTH
 NULL. -999.2500:NULL Value
~CURVE INFORMATION BLOCK
#MNEM UNIT       ERCB CURVE CODE    CURVE DESCRIPTION
#-----------   ------------------   ----------------------------------
DEPT.M        00 001 00 00         : DEPTH        - DEPTH
ILD .OHMM     00 120 00 00         : RESD         - DEEP RESISTIVITY (DIL)
DPHI.V/V      00 890 00 00         : PHID         - DENSITY POROSITY (LIMESTONE)
NPHI.V/V      00 330 00 00         : PHIN         - NEUTRON POROSITY (LIMESTONE)
GR  .API      00 310 00 00         : GR           - GAMMA RAY
~PARAMETER INFORMATION
#MNEM.UNIT           DATA             DESCRIPTION OF MNEMONIC
#---------         -----------     ------------------------------
GL  .M        742.4                : gl           - GROUND LEVEL ELEVATION
EREF.M        745.6                : kb           - ELEVATION OF DEPTH REFERENCE
DATM.M        742.4                : datum        - DATUM ELEVATION
TDD .M        636                  : tdd          - TOTAL DEPTH DRILLER
RUN .         ONE                  : Run          - RUN NUMBER
ENG .         BILL                 : Engineer     - RECORDING ENGINEER
WIT .         JIM                  : Witness      - WITNESSED BY
MUD .         GEL                  : Mud_type     - MUD TYPE
MATR.         LIMESTONE            : Logunit      - NEUTRON MATRIX
TMAX.C        14                   : BHT          - MAXIMUM RECORDED TEMPERATURE
BHTD.M        636                  : BHTDEP       - MAXIMUM RECORDED TEMPERATURE
MATR.         1                    : LOGUNIT      - NEUTRON MATRIX
RMT .C        25                   : MDTP         - TEMPERATURE OF MUD
NEUT.         1                    : NEUTRON      - NEUTRON TYPE
RESI.         0                    : RESIST       - RESISTIVITY TYPE
RMC .OHMM     0.25                 : RMC          - RESISTIVITY OF MUD CAKE
RMF .OHMM     0.25                 : RMF          - RESISTIVITY OF MUD FILTRATE
SUFT.C        15                   : SUFT         - SURFACE TEMPERATURE
~A  DEPTH     RESD     PHID     PHIN       GR
  375.000    2.944    0.273    0.504   96.986
  375.250    2.783    0.263    0.514   98.791
  375.500    2.681    0.253    0.520   99.995
  375.750    2.782    0.250    0.518   96.981
  376.000    2.996    0.238    0.500   98.184
  376.250    3.051    0.228    0.492   98.183
  376.500    3.050    0.242    0.486   96.976
  376.750    3.107    0.259    0.481   93.962
  377.000    3.164    0.267    0.461   95.165
  377.250    3.345    0.253    0.484   96.368
  377.500    3.407    0.245    0.488   98.776
  377.750    3.406    0.240    0.497   98.172
  378.000    3.281    0.249    0.508   98.772
  378.250    3.160    0.261    0.521   99.373
  378.500    3.043    0.269    0.532  101.179
  378.750    3.042    0.255    0.538  100.575
  379.000    3.042    0.244    0.508   96.959
  379.250    3.215    0.247    0.484   93.945
  379.500    3.336    0.255    0.478   90.931
  379.750    3.462    0.261    0.472   85.507
  380.000    3.526    0.251    0.461   83.699
  380.250    3.460    0.253    0.454   84.902
  380.500    3.271    0.255    0.472   87.310
  380.750    3.150    0.241    0.489   87.911
  381.000    3.150    0.230    0.495   81.885
  381.250    3.456    0.195    0.515   77.064
  381.500    3.936    0.147    0.526   72.846
  381.750    5.300    0.164    0.399   68.627
  382.000    6.149    0.220    0.398   74.046
  382.250    6.874    0.247    0.417   78.262
  382.500    7.542    0.235    0.408   84.284
  382.750    7.130    0.222    0.414   89.102
  383.000    6.741    0.237    0.422   93.919
  383.250    6.256    0.254    0.431   93.917
  383.500    5.914    0.266    0.425   89.097
  383.750    6.611    0.275    0.432   79.456
  384.000    7.254    0.281    0.404   77.045
  384.250    7.669    0.289    0.384   74.031
  384.500    7.810    0.273    0.387   78.246
  384.750    7.808    0.223    0.394   86.075
  385.000    7.246    0.218    0.404   87.882
  385.250    6.599    0.218    0.402   93.301
  385.500    6.356    0.234    0.410   98.119
  385.750    6.122    0.245    0.424  101.129
  386.000    5.788    0.239    0.433   95.103
  386.250    5.472    0.256    0.448   92.692
  386.500    5.369    0.269    0.456   88.474
  386.750    5.269    0.284    0.451   81.845
  387.000    5.890    0.314    0.432   77.025
  387.250    8.233    0.349    0.370   74.011
  387.500   12.168    0.359    0.358   72.202
  387.750   14.383    0.365    0.364   69.791
  388.000   15.205    0.357    0.362   72.198
  388.250   13.342    0.340    0.346   76.413
  388.500   12.615    0.313    0.385   81.231
  388.750   11.070    0.280    0.403   83.639
  389.000    9.897    0.277    0.418   84.240
  389.250    9.183    0.273    0.419   88.454
  389.500    9.012    0.265    0.404   90.863
  389.750    9.179    0.261    0.384   93.873
  390.000   10.260    0.254    0.361   87.245
  390.250   11.257    0.262    0.333   75.797
  390.500   12.585    0.278    0.317   63.145
  390.750   14.603    0.312    0.278   46.879
  391.000   19.664    0.340    0.224   39.046
  391.250   26.978    0.370    0.185   33.623
  391.500   34.999    0.385    0.183   30.006
  391.750   43.749    0.388    0.191   26.992
  392.000   53.675    0.398    0.176   26.991
  392.250   60.001    0.411    0.160   27.591
  392.500   65.830    0.412    0.144   27.590
  392.750   68.317    0.412    0.130   26.985
  393.000   73.576    0.422    0.120   25.779
  393.250   79.238    0.437    0.119   23.970
  393.500   72.170    0.443    0.127   22.763
  393.750   66.978    0.433    0.153   22.762
  394.000   53.553    0.404    0.174   23.363
  394.250   34.888    0.370    0.228   25.168
  394.500   22.728    0.333    0.280   26.371
  394.750   16.869    0.322    0.321   25.165
  395.000   12.755    0.318    0.351   23.958
  395.250   11.617    0.326    0.352   22.752
  395.500   11.400    0.328    0.339   21.545
  395.750   10.980    0.333    0.334   21.544
  396.000   10.773    0.331    0.332   23.349
  396.250   10.571    0.331    0.329   23.950
  396.500   10.569    0.320    0.343   23.948
  396.750   10.566    0.306    0.350   23.946
  397.000   10.368    0.312    0.349   23.343
  397.250   10.364    0.314    0.349   23.341
  397.500   10.362    0.317    0.357   23.339
  397.750   10.168    0.313    0.366   23.337
  398.000   10.165    0.319    0.360   23.336
  398.250    9.974    0.329    0.356   23.334
  398.500    9.972    0.324    0.354   22.729
  398.750    9.784    0.320    0.358   22.728
  399.000    9.782    0.319    0.364   22.726
  399.250    9.779    0.322    0.355   23.327
  399.500    9.777    0.329    0.357   23.928
  399.750    9.774    0.325    0.356   23.925
  400.000    9.771    0.319    0.351   23.924
  400.250    9.768    0.314    0.351   23.923
  400.500    9.764    0.324    0.352   23.921
  400.750    9.762    0.308    0.352   23.919
  401.000    9.759    0.310    0.352   23.918
  401.250    9.940    0.319    0.356   23.916
  401.500    9.937    0.310    0.360   24.516
  401.750    9.750    0.318    0.348   25.720
  402.000    9.931    0.324    0.342   28.127
  402.250    9.929    0.311    0.355   28.728
  402.500    9.743    0.317    0.361   28.123
  402.750    9.739    0.324    0.366   28.122
  403.000    9.737    0.327    0.357   27.517
  403.250    9.733    0.310    0.360   27.516
  403.500    9.731    0.321    0.361   28.116
  403.750    9.548    0.305    0.352   28.718
  404.000    9.370    0.298    0.345   32.933
  404.250    9.195    0.293    0.343   41.364
  404.500    8.692    0.279    0.354   51.001
  404.750    8.529    0.252    0.378   66.662
  405.000    8.369    0.245    0.398   79.913
  405.250    8.212    0.256    0.412   91.959
  405.500    8.059    0.255    0.423   98.584
  405.750    8.056    0.259    0.423   99.184
  406.000    7.906    0.273    0.420   99.785
  406.250    7.758    0.289    0.430   99.181
  406.500    7.334    0.276    0.425   95.565
  406.750    7.064    0.266    0.425   93.757
  407.000    6.678    0.254    0.430   90.140
  407.250    6.314    0.241    0.434   91.343
  407.500    5.969    0.216    0.427   96.161
  407.750    5.856    0.216    0.441  100.978
  408.000    5.856    0.236    0.448  103.386
  408.250    6.307    0.261    0.458  103.987
  408.500    6.792    0.278    0.467   99.768
  408.750    7.452    0.276    0.464   95.549
  409.000    8.027    0.261    0.426   93.741
  409.250    8.485    0.258    0.407   95.546
  409.500    8.804    0.270    0.423   97.954
  409.750    8.802    0.264    0.430   97.350
  410.000    8.637    0.255    0.435   94.938
  410.250    8.319    0.259    0.429   93.129
  410.500    7.865    0.259    0.423   92.526
  410.750    7.298    0.231    0.429   94.934
  411.000    7.029    0.242    0.447   99.148
  411.250    7.294    0.250    0.430  101.557
  411.500    7.428    0.257    0.413  105.169
  411.750    7.427    0.244    0.412  105.770
  412.000    7.021    0.231    0.413  104.563
  412.250    6.638    0.244    0.423  101.550
  412.500    6.635    0.255    0.435   91.909
  412.750    7.015    0.242    0.442   85.282
  413.000    7.555    0.231    0.432   71.425
  413.250    8.137    0.249    0.425   61.182
  413.500    8.287    0.299    0.408   66.601
  413.750    8.285    0.298    0.391   68.407
  414.000    8.439    0.287    0.406   70.816
  414.250    8.435    0.295    0.415   73.825
  414.500    8.433    0.301    0.411   75.029
  414.750    8.589    0.286    0.417   78.641
  415.000    8.428    0.299    0.436   81.049
  415.250    7.968    0.310    0.448   81.650
  415.500    7.675    0.292    0.423   87.070
  415.750    6.862    0.258    0.435   91.887
  416.000    6.250    0.252    0.447   94.897
  416.250    6.020    0.260    0.468   90.076
  416.500    6.130    0.278    0.471   87.062
  416.750    6.129    0.311    0.448   84.049
  417.000    6.128    0.297    0.434   79.831
  417.250    5.793    0.283    0.458   90.070
  417.500    4.989    0.316    0.486   92.477
  417.750    4.717    0.312    0.498   93.078
  418.000    4.460    0.302    0.503   93.679
  418.250    4.543    0.316    0.482   95.484
