~VERSION INFORMATION
 VERS.                 2.0:   CWLS LOG ASCII STANDARD -VERSION 2.0
 WRAP.                  NO:   ONE LINE PER DEPTH STEP
~WELL INFORMATION BLOCK
#MNEM.UNIT           DATA                    DESCRIPTION OF MNEMONIC
#---------    -------------------            -------------------------------
# Generated from Intellog Unique Number	CS_77_79/WELL/1989
WELL.         CAN WORLDWIDE ENR              : Well_name    - WELL
LOC .         00/10-05-079-03W4/0            : Location     - LOCATION
UWI .         00/10-05-079-03W4/0            : Uwi          - UNIQUE WELL ID
ENTR.         TIM                            : Entered      - ENTERED BY
SRVC.         SCHLUMBERGER                   : Scn          - SERVICE COMPANY
STRT.M        150                            : top_depth    - START DEPTH
STOP.M        385                            : bot_depth    - STOP DEPTH
STEP.M        0.25                           : increment    - STEP LENGTH
 NULL. -999.2500:NULL Value
~CURVE INFORMATION BLOCK
#MNEM UNIT       ERCB CURVE CODE    CURVE DESCRIPTION
#-----------   ------------------   ----------------------------------
DEPT.M        00 001 00 00         : DEPTH        - DEPTH
GR  .API      00 310 00 00         : GR           - GAMMA RAY
NPHI.V/V      00 330 00 00         : PHIN         - NEUTRON POROSITY (SANDSTONE)
DPHI.V/V      00 890 00 00         : PHID         - DENSITY POROSITY (SANDSTONE)
ILD .OHMM     00 120 00 00         : RESD         - DEEP RESISTIVITY (DIL)
~PARAMETER INFORMATION
#MNEM.UNIT           DATA             DESCRIPTION OF MNEMONIC
#---------         -----------     ------------------------------
GL  .M        548.88               : gl           - GROUND LEVEL ELEVATION
EREF.M        552.73               : kb           - ELEVATION OF DEPTH REFERENCE
DATM.M        552.73               : datum        - DATUM ELEVATION
TDD .M        396.4                : tdd          - TOTAL DEPTH DRILLER
RUN .         ONE                  : Run          - RUN NUMBER
ENG .         BILL                 : Engineer     - RECORDING ENGINEER
WIT .         JIM                  : Witness      - WITNESSED BY
MUD .         GEL                  : Mud_type     - MUD TYPE
MATR.         SANDSTONE            : Logunit      - NEUTRON MATRIX
TMAX.C        19                   : BHT          - MAXIMUM RECORDED TEMPERATURE
BHTD.M        396.4                : BHTDEP       - MAXIMUM RECORDED TEMPERATURE
MATR.         1                    : LOGUNIT      - NEUTRON MATRIX
RMT .C        16                   : MDTP         - TEMPERATURE OF MUD
NEUT.         1                    : NEUTRON      - NEUTRON TYPE
RESI.         5.3                  : RESIST       - RESISTIVITY TYPE
RMC .OHMM     3                    : RMC          - RESISTIVITY OF MUD CAKE
RMF .OHMM     4.6                  : RMF          - RESISTIVITY OF MUD FILTRATE
SUFT.C        15                   : SUFT         - SURFACE TEMPERATURE
~A  DEPTH       GR     PHIN     PHID     RESD
# ...
  237.000   81.609    0.446    0.300   11.965
  237.250   85.914    0.452    0.296   11.720
  237.500   84.610    0.457    0.291   11.481
  237.750   82.058    0.451    0.290   11.255
  238.000   82.000    0.433    0.285   11.030
  238.250   81.319    0.415    0.281   10.800
  238.500   79.376    0.416    0.277   10.592
  238.750   78.695    0.423    0.275   10.380
  239.000   79.898    0.430    0.272    9.984
  239.250   82.957    0.446    0.267    9.780
  239.500   84.146    0.451    0.262    9.410
  239.750   85.929    0.447    0.257    9.051
  240.000   88.364    0.444    0.253    8.541
  240.250   90.177    0.448    0.254    7.765
  240.500   90.104    0.453    0.259    7.330
  240.750   90.061    0.459    0.265    6.920
  241.000   89.394    0.466    0.260    6.656
  241.250   88.698    0.452    0.253    6.643
  241.500   88.654    0.421    0.252    6.638
  241.750   88.597    0.423    0.257    6.379
  242.000   88.538    0.426    0.263    6.492
  242.250   93.453    0.429    0.270    6.981
  242.500   95.903    0.429    0.274    7.656
  242.750   98.962    0.432    0.281    8.546
  243.000  113.865    0.440    0.286    9.024
  243.250  129.405    0.450    0.293    9.526
  243.500  117.489    0.465    0.300    9.880
  243.750  109.951    0.480    0.310   10.429
  244.000   94.294    0.477    0.323   10.613
  244.250   86.755    0.467    0.325   10.995
  244.500   79.826    0.446    0.323   11.396
  244.750   76.028    0.418    0.318   11.810
  245.000   72.215    0.408    0.315   12.236
  245.250   71.534    0.395    0.312   12.457
  245.500   68.359    0.374    0.278   12.671
  245.750   63.314    0.340    0.221   13.633
  246.000   58.269    0.309    0.139   15.225
  246.250   56.341    0.295    0.181   15.481
  246.500   71.244    0.328    0.259   14.345
  246.750   78.652    0.349    0.306   12.567
  247.000   78.594    0.401    0.310   10.807
  247.250   79.797    0.441    0.309    9.464
  247.500   82.827    0.459    0.302    8.610
  247.750   84.668    0.440    0.296    7.686
  248.000   88.350    0.435    0.259    6.484
  248.250   92.033    0.445    0.241    5.470
  248.500   96.976    0.464    0.228    5.071
  248.750  100.644    0.498    0.220    4.698
  249.000  103.717    0.536    0.225    4.271
  249.250  105.529    0.540    0.231    4.031
  249.500  105.442    0.523    0.238    3.950
  249.750  106.008    0.514    0.247    3.729
  250.000  106.588    0.502    0.254    3.585
  250.250  110.255    0.497    0.261    3.516
  250.500  115.199    0.543    0.263    3.382
  250.750  118.896    0.570    0.264    3.252
  251.000  120.070    0.557    0.256    3.186
  251.250  114.402    0.540    0.244    3.121
  251.500  109.357    0.528    0.236    3.058
  251.750  108.661    0.521    0.236    2.999
  252.000  110.487    0.525    0.243    2.994
  252.250  112.923    0.546    0.250    2.933
  252.500  118.475    0.561    0.255    2.927
  252.750  121.534    0.578    0.256    2.925
  253.000  117.113    0.530    0.257    2.975
  253.250  112.662    0.522    0.262    3.083
  253.500  110.734    0.501    0.261    3.316
  253.750  110.691    0.482    0.256    3.568
  254.000  110.009    0.461    0.248    4.061
  254.250  107.443    0.454    0.249    4.619
  254.500  105.530    0.453    0.251    5.065
  254.750  102.340    0.449    0.265    5.656
  255.000   99.151    0.448    0.294    5.973
  255.250   95.962    0.458    0.307    6.304
  255.500   93.425    0.475    0.304    6.534
  255.750   90.888    0.480    0.286    6.647
  256.000   86.452    0.483    0.263    6.889
  256.250   83.900    0.485    0.258    7.140
  256.500   81.972    0.484    0.267    7.400
  256.750   80.653    0.466    0.271    7.814
  257.000   79.348    0.450    0.277    8.406
  257.250   78.044    0.433    0.284    8.873
  257.500   77.957    0.415    0.294    9.543
  257.750   77.928    0.395    0.291    9.898
  258.000   79.117    0.347    0.275   11.054
  258.250   74.695    0.249    0.105   13.051
  258.500   69.027    0.195    0.041   14.575
  258.750   62.083    0.200    0.056   15.687
  259.000   59.531    0.236    0.071   15.662
  259.250   66.330    0.324    0.122   15.064
  259.500   71.274    0.354    0.222   14.483
  259.750   77.435    0.384    0.271   13.415
  260.000   79.885    0.396    0.272   12.913
  260.250   80.450    0.377    0.231   11.960
  260.500   78.522    0.377    0.213   11.282
  260.750   75.347    0.401    0.241   10.860
  261.000   71.535    0.412    0.263   10.445
  261.250   70.245    0.425    0.286   10.047
  261.500   75.797    0.434    0.291   10.031
  261.750   80.103    0.433    0.288    9.648
  262.000   82.538    0.428    0.278    9.455
  262.250   83.727    0.421    0.277    9.265
  262.500   84.292    0.408    0.278    9.073
  262.750   82.987    0.400    0.277    8.894
  263.000   80.422    0.416    0.276    8.709
  263.250   79.740    0.440    0.281    8.699
  263.500   82.176    0.433    0.284    8.689
  263.750   86.481    0.435    0.281    8.511
  264.000   90.164    0.445    0.245    8.498
  264.250   92.585    0.457    0.232    8.170
  264.500   95.629    0.446    0.222    8.013
  264.750   96.847    0.443    0.222    7.846
  265.000  101.138    0.453    0.223    7.689
  265.250  104.197    0.469    0.225    7.677
  265.500  105.385    0.459    0.227    7.665
  265.750  105.342    0.444    0.229    7.511
  266.000  105.284    0.439    0.231    7.361
  266.250  103.965    0.440    0.230    7.082
  266.500  102.660    0.446    0.230    6.684
  266.750  101.370    0.451    0.231    6.307
  267.000  101.935    0.460    0.235    6.066
  267.250  100.616    0.479    0.240    5.947
  267.500   98.674    0.489    0.239    5.610
  267.750   97.369    0.486    0.227    5.396
  268.000   96.064    0.480    0.223    5.392
  268.250   98.499    0.470    0.225    5.186
  268.500  102.820    0.470    0.230    4.805
  268.750  106.502    0.479    0.237    4.368
  269.000  106.444    0.511    0.245    4.201
  269.250  106.386    0.539    0.256    3.818
  269.500  106.328    0.552    0.260    3.744
  269.750  106.270    0.565    0.260    3.404
  270.000  104.327    0.559    0.259    3.212
  270.250  107.386    0.532    0.257    3.091
  270.500  112.953    0.520    0.256    3.026
  270.750  116.635    0.510    0.261    3.081
  271.000  111.576    0.499    0.268    3.315
  271.250  105.284    0.480    0.266    3.772
  271.500   97.746    0.445    0.213    4.623
  271.750   94.571    0.431    0.165    5.262
  272.000   90.135    0.439    0.183    5.661
  272.250   86.322    0.439    0.202    5.865
  272.500   92.513    0.441    0.218    5.747
  272.750  102.428    0.443    0.255    5.528
  273.000  106.734    0.445    0.262    5.317
  273.250  101.689    0.445    0.276    5.208
  273.500   96.021    0.442    0.284    5.302
  273.750   90.962    0.437    0.287    5.392
  274.000   88.425    0.437    0.296    5.487
  274.250   83.974    0.436    0.303    5.787
  274.500   81.437    0.433    0.301    5.891
  274.750   82.002    0.430    0.298    6.106
  275.000   84.438    0.432    0.300    6.211
  275.250   84.351    0.438    0.305    6.201
  275.500   84.322    0.442    0.309    6.308
  275.750   84.264    0.436    0.304    6.417
  276.000   86.700    0.434    0.286    6.525
  276.250   92.252    0.435    0.266    6.515
  276.500   97.804    0.435    0.242    6.507
  276.750   97.732    0.437    0.232    6.495
  277.000   97.065    0.442    0.235    6.484
  277.250   95.746    0.445    0.237    6.357
  277.500   93.803    0.439    0.239    6.229
  277.750   90.628    0.433    0.243    6.100
  278.000   88.077    0.440    0.241    5.978
  278.250   91.136    0.451    0.231    5.968
  278.500   94.832    0.428    0.226    5.961
  278.750   99.747    0.410    0.258    6.064
  279.000   97.210    0.397    0.271    6.169
  279.250   92.165    0.392    0.272    5.933
  279.500   88.352    0.391    0.243    5.196
  279.750   90.165    0.395    0.232    4.638
  280.000   95.094    0.419    0.222    4.218
  280.250   94.412    0.445    0.227    3.765
