~VERSION INFORMATION
 VERS.                 2.0:   CWLS LOG ASCII STANDARD -VERSION 2.0
 WRAP.                  NO:   ONE LINE PER DEPTH STEP
~WELL INFORMATION BLOCK
#MNEM.UNIT           DATA                    DESCRIPTION OF MNEMONIC
#---------    -------------------            -------------------------------
# Generated from Intellog Unique Number	CC_80_83/WELL/2399
NULL.         -999.25                        : NULL_VALUE
WELL.         PEX HOUSE                      : Well_name    - WELL
LOC .         11-17-080-15W4                 : Location     - LOCATION          
UWI .         00/11-17-080-15W4/0            : Uwi          - UNIQUE WELL ID    
ENTR.         DW                             : Entered      - ENTERED BY        
SRVC.         SCHLUMBERGER                   : Scn          - SERVICE COMPANY   
DATE.         27 JAN 82                      : Date         - LOG DATE
STRT.M        150                            : top_depth    - START DEPTH       
STOP.M        384.896                        : bot_depth    - STOP DEPTH        
STEP.M        0.3                            : increment    - STEP LENGTH       
~CURVE INFORMATION BLOCK
#MNEM UNIT       ERCB CURVE CODE    CURVE DESCRIPTION
#-----------   ------------------   ----------------------------------
DEPT.M        00 001 00 00         : DEPTH        - DEPTH                       
ILD .OHMM     00 120 00 00         : RESD         - DEEP RESISTIVITY (DIL)      
GR  .API      00 310 00 00         : GR           - GAMMA RAY                   
NPHI.V/V      00 330 00 00         : PHIN         - NEUTRON POROSITY (LIMESTONE)
DPHI.V/V      00 890 00 00         : PHID         - DENSITY POROSITY (LIMESTONE)
~PARAMETER INFORMATION       
#MNEM.UNIT           DATA             DESCRIPTION OF MNEMONIC
#---------         -----------     ------------------------------
GL  .M        595.9                : gl           - GROUND LEVEL ELEVATION      
EREF.M        599.6                : kb           - ELEVATION OF DEPTH REFERENCE
DATM.M        599.6                : datum        - DATUM ELEVATION             
TDD .M        385                  : tdd          - TOTAL DEPTH DRILLER         
RUN .         ONE                  : Run          - RUN NUMBER                  
ENG .         BILL                 : Engineer     - RECORDING ENGINEER          
WIT .         JIM                  : Witness      - WITNESSED BY                
MUD .         GEL                  : Mud_type     - MUD TYPE                    
MATR.         LIMESTONE            : Logunit      - NEUTRON MATRIX              
TMAX.C        18.8                 : BHT          - MAXIMUM RECORDED TEMPERATURE
BHTD.M        388                  : BHTDEP       - MAXIMUM RECORDED TEMPERATURE
MATR.         1                    : LOGUNIT      - NEUTRON MATRIX              
RMT .C        25                   : MDTP         - TEMPERATURE OF MUD          
NEUT.         1                    : NEUTRON      - NEUTRON TYPE                
RESI.         0                    : RESIST       - RESISTIVITY TYPE            
RMC .OHMM     0.25                 : RMC          - RESISTIVITY OF MUD CAKE     
RMF .OHMM     0.25                 : RMF          - RESISTIVITY OF MUD FILTRATE 
SUFT.C        15                   : SUFT         - SURFACE TEMPERATURE         
~A  DEPTH     RESD       GR     PHIN     PHID
# ...
  202.201   10.288   71.357    0.445    0.226
  202.501    9.715   73.164    0.437    0.220
  202.801    8.661   78.045    0.436    0.213
  203.101    8.336   76.167    0.476    0.219
  203.401    8.023   70.594    0.482    0.230
  203.701    7.292   65.645    0.451    0.248
  204.001    7.431   61.926    0.411    0.268
  204.301    8.330   62.510    0.446    0.281
  204.601    8.819   61.862    0.479    0.173
  204.901    9.886   61.817    0.420    0.178
  205.201   11.295   60.557    0.399    0.244
  205.501   12.423   60.525    0.414    0.295
  205.801   13.405   60.490    0.426    0.284
  206.101   13.661   62.300    0.431    0.282
  206.401   13.659   64.724    0.437    0.276
  206.701   12.896   68.989    0.429    0.265
  207.001   11.069   69.569    0.458    0.256
  207.301   10.859   64.614    0.469    0.290
  207.601   12.172   55.980    0.430    0.295
  207.901   13.388   50.413    0.403    0.269
  208.201   15.891   52.222    0.425    0.265
  208.501   16.505   55.265    0.452    0.295
  208.801   16.191   53.993    0.466    0.304
  209.101   15.581   52.119    0.475    0.319
  209.401   14.711   50.855    0.490    0.320
  209.701   14.158   49.580    0.492    0.291
  210.001   13.889   50.174    0.390    0.242
  210.301   13.887   56.898    0.376    0.215
  210.601   13.884   66.079    0.409    0.205
  210.901   13.880   59.287    0.415    0.200
  211.201   13.616   57.408    0.367    0.229
  211.501   12.857   70.277    0.389    0.267
  211.801   11.464   86.216    0.441    0.249
  212.101    9.841   95.395    0.493    0.213
  212.401    7.533   95.975    0.479    0.223
  212.701    6.224   91.636    0.470    0.218
  213.001    5.445   84.230    0.467    0.205
  213.301    5.444   71.911    0.455    0.245
  213.601    6.103   50.986    0.414    0.294
  213.901    7.969   53.407    0.416    0.368
  214.201   11.892   70.576    0.502    0.279
  214.501   17.410   96.960    0.553    0.189
  214.801   20.666   98.148    0.502    0.172
  215.101   22.727   92.589    0.478    0.153
  215.401   24.061   89.479    0.448    0.152
  215.701   24.521   83.302    0.437    0.209
  216.001   25.960   62.994    0.481    0.232
  216.301   28.013   54.970    0.496    0.249
  216.601   30.227   53.095    0.462    0.259
  216.901   32.001   50.601    0.426    0.277
  217.201   33.238   45.038    0.432    0.297
  217.501   33.872   45.613    0.442    0.306
  217.801   33.862   46.186    0.446    0.311
  218.101   33.218   46.154    0.470    0.302
  218.401   33.212   45.513    0.486    0.278
  218.701   33.845   49.776    0.485    0.273
  219.001   35.153   50.970    0.463    0.287
  219.301   35.145   46.637    0.473    0.286
  219.601   35.139   43.527    0.435    0.285
  219.901   34.471   47.181    0.425    0.297
  220.201   33.811   48.986    0.455    0.297
  220.501   33.165   47.715    0.454    0.314
  220.801   33.161   49.529    0.445    0.341
  221.101   33.155   50.724    0.434    0.314
  221.401   35.100   52.532    0.427    0.293
  221.701   40.104   53.719    0.443    0.284
  222.001   47.605   54.297    0.459    0.296
  222.301   60.984   53.653    0.447    0.309
  222.601   67.075   49.940    0.432    0.314
  222.901   71.008   51.118    0.425    0.320
  223.201   67.049   52.937    0.430    0.326
  223.501   58.660   54.124    0.440    0.297
  223.801   45.771   54.712    0.455    0.286
  224.101   34.378   56.517    0.483    0.320
  224.401   24.854   52.795    0.470    0.344
  224.701   19.027   52.145    0.482    0.337
  225.001   16.646   53.342    0.484    0.337
  225.301   15.420   50.855    0.456    0.363
  225.601   14.559   49.584    0.459    0.363
  225.901   14.558   49.554    0.472    0.346
  226.201   14.279   49.520    0.445    0.321
  226.501   14.276   47.635    0.437    0.313
  226.801   14.274   44.530    0.463    0.351
  227.101   14.271   43.264    0.453    0.350
  227.401   13.998   45.082    0.438    0.325
  227.701   13.995   49.340    0.464    0.297
  228.001   13.993   45.620    0.472    0.320
  228.301   13.727   44.978    0.449    0.339
  228.601   13.988   49.850    0.423    0.319
  228.901   13.986   47.974    0.407    0.306
  229.201   14.525   44.865    0.412    0.291
  229.501   14.803   44.223    0.441    0.283
  229.801   14.799   41.720    0.461    0.308
  230.101   14.797   41.076    0.460    0.336
  230.401   14.514   41.045    0.482    0.318
  230.701   14.792   44.083    0.491    0.317
  231.001   14.788   45.885    0.424    0.322
  231.301   14.785   45.233    0.425    0.329
  231.601   14.783   44.587    0.459    0.324
  231.901   14.780   46.402    0.465    0.316
  232.201   14.776   50.668    0.464    0.308
  232.501   14.495   51.863    0.482    0.298
  232.801   14.771   47.518    0.495    0.301
  233.101   14.769   44.415    0.461    0.352
  233.401   14.487   43.155    0.465    0.327
  233.701   14.485   48.033    0.451    0.303
  234.001   14.482   50.459    0.474    0.277
  234.301   14.477   47.346    0.503    0.296
  234.601   14.475   49.766    0.473    0.287
  234.901   14.473   52.813    0.433    0.287
  235.201   14.748   53.386    0.449    0.301
  235.501   14.746   51.511    0.484    0.296
  235.801   15.026   49.635    0.488    0.289
  236.101   15.024   51.445    0.442    0.293
  236.401   15.020   53.868    0.456    0.316
  236.701   15.018   58.133    0.464    0.334
  237.001   15.303   57.465    0.447    0.339
  237.301   15.596   55.603    0.455    0.321
  237.601   15.892   52.490    0.443    0.295
  237.901   16.197   50.617    0.443    0.298
  238.201   16.192   52.428    0.437    0.288
  238.501   16.190   55.460    0.435    0.278
  238.801   16.186   52.970    0.445    0.276
  239.101   16.184   54.160    0.439    0.287
  239.401   16.810   55.977    0.435    0.277
  239.701   16.806   56.552    0.426    0.266
  240.001   16.174   56.516    0.418    0.261
  240.301   14.422   54.025    0.424    0.263
  240.601   14.420   52.757    0.435    0.272
  240.901   14.977   51.492    0.444    0.285
  241.201   15.263   53.310    0.440    0.291
  241.501   15.852   56.335    0.440    0.282
  241.801   16.155   57.537    0.438    0.271
  242.101   16.463   57.507    0.437    0.271
  242.401   16.148   53.785    0.436    0.281
  242.701   15.841   50.056    0.426    0.273
  243.001   15.538   51.259    0.429    0.278
  243.301   15.536   54.909    0.443    0.298
  243.601   15.239   54.864    0.459    0.290
  243.901   14.949   56.064    0.435    0.269
  244.201   13.079   62.790    0.432    0.258
  244.501   10.012   70.746    0.447    0.269
  244.801   10.010   63.953    0.465    0.289
  245.101   12.111   60.839    0.453    0.278
  245.401   12.579   60.801    0.462    0.269
  245.701   11.653   64.457    0.466    0.287
  246.001   11.003   63.812    0.467    0.289
  246.301   10.001   61.932    0.466    0.279
  246.601   10.999   61.894    0.457    0.287
  246.901   12.096   62.480    0.439    0.282
  247.201   12.327   63.054    0.425    0.277
  247.501   12.325   66.093    0.490    0.276
  247.801   11.417   69.131    0.484    0.288
  248.101   10.576   72.786    0.448    0.302
  248.401   10.375   75.205    0.424    0.285
  248.701    9.796   75.166    0.459    0.266
  249.001   10.371   63.461    0.485    0.285
  249.301   11.406   56.669    0.460    0.299
  249.601   13.033   52.946    0.464    0.289
  249.901   14.334   51.683    0.478    0.288
  250.201   14.887   55.950    0.470    0.274
  250.501   14.885   53.450    0.423    0.263
  250.801   14.602   50.967    0.438    0.276
  251.101   12.774   47.859    0.427    0.294
  251.401    9.236   52.123    0.428    0.283
  251.701    7.778   63.762    0.467    0.254
  252.001    8.392   69.253    0.483    0.246
  252.301    9.408   66.150    0.468    0.288
  252.601   10.348   59.964    0.434    0.288
  252.901   12.283   56.857    0.447    0.249
  253.201   14.860   54.974    0.447    0.267
  253.501   16.034   54.332    0.444    0.296
  253.801   16.032   53.685    0.456    0.297
  254.101   15.726   50.576    0.430    0.284
