~VERSION INFORMATION
 VERS.                 2.0:   CWLS LOG ASCII STANDARD -VERSION 2.0
 WRAP.                  NO:   ONE LINE PER DEPTH STEP
~WELL INFORMATION BLOCK
#MNEM.UNIT           DATA                    DESCRIPTION OF MNEMONIC
#---------    -------------------            -------------------------------
# Generated from Intellog Unique Number	CS_67_68/WELL/853
WELL.         CHIEFTAIN DEVELOPMENT          : Well_name    - WELL
LOC .         00/13-09-068-11W4/0            : Location     - LOCATION
UWI .         00/13-09-068-11W4/0            : Uwi          - UNIQUE WELL ID
ENTR.         SP                             : Entered      - ENTERED BY
SRVC.         SCHLUMBERGER                   : Scn          - SERVICE COMPANY
STRT.M        255                            : top_depth    - START DEPTH
STOP.M        485                            : bot_depth    - STOP DEPTH
STEP.M        0.25                           : increment    - STEP LENGTH
 NULL. -999.2500:NULL Value
~CURVE INFORMATION BLOCK
#MNEM UNIT       ERCB CURVE CODE    CURVE DESCRIPTION
#-----------   ------------------   ----------------------------------
DEPT.M        00 001 00 00         : DEPTH        - DEPTH
ILD .OHMM     00 120 00 00         : RESD         - DEEP RESISTIVITY (DIL)
DPHI.V/V      00 890 00 00         : PHID         - DENSITY POROSITY (LIMESTONE)
NPHI.V/V      00 330 00 00         : PHIN         - NEUTRON POROSITY (LIMESTONE)
GR  .API      00 310 00 00         : GR           - GAMMA RAY
~PARAMETER INFORMATION
#MNEM.UNIT           DATA             DESCRIPTION OF MNEMONIC
#---------         -----------     ------------------------------
GL  .M        599                  : gl           - GROUND LEVEL ELEVATION
EREF.M        602                  : kb           - ELEVATION OF DEPTH REFERENCE
DATM.M        599                  : datum        - DATUM ELEVATION
TDD .M        494                  : tdd          - TOTAL DEPTH DRILLER
RUN .         ONE                  : Run          - RUN NUMBER
ENG .         BILL                 : Engineer     - RECORDING ENGINEER
WIT .         JIM                  : Witness      - WITNESSED BY
MUD .         GEL                  : Mud_type     - MUD TYPE
MATR.         LIMESTONE            : Logunit      - NEUTRON MATRIX
TMAX.C        22                   : BHT          - MAXIMUM RECORDED TEMPERATURE
BHTD.M        494                  : BHTDEP       - MAXIMUM RECORDED TEMPERATURE
MATR.         1                    : LOGUNIT      - NEUTRON MATRIX
RMT .C        25                   : MDTP         - TEMPERATURE OF MUD
NEUT.         1                    : NEUTRON      - NEUTRON TYPE
RESI.         0                    : RESIST       - RESISTIVITY TYPE
RMC .OHMM     0.25                 : RMC          - RESISTIVITY OF MUD CAKE
RMF .OHMM     0.25                 : RMF          - RESISTIVITY OF MUD FILTRATE
SUFT.C        15                   : SUFT         - SURFACE TEMPERATURE
~A  DEPTH     RESD     PHID     PHIN       GR
  255.000    2.364    0.212    0.448  121.212
  255.250    2.382    0.199    0.432  121.381
  255.500    2.436    0.199    0.447  122.147
  255.750    2.519    0.200    0.461  122.916
  256.000    2.548    0.180    0.477  123.987
  256.250    2.538    0.173    0.487  125.183
  256.500    2.515    0.179    0.469  124.918
  256.750    2.479    0.200    0.459  122.527
  257.000    2.438    0.215    0.472  120.080
  257.250    2.367    0.223    0.468  119.574
  257.500    2.298    0.227    0.485  121.496
  257.750    2.264    0.228    0.492  123.114
  258.000    2.252    0.218    0.466  124.185
  258.250    2.269    0.232    0.455  123.920
  258.500    2.303    0.242    0.478  124.687
  258.750    2.316    0.204    0.494  128.734
  259.000    2.334    0.193    0.480  131.140
  259.250    2.356    0.194    0.443  132.212
  259.500    2.387    0.189    0.440  131.162
  259.750    2.446    0.192    0.451  124.827
  260.000    2.534    0.208    0.427  118.006
  260.250    2.735    0.228    0.418  110.762
  260.500    2.925    0.242    0.412  102.971
  260.750    3.258    0.015    0.396   97.911
  261.000    3.569    0.004    0.384   93.883
  261.250    3.691   -0.005    0.367   95.743
  261.500    3.644    0.144    0.347   97.359
  261.750    3.453    0.177    0.336   97.404
  262.000    3.005    0.209    0.347   85.424
  262.250    2.764    0.239    0.362   75.448
  262.500    2.590    0.197    0.381   71.906
  262.750    2.505    0.161    0.392   79.715
  263.000    2.464    0.208    0.390   89.770
  263.250    2.446    0.230    0.398   96.974
  263.500    2.506    0.228    0.403  100.047
  263.750    2.631    0.209    0.387  101.727
  264.000    2.671    0.195    0.386  100.309
  264.250    2.706    0.182    0.397   98.649
  264.500    2.732    0.179    0.412   97.594
  264.750    2.737    0.190    0.417   97.752
  265.000    2.722    0.193    0.420   98.221
  265.250    2.712    0.188    0.428   99.231
  265.500    2.688    0.192    0.408   99.453
  265.750    2.683    0.206    0.396   99.554
  266.000    2.684    0.212    0.384   99.228
  266.250    2.694    0.207    0.382   99.149
  266.500    2.714    0.194    0.395   99.431
  266.750    2.761    0.184    0.402   98.498
  267.000    2.818    0.178    0.396  100.298
  267.250    2.914    0.188    0.375  103.008
  267.500    2.920    0.197    0.377  104.929
  267.750    2.904    0.205    0.400  105.514
  268.000    2.830    0.211    0.418  102.703
  268.250    2.784    0.207    0.406  100.922
  268.500    2.748    0.188    0.392  102.114
  268.750    2.723    0.169    0.392  104.826
  269.000    2.643    0.161    0.411  107.291
  269.250    2.514    0.155    0.423  108.668
  269.500    2.446    0.175    0.432  107.372
  269.750    2.414    0.180    0.409  106.258
  270.000    2.362    0.184    0.392  104.477
  270.250    2.310    0.197    0.382  101.478
  270.500    2.285    0.210    0.368   99.214
  270.750    2.272    0.217    0.394  100.165
  271.000    2.268    0.202    0.418  104.151
  271.250    2.273    0.198    0.406  108.312
  271.500    2.294    0.214    0.412  108.113
  271.750    2.329    0.222    0.434  104.937
  272.000    2.342    0.230    0.446  103.156
  272.250    2.351    0.217    0.434  110.113
  272.500    2.360    0.201    0.427  112.704
  272.750    2.343    0.189    0.418  113.715
  273.000    2.318    0.187    0.426  114.422
  273.250    2.288    0.196    0.438  114.888
  273.500    2.271    0.222    0.437  110.919
  273.750    2.222    0.242    0.432  108.347
  274.000    2.161    0.225    0.432  109.663
  274.250    2.063    0.215    0.447  111.889
  274.500    2.022    0.216    0.460  113.264
  274.750    1.985    0.214    0.461  116.217
  275.000    1.985    0.202    0.451  118.560
  275.250    2.015    0.191    0.465  118.966
  275.500    2.061    0.183    0.470  117.244
  275.750    2.151    0.202    0.474  115.338
  276.000    2.275    0.217    0.475  114.836
  276.250    2.361    0.227    0.460  114.331
  276.500    2.433    0.229    0.448  113.460
  276.750    2.465    0.216    0.432  112.827
  277.000    2.493    0.204    0.435  112.385
  277.250    2.507    0.199    0.460  112.060
  277.500    2.512    0.194    0.473  111.007
  277.750    2.517    0.188    0.481  110.073
  278.000    2.517    0.182    0.463  110.843
  278.250    2.522    0.178    0.450  112.459
  278.500    2.527    0.177    0.467  113.291
  278.750    2.509    0.191    0.464  114.119
  279.000    2.500    0.200    0.450  111.974
  279.250    2.487    0.210    0.471  109.886
  279.500    2.459    0.219    0.467  108.533
  279.750    2.423    0.211    0.445  107.782
  280.000    2.401    0.202    0.428  108.611
  280.250    2.357    0.198    0.414  108.952
  280.500    2.314    0.198    0.413  107.598
  280.750    2.298    0.201    0.410  104.236
  281.000    2.268    0.211    0.436  102.942
  281.250    2.239    0.220    0.457  103.347
  281.500    2.219    0.228    0.473  104.173
  281.750    2.195    0.233    0.468  103.910
  282.000    2.170    0.235    0.475  103.708
  282.250    2.151    0.235    0.474  103.262
  282.500    2.147    0.233    0.462  102.817
  282.750    2.139    0.232    0.458  103.337
  283.000    2.152    0.228    0.460  104.471
  283.250    2.180    0.221    0.454  105.789
  283.500    2.221    0.228    0.446  107.467
  283.750    2.234    0.226    0.456  107.143
  284.000    2.255    0.224    0.463  106.453
  284.250    2.298    0.226    0.473  108.496
  284.500    2.315    0.226    0.462  109.568
  284.750    2.320    0.221    0.449  109.183
  285.000    2.312    0.220    0.441  107.701
  285.250    2.265    0.237    0.449  106.650
  285.500    2.228    0.248    0.424  106.201
  285.750    2.183    0.241    0.423  105.637
  286.000    2.123    0.231    0.415  104.339
  286.250    2.088    0.225    0.417  102.317
  286.500    2.073    0.218    0.405   99.626
  286.750    2.070    0.148    0.407   97.237
  287.000    2.074    0.138    0.418   95.396
  287.250    2.094    0.178    0.417   94.222
  287.500    2.105    0.206    0.426   94.443
  287.750    2.110    0.236    0.461   99.277
  288.000    2.094    0.218    0.492  102.109
  288.250    2.083    0.206    0.517  100.449
  288.500    2.076    0.197    0.495  101.336
  288.750    2.091    0.193    0.507  103.321
  289.000    2.111    0.191    0.522  105.055
  289.250    2.139    0.196    0.514  105.766
  289.500    2.175    0.206    0.509  105.990
  289.750    2.229    0.214    0.496  105.603
  290.000    2.284    0.221    0.475  106.798
  290.250    2.327    0.225    0.499  106.048
  290.500    2.336    0.226    0.499  104.993
  290.750    2.345    0.226    0.495  103.996
  291.000    2.350    0.222    0.489  103.799
  291.250    2.350    0.214    0.477  103.778
  291.500    2.342    0.202    0.471  104.120
  291.750    2.325    0.186    0.485  104.282
  292.000    2.312    0.178    0.500  104.686
  292.250    2.321    0.172    0.490  105.876
  292.500    2.321    0.177    0.484  108.344
  292.750    2.343    0.189    0.479  110.752
  293.000    2.396    0.201    0.484  113.161
  293.250    2.442    0.207    0.492  114.049
  293.500    2.474    0.183    0.485  114.026
  293.750    2.525    0.172    0.465  112.674
  294.000    2.592    0.194    0.451  116.535
  294.250    2.646    0.202    0.440  117.729
  294.500    2.691    0.195    0.454  114.186
  294.750    2.737    0.184    0.434  111.859
  295.000    2.747    0.175    0.419  109.714
  295.250    2.663    0.175    0.424  106.719
  295.500    2.609    0.185    0.422  105.059
  295.750    2.533    0.193    0.445  105.524
  296.000    2.405    0.197    0.455  107.264
  296.250    2.330    0.194    0.444  108.332
  296.500    2.301    0.182    0.452  108.066
  296.750    2.301    0.172    0.458  107.562
  297.000    2.336    0.165    0.454  108.574
  297.250    2.358    0.182    0.468  110.556
  297.500    2.380    0.195    0.457  111.507
  297.750    2.398    0.201    0.458  111.118
  298.000    2.412    0.197    0.464  110.675
  298.250    2.408    0.191    0.472  109.924
