~VERSION INFORMATION
 VERS.                 2.0:   CWLS LOG ASCII STANDARD -VERSION 2.0
 WRAP.                  NO:   ONE LINE PER DEPTH STEP
~WELL INFORMATION BLOCK
#MNEM.UNIT           DATA                    DESCRIPTION OF MNEMONIC
#---------    -------------------            -------------------------------
# Generated from Intellog Unique Number	CS_69_70/WELL/885
NULL.         -999.25                        : NULL_VALUE
WELL.         CDN HOMSTEAD ET AL HEART       : Well_name    - WELL              
LOC .         00/11-05-070-09W4/0            : Location     - LOCATION          
UWI .         00/11-05-070-09W4/0            : Uwi          - UNIQUE WELL ID    
ENTR.         SP                             : Entered      - ENTERED BY        
SRVC.         SCHLUMBERGER                   : Scn          - SERVICE COMPANY   
STRT.M        320                            : top_depth    - START DEPTH       
STOP.M        545                            : bot_depth    - STOP DEPTH        
STEP.M        0.25                           : increment    - STEP LENGTH       
~CURVE INFORMATION BLOCK
#MNEM UNIT       ERCB CURVE CODE    CURVE DESCRIPTION
#-----------   ------------------   ----------------------------------
DEPT.M        00 001 00 00         : DEPTH        - DEPTH                       
ILD .OHMM     00 120 00 00         : RESD         - DEEP RESISTIVITY (DIL)      
DPHI.V/V      00 890 00 00         : PHID         - DENSITY POROSITY (LIMESTONE)
NPHI.V/V      00 330 00 00         : PHIN         - NEUTRON POROSITY (LIMESTONE)
GR  .API      00 310 00 00         : GR           - GAMMA RAY                   
~PARAMETER INFORMATION       
#MNEM.UNIT           DATA             DESCRIPTION OF MNEMONIC
#---------         -----------     ------------------------------
GL  .M        659.4                : gl           - GROUND LEVEL ELEVATION      
EREF.M        662.75               : kb           - ELEVATION OF DEPTH REFERENCE
DATM.M        659.4                : datum        - DATUM ELEVATION             
TDD .M        570.4                : tdd          - TOTAL DEPTH DRILLER         
RUN .         ONE                  : Run          - RUN NUMBER                  
ENG .         BILL                 : Engineer     - RECORDING ENGINEER          
WIT .         JIM                  : Witness      - WITNESSED BY                
MUD .         GEL                  : Mud_type     - MUD TYPE                    
MATR.         LIMESTONE            : Logunit      - NEUTRON MATRIX              
TMAX.C        25                   : BHT          - MAXIMUM RECORDED TEMPERATURE
BHTD.M        570.4                : BHTDEP       - MAXIMUM RECORDED TEMPERATURE
MATR.         1                    : LOGUNIT      - NEUTRON MATRIX              
RMT .C        25                   : MDTP         - TEMPERATURE OF MUD          
NEUT.         1                    : NEUTRON      - NEUTRON TYPE                
RESI.         0                    : RESIST       - RESISTIVITY TYPE            
RMC .OHMM     0.25                 : RMC          - RESISTIVITY OF MUD CAKE     
RMF .OHMM     0.25                 : RMF          - RESISTIVITY OF MUD FILTRATE 
SUFT.C        15                   : SUFT         - SURFACE TEMPERATURE         
~A  DEPTH     RESD     PHID     PHIN       GR
  320.000    2.370    0.186    0.557   91.001
  320.250    2.352    0.189    0.571   88.145
  320.500    2.339    0.174    0.538   82.743
  320.750    2.339    0.173    0.522   79.220
  321.000    2.331    0.127    0.533   83.275
  321.250    2.340    0.206    0.547   91.635
  321.500    2.353    0.201    0.542   92.598
  321.750    2.388    0.205    0.535   91.682
  322.000    2.434    0.194    0.538   92.160
  322.250    2.479    0.187    0.544   91.790
  322.500    2.531    0.197    0.523   92.268
  322.750    2.569    0.190    0.493   94.687
  323.000    2.613    0.204    0.515   95.893
  323.250    2.613    0.202    0.537   94.794
  323.500    2.603    0.186    0.547   93.575
  323.750    2.570    0.200    0.555   94.963
  324.000    2.560    0.165    0.573  101.080
  324.250    2.594    0.196    0.556  102.892
  324.500    2.668    0.189    0.531  101.733
  324.750    2.785    0.184    0.517  100.028
  325.000    2.912    0.200    0.507   98.021
  325.250    2.984    0.201    0.503   96.014
  325.500    3.052    0.182    0.496   94.370
  325.750    3.046    0.157    0.521   94.606
  326.000    3.001    0.182    0.538   97.510
  326.250    2.940    0.187    0.527   98.533
  326.500    2.892    0.181    0.514   98.588
  326.750    2.838    0.191    0.512   98.217
  327.000    2.807    0.201    0.504   97.239
  327.250    2.802    0.200    0.493   96.264
  327.500    2.802    0.200    0.510   94.862
  327.750    2.761    0.194    0.528   94.491
  328.000    2.839    0.199    0.527   96.849
  328.250    2.909    0.178    0.529   98.540
  328.500    2.926    0.188    0.533   99.321
  328.750    2.975    0.185    0.532   98.770
  329.000    2.987    0.201    0.509   97.792
  329.250    3.020    0.183    0.494   98.331
  329.500    3.049    0.172    0.493   98.022
  329.750    3.095    0.173    0.495   96.378
  330.000    3.141    0.195    0.483   95.583
  330.250    3.231    0.195    0.474   96.425
  330.500    3.225    0.183    0.458   97.146
  330.750    3.113    0.163    0.475   96.776
  331.000    3.010    0.174    0.500   95.556
  331.250    2.938    0.181    0.521   93.609
  331.500    2.906    0.176    0.517   90.087
  331.750    3.330    0.177    0.446   81.349
  332.000    5.834    0.160    0.385   75.159
  332.250   11.243    0.166    0.290   63.997
  332.500   19.088    0.176    0.180   56.532
  332.750   25.624    0.353    0.130   51.252
  333.000   27.712    0.385    0.123   47.425
  333.250   26.550    0.378    0.150   54.572
  333.500   22.747    0.328    0.188   62.628
  333.750   19.855    0.316    0.221   66.139
  334.000   17.756    0.315    0.239   69.830
  334.250   16.482    0.328    0.228   70.976
  334.500   15.500    0.315    0.235   72.000
  334.750   14.360    0.317    0.242   72.659
  335.000   12.605    0.315    0.229   73.381
  335.250   10.620    0.318    0.223   75.071
  335.500    9.201    0.309    0.251   79.127
  335.750    7.810    0.268    0.298   83.667
  336.000    6.830    0.237    0.345   88.814
  336.250    6.188    0.200    0.380   95.840
  336.500    5.939    0.183    0.407  101.957
  336.750    5.841    0.175    0.415  101.707
  337.000    5.776    0.166    0.420   97.760
  337.250    5.777    0.171    0.421   99.390
  337.500    5.820    0.184    0.422  102.415
  337.750    5.897    0.197    0.423  101.559
  338.000    5.964    0.216    0.424  100.461
  338.250    6.099    0.231    0.426  101.303
  338.500    6.249    0.231    0.423  103.479
  338.750    6.355    0.212    0.410   98.076
  339.000    6.439    0.181    0.397   88.976
  339.250    6.536    0.182    0.380   80.724
  339.500    6.622    0.202    0.367   74.230
  339.750    6.672    0.202    0.350   74.951
  340.000    6.660    0.167    0.369   78.339
  340.250    6.465    0.155    0.386   71.967
  340.500    6.148    0.158    0.396   65.835
  340.750    5.814    0.192    0.385   67.528
  341.000    5.417    0.202    0.387   75.099
  341.250    5.529    0.210    0.410   84.367
  341.500    5.308    0.181    0.426   92.667
  341.750    5.152    0.151    0.443  101.209
  342.000    4.982    0.131    0.467  106.720
  342.250    4.651    0.113    0.470  103.439
  342.500    4.253    0.089    0.472  105.312
  342.750    3.962    0.081    0.490  111.914
  343.000    3.563    0.104    0.507  117.424
  343.250    3.228    0.128    0.518  120.691
  343.500    2.700    0.157    0.511  120.623
  343.750    2.675    0.174    0.526  118.071
  344.000    2.660    0.166    0.550  116.124
  344.250    2.813    0.185    0.558  113.874
  344.500    3.390    0.203    0.538  103.743
  344.750    4.839    0.214    0.438   92.520
  345.000    6.412    0.219    0.346   84.025
  345.250   11.469    0.230    0.277   61.647
  345.500   15.083    0.245    0.204   48.059
  345.750   18.006    0.357    0.172   44.597
  346.000   18.448    0.413    0.168   52.896
  346.250   14.081    0.392    0.191   61.923
  346.500   11.387    0.368    0.226   72.345
  346.750    9.469    0.331    0.295   79.977
  347.000    8.008    0.310    0.334   86.821
  347.250    7.201    0.297    0.364   85.299
  347.500    6.672    0.292    0.385   65.163
  347.750    6.274    0.287    0.401   58.245
  348.000    6.011    0.286    0.402   68.969
  348.250    5.857    0.276    0.388   78.724
  348.500    5.792    0.281    0.382   85.447
  348.750    5.760    0.291    0.385   90.896
  349.000    5.782    0.301    0.395   86.525
  349.250    5.793    0.294    0.401   78.030
  349.500    5.826    0.290    0.397   71.052
  349.750    5.881    0.284    0.391   68.135
  350.000    5.914    0.297    0.391   66.490
  350.250    5.937    0.284    0.403   61.270
  350.500    5.937    0.280    0.410   51.623
  350.750    5.982    0.286    0.404   45.615
  351.000    5.993    0.284    0.397   42.213
  351.250    5.971    0.292    0.402   40.508
  351.500    5.961    0.282    0.405   39.654
  351.750    5.939    0.300    0.403   41.041
  352.000    5.939    0.307    0.397   47.703
  352.250    5.895    0.305    0.408   53.334
  352.500    5.863    0.303    0.417   60.179
  352.750    5.830    0.295    0.422   66.599
  353.000    5.798    0.284    0.429   69.987
  353.250    5.745    0.269    0.436   67.190
  353.500    5.671    0.287    0.443   64.517
  353.750    5.556    0.302    0.433   70.452
  354.000    5.484    0.305    0.418   75.235
  354.250    5.414    0.299    0.408   74.925
  354.500    5.384    0.298    0.443   69.886
  354.750    5.475    0.302    0.453   67.152
  355.000    5.610    0.290    0.441   70.358
  355.250    5.823    0.274    0.437   76.596
  355.500    6.011    0.260    0.443   82.651
  355.750    6.205    0.271    0.440   86.768
  356.000    6.322    0.256    0.449   88.398
  356.250    6.228    0.243    0.462   86.330
  356.500    5.934    0.249    0.453   86.627
  356.750    5.686    0.245    0.459   90.015
  357.000    5.337    0.243    0.478   94.797
  357.250    5.000    0.229    0.485   96.731
  357.500    4.737    0.225    0.466   95.512
  357.750    4.497    0.215    0.453  101.023
  358.000    4.357    0.201    0.474  105.561
  358.250    4.357    0.194    0.495  105.920
  358.500    4.514    0.202    0.517   98.213
  358.750    4.704    0.228    0.504   91.780
  359.000    5.106    0.260    0.474   85.589
  359.250    5.390    0.276    0.463   93.222
  359.500    5.927    0.283    0.457  106.007
  359.750    6.280    0.286    0.465  114.671
  360.000    6.199    0.280    0.470  117.392
  360.250    6.029    0.261    0.476   97.560
  360.500    5.940    0.263    0.481   85.974
  360.750    5.962    0.272    0.464   79.965
  361.000    6.412    0.264    0.445   75.168
  361.250    7.541    0.240    0.436   69.766
  361.500    8.529    0.178    0.420   61.817
  361.750    9.415    0.079    0.386   59.567
  362.000    9.809    0.050    0.248   65.199
  362.250    9.105    0.127    0.299   73.377
  362.500    7.757    0.242    0.386   78.038
  362.750    6.746    0.273    0.441   81.609
  363.000    5.921    0.281    0.487   83.906
  363.250    5.548    0.269    0.488   83.778
