~VERSION INFORMATION
 VERS.                 2.0:   CWLS LOG ASCII STANDARD -VERSION 2.0
 WRAP.                  NO:   ONE LINE PER DEPTH STEP
~WELL INFORMATION BLOCK
#MNEM.UNIT           DATA                    DESCRIPTION OF MNEMONIC
#---------    -------------------            -------------------------------
# Generated from Intellog Unique Number	CS_73_76/WELL/3239
WELL.         10-23-076-08W4                 : Well_name    - WELL
LOC .         00/10-23-076-08W4/0            : Location     - LOCATION
UWI .         00/10-23-076-08W4/0            : Uwi          - UNIQUE WELL ID
ENTR.         SP                             : Entered      - ENTERED BY
SRVC.         SCHLUMBERGER                   : Scn          - SERVICE COMPANY
STRT.M        204.216                        : top_depth    - START DEPTH
STOP.M        432.466                        : bot_depth    - STOP DEPTH
STEP.M        0.25                           : increment    - STEP LENGTH
 NULL. -999.2500:NULL Value
~CURVE INFORMATION BLOCK
#MNEM UNIT       ERCB CURVE CODE    CURVE DESCRIPTION
#-----------   ------------------   ----------------------------------
DEPT.M        00 001 00 00         : DEPTH        - DEPTH
GR  .API      00 310 00 00         : GR           - GAMMA RAY
DPHI.V/V      00 890 00 00         : PHID         - DENSITY POROSITY (SANDSTONE)
NPHI.V/V      00 330 00 00         : PHIN         - NEUTRON POROSITY (SANDSTONE)
ILD .OHMM     00 120 00 00         : RESD         - DEEP RESISTIVITY (DIL)
~PARAMETER INFORMATION
#MNEM.UNIT           DATA             DESCRIPTION OF MNEMONIC
#---------         -----------     ------------------------------
GL  .M        612.587              : gl           - GROUND LEVEL ELEVATION
EREF.M        616.427              : kb           - ELEVATION OF DEPTH REFERENCE
DATM.M        612.587              : datum        - DATUM ELEVATION
TDD .M        545.592              : tdd          - TOTAL DEPTH DRILLER
RUN .         ONE                  : Run          - RUN NUMBER
ENG .         BILL                 : Engineer     - RECORDING ENGINEER
WIT .         JIM                  : Witness      - WITNESSED BY
MUD .         GEL                  : Mud_type     - MUD TYPE
MATR.         SANDSTONE            : Logunit      - NEUTRON MATRIX
TMAX.C        60                   : BHT          - MAXIMUM RECORDED TEMPERATURE
BHTD.M        545.592              : BHTDEP       - MAXIMUM RECORDED TEMPERATURE
MATR.         1                    : LOGUNIT      - NEUTRON MATRIX
RMT .C        25                   : MDTP         - TEMPERATURE OF MUD
NEUT.         1                    : NEUTRON      - NEUTRON TYPE
RESI.         0                    : RESIST       - RESISTIVITY TYPE
RMC .OHMM     0.25                 : RMC          - RESISTIVITY OF MUD CAKE
RMF .OHMM     0.25                 : RMF          - RESISTIVITY OF MUD FILTRATE
SUFT.C        15                   : SUFT         - SURFACE TEMPERATURE
~A  DEPTH       GR     PHID     PHIN     RESD
# ...
  378.216   52.673    0.306    0.389   58.880
  378.466   51.728    0.296    0.390   56.855
  378.716   50.977    0.299    0.391   53.409
  378.966   50.583    0.302    0.399   49.317
  379.216   52.471    0.296    0.387   45.465
  379.466   54.999    0.289    0.396   42.086
  379.716   57.413    0.283    0.403   39.378
  379.966   59.125    0.288    0.408   33.458
  380.216   60.442    0.295    0.408   28.751
  380.466   63.765    0.283    0.414   25.312
  380.716   66.321    0.280    0.419   20.329
  380.966   67.774    0.277    0.418   17.144
  381.216   69.535    0.280    0.413   15.493
  381.466   69.792    0.275    0.420   13.399
  381.716   70.757    0.263    0.418   12.501
  381.966   72.684    0.257    0.415   11.080
  382.216   76.345    0.259    0.413    9.977
  382.466   80.000    0.259    0.429    9.291
  382.716   84.201    0.249    0.443   10.108
  382.966   87.173    0.231    0.455   11.996
  383.216   88.502    0.250    0.462   13.915
  383.466   86.604    0.274    0.448   17.759
  383.716   82.113    0.283    0.427   21.491
  383.966   76.956    0.291    0.408   21.172
  384.216   60.471    0.295    0.398   19.739
  384.466   52.123    0.298    0.385   18.439
  384.716   49.152    0.293    0.372   17.206
  384.966   50.139    0.278    0.380   15.527
  385.216   51.850    0.265    0.386   15.068
  385.466   50.858    0.256    0.389   14.599
  385.716   49.507    0.248    0.392   14.141
  385.966   50.012    0.241    0.388   14.105
  386.216   52.812    0.236    0.389   14.428
  386.466   55.273    0.231    0.393   13.936
  386.716   58.511    0.234    0.398   13.374
  386.966   61.750    0.242    0.403   12.832
  387.216   61.696    0.259    0.400   12.439
  387.466   62.322    0.270    0.403   12.063
  387.716   67.204    0.264    0.406   11.697
  387.966   72.087    0.237    0.418   11.323
  388.216   77.936    0.210    0.433   11.260
  388.466   81.044    0.191    0.405   11.473
  388.716   83.062    0.192    0.396   11.579
  388.966   84.064    0.202    0.386   11.924
  389.216   80.799    0.221    0.385   11.900
  389.466   75.965    0.245    0.395   11.784
  389.716   69.588    0.259    0.416   11.660
  389.966   66.499    0.272    0.432   11.435
  390.216   67.176    0.261    0.439   11.725
  390.466   68.903    0.251    0.452   12.889
  390.716   65.510    0.247    0.447   16.450
  390.966   60.762    0.263    0.431   21.038
  391.216   54.241    0.276    0.408   31.166
  391.466   43.735    0.289    0.404   71.862
  391.716   37.632    0.301    0.406  104.445
  391.966   35.346    0.306    0.408  112.897
  392.216   35.380    0.302    0.407  105.339
  392.466   35.213    0.297    0.398   95.440
  392.716   34.794    0.299    0.401   81.662
  392.966   33.952    0.310    0.405   69.766
  393.216   34.722    0.314    0.411   57.990
  393.466   35.722    0.319    0.391   49.313
  393.716   36.940    0.320    0.390   37.572
  393.966   38.308    0.318    0.393   32.246
  394.216   40.742    0.310    0.402   27.209
  394.466   44.074    0.302    0.401   22.087
  394.716   48.494    0.294    0.391   19.257
  394.966   53.174    0.298    0.399   16.280
  395.216   56.013    0.287    0.396   14.507
  395.466   60.496    0.271    0.397   12.833
  395.716   63.872    0.245    0.401   11.559
  395.966   67.364    0.219    0.420   12.658
  396.216   69.643    0.244    0.426   13.579
  396.466   71.894    0.272    0.426   15.091
  396.716   68.424    0.289    0.423   15.992
  396.966   63.941    0.305    0.421   15.883
  397.216   69.421    0.308    0.431   14.496
  397.466   71.712    0.308    0.412   12.956
  397.716   74.328    0.298    0.398   11.650
  397.966   76.268    0.284    0.391   10.874
  398.216   78.868    0.282    0.399    9.835
  398.466   80.762    0.291    0.412    8.960
  398.716   84.279    0.284    0.424    8.229
  398.966   87.262    0.275    0.431    7.727
  399.216   89.520    0.266    0.430    7.321
  399.466   92.514    0.256    0.427    7.108
  399.716   95.466    0.245    0.422    6.999
  399.966   98.859    0.230    0.426    6.799
  400.216  101.561    0.220    0.430    6.736
  400.466  105.617    0.209    0.418    6.814
  400.716  102.761    0.205    0.414    7.018
  400.966  103.845    0.211    0.422    7.508
  401.216  102.843    0.215    0.428    8.294
  401.466   94.084    0.232    0.436    8.983
  401.716   71.850    0.243    0.451    9.841
  401.966   67.711    0.235    0.411   11.270
  402.216   67.826    0.212    0.391   11.949
  402.466   64.447    0.154    0.361   11.194
  402.716   66.669    0.130    0.329   10.217
  402.966   70.514    0.152    0.328    9.526
  403.216   75.299    0.200    0.368    8.780
  403.466   76.275    0.261    0.388    8.498
  403.716   73.899    0.266    0.403    8.237
  403.966   73.801    0.274    0.395    8.146
  404.216   79.068    0.264    0.386    7.866
  404.466   87.017    0.253    0.368    7.253
  404.716   91.898    0.251    0.365    6.600
  404.966   93.417    0.278    0.473    6.139
  405.216   93.366    0.299    0.492    5.501
  405.466   94.490    0.329    0.527    5.023
  405.716   97.184    0.340    0.548    4.590
  405.966   98.196    0.258    0.545    4.651
  406.216   97.460    0.227    0.549    5.137
  406.466   94.391    0.189    0.534    6.260
  406.716   87.455    0.189    0.514    7.880
  406.966   81.081    0.194    0.443    9.634
  407.216   72.702    0.212    0.419   12.108
  407.466   66.710    0.233    0.430   14.373
  407.716   62.677    0.257    0.411   16.655
  407.966   57.635    0.268    0.406   17.582
  408.216   52.918    0.275    0.405   17.328
  408.466   48.963    0.289    0.416   15.440
  408.716   47.437    0.288    0.433   12.991
  408.966   49.591    0.251    0.407   11.904
  409.216   53.489    0.220    0.400   11.213
  409.466   61.726    0.230    0.408   10.852
  409.716   68.150    0.245    0.411   11.120
  409.966   71.326    0.244    0.430   11.453
  410.216   73.455    0.243    0.432   11.659
  410.466   72.879    0.245    0.418   11.548
  410.716   71.902    0.245    0.427   11.032
  410.966   70.530    0.244    0.428   10.371
  411.216   69.284    0.239    0.423    9.719
  411.466   68.732    0.221    0.419    9.307
  411.716   71.072    0.209    0.417    9.031
  411.966   75.700    0.212    0.408    8.966
  412.216   77.038    0.212    0.402    9.085
  412.466   77.995    0.221    0.392    9.286
  412.716   77.267    0.221    0.389    9.669
  412.966   77.677    0.224    0.394   10.206
  413.216   78.501    0.215    0.400   11.222
  413.466   79.094    0.209    0.406   13.706
  413.716   79.208    0.216    0.413   17.771
  413.966   76.501    0.242    0.419   21.649
  414.216   73.833    0.266    0.423   23.141
  414.466   66.133    0.294    0.428   21.537
  414.716   56.002    0.321    0.430   19.924
  414.966   51.738    0.321    0.430   16.169
  415.216   52.924    0.296    0.414   14.306
  415.466   57.583    0.261    0.415   12.399
  415.716   65.037    0.234    0.426   11.021
  415.966   68.948    0.212    0.433   10.132
  416.216   73.608    0.193    0.432   10.376
  416.466   77.995    0.240    0.422   11.409
  416.716   77.713    0.252    0.401   11.773
  416.966   75.516    0.257    0.414   11.172
  417.216   69.959    0.250    0.421   10.938
  417.466   72.962    0.224    0.421   10.943
  417.716   77.024    0.228    0.403   10.944
  417.966   74.218    0.225    0.410   11.027
  418.216   72.070    0.227    0.419   11.375
  418.466   69.524    0.242    0.420   11.921
  418.716   67.309    0.252    0.415   12.384
  418.966   62.802    0.267    0.405   13.798
  419.216   56.264    0.283    0.418   16.958
  419.466   50.979    0.301    0.427   31.256
  419.716   43.529    0.303    0.443   43.309
  419.966   39.055    0.321    0.449   49.392
  420.216   36.461    0.336    0.458   57.731
  420.466   35.564    0.339    0.446   70.960
  420.716   35.581    0.332    0.442   76.193
  420.966   35.658    0.329    0.447   81.910
  421.216   36.194    0.329    0.451   84.953
  421.466   36.396    0.335    0.455   69.120
