~VERSION INFORMATION
 VERS.                 2.0:   CWLS LOG ASCII STANDARD -VERSION 2.0
 WRAP.                  NO:   ONE LINE PER DEPTH STEP
~WELL INFORMATION BLOCK
#MNEM.UNIT           DATA                    DESCRIPTION OF MNEMONIC
#---------    -------------------            -------------------------------
# Generated from Intellog Unique Number	CS_71_72/WELL/872
WELL.         PACIFIC PHILLIPS AEC WIAU      : Well_name    - WELL
LOC .         00/10-29-072-08W4/0            : Location     - LOCATION
UWI .         00/10-29-072-08W4/0            : Uwi          - UNIQUE WELL ID
ENTR.         SP                             : Entered      - ENTERED BY
SRVC.         SCHLUMBERGER                   : Scn          - SERVICE COMPANY
STRT.M        315                            : top_depth    - START DEPTH
STOP.M        540                            : bot_depth    - STOP DEPTH
STEP.M        0.25                           : increment    - STEP LENGTH
 NULL. -999.2500:NULL Value
~CURVE INFORMATION BLOCK
#MNEM UNIT       ERCB CURVE CODE    CURVE DESCRIPTION
#-----------   ------------------   ----------------------------------
DEPT.M        00 001 00 00         : DEPTH        - DEPTH
GR  .API      00 310 00 00         : GR           - GAMMA RAY
NPHI.V/V      00 330 00 00         : PHIN         - NEUTRON POROSITY (LIMESTONE)
DPHI.V/V      00 890 00 00         : PHID         - DENSITY POROSITY (LIMESTONE)
ILD .OHMM     00 120 00 00         : RESD         - DEEP RESISTIVITY (DIL)
~PARAMETER INFORMATION
#MNEM.UNIT           DATA             DESCRIPTION OF MNEMONIC
#---------         -----------     ------------------------------
GL  .M        686.5                : gl           - GROUND LEVEL ELEVATION
EREF.M        689.5                : kb           - ELEVATION OF DEPTH REFERENCE
DATM.M        686.5                : datum        - DATUM ELEVATION
TDD .M        555                  : tdd          - TOTAL DEPTH DRILLER
RUN .         ONE                  : Run          - RUN NUMBER
ENG .         BILL                 : Engineer     - RECORDING ENGINEER
WIT .         JIM                  : Witness      - WITNESSED BY
MUD .         GEL                  : Mud_type     - MUD TYPE
MATR.         LIMESTONE            : Logunit      - NEUTRON MATRIX
TMAX.C        32.2                 : BHT          - MAXIMUM RECORDED TEMPERATURE
BHTD.M        555                  : BHTDEP       - MAXIMUM RECORDED TEMPERATURE
MATR.         1                    : LOGUNIT      - NEUTRON MATRIX
RMT .C        25                   : MDTP         - TEMPERATURE OF MUD
NEUT.         1                    : NEUTRON      - NEUTRON TYPE
RESI.         0                    : RESIST       - RESISTIVITY TYPE
RMC .OHMM     0.25                 : RMC          - RESISTIVITY OF MUD CAKE
RMF .OHMM     0.25                 : RMF          - RESISTIVITY OF MUD FILTRATE
SUFT.C        15                   : SUFT         - SURFACE TEMPERATURE
~A  DEPTH       GR     PHIN     PHID     RESD
# ...
  358.500   69.713    0.406    0.254   13.129
  358.750   69.706    0.397    0.243   12.883
  359.000   70.911    0.395    0.238   12.881
  359.250   70.300    0.399    0.237   13.119
  359.500   64.847    0.402    0.240   13.613
  359.750   63.030    0.399    0.249   14.124
  360.000   59.999    0.395    0.268   14.386
  360.250   57.574    0.399    0.257   14.651
  360.500   55.147    0.395    0.258   14.649
  360.750   54.538    0.399    0.270   14.643
  361.000   55.134    0.412    0.268   14.102
  361.250   55.734    0.417    0.254   13.585
  361.500   55.729    0.423    0.247   12.373
  361.750   55.724    0.413    0.249   11.698
  362.000   59.952    0.403    0.271   10.265
  362.250   69.622    0.405    0.267    9.706
  362.500   78.085    0.428    0.254    9.006
  362.750   90.174    0.453    0.247    8.838
  363.000   96.217    0.467    0.236    8.834
  363.250   99.233    0.451    0.222    8.998
  363.500   98.020    0.428    0.222    8.996
  363.750  105.876    0.423    0.232    8.827
  364.000  113.126    0.416    0.218    7.891
  364.250  116.144    0.439    0.206    7.188
  364.500  117.952    0.459    0.205    6.547
  364.750  117.949    0.482    0.226    6.306
  365.000  113.709    0.496    0.228    6.304
  365.250  105.840    0.509    0.240    6.789
  365.500   99.180    0.514    0.261    7.449
  365.750   94.940    0.502    0.267    7.876
  366.000   93.120    0.489    0.258    8.641
  366.250   93.719    0.481    0.255    9.307
  366.500   99.154    0.470    0.257   10.022
  366.750   99.755    0.465    0.262   10.209
  367.000   96.118    0.482    0.268   10.397
  367.250   96.719    0.487    0.270   10.395
  367.500   99.736    0.493    0.259   10.393
  367.750  100.335    0.497    0.258   10.197
  368.000   98.513    0.497    0.255   10.193
  368.250   98.509    0.475    0.244   10.383
  368.500   99.713    0.457    0.253   10.773
  368.750   97.892    0.447    0.242   10.973
  369.000   94.256    0.430    0.222   11.600
  369.250   91.831    0.419    0.202   12.492
  369.500   88.802    0.427    0.176   12.964
  369.750   76.699    0.248    0.050   13.705
  370.000   65.202    0.223    0.023   14.220
  370.250   62.776    0.225    0.134   13.955
  370.500   74.866    0.409    0.170   12.948
  370.750   86.351    0.438    0.199   12.243
  371.000   93.000    0.461    0.216   11.151
  371.250  103.275    0.475    0.227    9.970
  371.500  103.267    0.480    0.232    9.251
  371.750  102.658    0.478    0.226    8.746
  372.000  100.837    0.471    0.227    8.115
  372.250  100.227    0.472    0.233    7.964
  372.500  103.243    0.477    0.243    7.120
  372.750  109.889    0.488    0.238    6.366
  373.000  112.909    0.491    0.232    5.691
  373.250  115.928    0.496    0.234    5.184
  373.500  115.317    0.493    0.219    5.379
  373.750  110.474    0.499    0.232    6.240
  374.000   97.161    0.499    0.239    6.977
  374.250   86.872    0.479    0.253    8.720
  374.500   80.213    0.467    0.272    9.748
  374.750   79.603    0.458    0.285   10.897
  375.000   82.618    0.453    0.278   11.520
  375.250   83.822    0.457    0.259   11.953
  375.500   84.423    0.456    0.246   11.092
  375.750   84.418    0.466    0.260   10.488
  376.000   86.226    0.480    0.254    9.731
  376.250   88.034    0.487    0.248    9.549
  376.500   88.632    0.479    0.252    9.907
  376.750   87.416    0.475    0.263   10.872
  377.000   86.804    0.486    0.265   10.668
  377.250   87.404    0.494    0.253   10.276
  377.500   88.609    0.494    0.248    9.714
  377.750   89.810    0.481    0.259    9.356
  378.000   89.805    0.475    0.263    9.354
  378.250   88.590    0.478    0.253    9.706
  378.500   86.771    0.467    0.245   10.261
  378.750   78.900    0.458    0.241   11.050
  379.000   74.661    0.450    0.250   11.467
  379.250   75.863    0.445    0.276   11.897
  379.500   80.091    0.441    0.296   11.894
  379.750   82.504    0.443    0.280   11.892
  380.000   83.710    0.448    0.261   11.453
  380.250   81.283    0.450    0.255   11.239
  380.500   80.068    0.453    0.243   11.029
  380.750   80.667    0.448    0.256   11.026
  381.000   82.473    0.441    0.260   11.022
  381.250   82.470    0.435    0.253   10.816
  381.500   82.464    0.430    0.279    9.851
  381.750   92.131    0.420    0.283    9.314
  382.000   94.547    0.417    0.256    9.311
  382.250   98.776    0.431    0.245    9.843
  382.500   95.746    0.443    0.227   11.635
  382.750   79.409    0.468    0.221   13.251
  383.000   69.122    0.485    0.224   15.091
  383.250   60.043    0.470    0.273   16.253
  383.500   60.038    0.462    0.301   17.181
  383.750   61.240    0.468    0.314   17.178
  384.000   63.048    0.456    0.323   17.494
  384.250   64.855    0.458    0.330   17.490
  384.500   64.851    0.467    0.335   16.845
  384.750   65.448    0.473    0.325   16.226
  385.000   64.839    0.458    0.315   14.778
  385.250   64.834    0.456    0.329   14.235
  385.500   62.408    0.457    0.334   13.711
  385.750   58.773    0.444    0.324   12.720
  386.000   58.767    0.436    0.322   14.220
  386.250   60.575    0.425    0.320   14.217
  386.500   59.359    0.421    0.322   14.482
  386.750   56.329    0.433    0.337   15.027
  387.000   52.694    0.474    0.362   15.590
  387.250   50.269    0.543    0.394   15.879
  387.500   49.658    0.589    0.454   16.174
  387.750   49.651    0.623    0.324   16.474
  388.000   49.040    0.532    0.284   16.778
  388.250   47.825    0.424    0.283   17.085
  388.500   47.213    0.408    0.301   17.080
  388.750   47.813    0.405    0.309   17.396
  389.000   47.806    0.408    0.324   17.391
  389.250   48.406    0.413    0.329   17.713
  389.500   49.607    0.424    0.326   17.708
  389.750   49.603    0.434    0.331   18.036
  390.000   49.596    0.443    0.341   18.032
  390.250   49.590    0.446    0.348   18.365
  390.500   49.586    0.442    0.337   18.361
  390.750   50.184    0.436    0.331   18.357
  391.000   50.782    0.432    0.340   18.694
  391.250   51.984    0.435    0.345   18.689
  391.500   52.585    0.438    0.346   18.685
  391.750   53.184    0.435    0.344   18.680
  392.000   53.179    0.432    0.342   19.024
  392.250   52.567    0.437    0.347   19.020
  392.500   51.954    0.441    0.355   18.661
  392.750   51.949    0.446    0.357   18.656
  393.000   51.944    0.438    0.356   19.003
  393.250   51.330    0.427    0.355   18.998
  393.500   51.325    0.422    0.352   18.993
  393.750   51.322    0.418    0.361   18.984
  394.000   51.314    0.414    0.373   18.630
  394.250   51.915    0.436    0.375   18.625
  394.500   53.721    0.450    0.363   18.618
  394.750   54.926    0.447    0.362   18.271
  395.000   56.128    0.445    0.379   18.263
  395.250   56.729    0.448    0.366   18.259
  395.500   57.325    0.455    0.359   18.256
  395.750   57.925    0.459    0.354   17.913
  396.000   57.921    0.457    0.345   17.577
  396.250   58.516    0.455    0.354   17.573
  396.500   58.511    0.454    0.358   17.242
  396.750   59.110    0.459    0.337   17.239
  397.000   59.710    0.470    0.332   17.234
  397.250   60.310    0.474    0.328   17.228
  397.500   61.510    0.477    0.331   17.225
  397.750   62.111    0.479    0.334   16.901
  398.000   62.708    0.456    0.335   16.897
  398.250   62.099    0.464    0.341   16.889
  398.500   60.279    0.458    0.346   16.575
  398.750   58.459    0.456    0.356   16.569
  399.000   57.849    0.462    0.354   16.259
  399.250   58.446    0.470    0.350   16.256
  399.500   57.232    0.478    0.350   15.950
  399.750   56.621    0.480    0.353   15.947
  400.000   55.403    0.466    0.356   15.646
  400.250   54.794    0.473    0.356   15.355
  400.500   54.787    0.483    0.351   15.065
  400.750   54.782    0.460    0.358   15.062
  401.000   56.589    0.454    0.363   15.059
  401.250   57.189    0.443    0.343   14.774
  401.500   58.392    0.453    0.348   14.498
  401.750   58.992    0.457    0.351   14.496
