~VERSION INFORMATION
 VERS.                 2.0:   CWLS LOG ASCII STANDARD -VERSION 2.0
 WRAP.                  NO:   ONE LINE PER DEPTH STEP
~WELL INFORMATION BLOCK
#MNEM.UNIT           DATA                    DESCRIPTION OF MNEMONIC
#---------    -------------------            -------------------------------
# Generated from Intellog Unique Number	CW_76_78/WELL/3587
WELL.         SASKATCHEWAN OIL & GAS CORP.   : Well_name    - WELL
LOC .         00/11-06-076-19W4/0            : Location     - LOCATION
UWI .         00/11-06-076-19W4/0            : Uwi          - UNIQUE WELL ID
ENTR.         JO                             : Entered      - ENTERED BY
SRVC.         SCHLUMBERGER                   : Scn          - SERVICE COMPANY
DATE.         05/25/92                       : Date         - LOG DATE
STRT.M        215                            : top_depth    - START DEPTH
STOP.M        460                            : bot_depth    - STOP DEPTH
STEP.M        0.25                           : increment    - STEP LENGTH
 NULL. -999.2500:NULL Value
~CURVE INFORMATION BLOCK
#MNEM UNIT       ERCB CURVE CODE    CURVE DESCRIPTION
#-----------   ------------------   ----------------------------------
DEPT.M        00 001 00 00         : DEPTH        - DEPTH
NPHI.V/V      00 330 00 00         : PHIN         - NEUTRON POROSITY (SANDSTONE)
GR  .API      00 310 00 00         : GR           - GAMMA RAY
DPHI.V/V      00 890 00 00         : PHID         - DENSITY POROSITY (SANDSTONE)
ILD .OHMM     00 120 00 00         : RESD         - DEEP RESISTIVITY (DIL)
~PARAMETER INFORMATION
#MNEM.UNIT           DATA             DESCRIPTION OF MNEMONIC
#---------         -----------     ------------------------------
GL  .M        590.9                : gl           - GROUND LEVEL ELEVATION
EREF.M        594.7                : kb           - ELEVATION OF DEPTH REFERENCE
DATM.M        594.7                : datum        - DATUM ELEVATION
TDD .M        465                  : tdd          - TOTAL DEPTH DRILLER
RUN .         ONE                  : Run          - RUN NUMBER
ENG .         BILL                 : Engineer     - RECORDING ENGINEER
WIT .         JIM                  : Witness      - WITNESSED BY
MUD .         GEL                  : Mud_type     - MUD TYPE
MATR.         SANDSTONE            : Logunit      - NEUTRON MATRIX
TMAX.C        35                   : BHT          - MAXIMUM RECORDED TEMPERATURE
BHTD.M        465                  : BHTDEP       - MAXIMUM RECORDED TEMPERATURE
MATR.         1                    : LOGUNIT      - NEUTRON MATRIX
RMT .C        12                   : MDTP         - TEMPERATURE OF MUD
NEUT.         1                    : NEUTRON      - NEUTRON TYPE
RESI.         0                    : RESIST       - RESISTIVITY TYPE
RMC .OHMM     2.24                 : RMC          - RESISTIVITY OF MUD CAKE
RMF .OHMM     2.38                 : RMF          - RESISTIVITY OF MUD FILTRATE
SUFT.C        5                    : SUFT         - SURFACE TEMPERATURE
~A  DEPTH     PHIN       GR     PHID     RESD
# ...
  302.000    0.395   88.168    0.265    4.424
  302.250    0.406   90.507    0.276    4.424
  302.500    0.432  102.225    0.284    4.853
  302.750    0.465  102.219    0.284    5.226
  303.000    0.472   99.868    0.282    5.840
  303.250    0.481   98.103    0.278    6.288
  303.500    0.448   92.233    0.262    6.772
  303.750    0.436   87.537    0.265    6.772
  304.000    0.438   83.429    0.269    6.773
  304.250    0.441   79.319    0.270    6.649
  304.500    0.436   81.073    0.266    6.291
  304.750    0.439   85.753    0.263    6.291
  305.000    0.454   86.921    0.270    6.292
  305.250    0.480   88.087    0.272    6.177
  305.500    0.494   88.669    0.269    6.177
  305.750    0.466   89.246    0.275    6.652
  306.000    0.442   88.071    0.282    6.903
  306.250    0.441   86.891    0.289    7.434
  306.500    0.443   85.127    0.304    8.462
  306.750    0.452   78.088    0.317    9.282
  307.000    0.437   69.875    0.324    9.456
  307.250    0.425   64.594    0.341    9.633
  307.500    0.423   61.657    0.353    9.114
  307.750    0.415   67.513    0.347    8.784
  308.000    0.425   75.713    0.316    8.159
  308.250    0.428   80.983    0.308    7.863
  308.500    0.406   86.253    0.304    7.439
  308.750    0.411   91.522    0.295    7.170
  309.000    0.446   95.620    0.327    7.039
  309.250    0.458   97.369    0.334    6.418
  309.500    0.442   95.020    0.287    6.301
  309.750    0.478   91.497    0.266    6.072
  310.000    0.478   92.074    0.299    5.962
  310.250    0.451   92.657    0.303    6.073
  310.500    0.431   94.996    0.300    6.187
  310.750    0.424   99.680    0.272    6.541
  311.000    0.428  105.534    0.231    6.788
  311.250    0.429  106.699    0.222    7.044
  311.500    0.438  103.763    0.212    7.310
  311.750    0.457  103.171    0.240    7.447
  312.000    0.451  105.511    0.256    7.586
  312.250    0.457  106.090    0.233    7.587
  312.500    0.452  103.739    0.221    7.448
  312.750    0.438  101.390    0.215    6.667
  313.000    0.434   99.624    0.241    6.308
  313.250    0.446   97.858    0.253    5.542
  313.500    0.487   97.269    0.282    5.148
  313.750    0.503   98.435    0.295    4.607
  314.000    0.517  100.186    0.306    4.048
  314.250    0.553   94.906    0.320    3.760
  314.500    0.576   92.554    0.326    3.691
  314.750    0.553   96.067    0.334    4.202
  315.000    0.522   99.576    0.326    4.963
  315.250    0.518   70.847    0.318    6.083
  315.500    0.486   62.049    0.324    7.455
  315.750    0.461   55.593    0.341   10.022
  316.000    0.449   52.656    0.359   10.994
  316.250    0.446   54.409    0.353   12.285
  316.500    0.435   55.577    0.350   12.286
  316.750    0.408   55.571    0.344   12.287
  317.000    0.409   54.391    0.351   12.063
  317.250    0.414   53.800    0.358   11.626
  317.500    0.415   53.208    0.364   10.216
  317.750    0.410   51.442    0.370    9.665
  318.000    0.411   50.850    0.373    9.315
  318.250    0.426   52.018    0.374    8.813
  318.500    0.443   54.941    0.373    8.813
  318.750    0.434   55.523    0.372    8.814
  319.000    0.425   56.103    0.372    8.815
  319.250    0.428   54.925    0.363    8.980
  319.500    0.432   52.574    0.356    9.319
  319.750    0.438   50.220    0.358    9.494
  320.000    0.442   51.971    0.367    9.852
  320.250    0.436   52.555    0.369   10.224
  320.500    0.422   54.892    0.369   10.225
  320.750    0.416   54.300    0.369   10.038
  321.000    0.415   50.777    0.370    9.674
  321.250    0.423   50.186    0.376    8.986
  321.500    0.431   51.937    0.384    8.660
  321.750    0.428   54.277    0.383    8.346
  322.000    0.445   55.444    0.366    8.347
  322.250    0.440   55.438    0.363    8.195
  322.500    0.427   54.846    0.366    8.045
  322.750    0.419   53.667    0.373    8.046
  323.000    0.416   51.903    0.378    8.046
  323.250    0.418   48.966    0.373    7.337
  323.500    0.425   46.029    0.368    7.474
  323.750    0.437   47.194    0.362    7.475
  324.000    0.434   48.946    0.361    7.338
  324.250    0.427   51.285    0.361    7.339
  324.500    0.428   53.622    0.367    7.205
  324.750    0.448   54.792    0.373    7.206
  325.000    0.461   54.784    0.372    7.206
  325.250    0.435   51.261    0.371    7.207
  325.500    0.436   53.014    0.374    7.207
  325.750    0.444   55.351    0.377    7.208
  326.000    0.450   55.933    0.374    7.208
  326.250    0.455   56.513    0.367    7.209
  326.500    0.465   55.333    0.361    7.210
  326.750    0.467   53.568    0.357    7.078
  327.000    0.441   54.736    0.362    7.079
  327.250    0.443   52.386    0.371    6.950
  327.500    0.439   52.378    0.379    6.950
  327.750    0.450   57.062    0.349    6.951
  328.000    0.448   60.574    0.313    6.824
  328.250    0.437   65.258    0.296    6.824
  328.500    0.438   67.597    0.303    6.825
  328.750    0.443   66.418    0.329    6.825
  329.000    0.460   71.688    0.335    6.826
  329.250    0.454   78.716    0.329    6.826
  329.500    0.441   66.400    0.333    6.827
  329.750    0.442   66.977    0.342    6.955
  330.000    0.450   68.145    0.341    6.956
  330.250    0.449   69.312    0.326    7.086
  330.500    0.437   66.962    0.308    7.353
  330.750    0.353   59.922    0.249    7.631
  331.000    0.314   58.155    0.151    8.527
  331.250    0.340   59.323    0.233    9.887
  331.500    0.438   62.832    0.283   10.845
  331.750    0.429   67.517    0.335   10.452
  332.000    0.424   74.545    0.325    9.356
  332.250    0.429   73.952    0.326    8.530
  332.500    0.431   78.637    0.336    8.070
  332.750    0.431   77.458    0.334    7.636
  333.000    0.436   79.797    0.324    7.496
  333.250    0.436   79.205    0.315    7.637
  333.500    0.420   68.648    0.313    7.780
  333.750    0.436   61.020    0.311    8.074
  334.000    0.458   57.497    0.311    8.225
  334.250    0.449   53.389    0.317    8.226
  334.500    0.422   49.866    0.324    8.076
  334.750    0.411   48.100    0.332    7.928
  335.000    0.404   49.852    0.340    7.641
  335.250    0.405   50.433    0.341    7.502
  335.500    0.416   49.254    0.340    7.365
  335.750    0.426   49.248    0.332    7.098
  336.000    0.425   50.415    0.329    6.969
  336.250    0.418   51.583    0.329    6.969
  336.500    0.413   53.921    0.334    6.970
  336.750    0.419   53.915    0.336    7.100
  337.000    0.417   49.805    0.340    7.101
  337.250    0.415   48.625    0.337    7.101
  337.500    0.425   49.205    0.331    7.102
  337.750    0.436   49.199    0.330    7.235
  338.000    0.447   49.779    0.331    7.236
  338.250    0.436   49.185    0.327    7.371
  338.500    0.428   49.769    0.327    7.372
  338.750    0.421   52.108    0.334    7.372
  339.000    0.424   52.102    0.334    7.651
  339.250    0.431   49.751    0.330    7.940
  339.500    0.425   49.159    0.327    8.239
  339.750    0.415   49.737    0.321    8.550
  340.000    0.413   49.733    0.310    8.710
  340.250    0.434   49.141    0.317    8.711
  340.500    0.421   48.547    0.329    8.396
  340.750    0.406   47.955    0.329    8.242
  341.000    0.404   49.707    0.328    7.944
  341.250    0.410   50.874    0.328    7.799
  341.500    0.423   50.283    0.328    7.656
  341.750    0.424   49.688    0.329    7.657
  342.000    0.413   50.857    0.327    7.517
  342.250    0.409   51.438    0.323    7.380
  342.500    0.407   50.258    0.319    7.381
  342.750    0.412   50.838    0.321    7.246
  343.000    0.414   52.587    0.323    7.247
  343.250    0.405   51.412    0.328    7.247
  343.500    0.410   49.648    0.329    7.248
  343.750    0.427   49.054    0.323    7.249
  344.000    0.429   49.633    0.320    7.249
  344.250    0.411   51.387    0.321    7.250
  344.500    0.423   56.070    0.309    7.386
  344.750    0.435   57.824    0.308    7.386
  345.000    0.440   59.577    0.324    7.387
  345.250    0.443   57.812    0.328    7.387
