~VERSION INFORMATION
 VERS.                 2.0:   CWLS LOG ASCII STANDARD -VERSION 2.0
 WRAP.                  NO:   ONE LINE PER DEPTH STEP
~WELL INFORMATION BLOCK
#MNEM.UNIT           DATA                    DESCRIPTION OF MNEMONIC
#---------    -------------------            -------------------------------
# Generated from Intellog Unique Number	CW_70_72/WELL/3034
NULL.         -999.25                        : NULL_VALUE
WELL.         MIAMI AMOCO HONDO 11-32        : Well_name    - WELL              
LOC .         11-32-070-02W5                 : Location     - LOCATION          
UWI .         00/11-32-070-02W5/0            : Uwi          - UNIQUE WELL ID    
ENTR.         J                              : Entered      - ENTERED BY        
SRVC.         SCHLUMBERGER                   : Scn          - SERVICE COMPANY   
DATE.         30 JAN 75                      : Date         - LOG DATE          
STRT.M        417.576                        : top_depth    - START DEPTH       
STOP.M        634.076                        : bot_depth    - STOP DEPTH        
STEP.M        0.25                           : increment    - STEP LENGTH       
~CURVE INFORMATION BLOCK
#MNEM UNIT       ERCB CURVE CODE    CURVE DESCRIPTION
#-----------   ------------------   ----------------------------------
DEPT.M        00 001 00 00         : DEPTH        - DEPTH                       
ILD .OHMM     00 120 00 00         : RESD         - DEEP RESISTIVITY (DIL)      
CALI.MM       00 280 01 00         : CAL          - CALIPER                     
GR  .API      00 310 00 00         : GR           - GAMMA RAY                   
NPHI.V/V      00 330 00 00         : PHIN         - NEUTRON POROSITY (SANDSTONE)
DPHI.V/V      00 890 00 00         : PHID         - DENSITY POROSITY (SANDSTONE)
~PARAMETER INFORMATION       
#MNEM.UNIT           DATA             DESCRIPTION OF MNEMONIC
#---------         -----------     ------------------------------
GL  .M        591.617              : gl           - GROUND LEVEL ELEVATION      
EREF.M        596.189              : kb           - ELEVATION OF DEPTH REFERENCE
DATM.M        591.617              : datum        - DATUM ELEVATION             
TDD .M        653.796              : tdd          - TOTAL DEPTH DRILLER         
RUN .         ONE                  : Run          - RUN NUMBER                  
ENG .         LAVERDIERE           : Engineer     - RECORDING ENGINEER          
WIT .         MCTAGGART            : Witness      - WITNESSED BY                
BASE.         EDM                  : Branch       - HOME BASE OF LOGGING UNIT   
MUD .         GEL                  : Mud_type     - MUD TYPE                    
MATR.         SANDSTONE            : Logunit      - NEUTRON MATRIX              
TMAX.C        28.3333              : BHT          - MAXIMUM RECORDED TEMPERATURE
BHTD.M        653.796              : BHTDEP       - MAXIMUM RECORDED TEMPERATURE
RMT .C        19.4444              : MDTP         - TEMPERATURE OF MUD          
MUDD.KG/M     1152                 : MWT          - MUD DENSITY                 
NEUT.         1                    : NEUTRON      - NEUTRON TYPE                
RESI.         0                    : RESIST       - RESISTIVITY TYPE            
RM  .OHMM     0.61                 : RM           - RESISTIVITY OF MUD          
RMC .OHMM     0.92                 : RMC          - RESISTIVITY OF MUD CAKE     
RMF .OHMM     0.25                 : RMF          - RESISTIVITY OF MUD FILTRATE 
SUFT.C        -17.7778             : SUFT         - SURFACE TEMPERATURE         
~A  DEPTH     RESD      CAL       GR     PHIN     PHID
# ...
  600.076    1.624  162.031   92.527    0.517    0.174
  600.326    1.493  161.936   92.713    0.494    0.199
  600.576    1.538  162.147   93.993    0.471    0.155
  600.826    1.601  162.668   96.914    0.493    0.113
  601.076    1.692  166.276   99.410    0.499    0.116
  601.326    1.811  171.428   99.414    0.485    0.140
  601.576    1.981  170.714   95.103    0.462    0.124
  601.826    2.168  165.987   91.216    0.423    0.131
  602.076    2.375  163.729   87.695    0.398    0.069
  602.326    2.721  162.192   87.030    0.382    0.044
  602.576    3.341  161.891   87.824    0.380    0.014
  602.826    3.999  162.103   88.436    0.376    0.067
  603.076    4.571  161.903   90.689    0.360    0.049
  603.326    5.103  162.323   91.847    0.354    0.040
  603.576    5.305  162.328   90.332    0.351    0.052
  603.826    5.435  162.747   90.153    0.351    0.031
  604.076    5.513  162.856   91.738    0.359    0.017
  604.326    5.596  162.966   94.355    0.369    0.043
  604.576    5.649  162.766   95.210    0.361    0.062
  604.826    5.662  162.361   94.545    0.349    0.066
  605.076    5.632  162.059   92.300    0.345    0.070
  605.326    5.569  162.064   90.541    0.339    0.081
  605.576    5.581  162.381   88.479    0.326    0.075
  605.826    5.593  163.007   85.990    0.320    0.062
  606.076    5.633  163.011   80.950    0.291    0.026
  606.326    5.794  162.813   82.351    0.257    0.002
  606.576    5.846  162.406   89.284    0.282   -0.014
  606.826    6.043  162.516   95.244    0.348    0.061
  607.076    6.262  162.213   92.756    0.368    0.064
  607.326    6.309  162.120   84.373    0.332    0.025
  607.576    6.376  162.124   79.515    0.305    0.001
  607.826    6.435  162.336   85.961    0.292   -0.013
  608.076    6.510  162.857   93.015    0.330    0.003
  608.326    6.534  163.483   98.246    0.385    0.056
  608.576    6.464  163.799   98.432    0.422    0.076
  608.826    6.198  163.804   96.430    0.359    0.109
  609.076    5.595  163.862   92.605    0.340    0.084
  609.326    4.362  163.921   87.078    0.339    0.078
  609.576    4.800  163.926   83.314    0.343    0.060
  609.826    5.241  163.727   80.035    0.328    0.056
  610.076    5.905  163.424   80.465    0.301    0.024
  610.326    6.275  163.123   84.115    0.305    0.021
  610.576    6.369  163.128   88.495    0.321    0.046
  610.826    6.581  162.521   89.047    0.332    0.047
  611.076    6.429  162.524   89.536    0.327    0.043
  611.326    6.291  161.811   94.159    0.326    0.035
  611.576    6.012  161.102   98.478    0.330    0.077
  611.826    5.785  161.104  100.184    0.341    0.067
  612.076    5.459  160.803   99.823    0.327    0.062
  612.326    5.242  160.601  100.435    0.326    0.054
  612.576    5.017  160.601  101.107    0.352    0.050
  612.826    4.726  159.999  100.929    0.383    0.074
  613.076    4.522  160.003   99.473    0.399    0.070
  613.326    4.198  160.632   85.195    0.419    0.078
  613.576    4.038  160.737   69.093    0.373    0.089
  613.826    3.680  151.584   45.575    0.357    0.109
  614.076    3.389  146.856   35.126    0.345    0.186
  614.326    2.944  146.658   31.118    0.337    0.231
  614.576    2.667  147.178   30.818    0.341    0.214
  614.826    2.346  147.390   32.524    0.344    0.220
  615.076    2.130  148.015   34.230    0.335    0.220
  615.326    1.719  148.638   35.509    0.330    0.224
  615.576    1.686  152.864   35.696    0.331    0.223
  615.826    1.724  152.356   35.517    0.332    0.237
  616.076    1.776  150.820   35.339    0.330    0.228
  616.326    1.812  149.385   35.160    0.330    0.219
  616.576    1.860  148.568   35.164    0.332    0.220
  616.826    1.918  152.282   34.986    0.342    0.232
  617.076    1.993  154.655   34.746    0.356    0.214
  617.326    2.076  155.689   34.811    0.350    0.206
  617.576    2.142  155.284   35.726    0.339    0.202
  617.826    2.271  150.659   36.460    0.336    0.201
  618.076    2.413  145.932   37.011    0.339    0.194
  618.326    2.458  145.116   37.015    0.341    0.198
  618.576    2.510  145.328   36.837    0.340    0.196
  618.826    2.514  146.570   36.962    0.340    0.208
  619.076    2.523  148.016   36.722    0.329    0.199
  619.326    2.470  152.243   36.969    0.325    0.178
  619.576    2.484  154.204   37.641    0.336    0.187
  619.826    2.526  153.799   39.773    0.348    0.205
  620.076    2.602  151.027   40.384    0.361    0.203
  620.326    2.668  147.534   40.084    0.341    0.189
  620.576    2.810  145.996   40.027    0.320    0.177
  620.826    2.969  150.122   41.429    0.289    0.152
  621.076    3.254  151.876   43.864    0.277    0.147
  621.326    3.495  153.324   47.029    0.298    0.173
  621.576    3.701  154.566   49.038    0.309    0.187
  621.826    3.756  155.292   50.258    0.321    0.175
  622.076    3.702  155.506   51.538    0.339    0.175
  622.326    3.447  155.717   53.304    0.348    0.174
  622.576    3.337  155.929   54.280    0.346    0.167
  622.826    3.392  155.524   54.223    0.329    0.162
  623.076    3.526  154.398   55.017    0.322    0.152
  623.326    3.753  152.655   56.540    0.319    0.138
  623.576    4.084  151.840   58.794    0.318    0.149
  623.826    4.285  151.847   62.930    0.320    0.156
  624.076    4.436  152.470   63.967    0.322    0.152
  624.326    4.552  153.918   64.883    0.322    0.158
  624.576    4.680  154.952   66.345    0.324    0.130
  624.826    4.672  156.297   67.443    0.333    0.131
  625.076    4.683  156.201   67.204    0.333    0.135
  625.326    4.691  156.208   68.180    0.327    0.121
  625.576    4.693  156.008   69.642    0.323    0.119
  625.826    4.710  156.016   70.679    0.321    0.118
  626.076    4.815  156.227   70.927    0.324    0.114
  626.326    5.005  155.616   70.991    0.327    0.118
  626.576    5.164  154.387   70.630    0.329    0.131
  626.826    5.137  152.852   71.059    0.329    0.121
  627.076    5.160  152.961   71.854    0.328    0.110
  627.326    5.254  152.966   72.647    0.323    0.094
  627.576    5.371  153.179   73.259    0.319    0.112
  627.826    5.562  154.729   72.230    0.310    0.128
  628.076    5.772  157.514   69.863    0.322    0.108
  628.326    6.055  160.506   69.867    0.327    0.093
  628.576    6.361  160.821   70.296    0.318    0.090
  628.826    6.660  159.798   74.251    0.311    0.084
  629.076    6.922  158.262   73.283    0.305    0.111
  629.326    7.183  157.548   70.430    0.335    0.130
  629.576    7.480  157.142   70.312    0.343    0.152
  629.826    7.790  156.736   73.051    0.335    0.163
  630.076    8.097  156.537   75.121    0.329    0.158
  630.326    8.507  156.440   76.584    0.322    0.151
  630.576    8.873  155.316   74.886    0.317    0.132
  630.826    8.828  154.087   74.829    0.311    0.122
  631.076    8.343  152.858   76.960    0.329    0.140
  631.326    7.926  153.688   79.820    0.335    0.151
  631.576    7.560  157.092   80.128    0.329    0.077
  631.826    7.506  158.642   71.319    0.291    0.046
  632.076    8.151  159.369   62.328    0.197    0.019
  632.326    9.052  159.375   57.348    0.173   -0.008
  632.576    9.616  159.793   58.568    0.172   -0.012
  632.826   10.033  159.903   58.207    0.172   -0.008
  633.076   10.259  160.527   61.249    0.172   -0.004
  633.326   10.332  161.254   64.961    0.177   -0.000
  633.576   10.075  161.776   67.699    0.191   -0.002
  633.826    9.715  161.884   68.068    0.195   -0.002
  634.076    9.418  161.272   71.050    0.198    0.005
