~VERSION INFORMATION
 VERS.                 2.0:   CWLS LOG ASCII STANDARD -VERSION 2.0
 WRAP.                  NO:   ONE LINE PER DEPTH STEP
~WELL INFORMATION BLOCK
#MNEM.UNIT           DATA                    DESCRIPTION OF MNEMONIC
#---------    -------------------            -------------------------------
# Generated from Intellog Unique Number	CC_80_83/WELL/2435
NULL.         -999.25                        : NULL_VALUE
WELL.         NOVALTA NEWBY                  : Well_name    - WELL              
LOC .         13-19-083-04W4                 : Location     - LOCATION          
UWI .         00/13-19-083-04W4/0            : Uwi          - UNIQUE WELL ID    
ENTR.         DW                             : Entered      - ENTERED BY        
SRVC.         COMPUTALOG                     : Scn          - SERVICE COMPANY   
DATE.         08 JAN 84                      : Date         - LOG DATE
STRT.M        63                             : top_depth    - START DEPTH       
STOP.M        270.001                        : bot_depth    - STOP DEPTH        
STEP.M        0.3                            : increment    - STEP LENGTH       
~CURVE INFORMATION BLOCK
#MNEM UNIT       ERCB CURVE CODE    CURVE DESCRIPTION
#-----------   ------------------   ----------------------------------
DEPT.M        00 001 00 00         : DEPTH        - DEPTH                       
DPHI.V/V      00 890 00 00         : PHID         - DENSITY POROSITY (LIMESTONE)
NPHI.V/V      00 330 00 00         : PHIN         - NEUTRON POROSITY (LIMESTONE)
GR  .API      00 310 00 00         : GR           - GAMMA RAY                   
ILD .OHMM     00 120 00 00         : RESD         - DEEP RESISTIVITY (DIL)      
~PARAMETER INFORMATION       
#MNEM.UNIT           DATA             DESCRIPTION OF MNEMONIC
#---------         -----------     ------------------------------
GL  .M        464                  : gl           - GROUND LEVEL ELEVATION      
EREF.M        467                  : kb           - ELEVATION OF DEPTH REFERENCE
DATM.M        467                  : datum        - DATUM ELEVATION             
TDD .M        276                  : tdd          - TOTAL DEPTH DRILLER         
RUN .         ONE                  : Run          - RUN NUMBER                  
ENG .         BILL                 : Engineer     - RECORDING ENGINEER          
WIT .         JIM                  : Witness      - WITNESSED BY                
MUD .         GEL                  : Mud_type     - MUD TYPE                    
MATR.         LIMESTONE            : Logunit      - NEUTRON MATRIX              
TMAX.C        22                   : BHT          - MAXIMUM RECORDED TEMPERATURE
BHTD.M        275                  : BHTDEP       - MAXIMUM RECORDED TEMPERATURE
MATR.         1                    : LOGUNIT      - NEUTRON MATRIX              
RMT .C        25                   : MDTP         - TEMPERATURE OF MUD          
NEUT.         1                    : NEUTRON      - NEUTRON TYPE                
RESI.         0                    : RESIST       - RESISTIVITY TYPE            
RMC .OHMM     0.25                 : RMC          - RESISTIVITY OF MUD CAKE     
RMF .OHMM     0.25                 : RMF          - RESISTIVITY OF MUD FILTRATE 
SUFT.C        4                    : SUFT         - SURFACE TEMPERATURE         
~A  DEPTH     PHID     PHIN       GR     RESD
# ...
  115.201    0.333    0.435   68.652    7.024
  115.501    0.370    0.400   56.435    7.142
  115.801    0.397    0.408   46.054    7.132
  116.101    0.395    0.398   50.962    7.119
  116.401    0.369    0.367   54.648    6.971
  116.701    0.345    0.356   55.277    6.831
  117.001    0.345    0.390   54.072    6.818
  117.301    0.373    0.405   52.870    6.812
  117.601    0.371    0.408   53.492    6.673
  117.901    0.369    0.415   57.178    6.539
  118.201    0.366    0.387   68.205    6.406
  118.501    0.364    0.420   65.776    6.276
  118.801    0.375    0.415   60.286    6.151
  119.101    0.370    0.385   58.468    6.254
  119.401    0.363    0.384   57.261    6.363
  119.701    0.346    0.409   71.347    6.351
  120.001    0.332    0.429   72.588    6.338
  120.301    0.378    0.398   62.204    6.212
  120.601    0.384    0.376   62.222    6.199
  120.901    0.349    0.386   64.684    6.193
  121.201    0.364    0.430   60.419    6.182
  121.501    0.390    0.443   58.600    6.403
  121.801    0.384    0.405   58.620    6.515
  122.101    0.371    0.384   58.023    6.628
  122.401    0.374    0.380   59.262    6.618
  122.701    0.366    0.377   62.337    6.603
  123.001    0.360    0.374   66.023    6.346
  123.301    0.360    0.414   62.982    6.222
  123.601    0.357    0.409   51.376    6.097
  123.901    0.352    0.394   50.780    6.085
  124.201    0.386    0.403   53.243    6.307
  124.501    0.385    0.316   37.968    6.537
  124.801    0.357    0.305   35.540    6.651
  125.101    0.360    0.332   38.002    6.394
  125.401    0.385    0.390   51.476    6.265
  125.701    0.391    0.435   49.658    5.912
  126.001    0.392    0.448   47.229    5.581
  126.301    0.367    0.372   46.632    5.467
  126.601    0.350    0.352   44.812    5.562
  126.901    0.352    0.362   46.667    5.764
  127.201    0.367    0.421   47.907    5.975
  127.501    0.371    0.373   47.311    6.192
  127.801    0.374    0.380   47.326    6.297
  128.101    0.353    0.432   53.461    6.169
  128.401    0.306    0.407   58.981    6.041
  128.701    0.301    0.386   57.774    6.036
  129.001    0.315    0.410   49.227    6.025
  129.301    0.346    0.437   46.797    6.126
  129.601    0.366    0.426   55.989    6.119
  129.901    0.366    0.459   67.016    6.108
  130.201    0.380    0.490   56.023    6.211
  130.501    0.417    0.438   45.640    6.201
  130.801    0.433    0.341   39.538    6.308
  131.101    0.418    0.358   43.225    6.297
  131.401    0.375    0.468   64.651    6.056
  131.701    0.303    0.496   87.914    5.204
  132.001    0.309    0.470   98.329    4.643
  132.301    0.279    0.469   97.124    4.221
  132.601    0.272    0.464   92.856    4.060
  132.901    0.308    0.425   84.921    3.903
  133.201    0.315    0.405   70.868    4.045
  133.501    0.312    0.424   67.827    4.435
  133.801    0.327    0.436   69.680    5.048
  134.101    0.334    0.392   72.754    5.638
  134.401    0.327    0.386   73.383    6.178
  134.701    0.318    0.402   74.011    6.285
  135.001    0.317    0.380   76.475    6.393
  135.301    0.317    0.397   78.326    6.381
  135.601    0.328    0.420   78.344    6.373
  135.901    0.322    0.414   76.523    6.239
  136.201    0.312    0.408   72.872    6.231
  136.501    0.311    0.409   71.050    6.333
  136.801    0.319    0.389   71.067    6.323
  137.101    0.325    0.390   71.085    6.315
  137.401    0.318    0.404   75.385    6.307
  137.701    0.317    0.415   76.623    6.292
  138.001    0.322    0.416   75.415    6.285
  138.301    0.315    0.416   71.762    6.392
  138.601    0.312    0.415   68.720    6.502
  138.901    0.321    0.398   71.796    6.608
  139.201    0.330    0.392   80.988    6.601
  139.501    0.330    0.416   74.886    6.593
  139.801    0.326    0.432   73.681    6.458
  140.101    0.323    0.398   76.143    6.326
  140.401    0.318    0.370   76.770    6.197
  140.701    0.314    0.369   76.790    6.189
  141.001    0.320    0.388   77.416    6.179
  141.301    0.326    0.416   80.493    6.168
  141.601    0.328    0.412   86.012    6.158
  141.901    0.321    0.400   86.642    6.146
  142.201    0.321    0.419   74.424    6.137
  142.501    0.319    0.432   72.604    6.124
  142.801    0.308    0.434   76.293    6.115
  143.101    0.306    0.433   79.368    5.987
  143.401    0.312    0.433   76.939    5.980
  143.701    0.315    0.431   82.459    5.972
  144.001    0.312    0.434   84.922    5.958
  144.301    0.300    0.423   75.763    5.951
  144.601    0.290    0.420   73.333    5.939
  144.901    0.303    0.435   75.183    5.933
  145.201    0.312    0.439   79.483    5.922
  145.501    0.300    0.390   85.005    5.695
  145.801    0.300    0.403   84.410    5.475
  146.101    0.313    0.425   75.249    5.467
  146.401    0.328    0.427   75.268    5.256
  146.701    0.319    0.421   78.343    5.052
  147.001    0.312    0.443   80.194    5.047
  147.301    0.308    0.430   78.376    5.036
  147.601    0.301    0.427   81.450    5.125
  147.901    0.289    0.405   84.525    5.310
  148.201    0.288    0.393   82.094    5.298
  148.501    0.296    0.388   80.277    5.290
  148.801    0.298    0.404   85.799    5.284
  149.101    0.298    0.417   92.546    5.174
  149.401    0.298    0.438   94.394    5.068
  149.701    0.284    0.471   96.246    5.062
  150.001    0.275    0.488  104.215    4.869
  150.301    0.269    0.482  109.125    4.345
  150.601    0.282    0.451  108.531    3.804
  150.901    0.286    0.466  112.219    3.523
  151.201    0.271    0.513  111.623    3.388
  151.501    0.274    0.489  105.521    3.382
  151.801    0.286    0.461  104.317    3.572
  152.101    0.294    0.471  114.118    3.701
  152.401    0.293    0.512  117.194    3.766
  152.701    0.302    0.526  115.988    3.488
  153.001    0.309    0.536  117.227    3.112
  153.301    0.315    0.552  114.185    2.828
  153.601    0.304    0.501  110.533    2.670
  153.901    0.299    0.506  111.162    2.567
  154.201    0.294    0.519  114.845    2.563
  154.501    0.275    0.495  111.804    2.558
  154.801    0.272    0.476  111.210    2.651
  155.101    0.281    0.490  113.064    2.696
  155.401    0.284    0.499  113.076    2.794
  155.701    0.287    0.504  103.919    2.897
  156.001    0.282    0.481  102.101    3.117
  156.301    0.270    0.465  106.398    3.548
  156.601    0.267    0.470  105.192    3.962
  156.901    0.276    0.466   97.869    4.030
  157.201    0.296    0.474   96.660    4.256
  157.501    0.295    0.477  101.572    4.753
  157.801    0.278    0.472  100.363    5.408
  158.101    0.266    0.446   97.934    5.821
  158.401    0.266    0.438   99.174    6.260
  158.701    0.273    0.456   90.015    6.490
  159.001    0.284    0.444   86.363    6.599
  159.301    0.302    0.416   88.826    6.466
  159.601    0.319    0.382   94.957    6.457
  159.901    0.312    0.388   98.032    6.327
  160.201    0.293    0.433  104.778    6.314
  160.501    0.291    0.446   99.290    6.306
  160.801    0.291    0.449  101.143    6.412
  161.101    0.285    0.444  104.831    6.647
  161.401    0.274    0.435  106.679    7.149
  161.701    0.268    0.444  107.921    7.408
  162.001    0.274    0.428  106.101    7.675
  162.301    0.276    0.427   98.780    7.667
  162.601    0.274    0.449  101.242    7.509
  162.901    0.266    0.455  108.599    7.362
  163.201    0.252    0.464  109.231    7.079
  163.501    0.241    0.445  109.243    6.682
  163.801    0.240    0.430  108.036    6.304
  164.101    0.249    0.430  103.771    6.295
  164.401    0.267    0.424  100.729    6.524
  164.701    0.275    0.407  100.135    6.760
  165.001    0.267    0.403  100.765    6.748
  165.301    0.271    0.445  101.391    6.490
  165.601    0.276    0.479  114.863    5.901
  165.901    0.279    0.500  112.434    4.883
  166.201    0.278    0.513  105.722    4.523
  166.501    0.273    0.458  103.291    4.271
  166.801    0.257    0.449  108.813    4.261
  167.101    0.254    0.492  111.887    4.254
