~VERSION INFORMATION
 VERS.                 2.0:   CWLS LOG ASCII STANDARD -VERSION 2.0
 WRAP.                  NO:   ONE LINE PER DEPTH STEP
~WELL INFORMATION BLOCK
#MNEM.UNIT           DATA                    DESCRIPTION OF MNEMONIC
#---------    -------------------            -------------------------------
# Generated from Intellog Unique Number	CW_76_78/WELL/2587
WELL.         SCURRY ET AL MISTAHAE          : Well_name    - WELL
LOC .         00/13-06-078-01W5/0            : Location     - LOCATION
UWI .         00/13-06-078-01W5/0            : Uwi          - UNIQUE WELL ID
ENTR.         MAX                            : Entered      - ENTERED BY
SRVC.         WESTERN ATLAS                  : Scn          - SERVICE COMPANY
STRT.M        330                            : top_depth    - START DEPTH
STOP.M        585                            : bot_depth    - STOP DEPTH
STEP.M        0.25                           : increment    - STEP LENGTH
 NULL. -999.2500:NULL Value
~CURVE INFORMATION BLOCK
#MNEM UNIT       ERCB CURVE CODE    CURVE DESCRIPTION
#-----------   ------------------   ----------------------------------
DEPT.M        00 001 00 00         : DEPTH        - DEPTH
ILD .OHMM     00 120 00 00         : RESD         - DEEP RESISTIVITY (DIL)
NPHI.V/V      00 330 00 00         : PHIN         - NEUTRON POROSITY (SANDSTONE)
DPHI.V/V      00 890 00 00         : PHID         - DENSITY POROSITY (SANDSTONE)
CALI.MM       00 280 01 00         : CAL          - CALIPER
GR  .API      00 310 00 00         : GR           - GAMMA RAY
~PARAMETER INFORMATION
#MNEM.UNIT           DATA             DESCRIPTION OF MNEMONIC
#---------         -----------     ------------------------------
GL  .M        633.3                : gl           - GROUND LEVEL ELEVATION
EREF.M        637.67               : kb           - ELEVATION OF DEPTH REFERENCE
DATM.M        633.3                : datum        - DATUM ELEVATION
TDD .M        611                  : tdd          - TOTAL DEPTH DRILLER
RUN .         ONE                  : Run          - RUN NUMBER
ENG .         BILL                 : Engineer     - RECORDING ENGINEER
WIT .         JIM                  : Witness      - WITNESSED BY
MUD .         GEL                  : Mud_type     - MUD TYPE
MATR.         SANDSTONE            : Logunit      - NEUTRON MATRIX
TMAX.C        29                   : BHT          - MAXIMUM RECORDED TEMPERATURE
BHTD.M        611                  : BHTDEP       - MAXIMUM RECORDED TEMPERATURE
RMT .C        17                   : MDTP         - TEMPERATURE OF MUD
MUDD.KG/M     1220                 : MWT          - MUD DENSITY
NEUT.         1                    : NEUTRON      - NEUTRON TYPE
RESI.         0                    : RESIST       - RESISTIVITY TYPE
RM  .OHMM     3.7                  : RM           - RESISTIVITY OF MUD
RMC .OHMM     2                    : RMC          - RESISTIVITY OF MUD CAKE
RMF .OHMM     4                    : RMF          - RESISTIVITY OF MUD FILTRATE
SUFT.C        -10                  : SUFT         - SURFACE TEMPERATURE
~A  DEPTH     RESD     PHIN     PHID      CAL       GR
# ...
  512.500   10.232    0.354    0.185  214.580   80.244
  512.750    9.604    0.350    0.181  214.070   82.277
  513.000    9.514    0.350    0.161  214.043   84.893
  513.250    9.512    0.353    0.148  213.536   88.678
  513.500    9.682    0.354    0.173  213.997   91.000
  513.750    9.767    0.353    0.186  213.486   89.817
  514.000    9.852    0.352    0.184  213.460   91.556
  514.250    9.849    0.352    0.178  213.926   93.588
  514.500    9.670    0.351    0.173  215.361   93.864
  514.750    9.241    0.348    0.154  215.338   94.144
  515.000    9.241    0.346    0.146  214.821   96.463
  515.250    8.908    0.351    0.147  214.317   98.790
  515.500    8.513    0.354    0.163  212.339  102.867
  515.750    8.432    0.353    0.167  211.344  105.480
  516.000    8.431    0.355    0.174  211.318  101.086
  516.250    8.431    0.354    0.163  212.759   94.931
  516.500    8.657    0.345    0.159  211.761   96.672
  516.750   10.554    0.331    0.168  210.761   97.531
  517.000   13.099    0.321    0.177  209.766   96.060
  517.250   15.969    0.313    0.181  208.766   93.124
  517.500   19.999    0.309    0.182  205.820   86.971
  517.750   23.096    0.303    0.167  202.387   79.067
  518.000   25.039    0.295    0.124  200.416   72.916
  518.250   23.929    0.274    0.108  199.902   70.270
  518.500   22.257    0.259    0.110  200.366   70.839
  518.750   20.148    0.257    0.126  202.287   76.669
  519.000   16.971    0.261    0.134  203.728   78.702
  519.250   15.929    0.279    0.147  204.189   84.529
  519.500   12.827    0.293    0.163  205.623   86.857
  519.750    9.961    0.315    0.173  208.035   91.224
  520.000    9.434    0.321    0.176  207.528   93.546
  520.250    9.016    0.322    0.173  207.014   94.410
  520.500    9.013    0.321    0.168  209.426   97.025
  520.750    9.511    0.318    0.163  210.377   97.885
  521.000   10.037    0.317    0.157  208.889   97.583
  521.250   10.496    0.316    0.147  206.430   94.643
  521.500   10.588    0.312    0.137  207.378   93.168
  521.750   10.490    0.303    0.133  211.744   94.617
  522.000   10.025    0.305    0.134  215.127   97.233
  522.250    8.994    0.312    0.139  215.100  102.186
  522.500    7.925    0.333    0.153  214.593  106.263
  522.750    7.505    0.354    0.166  214.082  104.492
  523.000    7.436    0.359    0.168  213.079   97.467
  523.250    7.569    0.355    0.141  212.087   88.101
  523.500    7.916    0.345    0.130  212.087   84.577
  523.750    7.985    0.343    0.133  211.551   84.565
  524.000    8.055    0.345    0.155  209.576   87.473
  524.250    8.199    0.342    0.168  208.094   91.548
  524.500    8.497    0.344    0.170  206.610   90.656
  524.750    8.649    0.344    0.167  206.580   87.135
  525.000    8.649    0.340    0.123  207.047   84.783
  525.250    8.566    0.315    0.087  209.459   84.769
  525.500    8.411    0.311    0.050  213.329   89.140
  525.750    8.332    0.347    0.087  213.792   94.971
  526.000    8.872    0.353    0.127  212.795   97.002
  526.250   11.730    0.336    0.159  212.765   93.187
  526.500   15.095    0.322    0.169  212.261   86.452
  526.750   22.036    0.307    0.205  210.773   68.024
  527.000   38.874    0.226    0.254  208.318   61.583
  527.250   47.816    0.179    0.341  205.856   53.679
  527.500   58.290    0.149    0.371  203.878   39.052
  527.750   80.616    0.127    0.415  203.861   34.070
  528.000   93.097    0.113    0.428  202.863   32.887
  528.250   99.129    0.129    0.429  202.863   32.581
  528.500   97.333    0.162    0.418  202.814   33.148
  528.750   93.850    0.201    0.406  203.277   33.422
  529.000   95.530    0.234    0.372  203.251   33.413
  529.250  101.719    0.299    0.355  201.279   31.936
  529.500  104.481    0.332    0.343  199.795   30.164
  529.750  104.454    0.342    0.326  200.258   29.570
  530.000  104.415    0.345    0.324  200.716   29.264
  530.250  104.415    0.347    0.321  200.692   29.541
  530.500  101.554    0.344    0.321  201.156   30.403
  530.750   97.946    0.342    0.319  201.622   31.558
  531.000   97.946    0.348    0.317  202.083   31.250
  531.250   94.407    0.353    0.314  201.086   29.776
  531.500   92.703    0.353    0.314  200.575   30.634
  531.750   90.199    0.348    0.314  201.526   32.084
  532.000   87.770    0.343    0.316  201.502   34.406
  532.250   81.635    0.340    0.316  201.476   34.394
  532.500   73.903    0.335    0.315  201.942   34.670
  532.750   68.124    0.332    0.315  201.919   34.950
  533.000   63.367    0.333    0.314  201.893   35.228
  533.250   57.885    0.335    0.312  202.356   35.213
  533.500   54.328    0.343    0.312  204.275   35.491
  533.750   50.989    0.344    0.312  204.745   36.644
  534.000   47.427    0.342    0.311  204.715   37.214
  534.250   44.513    0.339    0.313  204.692   37.198
  534.500   41.404    0.341    0.317  203.694   36.896
  534.750   38.511    0.344    0.319  201.236   34.538
  535.000   35.498    0.344    0.316  198.290   34.236
  535.250   32.428    0.343    0.316  193.886   34.514
  535.500   29.624    0.340    0.316  189.966   35.377
  535.750   26.577    0.338    0.313  188.963   36.820
  536.000   23.419    0.338    0.312  192.346   37.977
  536.250   20.636    0.339    0.311  194.763   38.547
  536.500   17.070    0.340    0.313  195.714   38.531
  536.750   16.021    0.340    0.318  194.713   36.764
  537.000   15.175    0.337    0.314  192.742   34.704
  537.250   13.736    0.335    0.313  190.283   34.104
  537.500   11.467    0.339    0.312  188.799   36.428
  537.750   10.762    0.345    0.308  188.282   38.461
  538.000    9.744    0.347    0.307  187.778   39.031
  538.250    8.742    0.341    0.305  187.748   37.553
  538.500    8.131    0.340    0.295  188.215   36.663
  538.750    7.562    0.343    0.293  193.062   36.938
  539.000    7.293    0.341    0.299  198.393   36.928
  539.250    7.032    0.331    0.299  199.831   36.621
  539.500    6.965    0.330    0.299  199.804   36.607
  539.750    6.840    0.333    0.300  199.781   36.591
  540.000    6.840    0.335    0.303  200.241   36.868
  540.250    6.713    0.336    0.303  200.711   37.146
  540.500    6.652    0.339    0.299  200.687   37.426
  540.750    6.650    0.344    0.301  201.145   39.457
  541.000    6.830    0.345    0.304  200.629   41.489
  541.250    7.015    0.344    0.306  200.614   40.885
  541.500    7.141    0.344    0.305  201.078   41.457
  541.750    7.334    0.344    0.304  202.510   42.903
  542.000    7.331    0.343    0.302  203.463   43.184
  542.250    7.134    0.341    0.303  203.437   43.462
  542.500    6.757    0.338    0.304  202.926   43.735
  542.750    6.284    0.333    0.303  203.387   44.309
  543.000    6.284    0.327    0.296  204.827   46.048
  543.250    5.949    0.330    0.292  205.294   48.372
  543.500    5.686    0.334    0.285  205.268   52.157
  543.750    5.633    0.332    0.278  203.293   55.942
  544.000    5.945    0.325    0.263  201.811   57.385
  544.250    6.742    0.305    0.239  204.217   55.620
  544.500    7.443    0.268    0.177  207.606   53.556
  544.750    7.997    0.260    0.157  207.580   53.546
  545.000    7.506    0.295    0.213  205.124   54.409
  545.250    6.734    0.318    0.244  203.149   55.560
  545.500    6.493    0.330    0.265  202.642   56.717
  545.750    6.492    0.329    0.260  203.100   58.748
  546.000    6.789    0.324    0.248  204.537   61.362
  546.250    7.911    0.310    0.219  204.517   64.563
  546.500    8.199    0.276    0.197  204.980   65.135
  546.750    9.133    0.257    0.167  207.389   61.610
  547.000    9.638    0.247    0.119  208.827   61.598
  547.250    9.294    0.283    0.098  209.777   66.552
  547.500    8.567    0.320    0.125  210.238   75.889
  547.750    6.594    0.354    0.187  209.728   88.439
  548.000    5.167    0.367    0.197  208.733   95.440
  548.250    4.721    0.376    0.207  207.248  103.900
  548.500    4.511    0.383    0.212  204.787  107.101
  548.750    4.551    0.382    0.210  203.302  106.795
