~VERSION INFORMATION
 VERS.                 2.0:   CWLS LOG ASCII STANDARD -VERSION 2.0
 WRAP.                  NO:   ONE LINE PER DEPTH STEP
~WELL INFORMATION BLOCK
#MNEM.UNIT           DATA                    DESCRIPTION OF MNEMONIC
#---------    -------------------            -------------------------------
# Generated from Intellog Unique Number	CS_67_68/WELL/805
WELL.         TOTAL PETROLEUM (N.A.)         : Well_name    - WELL
LOC .         00/10-15-068-16W4/0            : Location     - LOCATION
UWI .         00/10-15-068-16W4/0            : Uwi          - UNIQUE WELL ID
ENTR.         SP                             : Entered      - ENTERED BY
SRVC.         SCHLUMBERGER                   : Scn          - SERVICE COMPANY
STRT.M        280                            : top_depth    - START DEPTH
STOP.M        490                            : bot_depth    - STOP DEPTH
STEP.M        0.25                           : increment    - STEP LENGTH
 NULL. -999.2500:NULL Value
~CURVE INFORMATION BLOCK
#MNEM UNIT       ERCB CURVE CODE    CURVE DESCRIPTION
#-----------   ------------------   ----------------------------------
DEPT.M        00 001 00 00         : DEPTH        - DEPTH
ILD .OHMM     00 120 00 00         : RESD         - DEEP RESISTIVITY (DIL)
DPHI.V/V      00 890 00 00         : PHID         - DENSITY POROSITY (LIMESTONE)
NPHI.V/V      00 330 00 00         : PHIN         - NEUTRON POROSITY (LIMESTONE)
GR  .API      00 310 00 00         : GR           - GAMMA RAY
~PARAMETER INFORMATION
#MNEM.UNIT           DATA             DESCRIPTION OF MNEMONIC
#---------         -----------     ------------------------------
GL  .M        547.15               : gl           - GROUND LEVEL ELEVATION
EREF.M        550                  : kb           - ELEVATION OF DEPTH REFERENCE
DATM.M        547.15               : datum        - DATUM ELEVATION
TDD .M        490                  : tdd          - TOTAL DEPTH DRILLER
RUN .         ONE                  : Run          - RUN NUMBER
ENG .         BILL                 : Engineer     - RECORDING ENGINEER
WIT .         JIM                  : Witness      - WITNESSED BY
MUD .         GEL                  : Mud_type     - MUD TYPE
MATR.         LIMESTONE            : Logunit      - NEUTRON MATRIX
TMAX.C        26                   : BHT          - MAXIMUM RECORDED TEMPERATURE
BHTD.M        490                  : BHTDEP       - MAXIMUM RECORDED TEMPERATURE
MATR.         1                    : LOGUNIT      - NEUTRON MATRIX
RMT .C        25                   : MDTP         - TEMPERATURE OF MUD
NEUT.         1                    : NEUTRON      - NEUTRON TYPE
RESI.         0                    : RESIST       - RESISTIVITY TYPE
RMC .OHMM     0.25                 : RMC          - RESISTIVITY OF MUD CAKE
RMF .OHMM     0.25                 : RMF          - RESISTIVITY OF MUD FILTRATE
SUFT.C        15                   : SUFT         - SURFACE TEMPERATURE
~A  DEPTH     RESD     PHID     PHIN       GR
  280.000    2.659    0.284    0.411  105.300
  280.250    2.615    0.306    0.461  103.956
  280.500    2.605    0.234    0.506  103.346
  280.750    2.620    0.254    0.533  103.715
  281.000    2.606    0.282    0.458  103.289
  281.250    2.631    0.262    0.440  101.578
  281.500    2.696    0.234    0.464  101.458
  281.750    2.767    0.216    0.441  103.967
  282.000    2.841    0.192    0.420  105.742
  282.250    2.852    0.207    0.403  106.539
  282.500    2.831    0.219    0.408  107.030
  282.750    2.811    0.272    0.434  106.909
  283.000    2.806    0.309    0.461  104.771
  283.250    2.854    0.329    0.396   99.269
  283.500    2.897    0.261    0.359   96.519
  283.750    2.936    0.267    0.409   98.906
  284.000    2.941    0.294    0.437  103.311
  284.250    2.861    0.317    0.458  101.356
  284.500    2.782    0.267    0.381   96.404
  284.750    2.686    0.274    0.416   99.464
  285.000    2.727    0.331    0.523  101.178
  285.250    2.825    0.365    0.584   99.773
  285.500    2.911    0.485    0.546   93.293
  285.750    2.978    0.242    0.411   87.975
  286.000    2.967    0.255    0.381   82.473
  286.250    2.984    0.267    0.366   80.212
  286.500    3.069    0.272    0.366   85.901
  286.750    3.186    0.257    0.349   91.101
  287.000    3.301    0.237    0.322   94.527
  287.250    3.459    0.198    0.302   99.604
  287.500    3.631    0.197    0.326  103.826
  287.750    3.833    0.210    0.341  107.557
  288.000    4.054    0.205    0.355  111.778
  288.250    4.264    0.238    0.403  101.324
  288.500    4.543    0.273    0.375   87.995
  288.750    4.850    0.292    0.339   75.644
  289.000    5.073    0.291    0.316   65.434
  289.250    5.198    0.300    0.301   63.846
  289.500    4.953    0.276    0.318   69.474
  289.750    4.641    0.254    0.348   75.285
  290.000    4.472    0.277    0.334   77.671
  290.250    4.293    0.288    0.319   79.875
  290.500    4.114    0.272    0.318   82.873
  290.750    4.016    0.262    0.324   85.810
  291.000    4.115    0.211    0.322   89.725
  291.250    4.288    0.202    0.329   92.723
  291.500    4.611    0.209    0.373   97.312
  291.750    5.225    0.247    0.396  100.371
  292.000    6.134    0.272    0.410   87.042
  292.250    7.094    0.280    0.345   72.857
  292.500    8.023    0.276    0.290   64.665
  292.750    8.906    0.263    0.261   56.228
  293.000    9.297    0.321    0.338   54.273
  293.250    9.042    0.313    0.370   55.559
  293.500    8.520    0.310    0.398   56.478
  293.750    7.808    0.280    0.391   56.297
  294.000    7.262    0.275    0.387   54.403
  294.250    6.459    0.298    0.381   50.124
  294.500    6.109    0.309    0.359   47.435
  294.750    5.403    0.307    0.349   46.826
  295.000    4.951    0.302    0.357   48.601
  295.250    4.537    0.310    0.371   52.394
  295.500    4.212    0.311    0.379   54.291
  295.750    3.968    0.311    0.368   55.944
  296.000    3.838    0.294    0.359   54.968
  296.250    3.889    0.301    0.377   54.725
  296.500    3.993    0.316    0.401   58.334
  296.750    4.129    0.336    0.417   64.940
  297.000    4.351    0.325    0.437   69.345
  297.250    4.584    0.292    0.395   73.321
  297.500    4.715    0.282    0.421   76.014
  297.750    4.672    0.272    0.434   73.081
  298.000    4.485    0.299    0.439   69.720
  298.250    4.218    0.304    0.409   68.314
  298.500    3.938    0.299    0.379   67.583
  298.750    3.656    0.297    0.355   68.501
  299.000    3.477    0.300    0.356   65.263
  299.250    3.277    0.300    0.379   64.592
  299.500    3.122    0.299    0.390   65.266
  299.750    3.037    0.290    0.401   65.085
  300.000    2.992    0.282    0.410   68.327
  300.250    2.970    0.279    0.424   72.976
  300.500    3.010    0.268    0.396   77.320
  300.750    3.078    0.266    0.378   82.764
  301.000    3.154    0.272    0.384   87.780
  301.250    3.226    0.252    0.401   91.206
  301.500    3.269    0.233    0.411   93.899
  301.750    3.215    0.219    0.428   93.228
  302.000    3.098    0.206    0.458   93.658
  302.250    3.030    0.200    0.456   89.624
  302.500    3.025    0.273    0.419   79.230
  302.750    3.025    0.299    0.393   77.458
  303.000    3.020    0.280    0.393   71.346
  303.250    2.981    0.274    0.403   68.534
  303.500    2.905    0.280    0.408   70.187
  303.750    2.727    0.281    0.397   80.401
  304.000    2.589    0.281    0.390   89.147
  304.250    2.527    0.283    0.383   94.897
  304.500    2.518    0.278    0.377   84.870
  304.750    2.547    0.273    0.370   75.272
  305.000    2.674    0.276    0.365   72.094
  305.250    2.908    0.290    0.360   74.664
  305.500    3.134    0.271    0.354   75.827
  305.750    3.308    0.246    0.348   81.455
  306.000    3.512    0.234    0.340   89.590
  306.250    3.598    0.244    0.357   94.055
  306.500    3.714    0.237    0.375   93.385
  306.750    3.849    0.226    0.394   96.750
  307.000    3.944    0.231    0.384   99.626
  307.250    4.011    0.226    0.364   99.383
  307.500    4.034    0.200    0.351   97.917
  307.750    4.020    0.154    0.355   99.814
  308.000    3.946    0.154    0.335   97.187
  308.250    3.760    0.175    0.310  101.530
  308.500    3.712    0.157    0.303  107.035
  308.750    3.719    0.186    0.347  101.350
  309.000    3.755    0.190    0.383  108.079
  309.250    3.819    0.249    0.407  112.055
  309.500    3.877    0.296    0.429  116.704
  309.750    3.972    0.293    0.428  121.415
  310.000    4.063    0.219    0.403  126.920
  310.250    4.147    0.188    0.377  131.508
  310.500    4.282    0.175    0.363  131.204
  310.750    4.445    0.182    0.346  120.749
  311.000    4.588    0.188    0.332  113.841
  311.250    4.702    0.200    0.335  111.703
  311.500    4.755    0.220    0.346  115.802
  311.750    4.774    0.204    0.351  116.354
  312.000    4.766    0.190    0.353  112.259
  312.250    4.704    0.177    0.327  110.487
  312.500    4.618    0.184    0.303  105.108
  312.750    4.483    0.192    0.300  107.678
  313.000    4.385    0.197    0.341  109.759
  313.250    4.361    0.201    0.365  109.027
  313.500    4.378    0.208    0.361  111.597
  313.750    4.412    0.200    0.352  109.153
  314.000    4.454    0.167    0.361  109.949
  314.250    4.462    0.199    0.358  117.534
  314.500    4.488    0.199    0.333  121.633
  314.750    4.497    0.184    0.314  119.188
  315.000    4.540    0.195    0.332  122.798
  315.250    4.617    0.229    0.372  114.789
  315.500    4.705    0.250    0.366  109.777
  315.750    4.785    0.200    0.336  106.905
  316.000    4.777    0.174    0.315  114.367
  316.250    4.594    0.162    0.326  119.994
  316.500    4.257    0.170    0.340  115.349
  316.750    4.019    0.179    0.328  116.451
  317.000    3.851    0.185    0.324  122.018
  317.250    3.649    0.150    0.341  126.178
  317.500    3.562    0.146    0.340  121.654
  317.750    3.523    0.169    0.345  123.674
  318.000    3.485    0.171    0.370  128.263
  318.250    3.459    0.276    0.386  131.016
  318.500    3.454    0.245    0.396  131.874
  318.750    3.454    0.212    0.410  122.581
  319.000    3.480    0.196    0.386  121.482
  319.250    3.513    0.179    0.393  127.415
  319.500    3.521    0.215    0.417  117.817
  319.750    3.514    0.123    0.419  109.930
  320.000    3.495    0.142    0.401  102.105
  320.250    3.457    0.218    0.384  103.207
  320.500    3.432    0.221    0.367  103.087
  320.750    3.458    0.222    0.356  100.398
  321.000    3.465    0.235    0.363   96.914
  321.250    3.383    0.251    0.365   93.247
  321.500    3.247    0.233    0.347   98.691
  321.750    3.147    0.220    0.331  102.974
  322.000    3.083    0.209    0.367  100.529
  322.250    3.049    0.236    0.348   93.621
  322.500    3.022    0.255    0.328   89.893
  322.750    3.022    0.260    0.352   88.183
  323.000    3.023    0.270    0.379   84.821
  323.250    3.034    0.278    0.391   83.967
