~VERSION INFORMATION
 VERS.                 2.0:   CWLS LOG ASCII STANDARD -VERSION 2.0
 WRAP.                  NO:   ONE LINE PER DEPTH STEP
~WELL INFORMATION BLOCK
#MNEM.UNIT           DATA                    DESCRIPTION OF MNEMONIC
#---------    -------------------            -------------------------------
# Generated from Intellog Unique Number	CS_77_79/WELL/963
WELL.         CDN OXY ET AL GRAHAM           : Well_name    - WELL
LOC .         00/10-26-079-04W4/0            : Location     - LOCATION
UWI .         00/10-26-079-04W4/0            : Uwi          - UNIQUE WELL ID
ENTR.         JHS                            : Entered      - ENTERED BY
SRVC.         SCHLUMBERGER                   : Scn          - SERVICE COMPANY
STRT.M        100                            : top_depth    - START DEPTH
STOP.M        325                            : bot_depth    - STOP DEPTH
STEP.M        0.25                           : increment    - STEP LENGTH
 NULL. -999.2500:NULL Value
~CURVE INFORMATION BLOCK
#MNEM UNIT       ERCB CURVE CODE    CURVE DESCRIPTION
#-----------   ------------------   ----------------------------------
DEPT.M        00 001 00 00         : DEPTH        - DEPTH
DPHI.V/V      00 890 00 00         : PHID         - DENSITY POROSITY (LIMESTONE)
NPHI.V/V      00 330 00 00         : PHIN         - NEUTRON POROSITY (LIMESTONE)
GR  .API      00 310 00 00         : GR           - GAMMA RAY
ILD .OHMM     00 120 00 00         : RESD         - DEEP RESISTIVITY (DIL)
~PARAMETER INFORMATION
#MNEM.UNIT           DATA             DESCRIPTION OF MNEMONIC
#---------         -----------     ------------------------------
GL  .M        474.32               : gl           - GROUND LEVEL ELEVATION
EREF.M        477.97               : kb           - ELEVATION OF DEPTH REFERENCE
DATM.M        477.97               : datum        - DATUM ELEVATION
TDD .M        335                  : tdd          - TOTAL DEPTH DRILLER
RUN .         ONE                  : Run          - RUN NUMBER
ENG .         BILL                 : Engineer     - RECORDING ENGINEER
WIT .         JIM                  : Witness      - WITNESSED BY
MUD .         GEL                  : Mud_type     - MUD TYPE
MATR.         LIMESTONE            : Logunit      - NEUTRON MATRIX
TMAX.C        19                   : BHT          - MAXIMUM RECORDED TEMPERATURE
BHTD.M        335                  : BHTDEP       - MAXIMUM RECORDED TEMPERATURE
MATR.         1                    : LOGUNIT      - NEUTRON MATRIX
RMT .C        25                   : MDTP         - TEMPERATURE OF MUD
NEUT.         1                    : NEUTRON      - NEUTRON TYPE
RESI.         0                    : RESIST       - RESISTIVITY TYPE
RMC .OHMM     0.25                 : RMC          - RESISTIVITY OF MUD CAKE
RMF .OHMM     0.25                 : RMF          - RESISTIVITY OF MUD FILTRATE
SUFT.C        15                   : SUFT         - SURFACE TEMPERATURE
~A  DEPTH     PHID     PHIN       GR     RESD
# ...
  230.500    0.227    0.316   36.466    1.658
  230.750    0.239    0.305   39.542    1.658
  231.000    0.313    0.334   40.160    1.659
  231.250    0.290    0.367   38.319    1.659
  231.500    0.293    0.325   38.321    1.660
  231.750    0.316    0.344   37.709    1.660
  232.000    0.334    0.349   35.868    1.630
  232.250    0.312    0.335   33.412    1.600
  232.500    0.311    0.322   38.332    1.571
  232.750    0.327    0.324   42.638    1.572
  233.000    0.327    0.318   46.944    1.543
  233.250    0.313    0.319   46.947    1.543
  233.500    0.303    0.329   43.876    1.603
  233.750    0.303    0.365   48.797    1.604
  234.000    0.328    0.371   50.643    1.635
  234.250    0.356    0.354   49.417    1.635
  234.500    0.334    0.345   42.042    1.636
  234.750    0.314    0.334   33.439    1.606
  235.000    0.309    0.317   33.441    1.607
  235.250    0.296    0.298   32.830    1.577
  235.500    0.291    0.308   35.291    1.578
  235.750    0.299    0.323   48.818    1.578
  236.000    0.346    0.329   56.812    1.579
  236.250    0.359    0.344   52.512    1.579
  236.500    0.333    0.367   38.375    1.580
  236.750    0.325    0.346   42.682    1.580
  237.000    0.339    0.334   50.061    1.581
  237.250    0.347    0.342   35.310    1.582
  237.500    0.357    0.354   30.395    1.553
  237.750    0.356    0.358   38.389    1.553
  238.000    0.335    0.372   43.924    1.583
  238.250    0.331    0.361   48.231    1.554
  238.500    0.325    0.351   50.078    1.555
  238.750    0.304    0.330   46.392    1.556
  239.000    0.298    0.322   46.395    1.556
  239.250    0.309    0.346   39.020    1.528
  239.500    0.320    0.368   31.646    1.528
  239.750    0.322    0.379   30.419    1.528
  240.000    0.335    0.355   33.496    1.529
  240.250    0.344    0.346   32.885    1.530
  240.500    0.329    0.362   31.043    1.530
  240.750    0.314    0.352   31.045    1.502
  241.000    0.310    0.345   32.277    1.503
  241.250    0.330    0.347   32.895    1.475
  241.500    0.344    0.369   32.282    1.448
  241.750    0.334    0.360   31.671    1.449
  242.000    0.324    0.353   33.518    1.449
  242.250    0.320    0.350   34.749    1.450
  242.500    0.317    0.330   34.138    1.451
  242.750    0.309    0.304   34.141    1.451
  243.000    0.310    0.325   33.529    1.479
  243.250    0.313    0.346   32.916    1.508
  243.500    0.309    0.356   34.763    1.537
  243.750    0.313    0.341   34.766    1.537
  244.000    0.320    0.352   34.769    1.538
  244.250    0.304    0.352   37.231    1.539
  244.500    0.302    0.344   37.849    1.539
  244.750    0.314    0.321   37.237    1.539
  245.000    0.320    0.325   36.625    1.511
  245.250    0.315    0.342   36.012    1.484
  245.500    0.303    0.337   33.556    1.456
  245.750    0.299    0.340   31.099    1.457
  246.000    0.313    0.331   32.332    1.458
  246.250    0.312    0.313   33.564    1.458
  246.500    0.308    0.309   32.952    1.459
  246.750    0.315    0.345   34.184    1.459
  247.000    0.330    0.342   34.802    1.460
  247.250    0.335    0.334   33.575    1.460
  247.500    0.318    0.351   31.734    1.461
  247.750    0.304    0.343   32.351    1.461
  248.000    0.303    0.314   36.657    1.462
  248.250    0.318    0.308   38.505    1.382
  248.500    0.319    0.324   37.278    1.382
  248.750    0.312    0.332   35.437    1.357
  249.000    0.311    0.348   34.823    1.358
  249.250    0.320    0.359   33.597    1.384
  249.500    0.323    0.377   31.755    1.384
  249.750    0.326    0.368   36.062    1.385
  250.000    0.334    0.345   37.293    1.386
  250.250    0.334    0.335   36.682    1.386
  250.500    0.325    0.330   38.529    1.360
  250.750    0.321    0.331   37.302    1.387
  251.000    0.325    0.323   36.075    1.387
  251.250    0.311    0.334   39.152    1.388
  251.500    0.309    0.374   44.072    1.388
  251.750    0.316    0.347   44.690    1.415
  252.000    0.325    0.342   42.233    1.498
  252.250    0.337    0.331   48.383    1.615
  252.500    0.314    0.358   57.608    1.809
  252.750    0.276    0.373   63.758    1.880
  253.000    0.257    0.363   66.219    1.845
  253.250    0.261    0.361   60.075    1.744
  253.500    0.282    0.397   52.086    1.649
  253.750    0.298    0.377   45.326    1.530
  254.000    0.310    0.352   38.567    1.502
  254.250    0.320    0.346   34.266    1.447
  254.500    0.318    0.369   33.039    1.394
  254.750    0.308    0.372   35.501    1.395
  255.000    0.300    0.364   35.504    1.395
  255.250    0.302    0.338   33.048    1.396
  255.500    0.305    0.316   30.591    1.396
  255.750    0.313    0.340   30.594    1.397
  256.000    0.324    0.340   29.982    1.424
  256.250    0.331    0.341   33.673    1.424
  256.500    0.345    0.327   36.135    1.425
  256.750    0.346    0.317   32.449    1.399
  257.000    0.342    0.325   30.608    1.399
  257.250    0.337    0.356   33.069    1.374
  257.500    0.341    0.358   33.072    1.348
  257.750    0.343    0.358   37.993    1.349
  258.000    0.337    0.364   40.455    1.349
  258.250    0.331    0.340   36.154    1.350
  258.500    0.331    0.340   36.771    1.376
  258.750    0.341    0.368   43.536    1.403
  259.000    0.354    0.358   42.925    1.403
  259.250    0.336    0.347   38.624    1.431
  259.500    0.308    0.343   36.782    1.458
  259.750    0.315    0.326   41.703    1.459
  260.000    0.348    0.343   36.788    1.459
  260.250    0.328    0.363   36.176    1.460
  260.500    0.314    0.352   39.867    1.460
  260.750    0.319    0.333   36.182    1.461
  261.000    0.324    0.324   34.955    1.489
  261.250    0.314    0.320   37.416    1.546
  261.500    0.295    0.321   43.566    1.668
  261.750    0.250    0.319   74.922    1.868
  262.000    0.221    0.327  113.039    2.173
  262.250    0.220    0.322  129.026    2.479
  262.500    0.235    0.333  132.102    2.725
  262.750    0.241    0.351  124.113    2.831
  263.000    0.263    0.348   65.099    2.727
  263.250    0.283    0.352   86.618    2.578
  263.500    0.262    0.322   90.925    2.219
  263.750    0.279    0.348   72.484    1.982
  264.000    0.307    0.397   64.495    1.738
  264.250    0.332    0.375   70.646    1.496
  264.500    0.337    0.349   69.419    1.337
  264.750    0.344    0.342   68.192    1.288
  265.000    0.344    0.354   67.581    1.264
  265.250    0.343    0.376   68.198    1.289
  265.500    0.338    0.354   70.044    1.289
  265.750    0.332    0.358   69.433    1.314
  266.000    0.321    0.382   72.509    1.315
  266.250    0.310    0.359   74.971    1.340
  266.500    0.311    0.338   68.211    1.340
  266.750    0.321    0.339   65.755    1.392
  267.000    0.326    0.357   67.602    1.474
  267.250    0.327    0.364   71.908    1.620
  267.500    0.305    0.349   74.370    1.747
  267.750    0.262    0.338   76.217    1.994
  268.000    0.227    0.328   86.056    2.191
  268.250    0.218    0.341   88.518    2.363
  268.500    0.236    0.317   79.299    2.364
  268.750    0.270    0.288   64.547    2.153
  269.000    0.289    0.299   57.788    1.923
  269.250    0.311    0.347   46.110    1.687
  269.500    0.333    0.371   37.507    1.565
  269.750    0.339    0.377   37.509    1.508
  270.000    0.350    0.370   35.668    1.537
  270.250    0.344    0.385   35.670    1.657
  270.500    0.298    0.363   43.665    1.754
  270.750    0.272    0.353   55.348    1.822
  271.000    0.256    0.393   64.572    1.823
  271.250    0.251    0.376   69.493    1.790
  271.500    0.248    0.400   65.192    1.692
  271.750    0.275    0.401   55.973    1.661
  272.000    0.297    0.365   62.739    1.631
  272.250    0.290    0.360   60.282    1.694
  272.500    0.311    0.370   49.220    1.694
  272.750    0.288    0.329   57.829    1.632
  273.000    0.261    0.334   67.667    1.486
  273.250    0.275    0.368   63.982    1.432
  273.500    0.324    0.366   54.148    1.354
  273.750    0.343    0.376   43.701    1.304
