~VERSION INFORMATION
 VERS.                 2.0:   CWLS LOG ASCII STANDARD -VERSION 2.0
 WRAP.                  NO:   ONE LINE PER DEPTH STEP
~WELL INFORMATION BLOCK
#MNEM.UNIT           DATA                    DESCRIPTION OF MNEMONIC
#---------    -------------------            -------------------------------
# Generated from Intellog Unique Number	CS_77_79/WELL/996
WELL.         NORTHSTAR ET AL THORNBURY      : Well_name    - WELL
LOC .         00/11-18-079-12W4/0            : Location     - LOCATION
UWI .         00/11-18-079-12W4/0            : Uwi          - UNIQUE WELL ID
ENTR.         JHS                            : Entered      - ENTERED BY
SRVC.         SCHLUMBERGER                   : Scn          - SERVICE COMPANY
STRT.M        275                            : top_depth    - START DEPTH
STOP.M        520                            : bot_depth    - STOP DEPTH
STEP.M        0.25                           : increment    - STEP LENGTH
 NULL. -999.2500:NULL Value
~CURVE INFORMATION BLOCK
#MNEM UNIT       ERCB CURVE CODE    CURVE DESCRIPTION
#-----------   ------------------   ----------------------------------
DEPT.M        00 001 00 00         : DEPTH        - DEPTH
DPHI.V/V      00 890 00 00         : PHID         - DENSITY POROSITY (LIMESTONE)
NPHI.V/V      00 330 00 00         : PHIN         - NEUTRON POROSITY (LIMESTONE)
GR  .API      00 310 00 00         : GR           - GAMMA RAY
ILD .OHMM     00 120 00 00         : RESD         - DEEP RESISTIVITY (DIL)
RHOB.KG/M3    00 350 00 00         : DENS         - BULK DENSITY
~PARAMETER INFORMATION
#MNEM.UNIT           DATA             DESCRIPTION OF MNEMONIC
#---------         -----------     ------------------------------
GL  .M        707.3                : gl           - GROUND LEVEL ELEVATION
EREF.M        711.3                : kb           - ELEVATION OF DEPTH REFERENCE
DATM.M        711.3                : datum        - DATUM ELEVATION
TDD .M        526.6                : tdd          - TOTAL DEPTH DRILLER
RUN .         ONE                  : Run          - RUN NUMBER
ENG .         BILL                 : Engineer     - RECORDING ENGINEER
WIT .         JIM                  : Witness      - WITNESSED BY
MUD .         GEL                  : Mud_type     - MUD TYPE
MATR.         LIMESTONE            : Logunit      - NEUTRON MATRIX
TMAX.C        25.1                 : BHT          - MAXIMUM RECORDED TEMPERATURE
BHTD.M        526.6                : BHTDEP       - MAXIMUM RECORDED TEMPERATURE
MATR.         1                    : LOGUNIT      - NEUTRON MATRIX
RMT .C        25                   : MDTP         - TEMPERATURE OF MUD
NEUT.         1                    : NEUTRON      - NEUTRON TYPE
RESI.         0                    : RESIST       - RESISTIVITY TYPE
RMC .OHMM     0.25                 : RMC          - RESISTIVITY OF MUD CAKE
RMF .OHMM     0.25                 : RMF          - RESISTIVITY OF MUD FILTRATE
SUFT.C        15                   : SUFT         - SURFACE TEMPERATURE
~A  DEPTH     PHID     PHIN       GR     RESD     DENS
# ...
  494.000    0.234    0.341   66.575   16.900 2309.420
  494.250    0.217    0.349   70.184   15.369 2338.450
  494.500    0.206    0.357   70.102   15.073 2357.010
  494.750    0.191    0.367   70.642   14.776 2383.980
  495.000    0.174    0.373   73.009   15.032 2413.040
  495.250    0.192    0.376   69.262   15.306 2381.340
  495.500    0.203    0.366   64.907   15.013 2362.290
  495.750    0.205    0.369   63.020   13.912 2359.980
  496.000    0.195    0.370   61.109   12.652 2376.430
  496.250    0.192    0.358   65.924   12.878 2382.490
  496.500    0.206    0.373   63.403   13.607 2357.140
  496.750    0.242    0.386   53.551   14.388 2296.280
  497.000    0.257    0.400   48.583   16.086 2270.920
  497.250    0.236    0.388   57.059   17.648 2306.240
  497.500    0.223    0.373   61.889   17.963 2329.000
  497.750    0.233    0.388   60.574   16.967 2312.020
  498.000    0.252    0.419   56.834   14.047 2278.310
  498.250    0.260    0.387   53.106   12.080 2265.510
  498.500    0.260    0.390   44.477   10.004 2265.210
  498.750    0.276    0.411   24.842    8.601 2237.800
  499.000    0.300    0.389   19.264    7.255 2197.840
  499.250    0.283    0.369   16.733    6.726 2226.810
  499.500    0.281    0.370   15.441    6.003 2228.670
  499.750    0.290    0.372   15.986    5.564 2213.680
  500.000    0.296    0.382   18.325    5.252 2203.090
  500.250    0.312    0.396   18.280    5.152 2175.680
  500.500    0.304    0.368   15.756    5.146 2190.070
  500.750    0.280    0.356   13.221    5.646 2231.640
  501.000    0.277    0.353   15.597    6.434 2235.600
  501.250    0.311    0.364   17.381    8.050 2178.850
  501.500    0.302    0.388   17.886   11.062 2193.220
  501.750    0.299    0.385   17.229   16.391 2199.280
  502.000    0.295    0.372   17.758   28.750 2205.290
  502.250    0.286    0.369   18.315   38.776 2221.730
  502.500    0.288    0.376   20.675   36.620 2217.240
  502.750    0.300    0.376   23.661   27.089 2196.190
  503.000    0.301    0.367   27.264   20.424 2195.870
  503.250    0.290    0.368   35.743   15.989 2214.510
  503.500    0.270    0.361   51.569   12.056 2247.670
  503.750    0.277    0.346   69.844    8.919 2236.970
  504.000    0.277    0.349   77.093    7.248 2236.760
  504.250    0.267    0.361   75.801    6.231 2253.260
  504.500    0.272    0.375   72.069    5.668 2244.660
  504.750    0.284    0.386   69.545    5.353 2223.500
  505.000    0.275    0.403   67.632    5.150 2239.970
  505.250    0.290    0.386   70.004    5.145 2214.610
  505.500    0.276    0.374   76.042    5.237 2237.330
  505.750    0.264    0.362   78.403    5.433 2258.020
  506.000    0.257    0.365   81.401    5.961 2270.340
  506.250    0.262    0.377   84.400    6.418 2261.690
  506.500    0.253    0.391   90.439    7.042 2278.220
  506.750    0.254    0.385  100.143    7.442 2275.890
  507.000    0.194    0.370  101.280    7.578 2378.100
  507.250    0.213    0.373   96.934    7.428 2346.470
  507.500    0.209    0.384   92.587    7.284 2352.520
  507.750    0.192    0.367   94.344    7.412 2381.500
  508.000    0.175    0.354  101.612    7.547 2410.540
  508.250    0.174    0.345  111.305    7.975 2412.400
  508.500    0.177    0.359  116.133    8.587 2407.980
  508.750    0.154    0.377  122.183    9.075 2447.460
  509.000    0.110    0.360  130.668    9.242 2522.500
  509.250    0.080    0.364  141.605    9.767 2572.430
  509.500    0.048    0.378  152.522   10.321 2628.640
  509.750    0.177    0.391  158.565   10.908 2406.740
  510.000    0.211    0.396  160.323   11.313 2350.020
  510.250    0.234    0.399  157.180   11.302 2310.050
  510.500    0.225    0.394  152.849   10.874 2324.400
  510.750    0.224    0.387  138.697   10.462 2326.280
  511.000    0.234    0.369  139.222   10.452 2309.310
  511.250    0.210    0.363  141.611   10.641 2350.860
  511.500    0.214    0.370  148.251   11.039 2344.340
  511.750    0.197    0.386  152.473   11.446 2373.390
  512.000    0.187    0.378  156.659   11.656 2389.840
  512.250    0.191    0.379  159.038   11.003 2383.320
  512.500    0.199    0.388  158.970   10.392 2370.520
  512.750    0.200    0.398  157.068    9.814 2368.190
  513.000    0.193    0.401  154.555    9.441 2380.450
  513.250    0.200    0.402  150.823    9.433 2367.710
  513.500    0.189    0.410  136.076    9.785 2386.290
  513.750    0.198    0.413  117.661   10.147    0.000
  514.000    0.135    0.400   96.180   10.724    0.000
  514.250    0.031    0.362   78.997   12.216    0.000
  514.500    0.042    0.346   70.975   13.917    0.000
  514.750    0.024    0.337   62.339   17.093    0.000
  515.000    0.001    0.308   56.155   23.497    0.000
  515.250    0.000    0.165   51.184   35.472    0.000
  515.500    0.000    0.142   43.170   52.544    0.000
  515.750    0.013    0.139   29.025   59.863    0.000
  516.000    0.032    0.160   27.721   62.096    0.000
  516.250    0.037    0.162   25.201   58.634    0.000
  516.500    0.043    0.146   21.467   51.361    0.000
  516.750    0.048    0.142   18.931   46.719    0.000
  517.000    0.043    0.142   19.485   43.294    0.000
  517.250    0.067    0.157   23.067   40.886    0.000
  517.500    0.052    0.181   24.832   38.599    0.000
  517.750    0.040    0.172   27.214   40.048    0.000
  518.000    0.033    0.166   27.148   43.129    0.000
  518.250    0.026    0.166   29.508   46.444    0.000
  518.500    0.042    0.180   32.503   48.159    0.000
  518.750    0.024    0.178   32.421   47.230    0.000
  519.000    0.027    0.156   28.683   39.852    0.000
  519.250    0.031    0.151   24.325   29.484    0.000
  519.500    0.025    0.152   32.211   24.416    0.000
  519.750    0.032    0.194   51.691   21.391    0.000
  520.000    0.059    0.219   60.189   19.824    0.000
