~VERSION INFORMATION
 VERS.                 2.0:   CWLS LOG ASCII STANDARD -VERSION 2.0
 WRAP.                  NO:   ONE LINE PER DEPTH STEP
~WELL INFORMATION BLOCK
#MNEM.UNIT           DATA                    DESCRIPTION OF MNEMONIC
#---------    -------------------            -------------------------------
# Generated from Intellog Unique Number	CW_82_90/WELL/3457
WELL.         TEXACO WOODEN                  : Well_name    - WELL
LOC .         00/16-29-088-23W4/0            : Location     - LOCATION
UWI .         00/16-29-088-23W4/0            : Uwi          - UNIQUE WELL ID
ENTR.         MAX                            : Entered      - ENTERED BY
SRVC.         WESTERN ATLAS                  : Scn          - SERVICE COMPANY
STRT.M        95                             : top_depth    - START DEPTH
STOP.M        270                            : bot_depth    - STOP DEPTH
STEP.M        0.25                           : increment    - STEP LENGTH
 NULL. -999.2500:NULL Value
~CURVE INFORMATION BLOCK
#MNEM UNIT       ERCB CURVE CODE    CURVE DESCRIPTION
#-----------   ------------------   ----------------------------------
DEPT.M        00 001 00 00         : DEPTH        - DEPTH
GR  .API      00 310 00 00         : GR           - GAMMA RAY
CALI.MM       00 280 01 00         : CAL          - CALIPER
DPHI.V/V      00 890 00 00         : PHID         - DENSITY POROSITY (SANDSTONE)
NPHI.V/V      00 330 00 00         : PHIN         - NEUTRON POROSITY (SANDSTONE)
ILD .OHMM     00 120 00 00         : RESD         - DEEP RESISTIVITY (DIL)
~PARAMETER INFORMATION
#MNEM.UNIT           DATA             DESCRIPTION OF MNEMONIC
#---------         -----------     ------------------------------
GL  .M        503                  : gl           - GROUND LEVEL ELEVATION
EREF.M        506                  : kb           - ELEVATION OF DEPTH REFERENCE
DATM.M        503                  : datum        - DATUM ELEVATION
TDD .M        272                  : tdd          - TOTAL DEPTH DRILLER
RUN .         ONE                  : Run          - RUN NUMBER
ENG .         BILL                 : Engineer     - RECORDING ENGINEER
WIT .         JIM                  : Witness      - WITNESSED BY
MUD .         GEL                  : Mud_type     - MUD TYPE
MATR.         SANDSTONE            : Logunit      - NEUTRON MATRIX
TMAX.C        21                   : BHT          - MAXIMUM RECORDED TEMPERATURE
BHTD.M        272                  : BHTDEP       - MAXIMUM RECORDED TEMPERATURE
MATR.         1                    : LOGUNIT      - NEUTRON MATRIX
RMT .C        18                   : MDTP         - TEMPERATURE OF MUD
NEUT.         1                    : NEUTRON      - NEUTRON TYPE
RESI.         0                    : RESIST       - RESISTIVITY TYPE
RMC .OHMM     3                    : RMC          - RESISTIVITY OF MUD CAKE
RMF .OHMM     3.7                  : RMF          - RESISTIVITY OF MUD FILTRATE
SUFT.C        1                    : SUFT         - SURFACE TEMPERATURE
~A  DEPTH       GR      CAL     PHID     PHIN     RESD
# ...
  241.000  134.977  256.748    0.163    0.325   12.151
  241.250  132.016  254.305    0.180    0.326   12.615
  241.500  130.247  253.343    0.183    0.335   12.623
  241.750  131.168  252.886    0.176    0.342   11.948
  242.000  131.484  257.387    0.167    0.345   11.104
  242.250  132.102  256.940    0.155    0.343   10.511
  242.500  134.509  254.989    0.155    0.338    9.858
  242.750  136.614  253.534    0.162    0.338    9.162
  243.000  140.509  252.568    0.173    0.336    8.753
  243.250  145.000  252.608    0.170    0.347    8.362
  243.500  148.898  252.644    0.162    0.350    8.444
  243.750  149.222  252.675    0.156    0.342    8.606
  244.000  149.238  253.211    0.152    0.333    8.611
  244.250  149.260  254.240    0.162    0.329    8.776
  244.500  146.897  255.766    0.175    0.329    8.781
  244.750  146.030  256.795    0.182    0.340    8.546
  245.000  145.453  255.340    0.178    0.338    8.471
  245.250  143.090  253.394    0.172    0.327    8.476
  245.500  140.427  251.935    0.164    0.324    8.638
  245.750  140.151  251.479    0.155    0.319    8.886
  246.000  139.877  251.510    0.140    0.315    9.662
  246.250  139.004  253.040    0.128    0.308   10.601
  246.500  137.238  256.051    0.110    0.300   12.410
  246.750  135.176  255.097    0.098    0.287   13.245
  247.000  132.811  254.140    0.122    0.271   13.375
  247.250  128.065  254.672    0.161    0.274   13.138
  247.500  131.664  256.206    0.171    0.328   12.209
  247.750  138.834  258.220    0.184    0.361   11.345
  248.000  139.752  259.750    0.179    0.359    9.792
  248.250  138.880  257.306    0.169    0.351    8.375
  248.500  140.391  255.347    0.152    0.347    7.928
  248.750  141.008  255.883    0.133    0.346    8.080
  249.000  140.436  256.917    0.121    0.345    9.031
  249.250  140.157  257.449    0.122    0.344    9.205
  249.500  140.777  256.988    0.157    0.340    8.554
  249.750  142.882  257.520    0.172    0.352    7.732
  250.000  147.969  259.046    0.170    0.391    7.054
  250.250  149.483  257.587    0.166    0.397    6.555
  250.500  149.504  257.627    0.164    0.395    5.606
  250.750  147.141  259.152    0.159    0.393    5.307
  251.000  142.693  258.687    0.156    0.385    5.716
  251.250  138.844  256.240    0.163    0.372    6.509
  251.500  138.567  255.792    0.174    0.360    6.757
  251.750  142.760  255.819    0.174    0.352    7.146
  252.000  144.269  256.351    0.173    0.349    7.914
  252.250  144.588  255.890    0.170    0.346    8.292
  252.500  145.804  254.436    0.167    0.344    8.297
  252.750  148.209  252.489    0.162    0.343    8.075
  253.000  148.528  249.541    0.155    0.347    8.079
  253.250  146.464  249.080    0.148    0.355    8.233
  253.500  142.910  249.612    0.147    0.353    8.315
  253.750  135.184  249.151    0.156    0.355    8.320
  254.000  135.804  248.699    0.156    0.357    8.324
  254.250  137.014  251.213    0.151    0.357    8.328
  254.500  137.036  252.246    0.145    0.354    8.409
  254.750  136.764  252.282    0.141    0.347    8.492
  255.000  137.081  249.834    0.137    0.342    8.655
  255.250  137.403  248.385    0.135    0.342    8.904
  255.500  138.020  247.418    0.146    0.342    8.826
  255.750  139.231  247.454    0.157    0.344    8.202
  256.000  141.934  250.473    0.156    0.346    7.623
  256.250  145.829  253.990    0.153    0.351    7.350
  256.500  148.830  255.511    0.152    0.360    6.957
  256.750  150.344  255.054    0.157    0.376    6.347
  257.000  150.368  254.598    0.161    0.369    5.898
  257.250  150.089  255.622    0.161    0.373    5.533
  257.500  150.110  255.161    0.160    0.386    5.384
  257.750  149.836  251.720    0.158    0.379    5.240
  258.000  149.874  249.277    0.156    0.372    5.541
  258.250  149.876  251.792    0.154    0.371    6.081
  258.500  149.898  254.811    0.152    0.367    6.490
  258.750  149.924  255.348    0.147    0.361    7.254
  259.000  150.246  255.379    0.142    0.355    8.259
  259.250  150.265  253.925    0.134    0.351    8.574
  259.500  150.284  251.970    0.111    0.346    8.820
  259.750  147.027  251.513    0.102    0.339    8.990
  260.000  144.966  252.538    0.146    0.330    8.829
  260.250  147.070  253.070    0.166    0.337    8.130
  260.500  147.092  250.627    0.165    0.359    7.912
  260.750  147.414  252.152    0.159    0.359    8.064
  261.000  147.733  257.154    0.154    0.361    8.218
  261.250  148.055  257.194    0.148    0.357    8.376
  261.500  148.374  257.225    0.141    0.347    8.303
  261.750  148.992  256.764    0.127    0.336    8.007
  262.000  148.116  252.330    0.115    0.331    7.510
  262.250  142.178  247.409    0.122    0.332    7.241
  262.500  140.712  248.930    0.151    0.338    7.113
  262.750  143.413  250.464    0.157    0.341    7.117
  263.000  147.611  248.504    0.154    0.347    6.990
  263.250  147.034  248.048    0.152    0.353    6.803
  263.500  146.755  250.065    0.152    0.362    6.263
  263.750  145.885  253.081    0.152    0.387    5.821
  264.000  146.803  252.132    0.153    0.376    5.510
  264.250  145.928  250.669    0.153    0.374    5.362
  264.500  143.565  248.718    0.153    0.379    5.171
  264.750  142.991  248.758    0.154    0.376    4.895
  265.000  144.206  248.802    0.158    0.373    4.764
  265.250  146.612  248.333    0.161    0.374    4.723
  265.500  148.120  249.862    0.162    0.380    4.725
  265.750  149.043  252.878    0.162    0.381    4.728
  266.000  149.357  257.383    0.163    0.378    4.818
  266.250  149.379  255.924    0.165    0.372    5.096
  266.500  149.403  251.987    0.176    0.363    5.591
  266.750  149.424  248.546    0.196    0.348    6.135
  267.000  149.446  241.141    0.215    0.341    6.732
  267.250  149.166  240.676    0.239    0.332    7.595
  267.500  147.400  240.712    0.244    0.319    8.727
  267.750  142.952  240.752    0.243    0.307   10.215
  268.000  134.930  242.778    0.243    0.307   12.408
  268.250  134.358  244.295    0.244    0.310   16.076
  268.500  134.973  244.330    0.246    0.307   18.307
  268.750  136.186  242.384    0.247    0.306   18.147
  269.000  136.208  241.918    0.248    0.307   17.339
  269.250  135.040  240.965    0.250    0.313   16.565
  269.500  134.165  240.504    0.257    0.321   16.270
  269.750  133.593  239.551    0.273    0.333   16.277
  270.000  133.611  239.086    0.285    0.356   16.286
