~VERSION INFORMATION
 VERS.                 2.0:   CWLS LOG ASCII STANDARD -VERSION 2.0
 WRAP.                  NO:   ONE LINE PER DEPTH STEP
~WELL INFORMATION BLOCK
#MNEM.UNIT           DATA                    DESCRIPTION OF MNEMONIC
#---------    -------------------            -------------------------------
# Generated from Intellog Unique Number	CS_71_72/WELL/894
WELL.         GERC ET AL WANDER              : Well_name    - WELL
LOC .         00/11-10-071-13W4/0            : Location     - LOCATION
UWI .         00/11-10-071-13W4/0            : Uwi          - UNIQUE WELL ID
ENTR.         SP                             : Entered      - ENTERED BY
SRVC.         SCHLUMBERGER                   : Scn          - SERVICE COMPANY
STRT.M        304.8                          : top_depth    - START DEPTH
STOP.M        539.3                          : bot_depth    - STOP DEPTH
STEP.M        0.25                           : increment    - STEP LENGTH
 NULL. -999.2500:NULL Value
~CURVE INFORMATION BLOCK
#MNEM UNIT       ERCB CURVE CODE    CURVE DESCRIPTION
#-----------   ------------------   ----------------------------------
DEPT.M        00 001 00 00         : DEPTH        - DEPTH
GR  .API      00 310 00 00         : GR           - GAMMA RAY
DPHI.V/V      00 890 00 00         : PHID         - DENSITY POROSITY (SANDSTONE)
NPHI.V/V      00 330 00 00         : PHIN         - NEUTRON POROSITY (SANDSTONE)
ILD .OHMM     00 120 00 00         : RESD         - DEEP RESISTIVITY (DIL)
~PARAMETER INFORMATION
#MNEM.UNIT           DATA             DESCRIPTION OF MNEMONIC
#---------         -----------     ------------------------------
GL  .M        630.326              : gl           - GROUND LEVEL ELEVATION
EREF.M        634.289              : kb           - ELEVATION OF DEPTH REFERENCE
DATM.M        630.326              : datum        - DATUM ELEVATION
TDD .M        545.592              : tdd          - TOTAL DEPTH DRILLER
RUN .         ONE                  : Run          - RUN NUMBER
ENG .         BILL                 : Engineer     - RECORDING ENGINEER
WIT .         JIM                  : Witness      - WITNESSED BY
MUD .         GEL                  : Mud_type     - MUD TYPE
MATR.         SANDSTONE            : Logunit      - NEUTRON MATRIX
TMAX.C        20                   : BHT          - MAXIMUM RECORDED TEMPERATURE
BHTD.M        545.592              : BHTDEP       - MAXIMUM RECORDED TEMPERATURE
MATR.         1                    : LOGUNIT      - NEUTRON MATRIX
RMT .C        25                   : MDTP         - TEMPERATURE OF MUD
NEUT.         1                    : NEUTRON      - NEUTRON TYPE
RESI.         0                    : RESIST       - RESISTIVITY TYPE
RMC .OHMM     0.25                 : RMC          - RESISTIVITY OF MUD CAKE
RMF .OHMM     0.25                 : RMF          - RESISTIVITY OF MUD FILTRATE
SUFT.C        15                   : SUFT         - SURFACE TEMPERATURE
~A  DEPTH       GR     PHID     PHIN     RESD
# ...
  348.300   69.139    0.284    0.358    4.086
  348.550   73.497    0.279    0.363    4.131
  348.800   78.920    0.269    0.369    4.203
  349.050   85.327    0.247    0.352    4.253
  349.300   88.169    0.251    0.338    4.296
  349.550   87.632    0.267    0.333    4.313
  349.800   82.282    0.267    0.355    4.290
  350.050   74.222    0.292    0.392    4.177
  350.300   68.864    0.312    0.390    4.143
  350.550   64.727    0.289    0.362    4.262
  350.800   70.754    0.277    0.334    4.407
  351.050   75.781    0.261    0.319    4.557
  351.300   81.844    0.243    0.321    4.682
  351.550   86.563    0.232    0.306    4.796
  351.800   89.106    0.225    0.289    4.930
  352.050   91.526    0.216    0.290    4.992
  352.300   93.519    0.208    0.291    5.056
  352.550   94.870    0.203    0.302    5.034
  352.800   95.928    0.197    0.304    4.937
  353.050   95.416    0.206    0.288    4.848
  353.300   94.612    0.213    0.304    4.713
  353.550   92.992    0.215    0.320    4.662
  353.800   90.424    0.223    0.356    4.665
  354.050   86.776    0.245    0.380    4.768
  354.300   82.499    0.253    0.368    4.888
  354.550   79.136    0.234    0.349    5.088
  354.800   76.402    0.227    0.337    5.269
  355.050   74.379    0.223    0.329    5.375
  355.300   73.764    0.220    0.331    5.314
  355.550   76.118    0.224    0.318    5.071
  355.800   79.313    0.222    0.363    4.875
  356.050   81.855    0.218    0.353    4.675
  356.300   83.354    0.215    0.362    4.290
  356.550   83.626    0.226    0.368    4.052
  356.800   83.476    0.239    0.399    3.955
  357.050   83.153    0.249    0.422    3.954
  357.300   78.734    0.261    0.371    4.101
  357.550   69.073    0.300    0.347    4.300
  357.800   58.147    0.284    0.348    4.551
  358.050   54.387    0.288    0.339    4.653
  358.300   59.180    0.278    0.342    4.798
  358.550   63.888    0.270    0.352    4.866
  358.800   69.523    0.277    0.350    4.831
  359.050   74.369    0.271    0.356    4.777
  359.300   78.535    0.246    0.344    4.884
  359.550   79.934    0.216    0.331    5.087
  359.800   74.051    0.198    0.325    5.232
  360.050   67.897    0.209    0.314    5.340
  360.300   65.906    0.213    0.335    5.416
  360.550   69.005    0.242    0.352    5.457
  360.800   72.149    0.259    0.358    5.481
  361.050   71.854    0.256    0.352    5.490
  361.300   68.694    0.248    0.340    5.433
  361.550   71.238    0.239    0.337    5.360
  361.800   74.096    0.233    0.351    5.232
  362.050   77.426    0.231    0.367    5.138
  362.300   81.102    0.230    0.379    5.003
  362.550   83.697    0.229    0.378    4.951
  362.800   86.547    0.242    0.371    4.975
  363.050   89.041    0.246    0.362    5.034
  363.300   88.430    0.237    0.364    5.088
  363.550   84.928    0.228    0.355    5.144
  363.800   83.211    0.238    0.362    5.126
  364.050   83.010    0.233    0.374    5.052
  364.300   83.016    0.211    0.378    4.978
  364.550   84.578    0.200    0.370    4.838
  364.800   87.167    0.228    0.361    4.820
  365.050   88.632    0.244    0.365    4.950
  365.300   87.084    0.253    0.382    4.886
  365.550   82.749    0.260    0.395    4.975
  365.800   79.908    0.281    0.372    5.153
  366.050   80.625    0.242    0.338    5.414
  366.300   80.524    0.238    0.348    5.457
  366.550   77.813    0.255    0.354    5.049
  366.800   77.538    0.251    0.375    4.720
  367.050   79.331    0.243    0.364    4.566
  367.300   81.820    0.236    0.368    4.594
  367.550   83.184    0.235    0.380    4.656
  367.800   82.952    0.243    0.392    4.832
  368.050   78.419    0.254    0.397    5.076
  368.300   74.268    0.272    0.353    5.490
  368.550   72.944    0.257    0.332    5.854
  368.800   78.442    0.241    0.328    6.227
  369.050   81.239    0.235    0.322    6.483
  369.300   77.529    0.245    0.317    6.607
  369.550   74.241    0.253    0.323    6.493
  369.800   71.474    0.252    0.336    6.372
  370.050   72.894    0.257    0.326    6.328
  370.300   74.503    0.251    0.326    6.319
  370.550   74.155    0.245    0.310    6.336
  370.800   70.802    0.252    0.296    6.379
  371.050   72.383    0.254    0.293    6.550
  371.300   75.527    0.239    0.304    6.682
  371.550   78.979    0.226    0.312    6.846
  371.800   82.526    0.212    0.296    6.965
  372.050   82.585    0.201    0.298    7.051
  372.300   80.307    0.212    0.300    7.003
  372.550   79.430    0.229    0.309    6.828
  372.800   81.262    0.223    0.329    6.664
  373.050   83.861    0.207    0.319    6.491
  373.300   84.745    0.200    0.301    6.437
  373.550   83.829    0.209    0.304    6.260
  373.800   84.686    0.216    0.338    6.264
  374.050   81.617    0.217    0.319    6.314
  374.300   72.041    0.220    0.313    6.443
  374.550   66.198    0.233    0.341    6.477
  374.800   62.227    0.274    0.353    6.465
  375.050   58.150    0.299    0.333    6.339
  375.300   59.681    0.307    0.336    6.162
  375.550   63.477    0.300    0.347    5.947
  375.800   60.347    0.291    0.357    5.873
  376.050   57.464    0.287    0.345    5.903
  376.300   57.082    0.269    0.337    5.937
  376.550   60.610    0.255    0.324    6.003
  376.800   62.215    0.245    0.324    6.100
  377.050   64.355    0.241    0.312    6.246
  377.300   65.654    0.249    0.308    6.363
  377.550   64.663    0.255    0.316    6.441
  377.800   63.048    0.294    0.323    6.494
  378.050   60.735    0.304    0.350    6.510
  378.300   59.876    0.308    0.369    6.510
  378.550   59.394    0.299    0.337    6.483
  378.800   59.999    0.280    0.325    6.406
  379.050   62.246    0.266    0.324    6.265
  379.300   67.680    0.274    0.338    6.108
  379.550   72.811    0.284    0.333    6.029
  379.800   75.450    0.260    0.333    6.025
  380.050   72.237    0.253    0.333    6.060
  380.300   65.883    0.266    0.321    6.142
  380.550   63.313    0.271    0.329    6.366
  380.800   68.268    0.258    0.339    6.492
  381.050   74.508    0.257    0.328    6.588
  381.300   78.046    0.247    0.313    6.669
  381.550   77.931    0.234    0.288    6.720
  381.800   77.672    0.219    0.294    6.724
  382.050   79.043    0.216    0.303    6.695
  382.300   80.287    0.217    0.300    6.601
  382.550   80.860    0.223    0.300    6.438
  382.800   82.114    0.235    0.321    6.357
  383.050   78.091    0.232    0.335    6.262
  383.300   74.770    0.232    0.324    6.222
  383.550   72.743    0.237    0.330    6.218
  383.800   71.024    0.235    0.330    6.342
  384.050   68.654    0.241    0.323    6.485
  384.300   66.716    0.245    0.317    6.569
  384.550   64.288    0.252    0.321    6.557
  384.800   62.542    0.248    0.341    6.487
  385.050   61.124    0.247    0.344    6.301
  385.300   60.392    0.283    0.321    6.150
  385.550   59.921    0.298    0.321    5.931
  385.800   60.158    0.283    0.335    5.740
  386.050   61.344    0.271    0.344    5.544
  386.300   63.449    0.265    0.339    5.432
  386.550   64.471    0.277    0.324    5.360
  386.800   61.940    0.284    0.338    5.357
  387.050   60.526    0.290    0.361    5.398
  387.300   61.784    0.288    0.371    5.483
  387.550   62.031    0.284    0.357    5.614
  387.800   60.245    0.281    0.351    5.754
  388.050   56.773    0.294    0.356    5.906
  388.300   53.325    0.316    0.351    6.004
  388.550   47.907    0.323    0.338    6.058
  388.800   45.170    0.313    0.331    6.052
  389.050   47.084    0.308    0.328    6.047
  389.300   48.712    0.306    0.321    5.989
  389.550   46.742    0.300    0.351    5.964
  389.800   44.323    0.290    0.358    5.905
  390.050   44.128    0.302    0.368    5.913
  390.300   44.479    0.315    0.360    5.942
  390.550   45.813    0.313    0.349    5.991
  390.800   47.086    0.311    0.342    6.046
  391.050   48.451    0.306    0.337    6.091
  391.300   49.915    0.302    0.347    6.141
  391.550   51.958    0.316    0.355    6.188
