~VERSION INFORMATION
 VERS.                 2.0:   CWLS LOG ASCII STANDARD -VERSION 2.0
 WRAP.                  NO:   ONE LINE PER DEPTH STEP
~WELL INFORMATION BLOCK
#MNEM.UNIT           DATA                    DESCRIPTION OF MNEMONIC
#---------    -------------------            -------------------------------
# Generated from Intellog Unique Number	CS_67_68/WELL/2197
WELL.         10-29-067-02W4                 : Well_name    - WELL
LOC .         00/10-29-067-02W4/0            : Location     - LOCATION
UWI .         00/10-29-067-02W4/0            : Uwi          - UNIQUE WELL ID
ENTR.         SP                             : Entered      - ENTERED BY
SRVC.         SCHLUMBERGER                   : Scn          - SERVICE COMPANY
STRT.M        375                            : top_depth    - START DEPTH
STOP.M        638                            : bot_depth    - STOP DEPTH
STEP.M        0.25                           : increment    - STEP LENGTH
 NULL. -999.2500:NULL Value
~CURVE INFORMATION BLOCK
#MNEM UNIT       ERCB CURVE CODE    CURVE DESCRIPTION
#-----------   ------------------   ----------------------------------
DEPT.M        00 001 00 00         : DEPTH        - DEPTH
ILD .OHMM     00 120 00 00         : RESD         - DEEP RESISTIVITY (DIL)
DPHI.V/V      00 890 00 00         : PHID         - DENSITY POROSITY (LIMESTONE)
NPHI.V/V      00 330 00 00         : PHIN         - NEUTRON POROSITY (LIMESTONE)
GR  .API      00 310 00 00         : GR           - GAMMA RAY
CALI.MM       00 280 01 00         : CAL          - CALIPER
~PARAMETER INFORMATION
#MNEM.UNIT           DATA             DESCRIPTION OF MNEMONIC
#---------         -----------     ------------------------------
GL  .M        707.5                : gl           - GROUND LEVEL ELEVATION
EREF.M        710.7                : kb           - ELEVATION OF DEPTH REFERENCE
DATM.M        710.7                : datum        - DATUM ELEVATION
TDD .M        645                  : tdd          - TOTAL DEPTH DRILLER
RUN .         ONE                  : Run          - RUN NUMBER
ENG .         BILL                 : Engineer     - RECORDING ENGINEER
WIT .         JIM                  : Witness      - WITNESSED BY
MUD .         GEL                  : Mud_type     - MUD TYPE
MATR.         LIMESTONE            : Logunit      - NEUTRON MATRIX
TMAX.C        20.5                 : BHT          - MAXIMUM RECORDED TEMPERATURE
BHTD.M        645                  : BHTDEP       - MAXIMUM RECORDED TEMPERATURE
MATR.         1                    : LOGUNIT      - NEUTRON MATRIX
RMT .C        25                   : MDTP         - TEMPERATURE OF MUD
NEUT.         1                    : NEUTRON      - NEUTRON TYPE
RESI.         0                    : RESIST       - RESISTIVITY TYPE
RMC .OHMM     0.25                 : RMC          - RESISTIVITY OF MUD CAKE
RMF .OHMM     0.25                 : RMF          - RESISTIVITY OF MUD FILTRATE
SUFT.C        15                   : SUFT         - SURFACE TEMPERATURE
~A  DEPTH     RESD     PHID     PHIN       GR      CAL
# ...
  484.500    6.864    0.359    0.460   56.461  143.301
  484.750    6.840    0.354    0.479   55.994  143.189
  485.000    6.777    0.353    0.476   53.573  143.385
  485.250    6.766    0.361    0.458   52.005  143.682
  485.500    6.716    0.364    0.448   51.964  143.775
  485.750    6.718    0.361    0.467   52.656  143.563
  486.000    6.706    0.355    0.485   53.898  141.923
  486.250    6.720    0.355    0.473   55.199  141.100
  486.500    6.759    0.358    0.463   56.441  142.008
  486.750    6.811    0.360    0.479   57.378  143.628
  487.000    6.838    0.357    0.491   57.644  144.538
  487.250    6.904    0.357    0.476   57.052  145.037
  487.500    6.905    0.356    0.459   56.645  145.540
  487.750    6.907    0.355    0.456   58.868  145.735
  488.000    6.907    0.353    0.459   60.593  146.135
  488.250    6.934    0.351    0.470   61.345  146.432
  488.500    6.949    0.348    0.488   58.984  146.627
  488.750    6.937    0.348    0.494   60.104  146.413
  489.000    6.912    0.347    0.488   61.285  146.404
  489.250    6.874    0.347    0.479   62.041  146.294
  489.500    6.837    0.348    0.474   62.731  145.980
  489.750    6.813    0.349    0.493   63.360  145.767
  490.000    6.801    0.349    0.495   63.075  145.657
  490.250    6.777    0.348    0.479   61.633  145.750
  490.500    6.778    0.350    0.464   60.186  145.538
  490.750    6.792    0.355    0.478   58.619  145.121
  491.000    6.819    0.354    0.486   58.272  145.112
  491.250    6.832    0.352    0.478   57.682  145.512
  491.500    6.885    0.351    0.462   56.115  145.809
  491.750    6.912    0.354    0.450   56.322  146.616
  492.000    6.940    0.358    0.466   57.742  147.421
  492.250    6.980    0.357    0.471   57.336  147.717
  492.500    6.995    0.352    0.472   56.257  148.014
  492.750    7.169    0.348    0.477   56.278  148.415
  493.000    7.143    0.343    0.473   57.152  148.101
  493.250    7.091    0.339    0.463   57.722  147.888
  493.500    7.052    0.337    0.454   57.621  147.675
  493.750    7.054    0.336    0.448   61.244  147.463
  494.000    7.082    0.334    0.459   65.477  147.249
  494.250    7.479    0.331    0.471   66.657  146.833
  494.500    7.537    0.288    0.469   64.845  146.519
  494.750    7.595    0.292    0.447   60.288  146.817
  495.000    7.611    0.304    0.469   57.072  147.419
  495.250    7.584    0.311    0.474   58.130  147.307
  495.500    7.486    0.319    0.466   56.867  147.198
  495.750    7.197    0.306    0.451   60.978  147.391
  496.000    6.842    0.292    0.446   67.837  147.487
  496.250    6.420    0.282    0.446   74.573  147.882
  496.500    6.103    0.268    0.452   77.767  148.179
  496.750    5.824    0.250    0.482   75.347  148.376
  497.000    5.749    0.266    0.487   69.934  148.572
  497.250    6.118    0.283    0.463   65.924  149.176
  497.500    6.474    0.298    0.450   59.655  147.944
  497.750    6.812    0.311    0.441   55.585  146.710
  498.000    7.209    0.327    0.435   54.751  146.805
  498.250    7.237    0.338    0.447   55.933  146.389
  498.500    7.238    0.340    0.466   57.783  145.461
  498.750    7.212    0.343    0.459   56.887  145.047
  499.000    7.146    0.343    0.449   54.649  144.322
  499.250    7.081    0.343    0.446   56.623  144.112
  499.500    7.016    0.343    0.454   58.354  144.817
  499.750    6.991    0.346    0.461   59.717  145.929
  500.000    6.966    0.348    0.463   58.270  146.836
  500.250    6.941    0.349    0.466   56.339  147.135
  500.500    6.929    0.347    0.480   58.191  147.737
  500.750    6.917    0.339    0.496   58.211  147.116
  501.000    6.931    0.328    0.488   60.612  147.007
  501.250    6.906    0.321    0.453   63.379  145.163
  501.500    6.882    0.324    0.443   61.935  145.664
  501.750    6.857    0.324    0.445   63.361  146.978
  502.000    6.705    0.319    0.446   66.067  147.787
  502.250    6.351    0.314    0.444   68.710  148.492
  502.500    5.590    0.308    0.442   72.455  148.789
  502.750    4.598    0.301    0.455   75.956  149.289
  503.000    4.032    0.290    0.466   78.785  149.484
  503.250    3.650    0.274    0.484   81.493  150.801
  503.500    3.386    0.267    0.496   83.710  152.626
  503.750    3.201    0.270    0.519   85.990  154.348
  504.000    3.275    0.271    0.549   86.742  155.259
  504.250    3.407    0.275    0.542   84.807  155.452
  504.500    3.579    0.286    0.567   84.340  155.751
  504.750    3.716    0.298    0.584   84.850  155.742
  505.000    3.696    0.289    0.575   85.968  155.224
  505.250    3.527    0.269    0.512   89.102  152.463
  505.500    3.385    0.253    0.501   92.725  150.621
  505.750    3.242    0.241    0.504   95.430  150.204
  506.000    3.105    0.248    0.511   98.688  151.725
  506.250    2.958    0.268    0.521  101.516  153.754
  506.500    2.892    0.260    0.521   97.629  155.478
  506.750    2.850    0.244    0.534   93.560  153.736
  507.000    2.834    0.234    0.552   96.756  153.117
  507.250    2.829    0.240    0.564  100.133  156.368
  507.500    2.862    0.246    0.545  102.717  159.213
  507.750    2.967    0.252    0.549  102.370  161.650
  508.000    3.211    0.265    0.553   96.530  163.170
  508.250    3.541    0.277    0.531   84.463  162.755
  508.500    4.306    0.290    0.496   71.051  157.548
  508.750    5.699    0.298    0.477   71.864  152.138
  509.000    7.936    0.290    0.465   69.506  150.295
  509.250    9.983    0.305    0.480   66.105  149.267
  509.500   12.417    0.320    0.493   63.989  148.851
  509.750   14.489    0.329    0.503   62.424  148.129
  510.000   17.034    0.340    0.491   61.771  147.509
  510.250   19.988    0.352    0.475   61.608  146.785
  510.500   22.294    0.360    0.459   61.509  146.675
  510.750   24.312    0.368    0.485   61.344  146.564
  511.000   25.727    0.381    0.504   61.304  150.022
  511.250   26.023    0.375    0.489   61.385  155.007
  511.500   25.882    0.352    0.468   61.166  150.207
  511.750   26.082    0.341    0.464   61.123  145.916
  512.000   26.233    0.338    0.487   61.202  144.482
  512.250   26.736    0.334    0.493   61.159  144.575
  512.500   28.613    0.289    0.487   60.876  145.788
  512.750   30.968    0.189    0.415   59.919  146.189
  513.000   34.737    0.108    0.293   51.025  146.589
  513.250   39.405    0.072    0.267   42.561  146.782
  513.500   43.623    0.030    0.235   36.290  147.182
  513.750   45.644    0.012    0.201   41.810  147.377
  514.000   45.395    0.074    0.222   47.076  147.877
  514.250   42.593    0.255    0.312   52.471  148.583
  514.500   33.743    0.306    0.400   56.886  148.981
  514.750   21.254    0.333    0.435   61.668  149.379
  515.000   11.261    0.327    0.456   67.184  149.372
  515.250    7.576    0.293    0.463   73.066  149.568
  515.500    5.923    0.277    0.476   78.397  150.476
  515.750    4.737    0.265    0.496   82.141  150.774
  516.000    4.217    0.252    0.477   79.291  150.765
  516.250    3.971    0.243    0.497   76.871  153.610
  516.500    3.891    0.267    0.504   76.646  156.963
  516.750    3.833    0.282    0.505   74.286  158.790
  517.000    3.812    0.269    0.506   73.757  154.806
  517.250    3.777    0.264    0.514   77.501  150.007
  517.500    3.785    0.260    0.503   80.390  148.163
  517.750    3.800    0.252    0.494   81.632  148.460
  518.000    3.815    0.247    0.489   81.778  148.351
  518.250    3.852    0.244    0.501   82.344  148.647
  518.500    3.911    0.265    0.505   81.999  150.168
  518.750    4.023    0.268    0.498   80.310  152.197
  519.000    4.218    0.255    0.495   81.673  150.355
  519.250    4.471    0.243    0.476   83.035  147.492
  519.500    4.705    0.239    0.476   78.845  147.585
  519.750    4.960    0.256    0.485   76.117  148.697
  520.000    5.122    0.261    0.486   78.398  149.300
  520.250    5.309    0.256    0.493   80.064  149.493
  520.500    5.514    0.249    0.483   81.428  149.690
  520.750    5.662    0.247    0.474   78.823  149.783
