~VERSION INFORMATION
 VERS.                 2.0:   CWLS LOG ASCII STANDARD -VERSION 2.0
 WRAP.                  NO:   ONE LINE PER DEPTH STEP
~WELL INFORMATION BLOCK
#MNEM.UNIT           DATA                    DESCRIPTION OF MNEMONIC
#---------    -------------------            -------------------------------
# Generated from Intellog Unique Number	CC_80_83/WELL/2327
NULL.         -999.25                        : NULL_VALUE
WELL.         CHEVRON BP GRAND RAPIDS        : Well_name    - WELL
LOC .         10-01-082-17W4                 : Location     - LOCATION          
UWI .         00/10-01-082-17W400            : Uwi          - UNIQUE WELL ID    
ENTR.         JHS                            : Entered      - ENTERED BY        
SRVC.         SCHLUMBERGER                   : Scn          - SERVICE COMPANY   
DATE.         09 FEB 74                      : Date         - LOG DATE
STRT.M        152.4                          : top_depth    - START DEPTH       
STOP.M        289.559                        : bot_depth    - STOP DEPTH        
STEP.M        0.305                          : increment    - STEP LENGTH       
~CURVE INFORMATION BLOCK
#MNEM UNIT       ERCB CURVE CODE    CURVE DESCRIPTION
#-----------   ------------------   ----------------------------------
DEPT.M        00 001 00 00         : DEPTH        - DEPTH                       
DPHI.V/V      00 890 00 00         : PHID         - DENSITY POROSITY (LIMESTONE)
NPHI.V/V      00 330 00 00         : PHIN         - NEUTRON POROSITY (LIMESTONE)
GR  .API      00 310 00 00         : GR           - GAMMA RAY                   
ILD .OHMM     00 120 00 00         : RESD         - DEEP RESISTIVITY (DIL)      
~PARAMETER INFORMATION       
#MNEM.UNIT           DATA             DESCRIPTION OF MNEMONIC
#---------         -----------     ------------------------------
GL  .M        537.058              : gl           - GROUND LEVEL ELEVATION      
EREF.M        540.258              : kb           - ELEVATION OF DEPTH REFERENCE
DATM.M        540.258              : datum        - DATUM ELEVATION             
TDD .M        291.694              : tdd          - TOTAL DEPTH DRILLER         
RUN .         ONE                  : Run          - RUN NUMBER                  
ENG .         BILL                 : Engineer     - RECORDING ENGINEER          
WIT .         JIM                  : Witness      - WITNESSED BY                
MUD .         GEL                  : Mud_type     - MUD TYPE                    
MATR.         LIMESTONE            : Logunit      - NEUTRON MATRIX              
TMAX.C        20.5556              : BHT          - MAXIMUM RECORDED TEMPERATURE
BHTD.M        291.694              : BHTDEP       - MAXIMUM RECORDED TEMPERATURE
MATR.         1                    : LOGUNIT      - NEUTRON MATRIX              
RMT .C        25                   : MDTP         - TEMPERATURE OF MUD          
NEUT.         1                    : NEUTRON      - NEUTRON TYPE                
RESI.         0                    : RESIST       - RESISTIVITY TYPE            
RMC .OHMM     0.25                 : RMC          - RESISTIVITY OF MUD CAKE     
RMF .OHMM     0.25                 : RMF          - RESISTIVITY OF MUD FILTRATE 
SUFT.C        15                   : SUFT         - SURFACE TEMPERATURE         
~A  DEPTH     PHID     PHIN       GR     RESD
  152.400    0.366    0.472   62.275    7.851
  152.705    0.264    0.501   55.672    7.575
  153.010    0.293    0.477   54.510    7.307
  153.314    0.276    0.472   58.184    7.315
  153.619    0.287    0.494   60.649    7.462
  153.924    0.273    0.507   58.884    7.468
  154.229    0.278    0.485   60.139    7.761
  154.534    0.287    0.463   57.768    7.915
  154.838    0.294    0.470   57.210    8.223
  155.143    0.305    0.498   57.864    8.542
  155.448    0.286    0.510   53.076    8.876
  155.753    0.284    0.488   52.521    9.051
  156.058    0.309    0.476   53.776    9.063
  156.362    0.298    0.483   54.427    9.075
  156.667    0.286    0.485   58.700    8.916
  156.972    0.272    0.484   58.146    8.760
  157.277    0.245    0.441   55.170    8.610
  157.581    0.226    0.501   52.796    8.619
  157.886    0.290    0.523   57.081    8.316
  158.191    0.305    0.544   61.960    8.170
  158.496    0.299    0.540   64.424    7.736
  158.801    0.291    0.523   63.866    7.326
  159.105    0.307    0.557   67.542    6.937
  159.410    0.290    0.546   70.619    7.207
  159.715    0.323    0.499   69.454    7.916
  160.020    0.309    0.507   66.476    9.366
  160.325    0.301    0.494   65.319   11.290
  160.629    0.309    0.477   65.360   12.174
  160.934    0.323    0.479   63.594   11.316
  161.239    0.399    0.590   61.825   10.134
  161.544    0.484    0.610   54.623    9.421
  161.849    0.448    0.592   52.253    9.259
  162.153    0.418    0.540   49.276    9.439
  162.458    0.311    0.491   48.720   10.370
  162.763    0.323    0.516   48.761   12.043
  163.068    0.332    0.550   49.412   13.729
  163.373    0.343    0.573   50.671   14.803
  163.677    0.332    0.508   49.506   15.671
  163.982    0.324    0.504   47.747   15.982
  164.287    0.329    0.499   47.792   16.611
  164.592    0.340    0.466   46.624   16.623
  164.897    0.344    0.499   47.882   16.953
  165.201    0.341    0.496   46.718   16.972
  165.506    0.342    0.480   47.975   16.680
  165.811    0.342    0.501   46.812   16.700
  166.116    0.336    0.497   45.050   16.410
  166.421    0.335    0.474   44.489   16.428
  166.725    0.332    0.474   45.744   16.446
  167.030    0.323    0.461   45.792   16.464
  167.335    0.326    0.444   43.422   16.796
  167.640    0.324    0.427   42.863   16.813
  167.945    0.343    0.443   43.522   16.831
  168.249    0.357    0.428   44.776   16.849
  168.554    0.350    0.490   44.824   16.867
  168.859    0.365    0.512   46.679   16.576
  169.164    0.337    0.521   45.515   16.595
  169.468    0.345    0.562   46.173   16.309
  169.773    0.345    0.488   45.005   16.329
  170.078    0.336    0.484   45.053   16.652
  170.383    0.335    0.506   43.900   16.667
  170.688    0.333    0.520   48.173   16.689
  170.992    0.336    0.504   50.638   16.400
  171.297    0.343    0.467   52.504   15.242
  171.602    0.312    0.457   55.574   11.549
  171.907    0.262    0.560   62.265    8.751
  172.212    0.318    0.537   67.756    5.308
  172.516    0.309    0.614   67.195    4.496
  172.821    0.287    0.581   64.218    4.502
  173.126    0.265    0.517   57.617    4.854
  173.431    0.291    0.495   50.413    5.742
  173.736    0.313    0.491   48.037    8.180
  174.040    0.309    0.471   47.484   12.786
  174.345    0.312    0.458   48.130   15.127
  174.650    0.311    0.429   48.782   14.596
  174.955    0.301    0.400   44.603   14.607
  175.260    0.265    0.385   39.203   16.049
  175.564    0.183    0.311   38.041   18.988
  175.869    0.103    0.195   35.065   22.885
  176.174    0.039    0.152   33.904   30.833
  176.479    0.000    0.143   34.560   40.032
  176.784    0.000    0.141   34.602   40.827
  177.088    0.000    0.129   34.648   33.945
  177.393    0.000    0.176   43.158   27.710
  177.698    0.009    0.341   45.023   26.240
  178.003    0.236    0.324   43.252   27.262
  178.308    0.176    0.276   40.278   29.944
  178.612    0.110    0.221   42.136   37.459
  178.917    0.024    0.298   51.858   41.919
  179.222    0.014    0.528   63.394   35.506
  179.527    0.268    0.560   62.234   24.071
  179.831    0.258    0.564   58.050   17.907
  180.136    0.270    0.545   60.516   15.455
  180.441    0.306    0.522   57.540   14.635
  180.746    0.288    0.509   51.535   14.378
  181.051    0.273    0.572   47.959   14.397
  181.355    0.331    0.557   43.771   14.413
  181.660    0.320    0.541   41.401   14.163
  181.965    0.306    0.555   43.265   14.178
  182.270    0.315    0.534   45.728   13.935
  182.575    0.328    0.523   46.379   13.693
  182.879    0.333    0.519   45.822   13.456
  183.184    0.336    0.550   48.290   13.471
  183.489    0.334    0.540   49.546   13.489
  183.794    0.326    0.539   47.172   13.501
  184.099    0.311    0.519   47.221   13.266
  184.403    0.311    0.511   49.693   13.284
  184.708    0.329    0.512   51.544   13.296
  185.013    0.334    0.538   51.595   13.562
  185.318    0.341    0.526   49.824   13.323
  185.623    0.323    0.513   49.265   13.344
  185.927    0.318    0.532   48.716   13.113
  186.232    0.324    0.533   49.966   13.125
  186.537    0.321    0.533   53.645   12.898
  186.842    0.325    0.552   53.693   12.913
  187.147    0.323    0.554   53.735   12.925
  187.451    0.327    0.531   51.361   12.700
  187.756    0.321    0.528   49.596   12.718
  188.061    0.328    0.553   49.041   12.498
  188.366    0.322    0.554   49.693   12.510
  188.671    0.309    0.548   52.764   12.763
  188.975    0.308    0.541   50.991   12.773
  189.280    0.315    0.542   48.623   12.791
  189.585    0.339    0.548   48.669   12.800
  189.890    0.348    0.555   49.324   12.581
  190.194    0.349    0.553   49.375   12.598
  190.499    0.335    0.583   49.414   12.609
  190.804    0.317    0.565   49.470   12.621
  191.109    0.320    0.555   49.511   12.638
  191.414    0.343    0.562   50.773   12.652
  191.718    0.337    0.582   50.216   12.668
  192.023    0.330    0.584   50.262   12.678
  192.328    0.311    0.569   50.302   12.694
  192.633    0.307    0.551   49.143   12.708
  192.938    0.310    0.522   49.191   12.961
  193.242    0.314    0.532   51.048   12.974
  193.547    0.307    0.512   52.307   12.987
  193.852    0.287    0.506   53.565   13.005
  194.157    0.304    0.518   53.611   13.017
  194.462    0.316    0.569   51.843   13.035
  194.766    0.316    0.537   51.889   13.045
  195.071    0.321    0.533   53.747   13.305
  195.376    0.297    0.554   55.608   13.077
  195.681    0.283    0.537   58.678   12.381
  195.986    0.280    0.584   65.982   11.507
  196.290    0.254    0.573   73.281    9.748
  196.595    0.249    0.568   72.732    8.731
  196.900    0.259    0.544   74.587    7.819
  197.205    0.253    0.527   74.637    7.404
  197.510    0.244    0.513   74.084    7.414
  197.814    0.261    0.520   72.317    7.421
  198.119    0.258    0.547   71.153    7.568
  198.424    0.232    0.539   68.774    7.863
  198.729    0.289    0.471   62.778    7.871
  199.034    0.332    0.497   62.829    8.028
  199.338    0.345    0.525   66.501    8.037
  199.643    0.337    0.533   64.738    8.045
  199.948    0.330    0.546   64.177    7.619
  200.253    0.325    0.535   65.429    7.349
  200.557    0.293    0.547   64.269    7.223
  200.862    0.276    0.559   64.319    7.230
  201.167    0.309    0.538   65.574    7.511
  201.472    0.273    0.560   69.245    7.519
  201.777    0.265    0.557   67.480    7.254
  202.081    0.295    0.547   62.691    7.128
  202.386    0.330    0.513   53.667    7.272
  202.691    0.321    0.498   48.273    7.553
  202.996    0.312    0.486   47.114    8.453
  203.301    0.309    0.478   46.557   10.380
  203.605    0.320    0.486   51.447   11.616
  203.910    0.327    0.502   52.700   11.849
  204.215    0.322    0.491   52.742   11.641
  204.520    0.313    0.497   52.798   11.229
  204.825    0.303    0.505   54.051   10.832
  205.129    0.314    0.482   55.308   10.451
