~VERSION INFORMATION
 VERS.                 2.0:   CWLS LOG ASCII STANDARD -VERSION 2.0
 WRAP.                  NO:   ONE LINE PER DEPTH STEP
~WELL INFORMATION BLOCK
#MNEM.UNIT           DATA                    DESCRIPTION OF MNEMONIC
#---------    -------------------            -------------------------------
# Generated from Intellog Unique Number	CC_80_83/WELL/2440
NULL.         -999.25                        : NULL_VALUE
WELL.         GULF RESDELN                   : Well_name    - WELL              
LOC .         15-19-083-06W4                 : Location     - LOCATION          
UWI .         00/15-19-083-06W4/0            : Uwi          - UNIQUE WELL ID    
ENTR.         RJA                            : Entered      - ENTERED BY        
SRVC.         SCHLUMBERGER                   : Scn          - SERVICE COMPANY   
DATE.         13 DEC 80                      : Date         - LOG DATE
STRT.M        125                            : top_depth    - START DEPTH       
STOP.M        374.896                        : bot_depth    - STOP DEPTH        
STEP.M        0.3                            : increment    - STEP LENGTH       
~CURVE INFORMATION BLOCK
#MNEM UNIT       ERCB CURVE CODE    CURVE DESCRIPTION
#-----------   ------------------   ----------------------------------
DEPT.M        00 001 00 00         : DEPTH        - DEPTH                       
DPHI.V/V      00 890 00 00         : PHID         - DENSITY POROSITY (LIMESTONE)
NPHI.V/V      00 330 00 00         : PHIN         - NEUTRON POROSITY (LIMESTONE)
GR  .API      00 310 00 00         : GR           - GAMMA RAY                   
ILD .OHMM     00 120 00 00         : RESD         - DEEP RESISTIVITY (DIL)      
~PARAMETER INFORMATION       
#MNEM.UNIT           DATA             DESCRIPTION OF MNEMONIC
#---------         -----------     ------------------------------
GL  .M        588.35               : gl           - GROUND LEVEL ELEVATION      
EREF.M        592.9                : kb           - ELEVATION OF DEPTH REFERENCE
DATM.M        592.9                : datum        - DATUM ELEVATION             
TDD .M        418                  : tdd          - TOTAL DEPTH DRILLER         
RUN .         ONE                  : Run          - RUN NUMBER                  
ENG .         BILL                 : Engineer     - RECORDING ENGINEER          
WIT .         JIM                  : Witness      - WITNESSED BY                
MUD .         GEL                  : Mud_type     - MUD TYPE                    
MATR.         LIMESTONE            : Logunit      - NEUTRON MATRIX              
TMAX.C        20                   : BHT          - MAXIMUM RECORDED TEMPERATURE
BHTD.M        418                  : BHTDEP       - MAXIMUM RECORDED TEMPERATURE
MATR.         1                    : LOGUNIT      - NEUTRON MATRIX              
RMT .C        25                   : MDTP         - TEMPERATURE OF MUD          
NEUT.         1                    : NEUTRON      - NEUTRON TYPE                
RESI.         0                    : RESIST       - RESISTIVITY TYPE            
RMC .OHMM     0.25                 : RMC          - RESISTIVITY OF MUD CAKE     
RMF .OHMM     0.25                 : RMF          - RESISTIVITY OF MUD FILTRATE 
SUFT.C        4                    : SUFT         - SURFACE TEMPERATURE         
~A  DEPTH     PHID     PHIN       GR     RESD
# ...
  229.401    0.343    0.451   48.557    2.980
  229.701    0.341    0.390   66.646    2.571
  230.001    0.292    0.414   76.600    2.434
  230.301    0.292    0.506   75.267    2.391
  230.601    0.299    0.552   70.812    2.625
  230.901    0.306    0.565   66.965    3.164
  231.201    0.303    0.557   65.655    3.607
  231.501    0.297    0.547   74.972    4.347
  231.801    0.304    0.540   75.536    5.336
  232.101    0.308    0.532   69.188    7.322
  232.401    0.290    0.563   59.679   13.278
  232.701    0.315    0.590   56.509   16.300
  233.001    0.343    0.492   51.420   18.238
  233.301    0.359    0.470   50.694   18.597
  233.601    0.356    0.474   52.514   18.606
  233.901    0.356    0.438   53.694   18.283
  234.201    0.364    0.459   52.369   18.300
  234.501    0.369    0.460   52.291   18.310
  234.801    0.370    0.450   49.716   18.671
  235.101    0.365    0.465   50.895   19.035
  235.401    0.367    0.466   48.302   19.053
  235.701    0.369    0.482   50.715   18.722
  236.001    0.368    0.490   51.291   18.730
  236.301    0.377    0.484   48.088   19.461
  236.601    0.363    0.475   46.753   21.372
  236.901    0.361    0.471   41.018   24.357
  237.201    0.125    0.481   35.934   25.768
  237.501    0.211    0.505   35.881   24.391
  237.801    0.301    0.273   44.569   21.050
  238.101    0.346    0.351   49.504   19.918
  238.401    0.363    0.408   46.919   18.858
  238.701    0.364    0.475   45.598   18.875
  239.001    0.364    0.486   50.536   19.601
  239.301    0.361    0.483   52.976   20.743
  239.601    0.354    0.463   50.391   21.542
  239.901    0.357    0.458   48.423   21.166
  240.201    0.360    0.459   47.079   21.183
  240.501    0.352    0.470   46.407   20.808
  240.801    0.360    0.470   46.963   20.443
  241.101    0.365    0.458   45.620   20.084
  241.401    0.370    0.453   44.934   20.098
  241.701    0.363    0.474   46.099   19.748
  242.001    0.360    0.488   45.413   19.762
  242.301    0.361    0.461   44.684   19.779
  242.601    0.359    0.461   45.876   19.794
  242.901    0.361    0.453   48.941   19.811
  243.201    0.359    0.447   49.466   19.465
  243.501    0.363    0.454   49.416   20.221
  243.801    0.353    0.468   47.472   20.612
  244.101    0.351    0.479   46.140   21.017
  244.401    0.361    0.477   49.196   21.038
  244.701    0.364    0.465   50.362   21.447
  245.001    0.360    0.465   49.679   21.464
  245.301    0.348    0.454   48.352   21.891
  245.601    0.352    0.487   47.650   21.508
  245.901    0.353    0.497   48.196   21.121
  246.201    0.355    0.500   44.344   20.748
  246.501    0.357    0.505   47.414   20.383
  246.801    0.356    0.495   50.439   19.662
  247.101    0.324    0.479   50.389   19.672
  247.401    0.304    0.472   47.182   19.688
  247.701    0.312    0.445   45.869   19.711
  248.001    0.328    0.441   50.166   19.723
  248.301    0.341    0.457   50.724   20.113
  248.601    0.337    0.463   48.131   20.123
  248.901    0.331    0.457   47.429   20.520
  249.201    0.334    0.470   47.380   20.923
  249.501    0.341    0.483   47.918   20.940
  249.801    0.340    0.480   47.831   20.568
  250.101    0.340    0.473   48.392   20.589
  250.401    0.345    0.465   50.835   20.606
  250.701    0.337    0.452   54.484   20.246
  251.001    0.326    0.451   55.070   20.256
  251.301    0.329    0.455   53.113   19.902
  251.601    0.340    0.473   54.284   19.921
  251.901    0.348    0.492   56.721   19.575
  252.201    0.342    0.475   57.282   19.587
  252.501    0.330    0.462   57.823   19.600
  252.801    0.332    0.454   59.011   19.614
  253.101    0.326    0.433   58.311   19.277
  253.401    0.325    0.435   55.714   19.290
  253.701    0.329    0.461   58.161   19.309
  254.001    0.326    0.466   58.083   18.964
  254.301    0.319    0.463   54.881   18.633
  254.601    0.318    0.470   59.801   18.648
  254.901    0.317    0.449   64.114   18.316
  255.201    0.313    0.452   67.799   18.335
  255.501    0.318    0.459   67.118   18.008
  255.801    0.313    0.451   57.630   18.362
  256.101    0.315    0.439   55.051   18.377
  256.401    0.320    0.458   54.983   18.739
  256.701    0.312    0.482   58.655   18.757
  257.001    0.313    0.458   60.475   18.425
  257.301    0.310    0.457   60.401   18.099
  257.601    0.317    0.478   59.067   17.455
  257.901    0.320    0.457   60.253   16.520
  258.201    0.310    0.466   59.525   15.354
  258.501    0.304    0.482   56.972   15.080
  258.801    0.309    0.453   59.389   15.095
  259.101    0.314    0.457   56.818   15.391
  259.401    0.312    0.473   54.227   15.119
  259.701    0.316    0.469   57.923   14.312
  260.001    0.325    0.458   62.231   14.059
  260.301    0.328    0.454   60.907   12.357
  260.601    0.327    0.462   57.693   10.461
  260.901    0.327    0.457   56.368    7.779
  261.201    0.331    0.460   59.410    6.230
  261.501    0.312    0.476   61.862    5.476
  261.801    0.291    0.487   65.543    5.183
  262.101    0.290    0.517   73.625    4.729
  262.401    0.293    0.547   75.413    4.559
  262.701    0.283    0.569   72.829    4.158
  263.001    0.276    0.514   77.159    3.792
  263.301    0.282    0.512   78.932    3.459
  263.601    0.282    0.542   78.887    3.274
  263.901    0.276    0.553   83.186    3.732
  264.201    0.279    0.565   82.504    4.254
  264.501    0.285    0.585   81.133    5.033
  264.801    0.274    0.591   79.839    5.324
  265.101    0.267    0.595   77.260    5.846
  265.401    0.261    0.485   79.694    5.638
  265.701    0.258    0.506   84.624    3.821
  266.001    0.265    0.512   87.066    3.176
  266.301    0.269    0.510   90.109    2.689
  266.601    0.275    0.535   93.783    2.407
  266.901    0.279    0.531   95.618    2.321
  267.201    0.288    0.528   91.152    2.367
  267.501    0.296    0.545   83.535    2.504
  267.801    0.294    0.577   80.964    3.134
  268.101    0.293    0.597   80.262    3.440
  268.401    0.295    0.609   79.568    3.921
  268.701    0.294    0.626   76.340    4.725
  269.001    0.279    0.608   73.140    5.589
  269.301    0.290    0.581   71.801    6.613
  269.601    0.292    0.526   74.855    7.129
  269.901    0.254    0.464   77.922    7.266
  270.201    0.263    0.471   80.370    7.139
  270.501    0.279    0.489   79.663    7.145
  270.801    0.275    0.512   75.210    7.151
  271.101    0.268    0.519   70.733    7.429
  271.401    0.273    0.487   71.917    7.863
  271.701    0.286    0.475   77.472    8.014
  272.001    0.292    0.480   79.303    8.640
  272.301    0.250    0.498   81.090    9.141
  272.601    0.237    0.440   83.505   10.228
  272.901    0.253    0.453   83.464   11.876
  273.201    0.266    0.450   78.362   13.537
  273.501    0.264    0.437   71.379   15.429
  273.801    0.145    0.421   73.201   14.071
  274.101    0.191    0.405   76.879   11.064
  274.401    0.221    0.373   78.049    9.195
  274.701    0.233    0.410   78.629    7.932
  275.001    0.243    0.463   78.553    7.101
  275.301    0.257    0.486   79.705    6.476
  275.601    0.254    0.492   84.668    6.363
  275.901    0.239    0.500   83.963    6.732
  276.201    0.249    0.502   78.244    7.819
  276.500    0.211    0.518   77.532    8.585
  276.800    0.219    0.530   79.965    9.787
  277.100    0.242    0.424   80.514   10.164
  277.400    0.262    0.436   81.090   10.172
  277.700    0.252    0.462   82.890    8.614
  278.000    0.242    0.462   86.524    6.525
  278.300    0.250    0.440   87.110    5.036
  278.600    0.267    0.456   87.046    4.425
  278.900    0.276    0.485   83.195    4.428
  279.200    0.266    0.497   80.004    4.775
  279.500    0.263    0.523   78.038    5.053
  279.800    0.256    0.535   79.862    5.345
  280.100    0.263    0.500   76.645    6.939
  280.400    0.286    0.487   69.041    8.519
  280.700    0.326    0.487   67.721   11.056
  281.000    0.341    0.447   67.650   11.484
  281.300    0.276    0.377   69.433   10.093
