~VERSION INFORMATION
 VERS.                 2.0:   CWLS LOG ASCII STANDARD -VERSION 2.0
 WRAP.                  NO:   ONE LINE PER DEPTH STEP
~WELL INFORMATION BLOCK
#MNEM.UNIT           DATA                    DESCRIPTION OF MNEMONIC
#---------    -------------------            -------------------------------
# Generated from Intellog Unique Number	CW_82_90/WELL/3456
WELL.         COSEKA RES                     : Well_name    - WELL
LOC .         00/14-34-090-20W4/0            : Location     - LOCATION
UWI .         00/14-34-090-20W4/0            : Uwi          - UNIQUE WELL ID
ENTR.         MAX                            : Entered      - ENTERED BY
SRVC.         COMPUTALOG                     : Scn          - SERVICE COMPANY
STRT.M        145                            : top_depth    - START DEPTH
STOP.M        230                            : bot_depth    - STOP DEPTH
STEP.M        0.25                           : increment    - STEP LENGTH
 NULL. -999.2500:NULL Value
~CURVE INFORMATION BLOCK
#MNEM UNIT       ERCB CURVE CODE    CURVE DESCRIPTION
#-----------   ------------------   ----------------------------------
DEPT.M        00 001 00 00         : DEPTH        - DEPTH
GR  .API      00 310 00 00         : GR           - GAMMA RAY
CALI.MM       00 280 01 00         : CAL          - CALIPER
DPHI.V/V      00 890 00 00         : PHID         - DENSITY POROSITY (SANDSTONE)
NPHI.V/V      00 330 00 00         : PHIN         - NEUTRON POROSITY (SANDSTONE)
ILD .OHMM     00 120 00 00         : RESD         - DEEP RESISTIVITY (DIL)
~PARAMETER INFORMATION
#MNEM.UNIT           DATA             DESCRIPTION OF MNEMONIC
#---------         -----------     ------------------------------
GL  .M        515.45               : gl           - GROUND LEVEL ELEVATION
EREF.M        518.65               : kb           - ELEVATION OF DEPTH REFERENCE
DATM.M        515.45               : datum        - DATUM ELEVATION
TDD .M        231                  : tdd          - TOTAL DEPTH DRILLER
RUN .         ONE                  : Run          - RUN NUMBER
ENG .         BILL                 : Engineer     - RECORDING ENGINEER
WIT .         JIM                  : Witness      - WITNESSED BY
MUD .         GEL                  : Mud_type     - MUD TYPE
MATR.         SANDSTONE            : Logunit      - NEUTRON MATRIX
TMAX.C        17                   : BHT          - MAXIMUM RECORDED TEMPERATURE
BHTD.M        231                  : BHTDEP       - MAXIMUM RECORDED TEMPERATURE
MATR.         1                    : LOGUNIT      - NEUTRON MATRIX
RMT .C        16                   : MDTP         - TEMPERATURE OF MUD
NEUT.         1                    : NEUTRON      - NEUTRON TYPE
RESI.         0                    : RESIST       - RESISTIVITY TYPE
RMC .OHMM     2.5                  : RMC          - RESISTIVITY OF MUD CAKE
RMF .OHMM     3.1                  : RMF          - RESISTIVITY OF MUD FILTRATE
SUFT.C        -10                  : SUFT         - SURFACE TEMPERATURE
~A  DEPTH       GR      CAL     PHID     PHIN     RESD
  145.000   85.048  158.958    0.175    0.422    8.517
  145.250   88.273  158.920    0.207    0.417    8.426
  145.500   90.023  158.873    0.204    0.420    9.385
  145.750   89.409  158.836    0.191    0.424    9.540
  146.000   89.092  158.803    0.191    0.426    9.018
  146.250   92.022  158.770    0.185    0.418    8.922
  146.500   95.835  158.733    0.181    0.401    9.154
  146.750   96.111  158.691    0.189    0.409    9.743
  147.000   96.679  158.658    0.203    0.460   10.749
  147.250   86.617  157.627    0.171    0.473   11.650
  147.500   65.036  157.599    0.097    0.405   14.342
  147.750   50.544  157.557    0.028    0.365   19.164
  148.000   49.929  157.519    0.013    0.283   24.241
  148.250   53.452  156.985    0.056    0.273   25.561
  148.500   61.698  156.943    0.101    0.305   23.299
  148.750   68.762  156.422    0.160    0.359   19.746
  149.000   74.941  156.385    0.182    0.386   16.732
  149.250   80.529  156.347    0.195    0.404   15.817
  149.500   83.459  155.808    0.208    0.397   15.788
  149.750   85.504  155.771    0.201    0.399   16.052
  150.000   84.005  155.738    0.186    0.405   16.317
  150.250   79.553  155.208    0.209    0.399   16.294
  150.500   76.282  155.166    0.229    0.390   16.120
  150.750   70.945  155.134    0.238    0.372   15.518
  151.000   67.671  155.584    0.186    0.372   14.540
  151.250   71.785  156.043    0.166    0.384   13.012
  151.500   77.669  156.502    0.187    0.384   12.641
  151.750   82.076  156.952    0.219    0.389   13.573
  152.000   86.778  156.919    0.219    0.394   14.443
  152.250   85.574  156.877    0.197    0.379   13.285
  152.500   79.052  157.332    0.175    0.359   11.569
  152.750   73.121  157.294    0.181    0.362   10.547
  153.000   78.121  157.252    0.202    0.380    9.527
  153.250   89.913  157.707    0.212    0.406    9.006
  153.500   98.454  158.162    0.211    0.425    8.990
  153.750   97.250  158.124    0.220    0.441    9.655
  154.000   85.118  156.615    0.236    0.418   10.558
  154.250   65.902  155.101    0.270    0.412   11.757
  154.500   60.562  154.571    0.273    0.415   13.705
  154.750   60.244  154.534    0.247    0.396   16.716
  155.000   61.695  154.492    0.210    0.377   18.114
  155.250   64.629  154.459    0.184    0.393   15.921
  155.500   71.105  154.421    0.170    0.399   13.130
  155.750   78.169  153.887    0.187    0.414   10.825
  156.000   86.120  154.346    0.211    0.436   10.517
  156.250   91.708  155.293    0.210    0.446   10.986
  156.500   83.417  154.764    0.194    0.423   10.576
  156.750   74.533  154.229    0.165    0.394   10.090
  157.000   77.168  153.700    0.137    0.380    9.802
  157.250   82.464  154.642    0.173    0.405    9.877
  157.500   89.528  155.584    0.213    0.448   10.703
  157.750   85.962  156.043    0.184    0.468   12.474
  158.000   79.736  155.518    0.153    0.431   15.080
  158.250   72.922  155.476    0.139    0.407   19.782
  158.500   68.175  155.443    0.111    0.367   25.257
  158.750   66.085  155.392    0.093    0.341   29.699
  159.000   63.107  155.364    0.074    0.325   29.928
  159.250   58.653  155.331    0.057    0.310   29.603
  159.500   55.385  155.781    0.041    0.287   28.765
  159.750   53.292  155.748    0.036    0.275   27.186
  160.000   55.930  155.711    0.052    0.278   25.241
  160.250   64.176  155.669    0.087    0.321   21.781
  160.500   69.173  155.626    0.151    0.358   20.035
  160.750   73.878  156.090    0.182    0.381   17.770
  161.000   78.282  156.536    0.136    0.388   15.475
  161.250   81.803  156.995    0.151    0.401   14.237
  161.500   85.622  157.937    0.192    0.399   12.508
  161.750   90.026  157.909    0.207    0.395   11.614
  162.000   88.530  158.359    0.208    0.383   10.683
  162.250   90.575  158.818    0.200    0.372   10.378
  162.500   98.525  159.264    0.195    0.376   10.082
  162.750   98.797  159.226    0.200    0.398   10.062
  163.000   92.279  158.697    0.194    0.403   10.048
  163.250   89.298  158.664    0.180    0.407   10.033
  163.500   91.643  158.617    0.152    0.427   10.109
  163.750   85.122  158.097    0.064    0.411   10.466
  164.000   73.583  157.070    0.005    0.307   11.236
  164.250   66.769  155.552    0.110    0.275   11.741
  164.500   71.176  155.022    0.139    0.313   12.159
  164.750   79.421  154.502    0.225    0.390   12.475
  165.000   81.466  154.952    0.214    0.375   12.681
  165.250   81.142  154.914    0.201    0.352   13.011
  165.500   85.260  154.882    0.182    0.339   13.349
  165.750   88.778  155.331    0.194    0.353   13.447
  166.000   87.281  155.299    0.212    0.373   13.677
  166.250   89.621  155.749    0.221    0.388   13.777
  166.500   88.418  156.700    0.224    0.381   14.007
  166.750   87.509  157.150    0.220    0.372   14.241
  167.000   85.715  157.113    0.199    0.366   15.295
  167.250   80.079  157.075    0.143    0.301   17.829
  167.500   64.997  157.525    0.002    0.259   21.550
  167.750   58.479  157.478    0.031    0.202   22.317
  168.000   60.520  157.455    0.127    0.272   20.520
  168.250   69.654  157.417    0.171    0.305   18.539
  168.500   82.625  156.888    0.195    0.418   15.147
  168.750  100.617  156.353    0.209    0.425   13.310
  169.000   98.525  156.321    0.215    0.420   12.469
  169.250   96.436  156.771    0.210    0.411   12.113
  169.500   98.778  157.225    0.195    0.403   12.316
  169.750   98.457  157.188    0.199    0.406   12.298
  170.000   95.778  157.643    0.197    0.416   11.520
  170.250   95.162  157.108    0.189    0.421   11.091
  170.500   94.256  157.080    0.178    0.411   11.906
  170.750   91.573  157.530    0.141    0.393   12.441
  171.000   88.601  158.472    0.140    0.373   12.420
  171.250   89.464  158.444    0.158    0.399   12.514
  171.500   93.576  159.382    0.193    0.423   12.723
  171.750   99.459  159.846    0.201    0.434   13.056
  172.000  100.027  160.300    0.214    0.419   13.519
  172.250   88.193  158.289    0.237    0.403   14.915
  172.500   83.443  156.776    0.247    0.373   15.870
  172.750   85.485  155.252    0.213    0.384   16.741
  173.000   82.217  155.224    0.101    0.358   18.137
  173.250   81.013  154.695    0.107    0.299   18.608
  173.500   82.763  154.160    0.147    0.309   18.243
  173.750   86.871  153.635    0.209    0.335   17.562
  174.000   89.211  153.598    0.221    0.382   16.602
  174.250   89.782  153.560    0.228    0.390   15.555
  174.500   87.985  153.518    0.230    0.397   14.972
  174.750   87.079  154.460    0.224    0.393   14.675
  175.000   89.419  154.432    0.204    0.377   14.785
  175.250   93.531  155.374    0.190    0.362   14.498
  175.500   97.347  156.813    0.194    0.366   14.210
  175.750  100.865  158.252    0.197    0.373   14.187
  176.000   99.960  159.691    0.198    0.374   14.036
  176.250   96.984  159.658    0.206    0.370   14.013
  176.500   93.123  159.124    0.217    0.373   14.642
  176.750   89.850  158.102    0.221    0.379   14.752
  177.000   88.058  158.060    0.221    0.384   14.465
  177.250   88.036  157.526    0.214    0.388   13.671
  177.500   92.738  157.498    0.199    0.399   12.924
  177.750  103.050  157.456    0.186    0.426   13.021
  178.000  102.437  157.910    0.159    0.424   14.503
  178.250   89.124  157.873    0.119    0.383   14.218
  178.500   82.012  157.835    0.078    0.310   14.453
  178.750   87.012  157.802    0.151    0.334   14.964
  179.000   96.734  157.765    0.177    0.399   15.073
  179.250   93.463  157.723    0.194    0.406   15.052
  179.500   85.173  157.690    0.174    0.373   14.493
  179.750   80.131  158.145    0.138    0.345   13.211
  180.000   79.517  158.103    0.159    0.392   10.408
  180.250   91.599  158.065    0.200    0.427    8.277
  180.500  102.210  158.023    0.226    0.464    6.887
  180.750  107.502  157.503    0.221    0.490    6.219
  181.000  106.594  157.465    0.213    0.503    6.266
  181.250  103.323  157.920    0.194    0.471    7.172
