~VERSION INFORMATION
 VERS.                 2.0:   CWLS LOG ASCII STANDARD -VERSION 2.0
 WRAP.                  NO:   ONE LINE PER DEPTH STEP
~WELL INFORMATION BLOCK
#MNEM.UNIT           DATA                    DESCRIPTION OF MNEMONIC
#---------    -------------------            -------------------------------
# Generated from Intellog Unique Number	CS_71_72/WELL/2058
WELL.         MIC MAC LAC LA BICHE           : Well_name    - WELL
LOC .         00/10-21-071-14W4/0            : Location     - LOCATION
UWI .         00/10-21-071-14W4/0            : Uwi          - UNIQUE WELL ID
ENTR.         T                              : Entered      - ENTERED BY
SRVC.         SCHLUMBERGER                   : Scn          - SERVICE COMPANY
STRT.M        344.424                        : top_depth    - START DEPTH
STOP.M        548.674                        : bot_depth    - STOP DEPTH
STEP.M        0.25                           : increment    - STEP LENGTH
 NULL. -999.2500:NULL Value
~CURVE INFORMATION BLOCK
#MNEM UNIT       ERCB CURVE CODE    CURVE DESCRIPTION
#-----------   ------------------   ----------------------------------
DEPT.M        00 001 00 00         : DEPTH        - DEPTH
ILD .OHMM     00 120 00 00         : RESD         - DEEP RESISTIVITY (DIL)
GR  .API      00 310 00 00         : GR           - GAMMA RAY
DELT.US/F     00 520 00 00         : DELT         - SONIC TRAVEL TIME
~PARAMETER INFORMATION
#MNEM.UNIT           DATA             DESCRIPTION OF MNEMONIC
#---------         -----------     ------------------------------
GL  .M        654.832              : gl           - GROUND LEVEL ELEVATION
EREF.M        658.002              : kb           - ELEVATION OF DEPTH REFERENCE
DATM.M        658.002              : datum        - DATUM ELEVATION
TDD .M        573.024              : tdd          - TOTAL DEPTH DRILLER
RUN .         ONE                  : Run          - RUN NUMBER
ENG .         BILL                 : Engineer     - RECORDING ENGINEER
WIT .         JIM                  : Witness      - WITNESSED BY
MUD .         GEL                  : Mud_type     - MUD TYPE
MATR.         SANDSTONE            : Logunit      - NEUTRON MATRIX
TMAX.C        25.5556              : BHT          - MAXIMUM RECORDED TEMPERATURE
BHTD.M        573.024              : BHTDEP       - MAXIMUM RECORDED TEMPERATURE
RMT .C        25                   : MDTP         - TEMPERATURE OF MUD
MUDD.KG/M     9841.66              : MWT          - MUD DENSITY
NEUT.         1                    : NEUTRON      - NEUTRON TYPE
RESI.         0                    : RESIST       - RESISTIVITY TYPE
RM  .OHMM     3.4                  : RM           - RESISTIVITY OF MUD
RMC .OHMM     2.45                 : RMC          - RESISTIVITY OF MUD CAKE
RMF .OHMM     3.3                  : RMF          - RESISTIVITY OF MUD FILTRATE
SUFT.C        4                    : SUFT         - SURFACE TEMPERATURE
~A  DEPTH     RESD       GR     DELT
# ...
  398.674    6.910   72.550  394.989
  398.924    6.752   71.096  398.269
  399.174    6.676   70.118  398.198
  399.424    6.685   69.679  396.769
  399.674    6.688   69.754  394.017
  399.924    6.696   69.779  392.624
  400.174    6.706   70.330  391.883
  400.424    6.629   70.380  391.812
  400.674    6.634   70.944  391.741
  400.924    6.478   71.495  391.652
  401.174    6.404   72.046  391.581
  401.424    6.408   71.081  390.188
  401.674    6.252   70.617  388.777
  401.924    6.095   69.175  390.010
  402.174    6.099   68.222  391.315
  402.424    5.941   67.269  392.585
  402.674    5.867   66.818  393.166
  402.924    5.790   66.868  394.436
  403.174    5.716   67.406  395.052
  403.424    5.639   68.973  396.340
  403.674    5.483   71.028  398.279
  403.924    5.327   75.590  399.531
  404.174    5.248   80.165  400.800
  404.424    5.090   82.208  403.410
  404.674    4.935   81.756  406.690
  404.924    4.858   80.315  409.317
  405.174    4.948   80.377  413.937
  405.424    5.036   80.916  414.536
  405.674    5.375   80.966  408.434
  405.924    5.462   80.013  407.693
  406.174    5.717   77.042  410.285
  406.424    5.889   71.577  403.530
  406.674    6.061   64.595  386.018
  406.924    6.068   52.612  391.326
  407.174    5.995   48.650  399.967
  407.424    5.754   48.700  405.909
  407.674    5.594   49.753  403.176
  407.924    5.357   53.312  404.427
  408.174    5.280   53.864  407.725
  408.424    5.122   54.415  407.654
  408.674    5.047   54.465  408.923
  408.924    5.054   52.497  412.855
  409.174    5.061   49.037  414.160
  409.424    5.068   45.577  414.089
  409.674    5.075   42.130  416.011
  409.924    5.166   42.681  416.610
  410.174    5.172   43.232  412.536
  410.424    5.261   44.811  405.728
  410.674    5.267   45.337  405.640
  410.924    5.276   46.390  405.587
  411.174    5.039   46.929  405.533
  411.424    4.960   47.004  404.775
  411.674    4.882   46.527  401.353
  411.924    4.891   45.574  397.949
  412.174    4.983   43.130  393.857
  412.424    4.986   41.174  390.418
  412.674    5.079   40.722  394.386
  412.924    5.165   40.760  401.686
  413.174    5.172   41.812  409.005
  413.424    5.179   42.865  404.895
  413.674    5.106   44.419  399.445
  413.924    5.029   46.976  403.395
  414.174    4.957   49.545  408.033
  414.424    4.878   51.600  409.973
  414.674    4.804   51.149  409.231
  414.924    4.729   49.695  407.838
  415.174    4.734   49.243  406.409
  415.424    4.827   51.298  407.661
  415.674    4.996   53.341  408.966
  415.924    5.168   55.923  409.565
  416.174    5.340   55.459  406.813
  416.424    5.349   54.017  404.714
  416.674    5.272   54.055  406.001
  416.924    5.198   54.092  406.583
  417.174    5.122   56.160  406.530
  417.424    5.049   57.714  405.083
  417.674    5.052   60.270  404.377
  417.924    4.979   62.326  405.629
  418.174    4.987   62.388  407.568
  418.424    4.991   63.441  409.508
  418.674    4.917   61.485  409.437
  418.924    4.761   58.514  408.714
  419.174    4.682   57.561  405.927
  419.424    4.278   60.131  405.856
  419.674    4.036   61.183  409.171
  419.924    3.469   64.229  419.152
  420.174    3.390   70.295  429.151
  420.424    2.988   78.379  445.164
  420.674    2.909   75.421  451.812
  420.924    2.833   69.943  455.092
  421.174    3.007   64.478  400.686
  421.424    3.427   61.018  407.334
  421.674    3.847   56.556  409.944
  421.924    4.100   53.084  404.512
  422.174    4.853   49.636  395.041
  422.424    5.022   50.188  384.918
  422.674    5.362   62.270  386.187
  422.924    5.452   65.329  399.502
  423.174    5.457   65.391  400.807
  423.424    5.301   62.921  403.416
  423.674    5.141   61.968  400.647
  423.924    4.985   62.545  397.913
  424.174    4.908   62.569  401.863
  424.424    4.913   62.632  405.143
  424.674    4.920   62.682  408.405
  424.924    5.012   62.732  412.355
  425.174    5.101   61.779  410.291
  425.424    5.273   61.327  406.870
  425.674    5.446   61.878  405.458
  425.924    5.702   63.432  406.728
  426.174    5.874   64.485  409.337
  426.424    6.046   64.535  406.586
  426.674    6.218   62.065  393.782
  426.924    6.389   57.102  351.457
  427.174    6.561   59.658  344.684
  427.424    6.568   68.231  365.388
  427.674    6.575   70.788  380.748
  427.924    6.417   69.848  390.729
  428.174    6.096   68.895  393.339
  428.424    5.936   69.446  395.279
  428.674    5.532   69.985  397.218
  428.924    5.373   68.029  399.140
  429.174    5.134   64.068  400.445
  429.424    4.978   67.151  402.366
  429.674    4.983   68.179  402.983
  429.924    4.990   69.745  403.583
  430.174    4.995   70.296  404.852
  430.424    5.171   71.349  406.121
  430.674    5.343   72.402  408.025
  430.924    5.596   72.451  407.972
  431.174    5.851   71.499  408.554
  431.424    6.104   69.029  408.518
  431.674    6.609   65.569  408.447
  431.924    6.778   60.605  409.029
  432.174    7.447   57.133  406.277
  432.424    8.199   53.172  400.193
  432.674    8.699   48.208  209.677
  432.924    9.532   43.244  203.557
  433.174   10.282   38.782  219.587
  433.424   13.922   44.347  233.589
  433.674   16.737   52.419  237.557
  433.924   16.249   61.506  264.979
  434.174   15.181   69.578  392.325
  434.424   13.207   72.134  406.327
  434.674   11.397   73.688  404.916
  434.924    8.763   75.267  394.122
  435.174    7.448   76.307  388.002
  435.424    6.382   77.347  383.911
  435.674    5.730   78.926  384.492
  435.924    5.406   78.964  386.467
  436.174    5.249   79.528  403.820
  436.424    5.093   79.565  408.458
  436.674    5.099   77.634  412.390
  436.924    5.025   76.180  411.631
  437.174    5.030   75.190  409.585
  437.424    5.118   71.730  402.777
  437.674    5.209   67.267  398.686
  437.924    5.216   56.274  397.292
  438.174    5.304   52.815  391.860
  438.424    5.315   55.873  238.890
  438.674    5.484   67.968  276.365
  438.924    5.903   74.561  294.405
  439.174    6.653   74.586  307.755
  439.424    7.240   72.642  331.157
  439.674    6.502   71.188  360.590
  439.924    5.932   74.246  379.971
  440.174    5.526   76.803  393.303
  440.424    5.203   77.843  403.972
  440.674    4.880   77.893  409.915
  440.924    4.722   75.448  405.841
  441.174    4.564   74.985  398.381
  441.424    4.488   77.040  397.604
  441.674    4.496   77.591  398.239
  441.924    4.504   77.140  397.480
  442.174    4.594   77.703  397.427
  442.424    4.682   78.255  399.348
  442.674    4.771   78.292  401.976
  442.924    4.861   76.838  403.933
  443.174    4.951   74.882  405.855
  443.424    5.125   75.433  405.802
  443.674    5.216   76.486  405.713
  443.924    5.221   78.040  406.330
  444.174    5.228   81.637  407.599
  444.424    5.151   81.674  410.844
  444.674    5.076   81.210  412.131
  444.924    5.000   79.743  413.400
  445.174    5.007   77.788  413.329
  445.424    4.855   74.328  398.533
  445.674    4.858   67.860  338.096
  445.924    4.863   63.911  334.004
  446.174    4.871   66.481  357.388
  446.424    5.044   68.010  361.356
  446.674    5.299   70.077  376.028
  446.924    5.471   72.634  391.388
  447.174    5.152   75.680  395.338
  447.424    5.073   77.748  390.576
  447.674    4.750   76.795  385.144
  447.924    4.511   74.852  382.393
  448.174    4.432   74.375  385.672
  448.424    4.522   74.450  388.247
  448.674    4.695   74.976  388.193
  448.924    4.785   76.543  388.793
  449.174    4.381   78.109  392.743
  449.424    4.056   79.137  395.388
  449.674    3.649   82.721  404.029
  449.924    3.161   85.767  420.041
  450.174    2.590   88.825  430.040
  450.424    2.352   89.376  447.411
  450.674    2.276   87.922  467.444
  450.924    2.285   86.969  468.043
  451.174    2.371   86.028  471.993
  451.424    2.464   85.076  473.263
  451.674    2.635   83.108  470.529
  451.924    2.805   79.635  469.770
  452.174    3.228   77.692  399.298
  452.424    3.399   82.756  402.578
  452.674    3.817   85.312  415.240
