~VERSION INFORMATION
 VERS.                 2.0:   CWLS LOG ASCII STANDARD -VERSION 2.0
 WRAP.                  NO:   ONE LINE PER DEPTH STEP
~WELL INFORMATION BLOCK
#MNEM.UNIT           DATA                    DESCRIPTION OF MNEMONIC
#---------    -------------------            -------------------------------
# Generated from Intellog Unique Number	CS_77_79/WELL/1006
WELL.         NORTHSTAR THORNBURY            : Well_name    - WELL
LOC .         00/11-32-079-12W4/0            : Location     - LOCATION
UWI .         00/11-32-079-12W4/0            : Uwi          - UNIQUE WELL ID
ENTR.         JHS                            : Entered      - ENTERED BY
SRVC.         SCHLUMBERGER                   : Scn          - SERVICE COMPANY
STRT.M        250                            : top_depth    - START DEPTH
STOP.M        495                            : bot_depth    - STOP DEPTH
STEP.M        0.25                           : increment    - STEP LENGTH
 NULL. -999.2500:NULL Value
~CURVE INFORMATION BLOCK
#MNEM UNIT       ERCB CURVE CODE    CURVE DESCRIPTION
#-----------   ------------------   ----------------------------------
DEPT.M        00 001 00 00         : DEPTH        - DEPTH
DPHI.V/V      00 890 00 00         : PHID         - DENSITY POROSITY (LIMESTONE)
NPHI.V/V      00 330 00 00         : PHIN         - NEUTRON POROSITY (LIMESTONE)
GR  .API      00 310 00 00         : GR           - GAMMA RAY
ILD .OHMM     00 120 00 00         : RESD         - DEEP RESISTIVITY (DIL)
RHOB.KG/M3    00 350 00 00         : DENS         - BULK DENSITY
~PARAMETER INFORMATION
#MNEM.UNIT           DATA             DESCRIPTION OF MNEMONIC
#---------         -----------     ------------------------------
GL  .M        683.9                : gl           - GROUND LEVEL ELEVATION
EREF.M        687.9                : kb           - ELEVATION OF DEPTH REFERENCE
DATM.M        687.9                : datum        - DATUM ELEVATION
TDD .M        502                  : tdd          - TOTAL DEPTH DRILLER
RUN .         ONE                  : Run          - RUN NUMBER
ENG .         BILL                 : Engineer     - RECORDING ENGINEER
WIT .         JIM                  : Witness      - WITNESSED BY
MUD .         GEL                  : Mud_type     - MUD TYPE
MATR.         LIMESTONE            : Logunit      - NEUTRON MATRIX
TMAX.C        21.1                 : BHT          - MAXIMUM RECORDED TEMPERATURE
BHTD.M        502                  : BHTDEP       - MAXIMUM RECORDED TEMPERATURE
MATR.         1                    : LOGUNIT      - NEUTRON MATRIX
RMT .C        25                   : MDTP         - TEMPERATURE OF MUD
NEUT.         1                    : NEUTRON      - NEUTRON TYPE
RESI.         0                    : RESIST       - RESISTIVITY TYPE
RMC .OHMM     0.25                 : RMC          - RESISTIVITY OF MUD CAKE
RMF .OHMM     0.25                 : RMF          - RESISTIVITY OF MUD FILTRATE
SUFT.C        15                   : SUFT         - SURFACE TEMPERATURE
~A  DEPTH     PHID     PHIN       GR     RESD     DENS
# ...
  432.500    0.202    0.465  112.731    3.467 2364.010
  432.750    0.199    0.484  115.759    3.468 2370.140
  433.000    0.198    0.505  113.276    3.536 2372.080
  433.250    0.188    0.523  108.351    3.604 2388.630
  433.500    0.175    0.510  105.869    3.675 2411.430
  433.750    0.165    0.482  107.063    3.817 2427.950
  434.000    0.175    0.469  110.705    3.891 2411.190
  434.250    0.208    0.465  111.288    3.893 2354.920
  434.500    0.215    0.491  108.196    3.894 2342.310
  434.750    0.216    0.505  102.038    4.045 2340.110
  435.000    0.213    0.453   97.720    4.201 2346.230
  435.250    0.212    0.412   93.410    4.703 2348.210
  435.500    0.225    0.390   87.255    5.890 2325.230
  435.750    0.285    0.382   87.214    7.241 2223.190
  436.000    0.270    0.396   90.256    8.259 2248.040
  436.250    0.236    0.414   92.668    9.074 2306.170
  436.500    0.212    0.427   90.192    9.970 2347.660
  436.750    0.244    0.416   82.199   10.164 2293.440
  437.000    0.232    0.372   77.880   10.169 2314.130
  437.250    0.224    0.360   78.467   10.174 2326.520
  437.500    0.205    0.360   87.607    9.988 2359.670
  437.750    0.194    0.370   91.866    9.449 2378.300
  438.000    0.254    0.412   96.119    8.936 2276.230
  438.250    0.260    0.434   98.523    8.612 2265.730
  438.500    0.257    0.420  100.336    8.616 2269.760
  438.750    0.245    0.433  102.754    8.784 2290.450
  439.000    0.227    0.420  106.396    8.954 2321.550
  439.250    0.227    0.424  113.092    8.629 2321.440
  439.500    0.210    0.448  111.830    8.316 2350.440
  439.750    0.205    0.443  110.584    8.167 2358.650
  440.000    0.204    0.437  111.157    8.169 2360.630
  440.250    0.223    0.442  108.063    8.645 2329.320
  440.500    0.253    0.432  103.145    9.678 2277.190
  440.750    0.265    0.419   92.091   11.247 2256.270
  441.000    0.269    0.403   88.391   13.570 2249.920
  441.250    0.255    0.378   87.128   15.477 2274.780
  441.500    0.234    0.374   88.931   17.004 2310.010
  441.750    0.219    0.383   90.128   17.013 2334.870
  442.000    0.210    0.382   92.541   15.501 2351.350
  442.250    0.210    0.366   92.515   14.390 2351.280
  442.500    0.220    0.365   85.749   14.129 2334.520
  442.750    0.227    0.380   80.820   14.137 2321.930
  443.000    0.248    0.386   75.272   14.410 2286.460
  443.250    0.238    0.372   73.416   15.539 2302.980
  443.500    0.226    0.375   67.262   17.394 2323.660
  443.750    0.222    0.381   62.944   19.470 2329.770
  444.000    0.233    0.397   57.406   24.850 2310.970
  444.250    0.286    0.410   50.645   29.979 2221.410
  444.500    0.294    0.396   36.537   38.258 2206.720
  444.750    0.274    0.373   36.496   54.630 2241.970
  445.000    0.249    0.363   38.909   69.717 2283.480
  445.250    0.249    0.373   40.110   79.526 2283.370
  445.500    0.269    0.379   43.138   78.087 2249.940
  445.750    0.264    0.355   50.451   67.260 2258.160
  446.000    0.247    0.344   65.722   59.022 2287.160
  446.250    0.223    0.345   76.699   47.169 2328.670
  446.500    0.249    0.388   81.567   34.332 2284.870
  446.750    0.233    0.387   85.200   27.952 2311.760
  447.000    0.222    0.378   87.623   19.233 2330.390
  447.250    0.214    0.375   90.041   15.958 2344.810
  447.500    0.211    0.377   82.052   15.965 2348.910
  447.750    0.242    0.393   65.495   16.894 2296.780
  448.000    0.317    0.417   57.508   19.635 2167.700
  448.250    0.352    0.439   53.180   20.778 2107.260
  448.500    0.374    0.461   56.216   20.403 2069.690
  448.750    0.401    0.483   59.249   18.940 2023.810
  449.000    0.407    0.513   59.826   16.937 2013.310
  449.250    0.383    0.530   56.734   15.722 2054.800
  449.500    0.330    0.402   48.747   15.438 2146.190
  449.750    0.333    0.393   46.265   18.279 2139.810
  450.000    0.316    0.400   49.904   24.218 2168.850
  450.250    0.297    0.412   54.154   32.085 2202.010
  450.500    0.296    0.425   59.020   42.509 2203.970
  450.750    0.295    0.435   63.270   46.704 2205.970
  451.000    0.284    0.430   66.306   45.009 2224.530
  451.250    0.275    0.427   68.718   40.247 2239.040
  451.500    0.267    0.430   69.290   33.391 2253.470
  451.750    0.246    0.440   71.717   29.862 2288.730
  452.000    0.198    0.440   72.910   29.875 2371.810
  452.250    0.174    0.434   72.259   31.030 2413.310
  452.500    0.217    0.404   78.350   29.905 2338.320
  452.750    0.265    0.370   83.826   28.288 2257.070
  453.000    0.273    0.403   88.692   26.755 2242.380
  453.250    0.265    0.417   92.328   24.833 2256.830
  453.500    0.250    0.416   97.189   19.848 2281.690
  453.750    0.235    0.406  102.056   15.278 2308.630
  454.000    0.208    0.396  106.308   11.119 2354.270
  454.250    0.193    0.385  109.951   10.130 2379.120
  454.500    0.184    0.387  112.371    9.231 2395.630
  454.750    0.190    0.398  113.556    9.062 2385.120
  455.000    0.194    0.406  112.916    8.736 2378.790
  455.250    0.176    0.401  116.556    8.740 2409.880
  455.500    0.150    0.400  122.035    8.743 2453.440
  455.750    0.156    0.409  123.831    8.270 2442.910
  456.000    0.168    0.411  122.582    7.821 2421.990
  456.250    0.176    0.401  120.710    7.398 2409.420
  456.500    0.171    0.411  118.840    7.684 2417.610
  456.750    0.139    0.433  115.134    8.287 2471.600
  457.000    0.127    0.440  108.986    8.935 2492.280
  457.250    0.116    0.432  105.277    9.634 2510.890
  457.500    0.112    0.421  105.255   10.584 2519.100
  457.750    0.138    0.404  109.502   11.413 2473.220
  458.000    0.213    0.399  111.922   11.854 2346.220
  458.250    0.199    0.405  113.717   11.640 2368.990
  458.500    0.196    0.410  114.913   10.605 2375.100
  458.750    0.200    0.394  113.048   10.413 2368.750
  459.000    0.186    0.387  109.345   10.419 2391.520
  459.250    0.192    0.385  108.080   10.823 2381.010
  459.500    0.217    0.392  104.379   11.240 2339.290
  459.750    0.222    0.390  100.063   11.674 2330.850
  460.000    0.207    0.398   99.419   11.902 2355.710
  460.250    0.187    0.398  100.003   10.843 2390.970
  460.500    0.178    0.386  106.083    9.695 2405.400
  460.750    0.164    0.395  108.504    8.834 2430.230
  461.000    0.162    0.405  104.806    9.005 2432.210
  461.250    0.176    0.405   93.144    9.352 2409.210
  461.500    0.212    0.402   86.382   10.869 2346.710
  461.750    0.241    0.404   81.456   12.397 2298.730
  462.000    0.260    0.391   77.751   14.679 2265.330
  462.250    0.254    0.388   79.543   17.061 2275.640
  462.500    0.284    0.392   80.131   17.719 2223.520
  462.750    0.281    0.399   82.551   17.732 2229.640
  463.000    0.266    0.404   84.345   17.408 2254.490
  463.250    0.263    0.411   81.868   17.097 2260.620
  463.500    0.264    0.423   80.007   16.786 2258.440
  463.750    0.262    0.409   81.200   16.793 2262.470
  464.000    0.259    0.392   79.935   17.772 2266.530
  464.250    0.267    0.388   75.625   19.163 2253.930
  464.500    0.303    0.369   68.857   22.272 2191.410
  464.750    0.322    0.341   62.707   24.468 2160.100
  465.000    0.356    0.307   59.618   26.383 2101.740
  465.250    0.340    0.351   62.647   27.921 2128.670
  465.500    0.301    0.374   66.886   26.907 2195.110
  465.750    0.290    0.389   66.866   23.613 2213.730
  466.000    0.273    0.407   62.546   23.186 2242.740
  466.250    0.293    0.412   61.286   25.957 2209.330
  466.500    0.298    0.419   59.426   30.171 2200.910
  466.750    0.331    0.463   55.108   33.143 2144.630
  467.000    0.343    0.464   52.019   36.409 2123.710
  467.250    0.327    0.452   52.596   40.761 2150.630
  467.500    0.317    0.441   55.622   37.136 2167.160
  467.750    0.318    0.441   59.259   33.206 2167.060
  468.000    0.309    0.445   59.848   30.254 2181.500
  468.250    0.298    0.437   57.976   29.157 2200.120
  468.500    0.310    0.436   54.888   30.283 2179.190
  468.750    0.318    0.440   54.243   32.654 2166.610
