~VERSION INFORMATION
 VERS.                 2.0:   CWLS LOG ASCII STANDARD -VERSION 2.0
 WRAP.                  NO:   ONE LINE PER DEPTH STEP
~WELL INFORMATION BLOCK
#MNEM.UNIT           DATA                    DESCRIPTION OF MNEMONIC
#---------    -------------------            -------------------------------
# Generated from Intellog Unique Number	CW_79_81/WELL/903
WELL.         11-12-079-25W4                 : Well_name    - WELL
LOC .         00/11-12-079-25W4/0            : Location     - LOCATION
UWI .         00/11-12-079-25W4/0            : Uwi          - UNIQUE WELL ID
ENTR.         MAX                            : Entered      - ENTERED BY
SRVC.         SCHLUMBERGER                   : Scn          - SERVICE COMPANY
STRT.M        240                            : top_depth    - START DEPTH
STOP.M        455                            : bot_depth    - STOP DEPTH
STEP.M        0.25                           : increment    - STEP LENGTH
 NULL. -999.2500:NULL Value
~CURVE INFORMATION BLOCK
#MNEM UNIT       ERCB CURVE CODE    CURVE DESCRIPTION
#-----------   ------------------   ----------------------------------
DEPT.M        00 001 00 00         : DEPTH        - DEPTH
ILD .OHMM     00 120 00 00         : RESD         - DEEP RESISTIVITY (DIL)
NPHI.V/V      00 330 00 00         : PHIN         - NEUTRON POROSITY (SANDSTONE)
DPHI.V/V      00 890 00 00         : PHID         - DENSITY POROSITY (SANDSTONE)
CALI.MM       00 280 01 00         : CAL          - CALIPER
GR  .API      00 310 00 00         : GR           - GAMMA RAY
~PARAMETER INFORMATION
#MNEM.UNIT           DATA             DESCRIPTION OF MNEMONIC
#---------         -----------     ------------------------------
GL  .M        559.5                : gl           - GROUND LEVEL ELEVATION
EREF.M        563                  : kb           - ELEVATION OF DEPTH REFERENCE
DATM.M        559.5                : datum        - DATUM ELEVATION
TDD .M        455                  : tdd          - TOTAL DEPTH DRILLER
RUN .         ONE                  : Run          - RUN NUMBER
ENG .         BILL                 : Engineer     - RECORDING ENGINEER
WIT .         JIM                  : Witness      - WITNESSED BY
MUD .         GEL                  : Mud_type     - MUD TYPE
MATR.         SANDSTONE            : Logunit      - NEUTRON MATRIX
TMAX.C        27.2                 : BHT          - MAXIMUM RECORDED TEMPERATURE
BHTD.M        455                  : BHTDEP       - MAXIMUM RECORDED TEMPERATURE
RMT .C        12.2                 : MDTP         - TEMPERATURE OF MUD
MUDD.KG/M     1080                 : MWT          - MUD DENSITY
NEUT.         1                    : NEUTRON      - NEUTRON TYPE
RESI.         0                    : RESIST       - RESISTIVITY TYPE
RM  .OHMM     5.14                 : RM           - RESISTIVITY OF MUD
RMC .OHMM     0                    : RMC          - RESISTIVITY OF MUD CAKE
RMF .OHMM     5.24                 : RMF          - RESISTIVITY OF MUD FILTRATE
SUFT.C        -20                  : SUFT         - SURFACE TEMPERATURE
~A  DEPTH     RESD     PHIN     PHID      CAL       GR
# ...
  386.000   12.856    0.417    0.181  244.273  100.643
  386.250   11.606    0.411    0.179  243.744  102.124
  386.500   10.774    0.439    0.183  243.718  100.910
  386.750   10.477    0.431    0.192  242.690  101.494
  387.000   10.671    0.406    0.192  242.664  103.577
  387.250   11.177    0.391    0.188  242.664  104.163
  387.500   11.706    0.372    0.182  242.610  103.846
  387.750   12.374    0.364    0.179  242.590   99.035
  388.000   12.959    0.367    0.170  242.062   96.318
  388.250   13.199    0.387    0.172  242.039   99.602
  388.500   13.198    0.394    0.176  242.014  104.383
  388.750   12.833    0.376    0.176  242.484  104.068
  389.000   12.024    0.364    0.183  244.454  105.250
  389.250   10.856    0.385    0.188  247.426  104.335
  389.500   10.078    0.415    0.206  248.403  101.923
  389.750    9.530    0.426    0.208  246.875   97.709
  390.000    9.354    0.404    0.190  245.353   97.092
  390.250    9.527    0.377    0.180  242.326   99.479
  390.500   10.452    0.383    0.174  241.301  100.362
  390.750   12.123    0.402    0.170  241.779   97.049
  391.000   14.866    0.389    0.171  242.249   85.640
  391.250   15.861    0.355    0.161  242.227   82.627
  391.500   18.226    0.338    0.145  241.202   89.205
  391.750   20.751    0.401    0.165  240.676   86.793
  392.000   23.408    0.382    0.168  241.150   81.681
  392.250   26.899    0.319    0.133  241.621   75.368
  392.500   32.080    0.266    0.082  239.094   75.055
  392.750   38.614    0.265    0.105  236.067   75.937
  393.000   39.697    0.366    0.145  235.548   75.622
  393.250   33.277    0.395    0.232  236.521   76.206
  393.500   29.490    0.407    0.229  238.491   79.188
  393.750   29.486    0.405    0.228  240.467   78.873
  394.000   30.312    0.383    0.211  241.940   76.759
  394.250   30.028    0.358    0.185  241.408   74.346
  394.500   28.135    0.316    0.110  240.383   78.227
  394.750   25.878    0.312    0.060  240.361   90.201
  395.000   24.701    0.375    0.095  240.335  100.380
  395.250   23.797    0.390    0.162  240.312   96.168
  395.500   23.356    0.393    0.218  240.783   89.557
  395.750   23.356    0.384    0.239  240.757   89.240
  396.000   23.564    0.385    0.244  241.225   87.126
  396.250   24.453    0.399    0.229  241.199   88.312
  396.500   30.265    0.372    0.200  241.199   84.699
  396.750   34.458    0.260    0.149  240.645   70.891
  397.000   40.339    0.225    0.064  239.623   66.080
  397.250   47.223    0.208    0.042  239.097   59.769
  397.500   51.805    0.214    0.032  239.575   61.552
  397.750   52.281    0.233    0.039  240.052   68.132
  398.000   51.310    0.238    0.034  240.023   72.313
  398.250   48.075    0.242    0.052  239.997   72.895
  398.500   43.809    0.310    0.142  239.974   74.381
  398.750   27.544    0.363    0.191  240.448   77.961
  399.000   21.437    0.400    0.210  240.416   80.945
  399.250   17.314    0.408    0.178  240.893   85.426
  399.500   15.344    0.394    0.163  240.864   87.809
  399.750   14.113    0.359    0.154  240.842   87.490
  400.000   13.723    0.340    0.127  240.813   88.374
  400.250   13.221    0.355    0.119  241.287   91.358
  400.500   12.976    0.374    0.135  241.757   94.942
  400.750   12.854    0.377    0.159  241.738   97.623
  401.000   13.214    0.372    0.170  240.710   96.106
  401.250   13.586    0.363    0.190  238.689   92.492
  401.500   14.097    0.356    0.198  237.164   92.778
  401.750   14.359    0.377    0.181  238.134   95.760
  402.000   14.357    0.375    0.178  240.101   98.745
  402.250   13.960    0.370    0.187  240.581  102.924
  402.500   13.325    0.398    0.191  240.555  103.210
  402.750   13.078    0.412    0.185  240.529  100.497
  403.000   13.078    0.397    0.171  240.004   96.884
  403.250   12.833    0.386    0.168  239.975   96.265
  403.500   12.713    0.381    0.168  239.946   98.348
  403.750   12.594    0.388    0.162  239.920   97.433
  404.000   12.246    0.395    0.152  240.401   96.817
  404.250   12.131    0.390    0.140  240.875  100.102
  404.500   12.131    0.394    0.160  240.849  100.385
  404.750   12.014    0.409    0.155  240.817   97.671
  405.000   12.013    0.413    0.161  239.795   94.660
  405.250   12.350    0.407    0.176  238.770   91.647
  405.500   12.815    0.383    0.175  238.738   92.227
  405.750   13.053    0.384    0.158  238.715   95.211
  406.000   13.051    0.390    0.143  238.689   93.995
  406.250   12.928    0.381    0.138  238.660   91.883
  406.500   12.571    0.369    0.162  238.641   91.268
  406.750   12.111    0.383    0.175  239.112   94.252
  407.000   11.668    0.410    0.179  240.082   99.033
  407.250   11.452    0.398    0.166  240.562  102.315
  407.500   11.449    0.373    0.153  240.530  102.594
  407.750   11.343    0.366    0.174  240.511   97.786
  408.000   11.553    0.398    0.169  240.485   93.871
  408.250   11.659    0.403    0.148  240.459   98.055
  408.500   11.657    0.399    0.166  239.428   98.639
  408.750   11.764    0.394    0.150  238.403   95.026
  409.000   12.551    0.388    0.130  237.378   89.315
  409.250   14.028    0.377    0.133  236.353   87.201
  409.500   15.971    0.370    0.173  236.827   88.980
  409.750   18.352    0.364    0.190  237.803   87.466
  410.000   20.321    0.364    0.179  239.273   85.653
  410.250   21.283    0.361    0.180  239.747   85.338
  410.500   21.678    0.367    0.209  239.222   88.618
  410.750   21.877    0.385    0.216  239.193   91.001
  411.000   22.491    0.380    0.204  238.671   87.690
  411.250   24.219    0.381    0.177  238.645   81.079
  411.500   26.082    0.363    0.154  239.112   77.167
  411.750   29.421    0.320    0.123  239.093   76.250
  412.000   30.813    0.300    0.082  238.068   79.832
  412.250   29.686    0.303    0.100  237.543   81.316
  412.500   28.336    0.348    0.137  236.518   80.699
  412.750   24.880    0.396    0.153  236.485   80.981
  413.000   20.471    0.402    0.158  236.466   78.871
  413.250   18.312    0.399    0.163  237.440   72.556
  413.500   16.379    0.347    0.146  238.906   74.643
  413.750   15.347    0.327    0.152  239.886   81.822
  414.000   14.786    0.360    0.168  241.353   88.102
  414.250   13.854    0.363    0.159  241.833   91.984
  414.500   13.102    0.362    0.143  241.801   96.165
  414.750   12.162    0.366    0.154  241.779  101.846
  415.000   11.827    0.372    0.166  240.750  104.826
  415.250   11.714    0.380    0.162  239.728  107.209
  415.500   11.605    0.387    0.157  238.700  107.194
  415.750   12.043    0.377    0.157  237.672  100.885
  416.000   13.334    0.301    0.128  237.153   85.579
  416.250   15.323    0.274    0.087  237.127   75.371
  416.500   16.967    0.260    0.050  237.102   75.355
  416.750   18.102    0.286    0.114  237.572   87.631
  417.000   17.932    0.321    0.152  238.046   96.309
  417.250   16.646    0.333    0.164  239.023   98.390
  417.500   15.453    0.339    0.153  240.992  101.970
  417.750   14.888    0.327    0.136  241.469  106.455
  418.000   14.612    0.344    0.145  241.441  107.937
  418.250   14.475    0.356    0.160  240.409  110.319
  418.500   13.945    0.358    0.169  239.387  112.704
  418.750   12.707    0.360    0.161  238.862  113.286
  419.000   12.357    0.354    0.143  238.833  111.474
  419.250   12.586    0.346    0.145  239.307  104.564
  419.500   13.429    0.338    0.145  239.284   98.253
  419.750   14.461    0.329    0.140  238.759   94.636
  420.000   16.012    0.322    0.133  238.733  101.819
  420.250   17.730    0.325    0.138  238.711  106.900
  420.500   18.059    0.335    0.166  239.681  109.581
  420.750   16.609    0.362    0.148  240.158  104.169
  421.000   15.854    0.364    0.138  240.629  102.655
  421.250   15.851    0.329    0.119  240.600  100.539
  421.500   16.757    0.318    0.100  239.575  103.220
  421.750   16.294    0.374    0.138  238.550   93.615
  422.000   15.409    0.331    0.244  237.521   75.910
  422.250   15.695    0.236    0.261  236.003   66.902
