~VERSION INFORMATION
 VERS.                 2.0:   CWLS LOG ASCII STANDARD -VERSION 2.0
 WRAP.                  NO:   ONE LINE PER DEPTH STEP
~WELL INFORMATION BLOCK
#MNEM.UNIT           DATA                    DESCRIPTION OF MNEMONIC
#---------    -------------------            -------------------------------
# Generated from Intellog Unique Number	CW_70_72/WELL/1029
NULL.         -999.25                        : NULL_VALUE
WELL.         SUNDANCE ET AL SMITH 10-01     : Well_name    - WELL              
LOC .         10-01-071-23W4                 : Location     - LOCATION          
UWI .         00/10-01-071-23W4/0            : Uwi          - UNIQUE WELL ID    
ENTR.         J                              : Entered      - ENTERED BY        
SRVC.         SCHLUMBERGER                   : Scn          - SERVICE COMPANY   
DATE.         20 FEB 76                      : Date         - LOG DATE          
STRT.M        414.528                        : top_depth    - START DEPTH       
STOP.M        594.278                        : bot_depth    - STOP DEPTH        
STEP.M        0.25                           : increment    - STEP LENGTH       
~CURVE INFORMATION BLOCK
#MNEM UNIT       ERCB CURVE CODE    CURVE DESCRIPTION
#-----------   ------------------   ----------------------------------
DEPT.M        00 001 00 00         : DEPTH        - DEPTH                       
DPHI.V/V      00 890 00 00         : PHID         - DENSITY POROSITY (SANDSTONE)
NPHI.V/V      00 330 00 00         : PHIN         - NEUTRON POROSITY (SANDSTONE)
GR  .API      00 310 00 00         : GR           - GAMMA RAY                   
CALI.MM       00 280 01 00         : CAL          - CALIPER                     
ILD .OHMM     00 120 00 00         : RESD         - DEEP RESISTIVITY (DIL)      
~PARAMETER INFORMATION       
#MNEM.UNIT           DATA             DESCRIPTION OF MNEMONIC
#---------         -----------     ------------------------------
GL  .M        658.216              : gl           - GROUND LEVEL ELEVATION      
EREF.M        661.416              : kb           - ELEVATION OF DEPTH REFERENCE
DATM.M        658.216              : datum        - DATUM ELEVATION             
TDD .M        622.097              : tdd          - TOTAL DEPTH DRILLER         
RUN .         ONE                  : Run          - RUN NUMBER                  
BASE.         EDM                  : Branch       - HOME BASE OF LOGGING UNIT   
MUD .         GEL                  : Mud_type     - MUD TYPE                    
MATR.         SANDSTONE            : Logunit      - NEUTRON MATRIX              
TMAX.C        26.6667              : BHT          - MAXIMUM RECORDED TEMPERATURE
BHTD.M        622.097              : BHTDEP       - MAXIMUM RECORDED TEMPERATURE
RMT .C        18.8889              : MDTP         - TEMPERATURE OF MUD          
MUDD.KG/M     0                    : MWT          - MUD DENSITY                 
NEUT.         1                    : NEUTRON      - NEUTRON TYPE                
RESI.         0                    : RESIST       - RESISTIVITY TYPE            
RM  .OHMM     1.56                 : RM           - RESISTIVITY OF MUD          
RMC .OHMM     0                    : RMC          - RESISTIVITY OF MUD CAKE     
RMF .OHMM     1.85                 : RMF          - RESISTIVITY OF MUD FILTRATE 
SUFT.C        -17.7778             : SUFT         - SURFACE TEMPERATURE         
~A  DEPTH     PHID     PHIN       GR      CAL     RESD
# ...
  560.528    0.180    0.392  111.442  163.559    5.868
  560.778    0.186    0.384  108.250  164.146    6.067
  561.028    0.176    0.386  105.630  163.977    6.250
  561.278    0.168    0.391  101.727  163.484    6.207
  561.528    0.153    0.397  101.884  163.198    5.944
  561.778    0.140    0.402  105.714  162.813    5.734
  562.028    0.145    0.404  109.802  162.531    5.592
  562.278    0.165    0.396  113.827  163.451    5.585
  562.528    0.170    0.404  112.050  164.591    5.608
  562.778    0.172    0.428  113.369  165.404    5.746
  563.028    0.154    0.421  117.391  165.989    5.833
  563.278    0.158    0.414  119.352  166.040    5.911
  563.528    0.153    0.417  118.993  166.082    5.967
  563.778    0.132    0.407  118.828  165.591    6.026
  564.028    0.109    0.405  119.242  165.193    6.050
  564.278    0.141    0.410  120.365  164.475    6.064
  564.528    0.134    0.404  123.233  163.544    6.101
  564.778    0.136    0.390  121.260  162.824    6.193
  565.028    0.158    0.383  113.166  162.003    6.801
  565.278    0.168    0.377  103.525  160.847    7.960
  565.528    0.169    0.373   97.106  158.929    9.199
  565.778    0.126    0.353   86.821  156.689   10.400
  566.028    0.088    0.305   84.271  156.621   11.420
  566.278    0.097    0.310   92.101  157.877   11.915
  566.528    0.136    0.341   94.124  159.006   12.162
  566.778    0.174    0.364   92.606  159.383   12.235
  567.028    0.165    0.341   86.961  157.359   11.780
  567.278    0.129    0.341   90.211  157.291   10.430
  567.528    0.157    0.383   89.722  158.102    8.368
  567.778    0.146    0.383   88.204  159.362    8.191
  568.028    0.099    0.361   91.584  159.728    8.438
  568.278    0.112    0.395   98.447  159.993    8.036
  568.528    0.138    0.396  103.757  160.271    7.154
  568.778    0.138    0.376  105.462  159.983    6.450
  569.028    0.130    0.371  104.588  159.587    5.988
  569.278    0.127    0.384  104.230  158.657    6.113
  569.528    0.107    0.401  101.679  157.933    6.774
  569.778    0.071    0.362   94.227  156.565    7.506
  570.028    0.042    0.320   94.517  155.413    8.850
  570.278    0.033    0.300   99.568  154.911    9.421
  570.528    0.082    0.326  107.008  155.073    8.731
  570.778    0.124    0.385  113.160  155.662    8.061
  571.028    0.131    0.387  111.126  156.472    7.216
  571.278    0.105    0.375  109.541  157.176    6.760
  571.528    0.111    0.372  110.086  157.770    6.521
  571.778    0.130    0.386  110.439  158.145    6.489
  572.028    0.149    0.401  110.529  158.411    6.708
  572.278    0.146    0.398  107.979  158.457    7.064
  572.528    0.127    0.383  102.849  158.499    7.465
  572.778    0.077    0.327  101.588  158.559    7.662
  573.028    0.056    0.313  105.353  158.712    7.736
  573.278    0.087    0.323  109.249  158.647    7.754
  573.528    0.108    0.340  111.597  158.467    7.715
  573.778    0.094    0.354  110.529  158.522    7.565
  574.028    0.082    0.346  111.975  158.347    7.418
  574.278    0.089    0.357  116.644  158.282    7.222
  574.528    0.129    0.365  119.061  158.668    7.005
  574.778    0.137    0.347  119.730  158.928    6.782
  575.028    0.132    0.351  119.951  159.077    6.662
  575.278    0.124    0.364  120.364  159.454    6.826
  575.528    0.115    0.364  115.879  159.724    7.161
  575.778    0.106    0.344  105.787  159.772    7.749
  576.028    0.095    0.331   91.570  159.928    8.825
  576.278    0.086    0.325   79.609  160.078   10.161
  576.528    0.079    0.293   68.679  160.128   10.777
  576.778    0.053    0.237   76.894  159.962   10.190
  577.028    0.053    0.308   88.716  159.676    8.972
  577.278    0.080    0.343   97.447  159.505    8.284
  577.528    0.087    0.362   99.794  159.221    7.663
  577.778    0.068    0.355  101.950  158.834    7.075
  578.028    0.049    0.336  105.783  158.660    6.151
  578.278    0.075    0.384  117.024  158.599    4.962
  578.528    0.163    0.455  129.880  160.613    3.796
  578.778    0.197    0.476  138.222  164.153    3.085
  579.028    0.201    0.499  139.087  166.707    2.890
  579.278    0.194    0.513  133.381  167.409    3.151
  579.528    0.191    0.476  127.670  170.512    3.715
  579.778    0.176    0.413  121.509  172.198    4.568
  580.028    0.169    0.383  113.997  165.149    5.699
  580.278    0.103    0.361  112.348  163.347    6.419
  580.528    0.047    0.353  116.049  162.517    6.884
  580.778    0.045    0.357  123.425  161.479    6.912
  581.028    0.094    0.360  128.288  160.869    6.511
  581.278    0.080    0.371  125.932  160.159    6.056
  581.528    0.057    0.395  122.351  159.978    5.217
  581.778    0.082    0.408  120.958  159.697    3.350
  582.028    0.135    0.404  118.151  159.417    1.682
  582.278    0.085    0.389  112.248  159.135    1.155
  582.528    0.049    0.337   97.578  158.319    1.042
  582.778    0.001    0.282   89.355  157.595    1.022
  583.028   -0.016    0.238   86.354  156.763    1.037
  583.278   -0.001    0.246   95.987  156.054    1.084
  583.528    0.042    0.282  109.035  156.427    1.173
  583.778    0.080    0.328  115.252  158.000    1.371
  584.028    0.099    0.382  119.405  159.681    1.933
  584.278    0.117    0.413  120.785  161.587    2.283
  584.528    0.100    0.407  117.913  162.834    3.195
  584.778    0.131    0.397  118.200  163.978    4.241
  585.028    0.135    0.391  119.901  164.783    4.649
  585.278    0.108    0.412  122.830  165.816    4.736
  585.528    0.111    0.415  123.245  166.622    4.628
  585.778    0.111    0.413  122.567  167.547    4.513
  586.028    0.103    0.427  121.431  167.810    4.370
  586.278    0.088    0.428  120.428  168.511    4.372
  586.528    0.058    0.408  118.779  168.779    4.612
  586.778    0.046    0.398  115.263  168.938    4.605
  587.028    0.067    0.397  115.612  169.096    4.475
  587.278    0.120    0.408  114.932  169.140    4.869
  587.528    0.120    0.399  113.800  169.080    5.415
  587.778    0.091    0.384  111.830  169.018    5.850
  588.028    0.065    0.368  110.373  169.058    5.993
  588.278    0.039    0.355  109.756  169.109    5.749
  588.528   -0.016    0.336  115.522  168.723    5.516
  588.778    0.048    0.385  124.831  167.999    5.273
  589.028    0.074    0.413  126.728  167.288    5.040
  589.278    0.062    0.419  127.143  166.678    4.915
  589.528    0.071    0.400  127.752  166.065    4.891
  589.778    0.073    0.383  129.325  165.570    5.002
  590.028    0.057    0.389  132.320  164.742    5.059
  590.278    0.066    0.425  135.375  163.587    5.136
  590.528    0.056    0.393  134.890  162.108    5.320
  590.778    0.077    0.345  131.500  166.190    5.581
  591.028    0.099    0.290  115.734  168.749    6.252
  591.278    0.112    0.256   98.489  157.991    7.829
  591.528    0.133    0.277   90.716  153.895   10.527
  591.778    0.205    0.279   78.498  153.391   15.225
  592.028    0.251    0.266   61.830  153.005   20.583
  592.278    0.219    0.221   19.831  150.866   25.868
  592.528    0.193    0.166    8.707  146.874   31.005
  592.778    0.180    0.189    7.252  143.865   37.434
  593.028    0.146    0.207    7.989  140.423   44.137
  593.278    0.118    0.222    9.696  138.067   50.728
  593.528    0.139    0.237   10.300  135.931   56.726
  593.778    0.154    0.253    8.846  134.884   62.973
  594.028    0.166    0.252    7.072  134.603   70.298
  594.278    0.168    0.234    5.679  134.325   76.771
