~VERSION INFORMATION
 VERS.                 2.0:   CWLS LOG ASCII STANDARD -VERSION 2.0
 WRAP.                  NO:   ONE LINE PER DEPTH STEP
~WELL INFORMATION BLOCK
#MNEM.UNIT           DATA                    DESCRIPTION OF MNEMONIC
#---------    -------------------            -------------------------------
# Generated from Intellog Unique Number	CW_70_72/WELL/1041
NULL.         -999.25                        : NULL_VALUE
WELL.         HOME ALMX MITSUE 10-23         : Well_name    - WELL              
LOC .         10-23-071-04W5                 : Location     - LOCATION          
UWI .         00/10-23-071-04W5/0            : Uwi          - UNIQUE WELL ID    
ENTR.         JAYE                           : Entered      - ENTERED BY        
SRVC.         SCHLUMBERGER                   : Scn          - SERVICE COMPANY   
DATE.         20 FEB 74                      : Date         - LOG DATE          
STRT.M        502.92                         : top_depth    - START DEPTH       
STOP.M        731.42                         : bot_depth    - STOP DEPTH        
STEP.M        0.25                           : increment    - STEP LENGTH       
~CURVE INFORMATION BLOCK
#MNEM UNIT       ERCB CURVE CODE    CURVE DESCRIPTION
#-----------   ------------------   ----------------------------------
DEPT.M        00 001 00 00         : DEPTH        - DEPTH                       
DPHI.V/V      00 890 00 00         : PHID         - DENSITY POROSITY (SANDSTONE)
NPHI.V/V      00 330 00 00         : PHIN         - NEUTRON POROSITY (SANDSTONE)
GR  .API      00 310 00 00         : GR           - GAMMA RAY                   
CALI.MM       00 280 01 00         : CAL          - CALIPER                     
ILD .OHMM     00 120 00 00         : RESD         - DEEP RESISTIVITY (DIL)      
~PARAMETER INFORMATION       
#MNEM.UNIT           DATA             DESCRIPTION OF MNEMONIC
#---------         -----------     ------------------------------
GL  .M        670.011              : gl           - GROUND LEVEL ELEVATION      
EREF.M        674.218              : kb           - ELEVATION OF DEPTH REFERENCE
DATM.M        670.011              : datum        - DATUM ELEVATION             
TDD .M        760.476              : tdd          - TOTAL DEPTH DRILLER         
RUN .         ONE                  : Run          - RUN NUMBER                  
BASE.         EDM                  : Branch       - HOME BASE OF LOGGING UNIT   
MUD .         GEL                  : Mud_type     - MUD TYPE                    
MATR.         SANDSTONE            : Logunit      - NEUTRON MATRIX              
TMAX.C        26.6667              : BHT          - MAXIMUM RECORDED TEMPERATURE
BHTD.M        763.219              : BHTDEP       - MAXIMUM RECORDED TEMPERATURE
RMT .C        10                   : MDTP         - TEMPERATURE OF MUD          
MUDD.KG/M     1128                 : MWT          - MUD DENSITY                 
NEUT.         1                    : NEUTRON      - NEUTRON TYPE                
RESI.         0                    : RESIST       - RESISTIVITY TYPE            
RM  .OHMM     5.97                 : RM           - RESISTIVITY OF MUD          
RMC .OHMM     3.87                 : RMC          - RESISTIVITY OF MUD CAKE     
RMF .OHMM     0.37                 : RMF          - RESISTIVITY OF MUD FILTRATE 
SUFT.C        0                    : SUFT         - SURFACE TEMPERATURE         
~A  DEPTH     PHID     PHIN       GR      CAL     RESD
# ...
  612.420    0.362    0.630   77.894  150.088    5.231
  612.670    0.277    0.549   75.598  151.730    4.688
  612.920    0.233    0.489   78.710  152.968    4.118
  613.170    0.191    0.471   83.140  153.772    3.539
  613.420    0.240    0.463   88.264  152.544    2.942
  613.670    0.250    0.494   85.277  148.543    2.632
  613.920    0.256    0.499   77.767  147.637    2.333
  614.170    0.282    0.481   70.379  149.279    2.177
  614.420    0.286    0.477   70.158  150.625    2.038
  614.670    0.272    0.473   68.681  152.268    1.950
  614.920    0.268    0.463   70.722  152.968    1.964
  615.170    0.260    0.477   73.207  153.436    1.975
  615.420    0.251    0.498   74.552  153.291    2.007
  615.670    0.243    0.493   75.404  152.595    2.070
  615.920    0.233    0.481   76.758  150.516    2.128
  616.170    0.243    0.470   75.029  148.436    2.155
  616.420    0.267    0.455   73.610  147.317    2.170
  616.670    0.257    0.468   74.211  147.262    2.190
  616.920    0.265    0.451   74.807  146.882    2.218
  617.170    0.273    0.439   75.464  146.409    2.222
  617.420    0.266    0.462   76.882  145.920    2.181
  617.670    0.258    0.475   76.599  145.559    2.145
  617.920    0.238    0.483   74.367  144.969    2.133
  618.170    0.235    0.490   75.905  144.920    2.133
  618.420    0.242    0.504   76.819  144.642    2.145
  618.670    0.261    0.487   76.154  144.600    2.220
  618.920    0.261    0.389   75.623  144.647    2.366
  619.170    0.217    0.358   68.927  144.910    2.798
  619.420    0.133    0.326   69.398  145.508    3.809
  619.670    0.086    0.294   64.904  148.111    4.706
  619.920    0.089    0.275   57.831  151.369    5.944
  620.170    0.119    0.301   54.467  156.013    5.976
  620.420    0.144    0.434   57.767  157.134    4.619
  620.670    0.172    0.501   62.830  155.907    3.690
  620.920    0.253    0.488   67.761  153.295    2.853
  621.170    0.266    0.455   71.187  150.784    2.438
  621.420    0.264    0.444   73.295  148.602    2.181
  621.670    0.261    0.453   69.678  146.202    2.091
  621.920    0.275    0.449   64.808  144.334    2.091
  622.170    0.280    0.477   61.883  143.634    2.090
  622.420    0.277    0.486   63.991  143.372    2.102
  622.670    0.282    0.451   67.163  143.852    2.128
  622.920    0.281    0.458   68.830  145.608    2.155
  623.170    0.271    0.494   71.121  147.376    2.171
  623.420    0.252    0.490   74.613  148.923    2.179
  623.670    0.260    0.480   77.599  149.616    2.170
  623.920    0.272    0.474   75.805  149.562    2.170
  624.170    0.268    0.481   73.635  149.081    2.198
  624.420    0.265    0.491   70.714  148.915    2.218
  624.670    0.268    0.479   68.291  148.977    2.242
  624.920    0.266    0.456   68.637  148.916    2.237
  625.170    0.260    0.457   67.913  149.286    2.217
  625.420    0.256    0.468   68.763  149.243    2.213
  625.670    0.246    0.464   70.679  149.615    2.249
  625.920    0.242    0.442   72.157  149.453    2.324
  626.170    0.253    0.420   72.001  149.403    2.392
  626.420    0.250    0.396   70.837  148.491    2.554
  626.670    0.229    0.361   68.854  147.801    2.934
  626.920    0.216    0.386   71.466  147.428    3.267
  627.170    0.210    0.408   70.301  147.480    3.527
  627.420    0.243    0.444   68.321  148.285    3.110
  627.670    0.248    0.440   70.049  151.215    2.906
  627.920    0.237    0.449   71.277  153.936    2.776
  628.170    0.217    0.412   71.810  155.482    2.932
  628.420    0.183    0.357   70.771  156.174    3.487
  628.670    0.156    0.320   67.597  154.095    4.559
  628.920    0.127    0.288   61.845  152.656    5.265
  629.170    0.089    0.293   53.702  154.627    5.736
  629.420    0.065    0.329   49.776  154.256    5.048
  629.670    0.174    0.404   52.636  149.611    4.362
  629.920    0.223    0.430   62.033  145.934    3.555
  630.170    0.246    0.434   68.413  143.646    2.945
  630.420    0.238    0.464   71.400  141.665    2.611
  630.670    0.224    0.477   73.316  141.721    2.554
  630.920    0.231    0.456   75.544  143.908    2.558
  631.170    0.219    0.433   77.401  147.058    2.610
  631.420    0.204    0.432   79.694  150.305    2.736
  631.670    0.193    0.430   82.054  151.852    2.900
  631.920    0.200    0.398   79.633  151.698    3.265
  632.170    0.191    0.365   74.067  151.325    3.723
  632.420    0.165    0.330   71.335  151.273    4.223
  632.670    0.145    0.335   65.896  151.006    4.509
  632.920    0.216    0.406   64.419  149.245    3.989
  633.170    0.228    0.443   68.031  145.886    3.447
  633.420    0.225    0.455   73.407  144.118    3.192
  633.670    0.229    0.453   79.662  143.754    2.994
  633.920    0.228    0.454   84.592  143.696    2.983
  634.170    0.197    0.445   85.822  144.173    3.077
  634.420    0.181    0.408   84.470  144.757    3.214
  634.670    0.170    0.377   85.633  145.884    3.339
  634.920    0.156    0.391   80.191  148.391    3.413
  635.170    0.151    0.432   76.453  151.649    3.456
  635.420    0.194    0.441   79.188  151.701    3.449
  635.670    0.192    0.448   87.267  143.860    3.449
  635.920    0.184    0.454   89.559  138.047    3.480
  636.170    0.172    0.463   90.217  142.151    3.518
  636.420    0.176    0.473   91.066  146.895    3.582
  636.670    0.160    0.490   92.919  151.856    3.661
  636.920    0.143    0.539   96.409  152.871    3.825
  637.170    0.129    0.559   98.704  152.607    3.902
  637.420    0.139    0.443   99.680  152.650    3.909
  637.670    0.146    0.425   98.322  152.388    3.930
  637.920    0.136    0.434   95.656  152.124    3.929
  638.170    0.158    0.451   93.990  152.170    3.900
  638.420    0.164    0.471   96.722  152.339    3.864
  638.670    0.158    0.471   96.378  152.708    3.794
  638.920    0.169    0.463   93.894  152.764    3.704
  639.170    0.178    0.446   95.433  151.963    3.591
  639.420    0.190    0.420   94.018  150.103    3.513
  639.670    0.200    0.433   93.104  143.650    3.399
  639.920    0.191    0.451   92.383  140.819    3.367
  640.170    0.192    0.448   93.972  152.760    3.404
  640.420    0.194    0.451   91.417  147.575    3.422
  640.670    0.185    0.457   89.498  151.007    3.466
  640.920    0.181    0.476   92.735  151.965    3.523
  641.170    0.166    0.529   95.082  152.379    3.581
  641.420    0.145    0.579   97.748  152.579    3.653
  641.670    0.150    0.613   97.866  152.673    3.720
  641.920    0.152    0.510   96.520  152.768    3.774
  642.170    0.169    0.471   96.321  152.753    3.836
  642.420    0.169    0.463   99.940  153.061    3.808
  642.670    0.158    0.471  103.115  153.046    3.793
  642.920    0.177    0.490  101.959  153.138    3.828
  643.170    0.181    0.488   97.940  153.340    3.869
  643.420    0.202    0.469   93.156  153.432    4.079
  643.670    0.207    0.451   89.200  153.741    4.316
  643.920    0.218    0.463   85.562  153.617    4.608
  644.170    0.199    0.473   84.725  153.600    5.011
  644.420    0.170    0.442   88.218  153.690    5.188
  644.670    0.156    0.430   91.457  153.680    4.761
  644.920    0.141    0.449   93.293  153.663    4.417
  645.170    0.127    0.488   95.895  153.646    4.158
  645.420    0.127    0.603   96.650  153.634    3.886
  645.670    0.127    0.646   96.577  153.618    3.672
  645.920    0.134    0.680   98.924  153.711    3.527
  646.170    0.146    0.555  101.844  154.129    3.431
  646.420    0.149    0.472  103.682  155.406    3.406
  646.670    0.148    0.471  104.692  156.468    3.375
  646.920    0.154    0.471  106.083  156.671    3.356
  647.170    0.171    0.470  105.820  156.544    3.355
  647.420    0.185    0.449  101.672  156.533    3.331
  647.670    0.184    0.434   95.552  156.411    3.264
  647.920    0.206    0.447   90.258  156.504    3.193
  648.170    0.254    0.463   85.219  156.163    3.089
  648.420    0.278    0.473   77.125  154.749    2.957
  648.670    0.272    0.445   70.686  150.744    2.830
