~VERSION INFORMATION
 VERS.                 2.0:   CWLS LOG ASCII STANDARD -VERSION 2.0
 WRAP.                  NO:   ONE LINE PER DEPTH STEP
~WELL INFORMATION BLOCK
#MNEM.UNIT           DATA                    DESCRIPTION OF MNEMONIC
#---------    -------------------            -------------------------------
# Generated from Intellog Unique Number	CS_67_68/WELL/2189
WELL.         10-02-067-04W4                 : Well_name    - WELL
LOC .         00/10-02-067-04W4/0            : Location     - LOCATION
UWI .         00/10-02-067-04W4/0            : Uwi          - UNIQUE WELL ID
ENTR.         SP                             : Entered      - ENTERED BY
SRVC.         SCHLUMBERGER                   : Scn          - SERVICE COMPANY
STRT.M        370                            : top_depth    - START DEPTH
STOP.M        590                            : bot_depth    - STOP DEPTH
STEP.M        0.25                           : increment    - STEP LENGTH
 NULL. -999.2500:NULL Value
~CURVE INFORMATION BLOCK
#MNEM UNIT       ERCB CURVE CODE    CURVE DESCRIPTION
#-----------   ------------------   ----------------------------------
DEPT.M        00 001 00 00         : DEPTH        - DEPTH
CALI.MM       00 280 01 00         : CAL          - CALIPER
ILD .OHMM     00 120 00 00         : RESD         - DEEP RESISTIVITY (DIL)
DPHI.V/V      00 890 00 00         : PHID         - DENSITY POROSITY (LIMESTONE)
NPHI.V/V      00 330 00 00         : PHIN         - NEUTRON POROSITY (LIMESTONE)
GR  .API      00 310 00 00         : GR           - GAMMA RAY
~PARAMETER INFORMATION
#MNEM.UNIT           DATA             DESCRIPTION OF MNEMONIC
#---------         -----------     ------------------------------
GL  .M        693.26               : gl           - GROUND LEVEL ELEVATION
EREF.M        697.11               : kb           - ELEVATION OF DEPTH REFERENCE
DATM.M        697.11               : datum        - DATUM ELEVATION
TDD .M        598                  : tdd          - TOTAL DEPTH DRILLER
RUN .         ONE                  : Run          - RUN NUMBER
ENG .         BILL                 : Engineer     - RECORDING ENGINEER
WIT .         JIM                  : Witness      - WITNESSED BY
MUD .         GEL                  : Mud_type     - MUD TYPE
MATR.         LIMESTONE            : Logunit      - NEUTRON MATRIX
TMAX.C        24.5                 : BHT          - MAXIMUM RECORDED TEMPERATURE
BHTD.M        598.6                : BHTDEP       - MAXIMUM RECORDED TEMPERATURE
MATR.         1                    : LOGUNIT      - NEUTRON MATRIX
RMT .C        25                   : MDTP         - TEMPERATURE OF MUD
NEUT.         1                    : NEUTRON      - NEUTRON TYPE
RESI.         0                    : RESIST       - RESISTIVITY TYPE
RMC .OHMM     0.25                 : RMC          - RESISTIVITY OF MUD CAKE
RMF .OHMM     0.25                 : RMF          - RESISTIVITY OF MUD FILTRATE
SUFT.C        15                   : SUFT         - SURFACE TEMPERATURE
~A  DEPTH      CAL     RESD     PHID     PHIN       GR
# ...
  516.000  171.548    4.170    0.360    0.545   79.354
  516.250  170.039    5.541    0.376    0.509   76.642
  516.500  170.837    6.867    0.357    0.489   73.086
  516.750  179.364    8.228    0.336    0.500   70.254
  517.000  186.585    9.299    0.331    0.484   67.842
  517.250  192.903   10.352    0.344    0.472   69.526
  517.500  197.315   11.247    0.329    0.481   71.089
  517.750  200.623   11.946    0.320    0.480   68.979
  518.000  203.529   12.289    0.315    0.515   66.447
  518.250  199.711   12.642    0.300    0.537   64.638
  518.500  186.157   13.177    0.249    0.242   60.480
  518.750  178.827   14.289    0.173    0.184   56.985
  519.000  171.798   16.240    0.032    0.157   53.189
  519.250  167.277   18.183    0.000    0.138   51.079
  519.500  164.462   19.132    0.301    0.231   65.227
  519.750  163.153   19.755    0.316    0.379   70.463
  520.000  162.445   17.814    0.318    0.425   73.953
  520.250  162.140   14.161    0.317    0.447   76.600
  520.500  162.036   12.674    0.324    0.465   78.103
  520.750  161.430   11.301    0.330    0.479   75.511
  521.000  161.224   10.443    0.332    0.465   72.678
  521.250  161.421    9.982    0.326    0.468   70.689
  521.500  163.725    9.687    0.336    0.472   67.555
  521.750  169.943    9.543    0.344    0.472   66.167
  522.000  176.663    9.437    0.333    0.471   67.850
  522.250  177.863    9.314    0.324    0.463   71.160
  522.500  177.859    9.193    0.317    0.457   73.566
  522.750  174.342    9.073    0.312    0.451   74.707
  523.000  166.308    8.972    0.313    0.453   73.440
  523.250  162.591    8.839    0.316    0.454   73.437
  523.500  158.973    8.658    0.321    0.458   74.037
  523.750  157.162    8.562    0.326    0.466   74.696
  524.000  157.760    8.434    0.328    0.465   75.236
  524.250  159.060    8.278    0.322    0.463   76.378
  524.500  160.060    7.898    0.315    0.458   81.614
  524.750  161.259    6.885    0.321    0.454   86.188
  525.000  162.159    5.715    0.325    0.451   92.569
  525.250  163.258    3.975    0.303    0.449  100.515
  525.500  164.961    2.947    0.279    0.476  105.149
  525.750  167.164    2.451    0.267    0.514  108.157
  526.000  169.970    2.326    0.255    0.546  108.455
  526.250  171.371    2.374    0.245    0.555  106.345
  526.500  170.664    2.668    0.243    0.561  104.958
  526.750  169.154    2.954    0.245    0.567  101.583
  527.000  167.845    3.227    0.245    0.511   96.100
  527.250  166.636    3.526    0.234    0.475   93.750
  527.500  165.629    3.845    0.230    0.453   90.074
  527.750  166.527    4.162    0.218    0.471   83.026
  528.000  167.325    4.487    0.208    0.426   74.894
  528.250  167.021    4.959    0.222    0.400   69.111
  528.500  165.310    5.387    0.232    0.386   72.239
  528.750  163.399    5.930    0.206    0.400   77.475
  529.000  162.692    6.298    0.153    0.423   77.894
  529.250  163.390    6.677    0.076    0.423   71.087
  529.500  162.282    6.947    0.096    0.412   71.807
  529.750  159.266    7.214    0.235    0.433   67.951
  530.000  157.656    7.407    0.286    0.448   63.914
  530.250  157.049    7.394    0.304    0.418   67.644
  530.500  157.146    7.298    0.284    0.394   72.279
  530.750  158.346    7.055    0.267    0.399   74.323
  531.000  159.747    6.631    0.276    0.422   64.505
  531.250  160.847    6.255    0.292    0.433   57.698
  531.500  162.348    6.002    0.291    0.403   62.573
  531.750  163.246    5.803    0.284    0.384   71.844
  532.000  163.342    5.464    0.278    0.388   77.923
  532.250  162.937    4.965    0.274    0.426   84.424
  532.500  162.230    4.588    0.268    0.460   87.192
  532.750  161.322    4.312    0.280    0.479   89.658
  533.000  160.916    4.345    0.291    0.456   89.896
  533.250  160.510    4.461    0.303    0.440   88.930
  533.500  160.507    4.598    0.306    0.430   82.484
  533.750  160.201    4.739    0.318    0.417   74.232
  534.000  159.895    4.856    0.322    0.411   73.386
  534.250  159.691    5.005    0.318    0.420   80.188
  534.500  159.184    5.110    0.313    0.427   84.341
  534.750  158.980    5.247    0.300    0.439   88.433
  535.000  159.878    5.542    0.299    0.427   91.983
  535.250  161.379    5.920    0.292    0.408   95.653
  535.500  162.981    6.193    0.282    0.397   98.481
  535.750  163.980    6.383    0.281    0.391   96.672
  536.000  163.675    6.336    0.282    0.397   93.719
  536.250  163.670    6.218    0.239    0.405   97.389
  536.500  165.071    5.933    0.213    0.412  100.638
  536.750  167.175    5.682    0.201    0.430  103.646
  537.000  168.977    5.473    0.193    0.448  105.752
  537.250  169.274    5.241    0.197    0.462  107.917
  537.500  169.068    5.039    0.198    0.455  110.203
  537.750  169.064    4.973    0.198    0.449  111.344
  538.000  169.361    5.049    0.216    0.449  110.619
  538.250  169.557    5.194    0.224    0.441  109.171
  538.500  169.553    5.283    0.210    0.443  107.302
  538.750  169.749    5.363    0.190    0.448  105.794
  539.000  169.845    5.455    0.221    0.450  110.127
  539.250  169.941    5.549    0.216    0.458  113.918
  539.500  170.037    5.612    0.199    0.465  116.444
  539.750  170.132    5.655    0.187    0.471  112.708
  540.000  170.129    5.677    0.183    0.442  105.299
  540.250  170.625    5.688    0.187    0.441  107.404
  540.500  170.723    5.667    0.192    0.461  110.773
  540.750  170.819    5.583    0.194    0.461  113.300
  541.000  171.114    5.521    0.197    0.441  113.659
  541.250  171.613    5.511    0.200    0.430  109.622
  541.500  171.809    5.584    0.200    0.442  107.451
  541.750  171.905    5.659    0.198    0.446  106.485
  542.000  172.101    5.734    0.195    0.438  102.870
  542.250  171.997    5.822    0.191    0.431  105.336
  542.500  172.092    5.888    0.186    0.424  108.163
  542.750  172.088    5.978    0.187    0.430  109.606
  543.000  172.084    6.058    0.190    0.439  108.821
  543.250  172.079    6.115    0.196    0.433  107.794
  543.500  171.975    6.185    0.207    0.404  106.888
  543.750  171.770    6.256    0.197    0.396  106.465
  544.000  171.565    6.328    0.191    0.423  106.281
  544.250  171.460    6.412    0.202    0.441  106.098
  544.500  171.456    6.510    0.210    0.408  105.373
  544.750  171.350    6.559    0.199    0.409  102.901
  545.000  171.648    6.609    0.184    0.414   98.683
  545.250  171.644    6.660    0.169    0.410   96.332
  545.500  171.738    6.736    0.176    0.399   94.222
  545.750  171.836    6.800    0.184    0.389   92.775
  546.000  171.932    6.826    0.163    0.383   93.856
  546.250  171.927    6.738    0.177    0.395   96.202
  546.500  171.923    6.613    0.181    0.408   99.752
  546.750  171.918    6.453    0.183    0.419  102.820
  547.000  171.914    6.298    0.189    0.418  103.721
  547.250  171.709    6.111    0.192    0.407  103.538
  547.500  171.906    5.931    0.186    0.400  106.727
  547.750  172.102    5.691    0.185    0.428  109.735
  548.000  172.399    5.481    0.199    0.449  109.552
  548.250  172.696    5.430    0.206    0.464  109.308
  548.500  172.791    5.523    0.210    0.471  109.607
  548.750  172.888    5.671    0.208    0.469  111.230
  549.000  173.085    5.823    0.199    0.462  112.853
  549.250  173.281    5.967    0.189    0.452  111.706
  549.500  173.477    6.036    0.192    0.441  107.308
  549.750  173.472    6.070    0.191    0.416  102.910
  550.000  173.469    5.913    0.188    0.404  100.739
  550.250  173.565    5.652    0.181    0.419  104.711
  550.500  173.560    5.568    0.188    0.443  108.201
  550.750  173.756    5.674    0.189    0.460  110.185
  551.000  173.752    5.870    0.184    0.461  109.581
  551.250  173.747    6.050    0.178    0.420  108.253
  551.500  173.744    6.247    0.173    0.410  105.782
  551.750  173.438    6.427    0.176    0.398   95.362
  552.000  173.033    6.574    0.200    0.383   96.442
  552.250  172.125    6.662    0.191    0.390  101.378
