~VERSION INFORMATION
 VERS.                 2.0:   CWLS LOG ASCII STANDARD -VERSION 2.0
 WRAP.                  NO:   ONE LINE PER DEPTH STEP
~WELL INFORMATION BLOCK
#MNEM.UNIT           DATA                    DESCRIPTION OF MNEMONIC
#---------    -------------------            -------------------------------
# Generated from Intellog Unique Number	CW_73_75/WELL/994
LOC .         00/10-27-075-01W5/0            : Location     - LOCATION
UWI .         00/10-27-075-01W5/0            : Uwi          - UNIQUE WELL ID
ENTR.         JAYE                           : Entered      - ENTERED BY
SRVC.         SCHLUMBERGER                   : Scn          - SERVICE COMPANY
DATE.         5 JAN 76                       : Date         - LOG DATE
STRT.M        548.64                         : top_depth    - START DEPTH
STOP.M        749.89                         : bot_depth    - STOP DEPTH
STEP.M        0.25                           : increment    - STEP LENGTH
 NULL. -999.2500:NULL Value
~CURVE INFORMATION BLOCK
#MNEM UNIT       ERCB CURVE CODE    CURVE DESCRIPTION
#-----------   ------------------   ----------------------------------
DEPT.M        00 001 00 00         : DEPTH        - DEPTH
ILD .OHMM     00 120 00 00         : RESD         - DEEP RESISTIVITY (DIL)
NPHI.V/V      00 330 00 00         : PHIN         - NEUTRON POROSITY (SANDSTONE)
DPHI.V/V      00 890 00 00         : PHID         - DENSITY POROSITY (SANDSTONE)
GR  .API      00 310 00 00         : GR           - GAMMA RAY
CALI.MM       00 280 01 00         : CAL          - CALIPER
~PARAMETER INFORMATION
#MNEM.UNIT           DATA             DESCRIPTION OF MNEMONIC
#---------         -----------     ------------------------------
GL  .M        826.465              : gl           - GROUND LEVEL ELEVATION
EREF.M        830.58               : kb           - ELEVATION OF DEPTH REFERENCE
DATM.M        826.465              : datum        - DATUM ELEVATION
TDD .M        0                    : tdd          - TOTAL DEPTH DRILLER
RUN .         ONE                  : Run          - RUN NUMBER
MATR.         SANDSTONE            : Logunit      - NEUTRON MATRIX
TMAX.C        -17.7778             : BHT          - MAXIMUM RECORDED TEMPERATURE
BHTD.M        0                    : BHTDEP       - MAXIMUM RECORDED TEMPERATURE
RMT .C        -17.7778             : MDTP         - TEMPERATURE OF MUD
MUDD.KG/M     0                    : MWT          - MUD DENSITY
NEUT.         1                    : NEUTRON      - NEUTRON TYPE
RESI.         0                    : RESIST       - RESISTIVITY TYPE
RM  .OHMM     0                    : RM           - RESISTIVITY OF MUD
RMC .OHMM     0                    : RMC          - RESISTIVITY OF MUD CAKE
RMF .OHMM     0                    : RMF          - RESISTIVITY OF MUD FILTRATE
SUFT.C        -17.7778             : SUFT         - SURFACE TEMPERATURE
~A  DEPTH     RESD     PHIN     PHID       GR      CAL
# ...
  694.640   13.147    0.365    0.172   54.557  213.725
  694.890   12.393    0.365    0.177   55.256  213.562
  695.140   11.789    0.365    0.191   53.946  213.407
  695.390   11.338    0.378    0.206   54.037  214.179
  695.640   10.866    0.389    0.207   55.164  215.360
  695.890   10.450    0.391    0.221   56.103  217.570
  696.140    9.867    0.387    0.213   56.132  220.092
  696.390    9.300    0.388    0.206   56.343  221.068
  696.640    8.897    0.392    0.218   58.318  220.611
  696.890    8.974    0.398    0.220   58.166  220.346
  697.140    9.635    0.406    0.212   58.377  219.676
  697.390   10.619    0.422    0.210   59.746  219.105
  697.640   11.193    0.405    0.232   60.325  218.847
  697.890   11.668    0.398    0.216   60.169  218.685
  698.140   12.033    0.402    0.203   58.983  217.910
  698.390   12.118    0.408    0.195   58.767  216.216
  698.640   11.999    0.408    0.182   60.072  215.029
  698.890   11.757    0.400    0.174   59.920  214.456
  699.140   11.814    0.410    0.206   58.124  215.018
  699.390   12.182    0.399    0.199   56.328  215.996
  699.640   13.153    0.387    0.188   56.114  217.491
  699.890   13.995    0.375    0.173   55.961  218.879
  700.140   14.377    0.359    0.169   55.931  219.336
  700.390   14.423    0.365    0.179   56.870  219.178
  700.640   14.208    0.406    0.194   58.237  218.510
  700.890   13.945    0.406    0.183   59.243  218.561
  701.140   13.809    0.409    0.174   59.332  218.919
  701.390   13.728    0.408    0.204   58.512  219.377
  701.640   13.847    0.400    0.202   58.724  219.533
  701.890   14.021    0.395    0.197   58.995  219.269
  702.140   14.095    0.393    0.190   58.901  218.806
  702.390   14.085    0.382    0.185   58.992  218.441
  702.640   14.106    0.381    0.193   59.810  217.769
  702.890   13.946    0.394    0.207   60.875  217.208
  703.140   13.760    0.395    0.201   61.145  216.221
  703.390   13.309    0.388    0.182   60.202  215.341
  703.640   13.012    0.390    0.173   59.134  216.216
  703.890   11.254    0.397    0.172   56.365  218.737
  704.140   11.372    0.383    0.171   56.461  221.775
  704.390   11.730    0.378    0.167   57.947  223.264
  704.640   12.455    0.383    0.171   58.523  224.143
  704.890   13.102    0.382    0.150   58.675  224.189
  705.140   14.172    0.351    0.126   57.120  224.135
  705.390   13.731    0.332    0.103   56.114  223.564
  705.640   11.722    0.324    0.074   57.908  222.382
  705.890    9.826    0.314    0.032   63.960  221.192
  706.140    8.190    0.330    0.103   70.318  219.293
  706.390    7.346    0.391    0.144   73.508  218.103
  706.640    7.104    0.420    0.179   72.381  217.119
  706.890    7.206    0.406    0.164   73.572  217.165
  707.140    7.487    0.385    0.151   74.933  219.995
  707.390    7.950    0.375    0.132   75.449  223.962
  707.640    8.489    0.378    0.177   69.151  226.077
  707.890    9.081    0.398    0.159   65.593  227.150
  708.140    8.607    0.379    0.128   64.952  227.305
  708.390    7.610    0.352    0.086   66.138  227.358
  708.640    7.119    0.334    0.045   69.756  227.404
  708.890    6.650    0.371    0.126   79.701  227.251
  709.140    6.419    0.404    0.121   76.262  226.990
  709.390    6.230    0.397    0.087   76.961  226.427
  709.640    6.059    0.396    0.062   83.500  225.850
  709.890    5.990    0.381    0.104   87.057  224.767
  710.140    5.964    0.380    0.095   84.290  223.269
  710.390    6.072    0.374    0.109   82.857  222.397
  710.640    6.171    0.351    0.084   81.791  223.783
  710.890    6.340    0.353    0.072   83.767  225.377
  711.140    6.883    0.371    0.113   87.388  226.454
  711.390    7.540    0.382    0.085   89.424  227.946
  711.640    8.492    0.331    0.087   87.018  228.407
  711.890    9.424    0.316    0.067   79.016  225.680
  712.140    9.970    0.333    0.033   80.204  223.351
  712.390    9.750    0.351    0.136   79.621  220.835
  712.640    9.602    0.355    0.119   76.488  219.439
  712.890    9.304    0.354    0.081   74.571  219.176
  713.140    9.720    0.353    0.105   77.825  219.845
  713.390   10.650    0.351    0.144   76.820  221.028
  713.640   12.347    0.345    0.121   75.025  222.827
  713.890   13.454    0.310    0.082   69.516  224.631
  714.140   13.083    0.257    0.051   67.785  225.603
  714.390   11.736    0.279    0.011   70.793  225.960
  714.640   10.527    0.317    0.057   73.133  226.009
  714.890   10.143    0.358    0.137   75.230  225.757
  715.140   10.832    0.350    0.141   76.299  225.593
  715.390   11.439    0.355    0.158   76.872  225.539
  715.640   11.796    0.349    0.152   76.350  225.903
  715.890   11.944    0.330    0.125   69.992  225.848
  716.140   11.572    0.300    0.090   69.110  224.764
  716.390   10.633    0.324    0.083   72.667  223.473
  716.640    9.983    0.357    0.106   76.956  222.289
  716.890    9.223    0.364    0.129   80.634  222.333
  717.140    8.740    0.352    0.134   83.827  222.693
  717.390    8.208    0.339    0.127   84.890  223.154
  717.640    7.694    0.350    0.120   85.103  224.958
  717.890    7.070    0.344    0.119   88.476  226.761
  718.140    7.065    0.354    0.096   91.061  228.145
  718.390    8.407    0.385    0.074   89.572  228.816
  718.640    9.608    0.382    0.085   85.097  228.347
  718.890   11.518    0.330    0.082   76.366  226.855
  719.140   12.411    0.293    0.033   66.173  225.047
  719.390   12.427    0.275   -0.001   69.918  223.138
  719.640   10.826    0.303    0.023   73.898  221.848
  719.890    9.604    0.342    0.062   76.483  221.484
  720.140    8.678    0.368    0.111   76.453  221.335
  720.390    7.715    0.359    0.125   77.515  221.274
  720.640    7.420    0.355    0.119   78.334  221.322
  720.890    7.348    0.377    0.125   79.213  221.166
  721.140    7.399    0.396    0.110   76.931  221.317
  721.390    7.536    0.385    0.045   73.127  221.373
  721.640    7.684    0.354    0.033   69.081  221.521
  721.890    7.823    0.344    0.024   71.118  221.571
  722.140    8.007    0.352    0.056   73.032  221.621
  722.390    8.151    0.347    0.043   75.498  222.396
  722.640    8.239    0.372    0.018   77.653  222.849
  722.890    8.249    0.381    0.066   79.570  224.036
  723.140    8.415    0.382    0.108   78.993  225.634
  723.390    8.598    0.336    0.095   78.410  227.120
  723.640    8.609    0.309    0.067   76.553  228.620
  723.890    8.280    0.319    0.045   79.137  229.495
  724.140    7.820    0.355    0.057   82.029  230.258
  724.390    7.659    0.374    0.091   82.967  230.207
  724.640    7.699    0.377    0.098   79.590  229.120
  724.890    7.868    0.352    0.069   76.577  225.045
  725.140    8.098    0.347    0.055   77.337  222.108
  725.390    8.213    0.358    0.066   80.348  230.398
  725.640    8.047    0.342    0.052   82.748  230.447
  725.890    7.460    0.348    0.070   87.219  229.990
  726.140    6.915    0.349    0.078   90.776  229.928
  726.390    6.365    0.358    0.100   92.144  229.875
  726.640    5.901    0.368    0.113   92.538  230.235
  726.890    5.131    0.369    0.098   90.985  230.694
  727.140    4.003    0.377    0.082   88.095  231.775
  727.390    3.193    0.410    0.104   92.322  235.018
  727.640    3.233    0.463    0.157   95.818  247.225
  727.890    3.675    0.481    0.187   96.457  250.875
  728.140    4.629    0.444    0.205   73.003  231.357
  728.390    6.170    0.334    0.188   62.263  220.276
  728.640    8.256    0.319    0.148   66.855  221.462
  728.890   10.153    0.334    0.120   70.718  225.527
  729.140   10.299    0.340    0.122   68.556  227.438
  729.390    9.121    0.327    0.110   68.707  228.511
  729.640    8.047    0.341    0.100   70.805  229.389
  729.890    8.149    0.359    0.101   72.845  230.567
  730.140    9.839    0.339    0.124   73.054  231.748
  730.390   13.022    0.250    0.143   64.444  233.142
  730.640   17.713    0.194    0.155   55.164  223.956
  730.890   26.657    0.142    0.232   39.317  223.860
