~VERSION INFORMATION
 VERS.                 2.0:   CWLS LOG ASCII STANDARD -VERSION 2.0
 WRAP.                  NO:   ONE LINE PER DEPTH STEP
~WELL INFORMATION BLOCK
#MNEM.UNIT           DATA                    DESCRIPTION OF MNEMONIC
#---------    -------------------            -------------------------------
# Generated from Intellog Unique Number	CS_71_72/WELL/929
WELL.         AEC ET AL FOSTER CREEK         : Well_name    - WELL
LOC .         00/16-36-072-01W4/0            : Location     - LOCATION
UWI .         00/16-36-072-01W4/0            : Uwi          - UNIQUE WELL ID
ENTR.         SP                             : Entered      - ENTERED BY
SRVC.         SCHLUMBERGER                   : Scn          - SERVICE COMPANY
STRT.M        315                            : top_depth    - START DEPTH
STOP.M        585                            : bot_depth    - STOP DEPTH
STEP.M        0.25                           : increment    - STEP LENGTH
 NULL. -999.2500:NULL Value
~CURVE INFORMATION BLOCK
#MNEM UNIT       ERCB CURVE CODE    CURVE DESCRIPTION
#-----------   ------------------   ----------------------------------
DEPT.M        00 001 00 00         : DEPTH        - DEPTH
ILD .OHMM     00 120 00 00         : RESD         - DEEP RESISTIVITY (DIL)
DPHI.V/V      00 890 00 00         : PHID         - DENSITY POROSITY (LIMESTONE)
NPHI.V/V      00 330 00 00         : PHIN         - NEUTRON POROSITY (LIMESTONE)
GR  .API      00 310 00 00         : GR           - GAMMA RAY
~PARAMETER INFORMATION
#MNEM.UNIT           DATA             DESCRIPTION OF MNEMONIC
#---------         -----------     ------------------------------
GL  .M        676                  : gl           - GROUND LEVEL ELEVATION
EREF.M        680.3                : kb           - ELEVATION OF DEPTH REFERENCE
DATM.M        676                  : datum        - DATUM ELEVATION
TDD .M        775                  : tdd          - TOTAL DEPTH DRILLER
RUN .         ONE                  : Run          - RUN NUMBER
ENG .         BILL                 : Engineer     - RECORDING ENGINEER
WIT .         JIM                  : Witness      - WITNESSED BY
MUD .         GEL                  : Mud_type     - MUD TYPE
MATR.         LIMESTONE            : Logunit      - NEUTRON MATRIX
TMAX.C        19                   : BHT          - MAXIMUM RECORDED TEMPERATURE
BHTD.M        775                  : BHTDEP       - MAXIMUM RECORDED TEMPERATURE
MATR.         1                    : LOGUNIT      - NEUTRON MATRIX
RMT .C        25                   : MDTP         - TEMPERATURE OF MUD
NEUT.         1                    : NEUTRON      - NEUTRON TYPE
RESI.         0                    : RESIST       - RESISTIVITY TYPE
RMC .OHMM     0.25                 : RMC          - RESISTIVITY OF MUD CAKE
RMF .OHMM     0.25                 : RMF          - RESISTIVITY OF MUD FILTRATE
SUFT.C        15                   : SUFT         - SURFACE TEMPERATURE
~A  DEPTH     RESD     PHID     PHIN       GR
# ...
  402.000    5.661    0.261    0.444   83.730
  402.250    5.556    0.256    0.436   80.706
  402.500    5.557    0.253    0.425   77.686
  402.750    5.557    0.252    0.421   74.062
  403.000    5.558    0.250    0.423   71.646
  403.250    5.455    0.248    0.446   76.525
  403.500    5.255    0.248    0.446   80.797
  403.750    5.158    0.253    0.449   79.596
  404.000    5.256    0.265    0.460   75.361
  404.250    5.357    0.285    0.484   67.490
  404.500    5.459    0.302    0.484   64.463
  404.750    5.776    0.325    0.472   57.802
  405.000    5.997    0.348    0.456   52.962
  405.250    6.228    0.354    0.447   50.546
  405.500    6.346    0.344    0.445   56.028
  405.750    6.590    0.333    0.459   62.732
  406.000    6.591    0.327    0.488   65.172
  406.250    6.470    0.320    0.479   67.619
  406.500    6.232    0.311    0.463   66.420
  406.750    5.782    0.300    0.458   66.441
  407.000    5.364    0.261    0.513   67.063
  407.250    5.570    0.169    0.537   61.009
  407.500    6.721    0.121    0.271   51.921
  407.750    7.959    0.223    0.383   50.110
  408.000    9.250    0.260    0.442   52.556
  408.250    9.972    0.279    0.489   56.837
  408.500   10.162    0.296    0.521   59.281
  408.750    9.607    0.311    0.520   62.335
  409.000    8.913    0.319    0.486   64.166
  409.250    7.529    0.329    0.471   65.401
  409.500    7.252    0.326    0.473   63.595
  409.750    6.986    0.319    0.477   59.970
  410.000    7.120    0.317    0.479   56.347
  410.250    7.255    0.317    0.464   55.140
  410.500    7.534    0.308    0.447   55.157
  410.750    7.677    0.303    0.444   58.210
  411.000    7.824    0.309    0.443   52.766
  411.250    7.825    0.326    0.448   49.746
  411.500    7.826    0.342    0.445   49.154
  411.750    7.975    0.356    0.431   52.819
  412.000    7.976    0.353    0.424   54.049
  412.250    7.829    0.337    0.433   55.886
  412.500    7.684    0.328    0.468   55.907
  412.750    7.402    0.334    0.469   53.500
  413.000    7.403    0.339    0.444   52.303
  413.250    7.544    0.343    0.426   52.309
  413.500    7.545    0.345    0.413   60.835
  413.750    7.000    0.337    0.406   72.999
  414.000    6.139    0.331    0.422   82.121
  414.250    5.185    0.316    0.464   91.854
  414.500    4.140    0.304    0.581   93.088
  414.750    3.631    0.293    0.546   90.070
  415.000    3.369    0.286    0.516   84.621
  415.250    3.564    0.278    0.496   78.568
  415.500    3.771    0.272    0.481   79.797
  415.750    3.843    0.266    0.496   82.863
  416.000    4.066    0.283    0.520   84.087
  416.250    4.302    0.290    0.528   82.283
  416.500    4.467    0.279    0.523   79.866
  416.750    4.553    0.274    0.517   77.455
  417.000    4.554    0.274    0.514   84.761
  417.250    4.554    0.279    0.521   92.677
  417.500    4.554    0.277    0.504   95.118
  417.750    4.729    0.273    0.473   92.708
  418.000    4.819    0.264    0.459   90.294
  418.250    5.004    0.250    0.449   89.096
  418.500    5.196    0.230    0.448   91.542
  418.750    5.197    0.238    0.466   94.596
  419.000    5.006    0.242    0.477   97.043
  419.250    5.007    0.238    0.465   94.637
  419.500    4.823    0.223    0.493   92.828
  419.750    4.734    0.217    0.511   92.239
  420.000    4.647    0.210    0.517   95.290
  420.250    4.647    0.214    0.524   99.564
  420.500    4.561    0.226    0.530  100.789
  420.750    4.394    0.231    0.500   98.380
  421.000    4.313    0.234    0.480   95.963
  421.250    4.233    0.228    0.473   92.340
  421.500    4.234    0.226    0.474   91.745
  421.750    4.156    0.230    0.481   95.410
  422.000    4.003    0.241    0.485   94.216
  422.250    3.929    0.246    0.502   93.013
  422.500    3.929    0.246    0.516   93.638
  422.750    3.857    0.253    0.536   96.093
  423.000    3.857    0.242    0.537   96.710
  423.250    3.858    0.246    0.530   97.332
  423.500    3.931    0.249    0.515   93.708
  423.750    3.932    0.237    0.514   96.765
  424.000    4.007    0.233    0.516   99.213
  424.250    4.083    0.233    0.510   99.223
  424.500    4.240    0.243    0.505   96.216
  424.750    4.240    0.248    0.499   95.013
  425.000    4.403    0.250    0.486   95.027
  425.250    4.404    0.254    0.477   95.045
  425.500    4.488    0.243    0.495   95.061
  425.750    4.488    0.239    0.506   95.686
  426.000    4.406    0.250    0.521   95.701
  426.250    4.406    0.254    0.533   95.721
  426.500    4.490    0.255    0.547   94.524
  426.750    4.576    0.254    0.556   92.112
  427.000    4.933    0.258    0.518   88.485
  427.250    5.419    0.279    0.506   84.856
  427.500    5.627    0.274    0.501   83.049
  427.750    5.954    0.272    0.531   83.066
  428.000    6.183    0.280    0.538   83.095
  428.250    6.183    0.284    0.508   83.714
  428.500    6.184    0.273    0.501   83.727
  428.750    6.070    0.256    0.514   84.351
  429.000    5.527    0.246    0.534   86.194
  429.250    5.324    0.259    0.545   87.428
  429.500    4.939    0.268    0.534   87.437
  429.750    4.758    0.277    0.539   88.062
  430.000    4.941    0.268    0.554   86.866
  430.250    5.131    0.263    0.553   85.067
  430.500    5.428    0.254    0.535   83.862
  430.750    5.744    0.261    0.529   80.845
  431.000    6.077    0.271    0.510   77.826
  431.250    6.430    0.277    0.495   74.199
  431.500    6.932    0.275    0.488   69.362
  431.750    7.474    0.282    0.481   65.733
  432.000    7.616    0.292    0.484   63.925
  432.250    7.617    0.294    0.500   63.943
  432.500    6.680    0.284    0.510   65.175
  432.750    6.197    0.267    0.496   61.553
  433.000    6.436    0.240    0.459   58.529
  433.250    6.938    0.219    0.457   56.724
  433.500    8.216    0.236    0.469   63.427
  433.750    8.693    0.266    0.476   67.688
  434.000    8.860    0.294    0.475   76.822
  434.250    8.860    0.278    0.464   81.086
  434.500    7.917    0.269    0.458   79.286
  434.750    6.688    0.262    0.460   77.476
  435.000    6.089    0.263    0.493   75.064
  435.250    5.048    0.284    0.538   82.983
  435.500    4.107    0.308    0.547   86.636
  435.750    3.602    0.328    0.540   92.130
  436.000    3.405    0.320    0.556   93.354
  436.250    3.159    0.309    0.578   92.766
  436.500    3.100    0.314    0.579   89.750
  436.750    3.101    0.309    0.568   88.549
  437.000    3.101    0.314    0.564   88.568
  437.250    3.160    0.320    0.561   89.798
  437.500    3.282    0.316    0.568   90.423
  437.750    3.344    0.305    0.551   91.042
  438.000    3.408    0.297    0.540   87.414
  438.250    3.409    0.291    0.576   81.366
  438.500    3.409    0.287    0.543   79.560
  438.750    3.540    0.283    0.510   78.360
  439.000    3.676    0.289    0.506   76.555
  439.250    4.038    0.286    0.510   74.756
  439.500    4.436    0.281    0.510   72.944
  439.750    5.059    0.289    0.503   63.850
  440.000    5.991    0.320    0.497   58.404
  440.250    6.706    0.341    0.510   59.031
  440.500    9.229    0.350    0.508   57.227
  440.750   10.525    0.335    0.481   54.815
  441.000   11.782    0.323    0.498   56.661
  441.250   12.234    0.329    0.500   57.895
  441.500   12.944    0.340    0.468   58.514
  441.750   12.946    0.342    0.470   58.526
  442.000   12.947    0.340    0.488   56.723
  442.250   12.709    0.335    0.503   53.098
  442.500   12.474    0.334    0.505   53.107
  442.750   12.244    0.336    0.500   50.092
  443.000   12.245    0.331    0.493   52.539
  443.250   12.019    0.330    0.486   53.159
  443.500   12.020    0.328    0.488   53.791
  443.750   12.249    0.331    0.496   53.800
  444.000   12.484    0.337    0.467   54.425
  444.250   12.485    0.342    0.459   53.236
  444.500   12.723    0.342    0.479   53.854
  444.750   12.724    0.342    0.499   56.907
  445.000   12.726    0.342    0.511   59.357
  445.250   12.728    0.342    0.435   59.373
