~VERSION INFORMATION
 VERS.                 2.0:   CWLS LOG ASCII STANDARD -VERSION 2.0
 WRAP.                  NO:   ONE LINE PER DEPTH STEP
~WELL INFORMATION BLOCK
#MNEM.UNIT           DATA                    DESCRIPTION OF MNEMONIC
#---------    -------------------            -------------------------------
# Generated from Intellog Unique Number	CS_69_70/WELL/872
NULL.         -999.25                        : NULL_VALUE
WELL.         HB PITLOCHRIE                  : Well_name    - WELL              
LOC .         00/10-27-070-12W4/0            : Location     - LOCATION          
UWI .         00/10-27-070-12W4/0            : Uwi          - UNIQUE WELL ID    
ENTR.         SP                             : Entered      - ENTERED BY        
SRVC.         SCHLUMBERGER                   : Scn          - SERVICE COMPANY   
STRT.M        268.224                        : top_depth    - START DEPTH       
STOP.M        472.224                        : bot_depth    - STOP DEPTH        
STEP.M        0.25                           : increment    - STEP LENGTH       
~CURVE INFORMATION BLOCK
#MNEM UNIT       ERCB CURVE CODE    CURVE DESCRIPTION
#-----------   ------------------   ----------------------------------
DEPT.M        00 001 00 00         : DEPTH        - DEPTH                       
GR  .API      00 310 00 00         : GR           - GAMMA RAY                   
DPHI.V/V      00 890 00 00         : PHID         - DENSITY POROSITY (SANDSTONE)
NPHI.V/V      00 330 00 00         : PHIN         - NEUTRON POROSITY (SANDSTONE)
ILD .OHMM     00 120 00 00         : RESD         - DEEP RESISTIVITY (DIL)      
~PARAMETER INFORMATION       
#MNEM.UNIT           DATA             DESCRIPTION OF MNEMONIC
#---------         -----------     ------------------------------
GL  .M        589.818              : gl           - GROUND LEVEL ELEVATION      
EREF.M        592.866              : kb           - ELEVATION OF DEPTH REFERENCE
DATM.M        589.818              : datum        - DATUM ELEVATION             
TDD .M        482.498              : tdd          - TOTAL DEPTH DRILLER         
RUN .         ONE                  : Run          - RUN NUMBER                  
ENG .         BILL                 : Engineer     - RECORDING ENGINEER          
WIT .         JIM                  : Witness      - WITNESSED BY                
MUD .         GEL                  : Mud_type     - MUD TYPE                    
MATR.         SANDSTONE            : Logunit      - NEUTRON MATRIX              
TMAX.C        23.3333              : BHT          - MAXIMUM RECORDED TEMPERATURE
BHTD.M        482.498              : BHTDEP       - MAXIMUM RECORDED TEMPERATURE
MATR.         1                    : LOGUNIT      - NEUTRON MATRIX              
RMT .C        25                   : MDTP         - TEMPERATURE OF MUD          
NEUT.         1                    : NEUTRON      - NEUTRON TYPE                
RESI.         0                    : RESIST       - RESISTIVITY TYPE            
RMC .OHMM     0.25                 : RMC          - RESISTIVITY OF MUD CAKE     
RMF .OHMM     0.25                 : RMF          - RESISTIVITY OF MUD FILTRATE 
SUFT.C        15                   : SUFT         - SURFACE TEMPERATURE         
~A  DEPTH       GR     PHID     PHIN     RESD
# ...
  355.224   91.510    0.308    0.467    7.489
  355.474   91.707    0.294    0.502    6.918
  355.724   88.408    0.305    0.508    6.686
  355.974   86.258    0.308    0.490    6.679
  356.224   85.836    0.308    0.473    6.674
  356.474   86.315    0.303    0.462    6.709
  356.724   86.136    0.311    0.461    6.738
  356.974   86.969    0.307    0.473    6.774
  357.224   88.696    0.299    0.478    6.763
  357.474   90.254    0.291    0.492    6.662
  357.724   92.013    0.280    0.506    6.578
  357.974   93.632    0.271    0.497    6.636
  358.224   94.772    0.257    0.491    6.720
  358.474   96.072    0.243    0.494    6.775
  358.724   96.343    0.228    0.491    6.807
  358.974   94.424    0.210    0.486    6.796
  359.224   93.040    0.196    0.483    6.658
  359.474   91.621    0.204    0.485    6.319
  359.724   92.739    0.217    0.488    5.988
  359.974   94.260    0.224    0.495    5.642
  360.224   94.676    0.237    0.496    5.575
  360.474   94.162    0.241    0.492    5.453
  360.724   94.229    0.234    0.490    5.425
  360.974   94.193    0.227    0.489    5.476
  361.224   92.665    0.223    0.489    5.623
  361.474   91.694    0.219    0.488    5.793
  361.724   92.545    0.220    0.484    6.005
  361.974   92.118    0.227    0.486    6.197
  362.224   89.145    0.243    0.496    6.339
  362.474   88.378    0.258    0.486    6.425
  362.724   90.955    0.266    0.478    6.429
  362.974   94.041    0.269    0.479    6.434
  363.224   92.183    0.274    0.493    6.388
  363.474   89.113    0.288    0.490    6.240
  363.724   91.456    0.290    0.482    6.063
  363.974   93.709    0.261    0.486    5.967
  364.224   95.389    0.247    0.497    5.958
  364.474   96.853    0.233    0.505    6.014
  364.724   96.957    0.229    0.494    6.219
  364.974   94.612    0.242    0.479    6.421
  365.224   91.859    0.240    0.463    6.688
  365.474   91.439    0.229    0.459    6.898
  365.724   92.857    0.220    0.461    7.035
  365.974   95.902    0.213    0.456    7.184
  366.224   97.562    0.205    0.449    7.196
  366.474   95.604    0.208    0.449    7.073
  366.724   95.743    0.214    0.458    6.825
  366.974   98.171    0.214    0.461    6.602
  367.224  101.136    0.205    0.473    6.385
  367.474  101.527    0.213    0.484    6.299
  367.724   97.449    0.221    0.494    6.398
  367.974   94.577    0.211    0.497    6.514
  368.224   93.031    0.203    0.486    6.582
  368.474   91.784    0.194    0.480    6.638
  368.724   93.668    0.198    0.473    6.619
  368.974   95.356    0.195    0.468    6.418
  369.224   96.325    0.198    0.466    6.144
  369.474   97.656    0.217    0.472    5.931
  369.724  100.209    0.220    0.489    5.712
  369.974  102.806    0.211    0.506    5.621
  370.224  100.694    0.213    0.518    5.587
  370.474  101.651    0.205    0.511    5.608
  370.724  105.270    0.217    0.497    5.654
  370.974  106.799    0.229    0.484    5.568
  371.224  103.306    0.225    0.488    4.938
  371.474  101.322    0.225    0.491    4.106
  371.724   99.512    0.246    0.497    3.378
  371.974   94.435    0.271    0.516    2.725
  372.224   94.879    0.308    0.546    2.200
  372.474   99.408    0.328    0.577    1.785
  372.724   96.961    0.346    0.597    1.580
  372.974   94.276    0.340    0.612    1.641
  373.224   92.080    0.336    0.631    1.919
  373.474   92.710    0.349    0.580    2.291
  373.724   93.452    0.356    0.563    2.765
  373.974   93.519    0.354    0.539    3.379
  374.224   91.737    0.318    0.503    4.157
  374.474   90.732    0.274    0.498    4.839
  374.724   92.584    0.249    0.494    5.394
  374.974   96.386    0.245    0.488    5.462
  375.224   98.324    0.213    0.495    5.306
  375.474   99.440    0.200    0.510    5.244
  375.724   98.324    0.208    0.511    5.401
  375.974   96.573    0.225    0.502    5.752
  376.224   91.093    0.244    0.494    6.006
  376.474   86.772    0.247    0.511    6.282
  376.724   83.650    0.255    0.516    6.396
  376.974   80.082    0.271    0.501    6.586
  377.224   79.031    0.278    0.506    6.661
  377.474   83.181    0.284    0.501    6.732
  377.724   83.703    0.279    0.484    6.797
  377.974   79.850    0.287    0.474    6.831
  378.224   76.728    0.286    0.469    6.843
  378.474   72.843    0.281    0.468    6.860
  378.724   70.331    0.279    0.461    6.845
  378.974   68.640    0.288    0.447    6.826
  379.224   65.647    0.297    0.435    6.803
  379.474   62.068    0.307    0.426    6.788
  379.724   59.974    0.320    0.434    6.776
  379.974   58.735    0.324    0.450    6.801
  380.224   59.883    0.313    0.452    6.877
  380.474   60.483    0.308    0.451    6.979
  380.724   61.390    0.305    0.440    7.093
  380.974   61.009    0.306    0.431    7.097
  381.224   59.747    0.313    0.436    6.994
  381.474   59.609    0.317    0.441    6.791
  381.724   63.721    0.308    0.449    6.440
  381.974   69.109    0.311    0.452    5.902
  382.224   74.416    0.301    0.446    5.666
  382.474   82.713    0.253    0.458    5.697
  382.724   91.178    0.222    0.473    6.219
  382.974   93.447    0.212    0.488    6.995
  383.224   89.531    0.201    0.428    7.844
  383.474   82.130    0.159    0.335    8.525
  383.724   75.493    0.077    0.253    8.867
  383.974   69.810    0.031    0.234    8.645
  384.224   71.809    0.021    0.245    7.638
  384.474   80.744    0.067    0.371    6.818
  384.724   87.897    0.131    0.415    6.252
  384.974   88.305    0.184    0.421    5.856
  385.224   85.794    0.151    0.389    5.355
  385.474   86.533    0.119    0.401    5.235
  385.724   90.871    0.138    0.429    4.810
  385.974   93.764    0.176    0.450    4.428
  386.224   94.983    0.205    0.462    4.015
  386.474   94.327    0.229    0.476    3.752
  386.724   94.712    0.234    0.473    3.592
  386.974   94.755    0.231    0.462    3.528
  387.224   93.930    0.238    0.466    3.689
  387.474   92.652    0.233    0.481    3.759
  387.724   91.692    0.236    0.490    3.900
  387.974   90.503    0.242    0.482    4.021
  388.224   89.099    0.244    0.478    4.183
  388.474   88.656    0.237    0.473    4.292
  388.724   88.024    0.227    0.465    4.409
  388.974   87.674    0.231    0.462    4.531
  389.224   87.128    0.222    0.454    4.600
  389.474   85.915    0.208    0.439    4.635
  389.724   85.127    0.203    0.434    4.637
  389.974   85.536    0.195    0.437    4.608
  390.224   87.931    0.193    0.435    4.578
  390.474   91.146    0.199    0.436    4.514
  390.724   93.401    0.185    0.439    4.391
  390.974   95.898    0.173    0.452    4.290
  391.224   97.546    0.190    0.468    4.183
  391.474   99.568    0.203    0.477    3.981
  391.724  100.845    0.220    0.484    3.930
  391.974  101.222    0.225    0.493    3.920
  392.224  100.574    0.217    0.496    3.904
  392.474   98.643    0.223    0.490    3.806
  392.724   96.369    0.235    0.487    3.667
  392.974   96.025    0.240    0.489    3.507
  393.224   98.700    0.239    0.491    3.394
  393.474  100.759    0.218    0.535    3.317
  393.724  101.682    0.226    0.559    3.303
  393.974   99.887    0.253    0.547    3.320
  394.224   99.745    0.256    0.549    3.338
  394.474  102.124    0.273    0.547    3.377
  394.724  103.297    0.268    0.535    3.399
  394.974   99.937    0.274    0.544    3.257
  395.224   95.029    0.267    0.548    3.109
  395.474   97.217    0.249    0.548    2.953
  395.724  100.818    0.252    0.546    2.719
  395.974  102.797    0.242    0.542    2.425
  396.224  102.272    0.244    0.535    2.117
  396.474  104.135    0.249    0.529    1.952
  396.724  106.044    0.261    0.543    1.868
  396.974  107.175    0.267    0.571    1.844
  397.224  107.702    0.277    0.591    1.849
  397.474  107.912    0.289    0.617    1.941
  397.724  106.821    0.285    0.564    2.055
  397.974  105.949    0.263    0.562    2.198
  398.224  104.362    0.248    0.562    2.335
  398.474  102.351    0.257    0.518    2.533
