~VERSION INFORMATION
 VERS.                 2.0:   CWLS LOG ASCII STANDARD -VERSION 2.0
 WRAP.                  NO:   ONE LINE PER DEPTH STEP
~WELL INFORMATION BLOCK
#MNEM.UNIT           DATA                    DESCRIPTION OF MNEMONIC
#---------    -------------------            -------------------------------
# Generated from Intellog Unique Number	CS_73_76/WELL/3244
WELL.         10-27-076-05W4                 : Well_name    - WELL
LOC .         00/10-27-076-05W4/0            : Location     - LOCATION
UWI .         00/10-27-076-05W4/0            : Uwi          - UNIQUE WELL ID
ENTR.         SP                             : Entered      - ENTERED BY
SRVC.         SCHLUMBERGER                   : Scn          - SERVICE COMPANY
STRT.M        160                            : top_depth    - START DEPTH
STOP.M        410                            : bot_depth    - STOP DEPTH
STEP.M        0.25                           : increment    - STEP LENGTH
 NULL. -999.2500:NULL Value
~CURVE INFORMATION BLOCK
#MNEM UNIT       ERCB CURVE CODE    CURVE DESCRIPTION
#-----------   ------------------   ----------------------------------
DEPT.M        00 001 00 00         : DEPTH        - DEPTH
DPHI.V/V      00 890 00 00         : PHID         - DENSITY POROSITY (LIMESTONE)
NPHI.V/V      00 330 00 00         : PHIN         - NEUTRON POROSITY (LIMESTONE)
GR  .API      00 310 00 00         : GR           - GAMMA RAY
ILD .OHMM     00 120 00 00         : RESD         - DEEP RESISTIVITY (DIL)
~PARAMETER INFORMATION
#MNEM.UNIT           DATA             DESCRIPTION OF MNEMONIC
#---------         -----------     ------------------------------
GL  .M        569.67               : gl           - GROUND LEVEL ELEVATION
EREF.M        573.87               : kb           - ELEVATION OF DEPTH REFERENCE
DATM.M        569.67               : datum        - DATUM ELEVATION
TDD .M        416.7                : tdd          - TOTAL DEPTH DRILLER
RUN .         ONE                  : Run          - RUN NUMBER
ENG .         BILL                 : Engineer     - RECORDING ENGINEER
WIT .         JIM                  : Witness      - WITNESSED BY
MUD .         GEL                  : Mud_type     - MUD TYPE
MATR.         LIMESTONE            : Logunit      - NEUTRON MATRIX
TMAX.C        36.7                 : BHT          - MAXIMUM RECORDED TEMPERATURE
BHTD.M        416.7                : BHTDEP       - MAXIMUM RECORDED TEMPERATURE
MATR.         1                    : LOGUNIT      - NEUTRON MATRIX
RMT .C        25                   : MDTP         - TEMPERATURE OF MUD
NEUT.         1                    : NEUTRON      - NEUTRON TYPE
RESI.         0                    : RESIST       - RESISTIVITY TYPE
RMC .OHMM     0.25                 : RMC          - RESISTIVITY OF MUD CAKE
RMF .OHMM     0.25                 : RMF          - RESISTIVITY OF MUD FILTRATE
SUFT.C        15                   : SUFT         - SURFACE TEMPERATURE
~A  DEPTH     PHID     PHIN       GR     RESD
  160.000    0.299    0.586   90.492    2.928
  160.250    0.308    0.595   89.900    2.876
  160.500    0.311    0.565   91.732    2.878
  160.750    0.307    0.554   92.352    2.880
  161.000    0.315    0.544   91.757    2.829
  161.250    0.306    0.558   89.341    2.884
  161.500    0.286    0.558   88.747    2.939
  161.750    0.270    0.554   89.974    2.996
  162.000    0.255    0.548   86.344    3.054
  162.250    0.226    0.529   84.533    3.231
  162.500    0.294    0.551   87.584    3.294
  162.750    0.297    0.570   93.062    3.296
  163.000    0.286    0.557   93.076    3.238
  163.250    0.277    0.567   94.910    3.180
  163.500    0.287    0.563   94.924    3.124
  163.750    0.288    0.567   94.936    3.069
  164.000    0.298    0.573   98.591    3.015
  164.250    0.293    0.577  100.426    2.961
  164.500    0.298    0.569  101.045    3.018
  164.750    0.283    0.580  101.666    3.076
  165.000    0.284    0.574  101.679    3.195
  165.250    0.286    0.570  103.514    3.507
  165.500    0.271    0.578  107.170    3.509
  165.750    0.282    0.558  102.933    3.577
  166.000    0.277    0.550  101.124    3.386
  166.250    0.266    0.533  100.528    3.583
  166.500    0.261    0.526  102.970    3.860
  166.750    0.271    0.534  102.984    3.935
  167.000    0.268    0.545  101.781    3.794
  167.250    0.274    0.556   99.973    3.659
  167.500    0.284    0.564   99.984    3.399
  167.750    0.283    0.575   95.745    3.402
  168.000    0.267    0.551   89.078    3.598
  168.250    0.255    0.519   75.730    4.497
  168.500    0.243    0.475   64.203    8.765
  168.750    0.179    0.385   49.642   12.470
  169.000    0.129    0.352   38.721   18.754
  169.250    0.192    0.315   30.839   25.711
  169.500    0.233    0.336   27.815   32.130
  169.750    0.262    0.327   27.827   30.414
  170.000    0.220    0.330   30.878   23.052
  170.250    0.191    0.351   35.750   14.252
  170.500    0.191    0.383   48.515    8.811
  170.750    0.221    0.424   58.245    6.201
  171.000    0.231    0.452   77.692    4.969
  171.250    0.226    0.534   93.495    4.287
  171.500    0.225    0.520   98.975    3.839
  171.750    0.228    0.536   97.771    3.375
  172.000    0.243    0.543   94.143    3.315
  172.250    0.252    0.497   92.942    3.507
  172.500    0.251    0.489   92.954    3.921
  172.750    0.249    0.490   92.357    4.385
  173.000    0.247    0.483   88.119    4.903
  173.250    0.235    0.479   92.991    5.383
  173.500    0.238    0.479   95.432    5.694
  173.750    0.239    0.480   94.839    5.804
  174.000    0.228    0.479   94.242    5.809
  174.250    0.216    0.474   98.506    5.813
  174.500    0.196    0.468   97.912    5.816
  174.750    0.206    0.466   95.498    5.820
  175.000    0.211    0.467   93.689    5.824
  175.250    0.223    0.462   90.056    6.048
  175.500    0.222    0.457   86.425    6.164
  175.750    0.218    0.445   82.187    6.401
  176.000    0.231    0.451   80.983    6.771
  176.250    0.220    0.455   80.391    7.572
  176.500    0.218    0.432   77.367    8.468
  176.750    0.224    0.412   74.342    9.125
  177.000    0.241    0.426   76.177    9.477
  177.250    0.247    0.436   76.189    9.840
  177.500    0.252    0.421   73.166    9.847
  177.750    0.243    0.410   73.181    9.852
  178.000    0.253    0.407   73.799    9.500
  178.250    0.259    0.401   73.206    9.684
  178.500    0.260    0.405   70.789   10.631
  178.750    0.267    0.421   67.157   11.455
  179.000    0.277    0.419   63.526   13.294
  179.250    0.289    0.421   60.502   15.426
  179.500    0.293    0.428   58.691   17.576
  179.750    0.283    0.430   59.314   19.291
  180.000    0.284    0.433   58.111   22.389
  180.250    0.303    0.433   55.087   24.125
  180.500    0.308    0.425   55.098   25.050
  180.750    0.309    0.419   56.330   24.609
  181.000    0.298    0.416   60.590   23.728
  181.250    0.291    0.403   62.425   19.730
  181.500    0.282    0.401   70.334   15.234
  181.750    0.261    0.409   78.848   11.761
  182.000    0.249    0.428   86.755    9.251
  182.250    0.220    0.455   92.236    7.983
  182.500    0.220    0.473   95.286    7.281
  182.750    0.228    0.483   94.082    7.152
  183.000    0.225    0.487   84.377    7.998
  183.250    0.235    0.467   69.815   11.171
  183.500    0.260    0.414   62.540   12.963
  183.750    0.254    0.383   53.444   13.712
  184.000    0.243    0.368   61.353   15.052
  184.250    0.234    0.374   67.438   17.148
  184.500    0.226    0.416   73.522   18.822
  184.750    0.279    0.407   67.466   21.049
  185.000    0.276    0.383   63.830   23.107
  185.250    0.279    0.389   61.414   23.554
  185.500    0.281    0.376   71.145   22.713
  185.750    0.283    0.386   86.340   20.719
  186.000    0.294    0.410   93.640   18.213
  186.250    0.294    0.436   91.227   16.306
  186.500    0.264    0.439   89.414   14.332
  186.750    0.248    0.434   83.963   13.073
  187.000    0.222    0.426   83.369   12.148
  187.250    0.230    0.429   81.558   11.714
  187.500    0.243    0.422   79.748   11.506
  187.750    0.231    0.423   92.516   10.115
  188.000    0.217    0.433   99.816    9.056
  188.250    0.205    0.464  105.905    7.531
  188.500    0.178    0.482  109.558    6.497
  188.750    0.156    0.490  115.039    5.711
  189.000    0.158    0.499  118.087    5.307
  189.250    0.173    0.491  115.062    5.213
  189.500    0.178    0.481  119.327    4.844
  189.750    0.176    0.499  114.482    4.585
  190.000    0.170    0.494  110.246    4.340
  190.250    0.171    0.512  112.685    4.033
  190.500    0.185    0.538  114.519    3.748
  190.750    0.186    0.561  116.354    3.547
  191.000    0.176    0.572  116.367    3.358
  191.250    0.208    0.587  113.951    3.178
  191.500    0.232    0.593  112.142    3.489
  191.750    0.233    0.575  109.724    4.049
  192.000    0.226    0.551  107.915    5.449
  192.250    0.247    0.518   98.818    7.897
  192.500    0.270    0.480   87.900   14.031
  192.750    0.298    0.440   73.943   21.898
  193.000    0.324    0.429   66.060   26.372
  193.250    0.319    0.422   61.822   27.897
  193.500    0.308    0.417   66.089   28.968
  193.750    0.298    0.402   63.064   28.456
  194.000    0.289    0.402   60.647   27.439
  194.250    0.296    0.415   60.052   26.951
  194.500    0.306    0.430   56.421   26.477
  194.750    0.314    0.427   54.005   26.493
  195.000    0.307    0.414   54.623   26.510
  195.250    0.297    0.424   59.498   26.529
  195.500    0.296    0.438   63.152   26.547
  195.750    0.303    0.433   68.633   26.564
  196.000    0.311    0.429   70.465   26.585
  196.250    0.308    0.420   68.051   26.598
  196.500    0.304    0.412   68.669   26.618
  196.750    0.311    0.420   71.719   26.143
  197.000    0.305    0.443   68.086   25.689
  197.250    0.306    0.456   60.205   25.697
  197.500    0.305    0.457   46.250   25.244
  197.750    0.300    0.448   43.834   24.341
  198.000    0.297    0.440   45.063   23.912
  198.250    0.289    0.434   48.718   22.633
  198.500    0.289    0.427   54.805   21.423
  198.750    0.279    0.422   60.285   19.907
  199.000    0.270    0.417   64.547   18.843
  199.250    0.274    0.416   69.417   18.511
  199.500    0.265    0.441   73.681   18.181
  199.750    0.266    0.456   77.340   18.195
  200.000    0.268    0.466   79.173   17.875
  200.250    0.266    0.474   84.045   17.885
  200.500    0.268    0.468   90.129   17.895
  200.750    0.264    0.470   90.754   18.243
  201.000    0.255    0.453   89.547   18.597
  201.250    0.264    0.428   80.452   20.040
  201.500    0.258    0.409   71.353   21.593
  201.750    0.269    0.406   62.865   23.704
  202.000    0.301    0.415   56.803   25.543
  202.250    0.314    0.419   53.171   26.524
  202.500    0.284    0.421   57.436   24.650
  202.750    0.267    0.421   62.917   23.331
  203.000    0.267    0.419   65.357   21.682
  203.250    0.273    0.411   68.408   21.295
