~VERSION INFORMATION
 VERS.                 2.0:   CWLS LOG ASCII STANDARD -VERSION 2.0
 WRAP.                  NO:   ONE LINE PER DEPTH STEP
~WELL INFORMATION BLOCK
#MNEM.UNIT           DATA                    DESCRIPTION OF MNEMONIC
#---------    -------------------            -------------------------------
# Generated from Intellog Unique Number	CS_77_79/WELL/1007
WELL.         CAVALIER ENERGY INC            : Well_name    - WELL
LOC .         00/11-33-077-17W4/0            : Location     - LOCATION
UWI .         00/11-33-077-17W4/0            : Uwi          - UNIQUE WELL ID
ENTR.         SP                             : Entered      - ENTERED BY
SRVC.         SCHLUMBERGER                   : Scn          - SERVICE COMPANY
STRT.M        182.88                         : top_depth    - START DEPTH
STOP.M        389.88                         : bot_depth    - STOP DEPTH
STEP.M        0.25                           : increment    - STEP LENGTH
 NULL. -999.2500:NULL Value
~CURVE INFORMATION BLOCK
#MNEM UNIT       ERCB CURVE CODE    CURVE DESCRIPTION
#-----------   ------------------   ----------------------------------
DEPT.M        00 001 00 00         : DEPTH        - DEPTH
GR  .API      00 310 00 00         : GR           - GAMMA RAY
DPHI.V/V      00 890 00 00         : PHID         - DENSITY POROSITY (SANDSTONE)
NPHI.V/V      00 330 00 00         : PHIN         - NEUTRON POROSITY (SANDSTONE)
ILD .OHMM     00 120 00 00         : RESD         - DEEP RESISTIVITY (DIL)
~PARAMETER INFORMATION
#MNEM.UNIT           DATA             DESCRIPTION OF MNEMONIC
#---------         -----------     ------------------------------
GL  .M        568.452              : gl           - GROUND LEVEL ELEVATION
EREF.M        571.5                : kb           - ELEVATION OF DEPTH REFERENCE
DATM.M        568.452              : datum        - DATUM ELEVATION
TDD .M        389.839              : tdd          - TOTAL DEPTH DRILLER
RUN .         ONE                  : Run          - RUN NUMBER
ENG .         BILL                 : Engineer     - RECORDING ENGINEER
WIT .         JIM                  : Witness      - WITNESSED BY
MUD .         GEL                  : Mud_type     - MUD TYPE
MATR.         SANDSTONE            : Logunit      - NEUTRON MATRIX
TMAX.C        20                   : BHT          - MAXIMUM RECORDED TEMPERATURE
BHTD.M        389.839              : BHTDEP       - MAXIMUM RECORDED TEMPERATURE
MATR.         1                    : LOGUNIT      - NEUTRON MATRIX
RMT .C        25                   : MDTP         - TEMPERATURE OF MUD
NEUT.         1                    : NEUTRON      - NEUTRON TYPE
RESI.         0                    : RESIST       - RESISTIVITY TYPE
RMC .OHMM     0.25                 : RMC          - RESISTIVITY OF MUD CAKE
RMF .OHMM     0.25                 : RMF          - RESISTIVITY OF MUD FILTRATE
SUFT.C        15                   : SUFT         - SURFACE TEMPERATURE
~A  DEPTH       GR     PHID     PHIN     RESD
# ...
  226.380   56.937    0.344    0.446   11.541
  226.630   58.334    0.353    0.454   11.471
  226.880   60.534    0.369    0.459   11.737
  227.130   61.495    0.374    0.470   12.733
  227.380   61.221    0.367    0.470   13.852
  227.630   59.259    0.358    0.446   14.538
  227.880   57.328    0.347    0.429   15.357
  228.130   54.736    0.347    0.424   16.012
  228.380   53.717    0.346    0.418   16.852
  228.630   52.761    0.296    0.414   18.293
  228.880   52.797    0.164    0.400   20.946
  229.130   52.847    0.118    0.373   23.029
  229.380   52.166    0.122    0.333   22.989
  229.630   51.247    0.172    0.288   22.024
  229.880   51.142    0.229    0.335   20.359
  230.130   52.790    0.279    0.389   17.824
  230.380   54.642    0.327    0.427   15.838
  230.630   57.041    0.359    0.447   13.749
  230.880   56.954    0.331    0.446   13.298
  231.130   54.706    0.296    0.451   13.328
  231.380   53.173    0.339    0.451   13.118
  231.630   54.186    0.342    0.442   12.584
  231.880   57.973    0.331    0.446   12.162
  232.130   63.328    0.319    0.453   11.259
  232.380   67.653    0.325    0.446   10.452
  232.630   71.300    0.329    0.438    9.768
  232.880   74.265    0.319    0.427    9.112
  233.130   76.994    0.303    0.423    8.596
  233.380   82.816    0.299    0.431    8.305
  233.630   89.051    0.291    0.449    8.751
  233.880   92.257    0.305    0.458    9.208
  234.130   91.295    0.317    0.444    9.606
  234.380   89.818    0.313    0.432    9.935
  234.630   86.489    0.299    0.434   10.055
  234.880   84.676    0.286    0.435    9.926
  235.130   84.186    0.283    0.435    9.041
  235.380   84.820    0.286    0.443    8.593
  235.630   85.405    0.288    0.446    8.161
  235.880   84.841    0.298    0.450    7.786
  236.130   84.200    0.310    0.460    8.375
  236.380   82.928    0.324    0.476    8.797
  236.630   79.099    0.334    0.487   10.086
  236.880   73.691    0.346    0.489   11.228
  237.130   67.044    0.348    0.471   12.171
  237.380   61.049    0.338    0.448   11.937
  237.630   61.215    0.315    0.443   11.081
  237.880   67.504    0.278    0.435    9.648
  238.130   76.601    0.249    0.439    8.597
  238.380   84.393    0.233    0.467    7.535
  238.630   89.638    0.211    0.476    7.264
  238.880   92.883    0.220    0.465    6.951
  239.130   93.676    0.237    0.466    6.396
  239.380   92.221    0.265    0.478    6.239
  239.630   90.331    0.294    0.485    5.955
  239.880   87.058    0.307    0.481    5.636
  240.130   84.742    0.328    0.500    5.403
  240.380   82.735    0.350    0.527    6.018
  240.630   80.608    0.361    0.554    6.959
  240.880   77.143    0.376    0.559   10.617
  241.130   71.483    0.369    0.504   18.162
  241.380   68.236    0.366    0.480   27.925
  241.630   63.644    0.360    0.456   32.928
  241.880   60.597    0.350    0.441   35.606
  242.130   59.138    0.341    0.426   34.083
  242.380   59.118    0.336    0.431   30.099
  242.630   60.104    0.337    0.435   25.669
  242.880   61.536    0.336    0.443   21.824
  243.130   62.880    0.330    0.460   17.802
  243.380   66.569    0.325    0.482   14.689
  243.630   68.543    0.322    0.493   12.694
  243.880   70.648    0.318    0.487   11.602
  244.130   72.556    0.311    0.487   10.694
  244.380   72.218    0.305    0.473    9.858
  244.630   71.833    0.297    0.465    9.017
  244.880   70.250    0.311    0.472    8.710
  245.130   69.340    0.318    0.474    8.662
  245.380   67.673    0.325    0.483    9.132
  245.630   66.727    0.338    0.495   10.506
  245.880   64.315    0.355    0.499   14.098
  246.130   59.924    0.365    0.494   19.686
  246.380   54.695    0.354    0.475   22.136
  246.630   51.966    0.358    0.469   23.390
  246.880   53.291    0.363    0.487   24.025
  247.130   54.038    0.364    0.489   24.448
  247.380   53.266    0.369    0.500   25.072
  247.630   53.863    0.367    0.499   25.058
  247.880   53.656    0.361    0.489   24.739
  248.130   52.629    0.360    0.479   24.387
  248.380   52.107    0.352    0.474   23.694
  248.630   52.358    0.343    0.473   23.448
  248.880   52.713    0.345    0.477   23.470
  249.130   53.326    0.351    0.480   23.459
  249.380   53.290    0.351    0.481   23.764
  249.630   53.258    0.341    0.485   23.876
  249.880   53.962    0.300    0.480   23.892
  250.130   53.163    0.263    0.475   22.936
  250.380   53.804    0.247    0.458   21.943
  250.630   54.072    0.279    0.424   21.250
  250.880   55.011    0.314    0.424   21.083
  251.130   55.995    0.343    0.453   20.886
  251.380   57.102    0.349    0.459   21.198
  251.630   57.407    0.347    0.463   21.514
  251.880   58.482    0.364    0.460   21.681
  252.130   58.725    0.360    0.448   21.436
  252.380   59.759    0.367    0.439   20.909
  252.630   60.792    0.358    0.436   19.524
  252.880   60.982    0.354    0.449   18.907
  253.130   59.785    0.363    0.458   17.372
  253.380   58.781    0.359    0.456   16.465
  253.630   57.778    0.357    0.460   15.925
  253.880   56.793    0.350    0.465   15.582
  254.130   55.857    0.346    0.468   15.157
  254.380   54.166    0.352    0.469   14.727
  254.630   53.578    0.352    0.459   14.045
  254.880   55.143    0.344    0.453   13.700
  255.130   56.697    0.337    0.456   13.377
  255.380   57.001    0.338    0.462   13.409
  255.630   57.712    0.335    0.462   13.165
  255.880   56.653    0.313    0.438   13.195
  256.130   55.405    0.288    0.412   12.997
  256.380   54.722    0.310    0.426   12.737
  256.630   55.387    0.333    0.437   12.434
  256.880   55.727    0.351    0.440   11.896
  257.130   55.978    0.348    0.445   11.328
  257.380   56.034    0.349    0.446   10.848
  257.630   55.291    0.356    0.435   10.513
  257.880   56.094    0.350    0.428   10.429
  258.130   57.627    0.355    0.441   10.431
  258.380   58.439    0.356    0.444   10.450
  258.630   57.712    0.350    0.441   10.233
  258.880   57.033    0.347    0.448   10.245
  259.130   57.755    0.336    0.459   10.254
  259.380   58.263    0.325    0.462   10.230
  259.630   60.202    0.323    0.456   10.897
  259.880   62.113    0.318    0.458   10.852
  260.130   65.127    0.308    0.446   10.850
  260.380   68.820    0.301    0.448   10.847
  260.630   70.889    0.297    0.440   10.831
  260.880   70.397    0.300    0.438   10.670
  261.130   68.706    0.287    0.445   10.456
  261.380   67.798    0.289    0.445   10.249
  261.630   69.243    0.298    0.443    9.924
  261.880   69.861    0.308    0.447    9.539
  262.130   67.777    0.314    0.450    9.081
  262.380   64.604    0.318    0.463    8.744
  262.630   60.952    0.325    0.464    8.728
  262.880   56.566    0.337    0.443    9.086
  263.130   53.538    0.351    0.424    9.304
  263.380   51.316    0.342    0.422    9.751
  263.630   50.848    0.342    0.421   10.439
  263.880   51.907    0.340    0.432   10.703
  264.130   52.175    0.341    0.442   10.686
  264.380   51.675    0.335    0.440   10.328
  264.630   51.367    0.337    0.437   10.232
  264.880   50.313    0.338    0.442   10.111
  265.130   48.679    0.344    0.448   10.117
  265.380   48.867    0.343    0.451   10.176
  265.630   50.308    0.353    0.454   10.314
  265.880   51.343    0.352    0.452   10.543
  266.130   51.615    0.333    0.436   10.565
  266.380   52.108    0.333    0.439   10.729
  266.630   52.089    0.325    0.441   10.729
  266.880   52.090    0.318    0.428   10.730
  267.130   51.605    0.310    0.429   10.732
  267.380   50.627    0.308    0.434   10.736
  267.630   49.668    0.318    0.444   10.739
  267.880   50.635    0.332    0.454   10.715
  268.130   52.308    0.334    0.448   10.897
  268.380   53.219    0.343    0.438   10.747
  268.630   52.892    0.344    0.434   10.739
  268.880   52.225    0.340    0.428   10.665
  269.130   53.777    0.333    0.426   10.161
  269.380   53.827    0.310    0.430   10.067
  269.630   53.050    0.297    0.438    9.735
