~VERSION INFORMATION
 VERS.                 2.0:   CWLS LOG ASCII STANDARD -VERSION 2.0
 WRAP.                  NO:   ONE LINE PER DEPTH STEP
~WELL INFORMATION BLOCK
#MNEM.UNIT           DATA                    DESCRIPTION OF MNEMONIC
#---------    -------------------            -------------------------------
# Generated from Intellog Unique Number	CS_73_76/WELL/3270
WELL.         TOTAL PETROLEUM (N.A) LTD.     : Well_name    - WELL
LOC .         00/12-10-075-09W4/0            : Location     - LOCATION
UWI .         00/12-10-075-09W4/0            : Uwi          - UNIQUE WELL ID
ENTR.         SP                             : Entered      - ENTERED BY
SRVC.         SCHLUMBERGER                   : Scn          - SERVICE COMPANY
STRT.M        270                            : top_depth    - START DEPTH
STOP.M        490                            : bot_depth    - STOP DEPTH
STEP.M        0.25                           : increment    - STEP LENGTH
 NULL. -999.2500:NULL Value
~CURVE INFORMATION BLOCK
#MNEM UNIT       ERCB CURVE CODE    CURVE DESCRIPTION
#-----------   ------------------   ----------------------------------
DEPT.M        00 001 00 00         : DEPTH        - DEPTH
ILD .OHMM     00 120 00 00         : RESD         - DEEP RESISTIVITY (DIL)
GR  .API      00 310 00 00         : GR           - GAMMA RAY
NPHI.V/V      00 330 00 00         : PHIN         - NEUTRON POROSITY (LIMESTONE)
DPHI.V/V      00 890 00 00         : PHID         - DENSITY POROSITY (LIMESTONE)
~PARAMETER INFORMATION
#MNEM.UNIT           DATA             DESCRIPTION OF MNEMONIC
#---------         -----------     ------------------------------
GL  .M        659.92               : gl           - GROUND LEVEL ELEVATION
EREF.M        662.92               : kb           - ELEVATION OF DEPTH REFERENCE
DATM.M        659.92               : datum        - DATUM ELEVATION
TDD .M        502                  : tdd          - TOTAL DEPTH DRILLER
RUN .         ONE                  : Run          - RUN NUMBER
ENG .         BILL                 : Engineer     - RECORDING ENGINEER
WIT .         JIM                  : Witness      - WITNESSED BY
MUD .         GEL                  : Mud_type     - MUD TYPE
MATR.         LIMESTONE            : Logunit      - NEUTRON MATRIX
TMAX.C        22.5                 : BHT          - MAXIMUM RECORDED TEMPERATURE
BHTD.M        502                  : BHTDEP       - MAXIMUM RECORDED TEMPERATURE
MATR.         1                    : LOGUNIT      - NEUTRON MATRIX
RMT .C        25                   : MDTP         - TEMPERATURE OF MUD
NEUT.         1                    : NEUTRON      - NEUTRON TYPE
RESI.         0                    : RESIST       - RESISTIVITY TYPE
RMC .OHMM     0.25                 : RMC          - RESISTIVITY OF MUD CAKE
RMF .OHMM     0.25                 : RMF          - RESISTIVITY OF MUD FILTRATE
SUFT.C        15                   : SUFT         - SURFACE TEMPERATURE
~A  DEPTH     RESD       GR     PHIN     PHID
# ...
  400.500    5.312   72.339    0.496    0.352
  400.750    5.312   73.566    0.507    0.352
  401.000    5.413   72.346    0.507    0.355
  401.250    5.414   69.902    0.491    0.361
  401.500    5.415   70.519    0.476    0.361
  401.750    5.415   71.136    0.462    0.361
  402.000    5.416   69.304    0.464    0.367
  402.250    5.417   68.697    0.472    0.367
  402.500    5.417   68.703    0.467    0.371
  402.750    5.418   69.319    0.472    0.362
  403.000    5.418   70.548    0.472    0.359
  403.250    5.419   71.778    0.488    0.362
  403.500    5.419   72.395    0.498    0.351
  403.750    5.420   71.175    0.498    0.347
  404.000    5.421   69.956    0.498    0.351
  404.250    5.421   70.573    0.477    0.338
  404.500    5.422   76.700    0.414    0.322
  404.750    5.422   81.603    0.423    0.227
  405.000    5.423   84.669    0.479    0.216
  405.250    5.424   87.123    0.495    0.237
  405.500    5.424   88.963    0.508    0.262
  405.750    5.324   89.581    0.516    0.252
  406.000    5.324   87.138    0.514    0.260
  406.250    5.325   85.918    0.509    0.273
  406.500    5.426   85.922    0.501    0.274
  406.750    5.530   87.151    0.521    0.271
  407.000    5.530   90.218    0.520    0.266
  407.250    5.636   92.058    0.509    0.274
  407.500    5.636   91.452    0.505    0.270
  407.750    5.637   91.460    0.488    0.258
  408.000    5.638   92.689    0.479    0.243
  408.250    5.638   94.528    0.465    0.226
  408.500    5.534   98.206    0.456    0.234
  408.750    5.431   96.986    0.458    0.247
  409.000    5.331   95.155    0.466    0.255
  409.250    5.232   94.548    0.468    0.258
  409.500    5.136   95.166    0.468    0.252
  409.750    5.234   95.169    0.473    0.255
  410.000    5.333   96.398    0.474    0.258
  410.250    5.435   98.852    0.477    0.255
  410.500    5.644  100.694    0.493    0.259
  410.750    5.751  103.148    0.506    0.270
  411.000    5.861  103.764    0.521    0.270
  411.250    5.972  103.158    0.505    0.280
  411.500    6.086  103.162    0.495    0.295
  411.750    6.087  100.106    0.489    0.306
  412.000    5.974   95.827    0.482    0.312
  412.250    5.864   93.381    0.473    0.303
  412.500    5.755   89.713    0.471    0.287
  412.750    5.649   88.493    0.468    0.286
  413.000    5.544   88.500    0.466    0.255
  413.250    5.442   90.339    0.462    0.226
  413.500    5.443   97.079    0.464    0.211
  413.750    5.342   98.921    0.468    0.228
  414.000    5.342   97.701    0.470    0.247
  414.250    5.343   98.929    0.472    0.237
  414.500    5.344  100.160    0.479    0.238
  414.750    5.344  100.164    0.491    0.243
  415.000    5.345   98.333    0.533    0.263
  415.250    5.447   96.500    0.580    0.281
  415.500    5.447   92.833    0.594    0.310
  415.750    5.448   91.612    0.580    0.331
  416.000    5.347   95.905    0.572    0.315
  416.250    5.151   95.908    0.582    0.292
  416.500    4.778   95.913    0.593    0.296
  416.750    4.113   96.529    0.577    0.303
  417.000    3.675   94.697    0.560    0.302
  417.250    3.223   92.867    0.577    0.277
  417.500    2.672   95.933    0.582    0.261
  417.750    2.478   98.998    0.568    0.259
  418.000    2.215  103.903    0.562    0.258
  418.250    2.055  105.743    0.575    0.263
  418.500    2.055  106.973    0.577    0.277
  418.750    2.055  105.753    0.527    0.272
  419.000    2.055  103.310    0.491    0.253
  419.250    2.095  102.088    0.454    0.238
  419.500    2.095   99.033    0.463    0.243
  419.750    2.135   97.200    0.467    0.226
  420.000    2.217   95.368    0.454    0.228
  420.250    2.345   96.598    0.437    0.218
  420.500    2.675   97.215    0.433    0.217
  420.750    2.938   97.832    0.442    0.183
  421.000    3.168   96.001    0.454    0.166
  421.250    3.415   92.944    0.473    0.178
  421.500    3.823   92.337    0.471    0.226
  421.750    4.121   96.016    0.469    0.231
  422.000    4.527   96.633    0.480    0.223
  422.250    4.881   95.414    0.497    0.213
  422.500    5.164   96.029    0.514    0.242
  422.750    5.464  100.322    0.520    0.245
  423.000    5.568  101.549    0.517    0.250
  423.250    5.070  103.392    0.519    0.256
  423.500    4.704  104.008    0.525    0.261
  423.750    4.617  104.625    0.530    0.253
  424.000    4.283  104.630    0.512    0.248
  424.250    4.049  105.246    0.496    0.253
  424.500    3.974  107.089    0.493    0.251
  424.750    3.828  105.259    0.495    0.255
  425.000    3.757  104.649    0.476    0.260
  425.250    3.619  102.817    0.444    0.275
  425.500    3.552   99.761    0.405    0.280
  425.750    3.422   94.868    0.399    0.287
  426.000    3.422   88.751    0.405    0.278
  426.250    3.359   86.919    0.411    0.277
  426.500    3.359   86.314    0.416    0.286
  426.750    3.760   86.928    0.414    0.291
  427.000    4.370   89.383    0.421    0.267
  427.250    5.684   88.775    0.418    0.261
  427.500    6.988   87.555    0.409    0.246
  427.750    7.822   81.439    0.395    0.223
  428.000    8.276   77.770    0.423    0.199
  428.250    8.756   76.550    0.440    0.227
  428.500    9.092   79.004    0.353    0.151
  428.750    9.621   85.744    0.317    0.105
  429.000    9.804   86.973    0.369    0.124
  429.250   10.180   82.692    0.424    0.184
  429.500   10.570   82.087    0.465    0.218
  429.750   11.396   82.703    0.483    0.246
  430.000   11.833   83.931    0.477    0.246
  430.250   12.520   86.386    0.472    0.253
  430.500   13.000   86.391    0.465    0.256
  430.750   13.499   85.782    0.451    0.245
  431.000   13.249   84.563    0.451    0.248
  431.250   11.839   83.955    0.446    0.254
  431.500   11.192   85.185    0.455    0.246
  431.750   10.383   84.577    0.457    0.227
  432.000    9.816   83.971    0.439    0.245
  432.250    9.455   85.812    0.406    0.257
  432.500    9.108   87.041    0.376    0.283
  432.750    8.940   83.372    0.357    0.295
  433.000    8.774   76.642    0.345    0.302
  433.250    8.775   60.730    0.395    0.282
  433.500    9.112   54.612    0.417    0.265
  433.750    9.461   55.841    0.405    0.279
  434.000   10.200   60.132    0.395    0.295
  434.250   10.997   58.301    0.400    0.308
  434.500   12.080   55.244    0.400    0.306
  434.750   13.270   56.475    0.391    0.304
  435.000   15.135   57.703    0.401    0.302
  435.250   17.262   56.483    0.409    0.306
  435.500   23.312   55.875    0.416    0.308
  435.750   30.322   57.718    0.406    0.295
  436.000   43.321   62.011    0.409    0.292
  436.250   54.271   63.850    0.406    0.286
  436.500   60.749   66.916    0.407    0.290
  436.750   54.285   68.756    0.416    0.293
  437.000   51.316   70.598    0.409    0.293
  437.250   47.611   75.503    0.400    0.281
  437.500   45.008   77.343    0.405    0.272
  437.750   43.354   81.633    0.419    0.284
  438.000   40.985   85.311    0.427    0.274
  438.250   38.024   87.153    0.427    0.270
  438.500   33.346   89.608    0.433    0.271
  438.750   27.643   92.060    0.439    0.277
  439.000   26.625   95.739    0.427    0.270
  439.250   22.489   96.355    0.413    0.276
  439.500   20.096   92.687    0.404    0.279
  439.750   18.644   87.181    0.401    0.259
  440.000   18.646   91.474    0.411    0.247
  440.250   19.729   94.540    0.418    0.260
  440.500   19.730   95.157    0.420    0.274
  440.750   18.306   95.773    0.425    0.266
  441.000   17.633  100.676    0.414    0.263
  441.250   16.984  109.252    0.417    0.244
  441.500   15.177  115.379    0.423    0.233
  441.750   13.062  120.281    0.397    0.236
  442.000   11.456  115.388    0.390    0.244
  442.250   10.627   86.619    0.399    0.240
  442.500    9.677   84.174    0.393    0.257
  442.750    9.498   81.731    0.380    0.273
  443.000   10.239   78.674    0.366    0.244
  443.250   10.632   81.740    0.359    0.227
  443.500   11.680   87.868    0.350    0.223
  443.750   11.902   92.159    0.370    0.227
