~VERSION INFORMATION
 VERS.                 2.0:   CWLS LOG ASCII STANDARD -VERSION 2.0
 WRAP.                  NO:   ONE LINE PER DEPTH STEP
~WELL INFORMATION BLOCK
#MNEM.UNIT           DATA                    DESCRIPTION OF MNEMONIC
#---------    -------------------            -------------------------------
# Generated from Intellog Unique Number	CN_91_93/WELL/3054
WELL.         11-08-092-21W4                 : Well_name    - WELL
LOC .         00/11-08-092-21W4/0            : Location     - LOCATION
UWI .         00/11-08-092-21W4/0            : Uwi          - UNIQUE WELL ID
ENTR.         JOETTE                         : Entered      - ENTERED BY
SRVC.         SCHLUMBERGER                   : Scn          - SERVICE COMPANY
DATE.         04/09/92                       : Date         - LOG DATE
STRT.F        300                            : top_depth    - START DEPTH
STOP.F        889.731                        : bot_depth    - STOP DEPTH
STEP.F        0.82                           : increment    - STEP LENGTH
 NULL. -999.2500:NULL Value
~CURVE INFORMATION BLOCK
#MNEM UNIT       ERCB CURVE CODE    CURVE DESCRIPTION
#-----------   ------------------   ----------------------------------
DEPT.F        00 001 00 00         : DEPTH        - DEPTH
CALI.IN       00 280 01 00         : CAL          - CALIPER
GR  .API      00 310 00 00         : GR           - GAMMA RAY
NPHI.V/V      00 330 00 00         : PHIN         - NEUTRON POROSITY (SANDSTONE)
DPHI.V/V      00 890 00 00         : PHID         - DENSITY POROSITY (SANDSTONE)
ILD .OHMM     00 120 00 00         : RESD         - DEEP RESISTIVITY (DIL)
~PARAMETER INFORMATION
#MNEM.UNIT           DATA             DESCRIPTION OF MNEMONIC
#---------         -----------     ------------------------------
GL  .M        547.421              : gl           - GROUND LEVEL ELEVATION
EREF.M        551.383              : kb           - ELEVATION OF DEPTH REFERENCE
DATM.M        551.383              : datum        - DATUM ELEVATION
TDD .M        274.32               : tdd          - TOTAL DEPTH DRILLER
RUN .         ONE                  : Run          - RUN NUMBER
ENG .         BILL                 : Engineer     - RECORDING ENGINEER
WIT .         JIM                  : Witness      - WITNESSED BY
MUD .         GEL                  : Mud_type     - MUD TYPE
MATR.         SANDSTONE            : Logunit      - NEUTRON MATRIX
TMAX.F        67                   : BHT          - MAXIMUM RECORDED TEMPERATURE
BHTD.F        900                  : BHTDEP       - MAXIMUM RECORDED TEMPERATURE
RMT .F        64                   : MDTP         - TEMPERATURE OF MUD
MUDD.LB/G     9.25                 : MWT          - MUD DENSITY
NEUT.         1                    : NEUTRON      - NEUTRON TYPE
RESI.         0                    : RESIST       - RESISTIVITY TYPE
RM  .OHMM     4.31                 : RM           - RESISTIVITY OF MUD
RMC .OHMM     4.31                 : RMC          - RESISTIVITY OF MUD CAKE
RMF .OHMM     3.38                 : RMF          - RESISTIVITY OF MUD FILTRATE
SUFT.F        39.2                 : SUFT         - SURFACE TEMPERATURE
~A  DEPTH      CAL       GR     PHIN     PHID     RESD
  300.000    8.877   80.430    0.411    0.175   15.358
  300.820    8.879   80.449    0.416    0.166   15.354
  301.640    8.880   80.478    0.422    0.167   15.350
  302.461    8.881   81.110    0.431    0.180   15.344
  303.281    8.923   81.743    0.423    0.189   15.050
  304.101    8.884   83.618    0.415    0.175   14.207
  304.921    8.802   84.261    0.417    0.162   13.672
  305.741    8.680   83.661    0.422    0.162   12.907
  306.562    9.052   81.206    0.428    0.180   11.954
  307.382    9.054   81.225    0.435    0.195   11.072
  308.202    9.055   83.095    0.452    0.214    9.869
  309.022    8.933   86.826    0.473    0.265    9.317
  309.843    8.769   93.650    0.496    0.278    8.965
  310.663    8.646   97.381    0.524    0.269    8.463
  311.483    8.648   97.405    0.557    0.269    8.302
  312.303    8.649   99.894    0.536    0.261    8.143
  313.123    8.651  101.150    0.542    0.266    7.986
  313.944    8.652   99.318    0.556    0.276    7.984
  314.764    8.694   96.863    0.562    0.286    8.292
  315.584    8.737   95.640    0.566    0.283    8.778
  316.404    8.738   94.422    0.551    0.265    9.295
  317.224    8.657   93.827    0.530    0.256   10.826
  318.045    8.370   94.465    0.521    0.243   11.032
  318.865    8.247   94.489    0.531    0.227   11.241
  319.685    8.207   95.745    0.533    0.234   11.239
  320.505    8.167   96.997    0.519    0.244   11.023
  321.325    8.168   98.872    0.508    0.241   11.019
  322.146    8.211  100.133    0.504    0.232   11.229
  322.966    8.336   97.677    0.509    0.233   12.589
  323.786    8.378   93.362    0.519    0.245   14.387
  324.606    8.545   86.576    0.527    0.262   17.747
  325.427    8.587   79.177    0.530    0.277   22.313
  326.247    8.629   71.767    0.516    0.297   25.988
  327.067    8.136   57.558    0.511    0.311   28.046
  327.887    7.642   72.424    0.508    0.309   31.437
  328.707    7.231   94.095    0.499    0.291   32.657
  329.528    7.026   91.021    0.506    0.335   33.917
  330.348    6.986   93.519    0.471    0.329   32.635
  331.168    6.864   85.492    0.466    0.314   33.259
  331.988    6.865   99.739    0.478    0.332   35.209
  332.808    6.826  108.419    0.500    0.348   37.276
  333.629    6.827   80.600    0.519    0.339   37.984
  334.449    6.828   86.187    0.535    0.352   36.550
  335.269    6.871  104.769    0.501    0.366   36.538
  336.089    6.872   84.369    0.471    0.384   36.533
  336.909    6.915   70.779    0.460    0.328   34.489
  337.730    6.957   89.975    0.490    0.323   30.744
  338.550    7.040   96.185    0.541    0.303   26.890
  339.370    7.207  127.135    0.575    0.343   21.376
  340.190    7.332  139.527    0.602    0.366   19.055
  341.010    7.581  133.360    0.601    0.377   20.563
  341.831    7.788  120.388    0.588    0.397   25.365
  342.651    7.995  103.704    0.563    0.396   30.114
  343.471    7.955   79.597    0.545    0.360   34.414
  344.291    7.627   87.040    0.535    0.324   38.577
  345.112    7.339   96.957    0.499    0.321   39.313
  345.932    6.970  125.432    0.499    0.363   42.423
  346.752    7.095  118.028    0.509    0.375   42.409
  347.572    7.137   90.828    0.510    0.334   40.038
  348.392    7.180  100.745    0.490    0.358   35.693
  349.213    7.181   83.443    0.456    0.362   32.433
  350.033    7.265   69.234    0.448    0.285   34.998
  350.853    7.431   72.346    0.481    0.309   39.992
  351.673    7.267  113.194    0.513    0.341   40.755
  352.493    7.145  111.357    0.487    0.382   38.472
  353.314    7.435   81.683    0.478    0.357   35.630
  354.134    7.436   68.092    0.464    0.332   34.285
  354.954    7.108   65.637    0.465    0.326   33.632
  355.774    6.903   81.740    0.493    0.346   31.750
  356.594    6.863   81.764    0.488    0.341   27.768
  357.415    7.194   82.397    0.478    0.363   22.933
  358.235    7.567  113.352    0.522    0.431   20.839
  359.055    7.815  138.116    0.560    0.471   22.062
  359.875    8.105  126.381    0.595    0.500   23.357
  360.696    8.313  108.460    0.639    0.518   22.907
  361.516    8.479  102.293    0.636    0.502   22.466
  362.336    8.604  109.117    0.597    0.403   23.336
  363.156    8.770   91.196    0.558    0.350   26.159
  363.976    8.813   83.174    0.516    0.337   27.174
  364.797    8.732   84.430    0.489    0.277   29.318
  365.617    8.444   96.207    0.471    0.265   29.316
  366.437    8.033   67.770    0.455    0.300   29.308
  367.257    7.787   72.115    0.446    0.252   28.746
  368.077    8.159   75.846    0.460    0.284   28.192
  368.898    8.903   72.153    0.485    0.298   28.186
  369.718    8.904   59.181    0.456    0.286   27.644
  370.538    8.617   53.019    0.438    0.296   27.638
  371.358    8.371   53.038    0.444    0.278   28.162
  372.178    8.413   51.197    0.461    0.271   28.154
  372.999    8.456   50.602    0.454    0.288   28.689
  373.819    8.416   49.998    0.431    0.283   28.681
  374.639    8.417   48.161    0.424    0.260   28.131
  375.459    8.418   54.985    0.448    0.266   28.123
  376.280    8.419   63.046    0.465    0.276   28.660
  377.100    8.298   66.777    0.480    0.257   28.652
  377.920    8.257   62.466    0.491    0.268   29.195
  378.740    8.176   43.308    0.492    0.274   29.184
  379.560    8.013   43.337    0.457    0.256   28.625
  380.381    7.972   43.965    0.444    0.268   28.619
  381.201    7.973   45.221    0.436    0.306   27.537
  382.021    8.098   48.338    0.446    0.281   26.499
  382.841    8.265   50.208    0.452    0.262   23.620
  383.661    8.473   53.944    0.448    0.250   22.300
  384.482    8.680   56.433    0.453    0.265   21.053
  385.302    8.887   60.782    0.469    0.271   18.065
  386.122    9.012   65.141    0.479    0.287   15.207
  386.942    9.137   67.635    0.489    0.286   12.801
  387.762    9.180   68.272    0.482    0.277   11.631
  388.583    9.017   68.287    0.471    0.248   10.982
  389.403    8.977   67.687    0.474    0.258   10.170
  390.223    9.019   69.567    0.489    0.259    9.786
  391.043    9.020   72.675    0.500    0.242    9.782
  391.864    8.691   80.736    0.500    0.197    9.781
  392.684    8.487   95.602    0.471    0.157   10.354
  393.504    8.488  100.575    0.466    0.175   10.755
  394.324    8.489  101.831    0.455    0.196   10.958
  395.144    8.573  103.706    0.444    0.183   10.957
  395.965    8.574  100.013    0.438    0.183   10.746
  396.785    8.617   96.939    0.451    0.164   10.145
  397.605    8.618   92.628    0.444    0.164    9.762
  398.425    8.619   90.787    0.442    0.175    9.575
  399.245    8.620   91.429    0.446    0.186   10.136
  400.066    8.539   87.118    0.437    0.200   10.732
  400.886    8.541   82.807    0.426    0.208   11.803
  401.706    8.542   82.207    0.423    0.201   12.029
  402.526    8.543   83.464    0.454    0.186   11.796
  403.346    8.544   83.488    0.458    0.189   11.571
  404.167    8.505   83.507    0.454    0.187   11.135
  404.987    8.465   83.526    0.446    0.176   10.510
  405.807    8.425   86.024    0.431    0.179   10.310
  406.627    8.426   86.653    0.437    0.189    9.921
  407.448    8.386   86.053    0.442    0.184    9.729
  408.268    8.346   83.598    0.447    0.178    9.362
  409.088    8.348   82.379    0.444    0.172    8.671
  409.908    8.349   81.780    0.448    0.196    7.026
  410.728    8.350   83.041    0.437    0.191    5.803
  411.549    8.351   85.535    0.443    0.201    4.885
  412.369    8.353   87.405    0.461    0.197    4.612
  413.189    8.354   91.141    0.494    0.184    4.271
  414.009    8.314   93.011    0.511    0.172    4.270
  414.829    8.315   94.267    0.541    0.190    4.351
  415.650    8.317   95.523    0.556    0.197    4.785
  416.470    8.318   94.929    0.538    0.191    5.264
  417.290    8.319   91.850    0.544    0.193    7.421
  418.110    8.320   88.781    0.552    0.193    7.858
  418.930    8.364   86.330    0.536    0.198    8.643
