~VERSION INFORMATION
 VERS.                 2.0:   CWLS LOG ASCII STANDARD -VERSION 2.0
 WRAP.                  NO:   ONE LINE PER DEPTH STEP
~WELL INFORMATION BLOCK
#MNEM.UNIT           DATA                    DESCRIPTION OF MNEMONIC
#---------    -------------------            -------------------------------
# Generated from Intellog Unique Number	CS_73_76/WELL/3256
WELL.         DOME ET AL KIRBY               : Well_name    - WELL
LOC .         00/11-04-075-06W4/0            : Location     - LOCATION
UWI .         00/11-04-075-06W4/0            : Uwi          - UNIQUE WELL ID
ENTR.         SP                             : Entered      - ENTERED BY
SRVC.         SCHLUMBERGER                   : Scn          - SERVICE COMPANY
STRT.M        265                            : top_depth    - START DEPTH
STOP.M        480                            : bot_depth    - STOP DEPTH
STEP.M        0.25                           : increment    - STEP LENGTH
 NULL. -999.2500:NULL Value
~CURVE INFORMATION BLOCK
#MNEM UNIT       ERCB CURVE CODE    CURVE DESCRIPTION
#-----------   ------------------   ----------------------------------
DEPT.M        00 001 00 00         : DEPTH        - DEPTH
ILD .OHMM     00 120 00 00         : RESD         - DEEP RESISTIVITY (DIL)
DPHI.V/V      00 890 00 00         : PHID         - DENSITY POROSITY (LIMESTONE)
NPHI.V/V      00 330 00 00         : PHIN         - NEUTRON POROSITY (LIMESTONE)
GR  .API      00 310 00 00         : GR           - GAMMA RAY
~PARAMETER INFORMATION
#MNEM.UNIT           DATA             DESCRIPTION OF MNEMONIC
#---------         -----------     ------------------------------
GL  .M        654.52               : gl           - GROUND LEVEL ELEVATION
EREF.M        658.42               : kb           - ELEVATION OF DEPTH REFERENCE
DATM.M        654.52               : datum        - DATUM ELEVATION
TDD .M        484                  : tdd          - TOTAL DEPTH DRILLER
RUN .         ONE                  : Run          - RUN NUMBER
ENG .         BILL                 : Engineer     - RECORDING ENGINEER
WIT .         JIM                  : Witness      - WITNESSED BY
MUD .         GEL                  : Mud_type     - MUD TYPE
MATR.         LIMESTONE            : Logunit      - NEUTRON MATRIX
TMAX.C        16                   : BHT          - MAXIMUM RECORDED TEMPERATURE
BHTD.M        484                  : BHTDEP       - MAXIMUM RECORDED TEMPERATURE
MATR.         1                    : LOGUNIT      - NEUTRON MATRIX
RMT .C        25                   : MDTP         - TEMPERATURE OF MUD
NEUT.         1                    : NEUTRON      - NEUTRON TYPE
RESI.         0                    : RESIST       - RESISTIVITY TYPE
RMC .OHMM     0.25                 : RMC          - RESISTIVITY OF MUD CAKE
RMF .OHMM     0.25                 : RMF          - RESISTIVITY OF MUD FILTRATE
SUFT.C        15                   : SUFT         - SURFACE TEMPERATURE
~A  DEPTH     RESD     PHID     PHIN       GR
  265.000    3.529    0.245    0.496   90.853
  265.250    3.595    0.245    0.499   93.898
  265.500    3.662    0.229    0.492   95.114
  265.750    3.801    0.237    0.468   89.622
  266.000    4.021    0.222    0.471   88.400
  266.250    4.500    0.212    0.477   89.006
  266.500    5.330    0.223    0.487   87.172
  266.750    6.805    0.229    0.494   86.560
  267.000    8.527    0.213    0.463   83.506
  267.250   10.098    0.234    0.430   81.064
  267.500   11.957    0.245    0.384   79.842
  267.750   13.383    0.226    0.368   81.057
  268.000   14.425    0.232    0.378   84.102
  268.250   14.974    0.257    0.392   85.318
  268.500   14.967    0.277    0.402   84.096
  268.750   14.963    0.298    0.414   84.702
  269.000   14.407    0.305    0.429   85.308
  269.250   13.871    0.293    0.437   84.695
  269.500   13.608    0.282    0.425   85.910
  269.750   13.350    0.259    0.419   88.345
  270.000   13.345    0.245    0.411   89.562
  270.250   13.595    0.236    0.399   91.388
  270.500   14.380    0.232    0.411   91.994
  270.750   15.499    0.233    0.416   90.161
  271.000   15.790    0.245    0.423   86.499
  271.250   17.019    0.254    0.413   82.837
  271.500   17.336    0.254    0.394   77.956
  271.750   17.662    0.233    0.378   73.684
  272.000   17.657    0.145    0.360   68.802
  272.250   17.321    0.105    0.344   63.310
  272.500   16.365    0.186    0.371   61.478
  272.750   15.462    0.217    0.396   65.743
  273.000   14.335    0.266    0.403   69.398
  273.250   14.065    0.256    0.396   71.834
  273.500   13.798    0.264    0.403   73.659
  273.750   14.057    0.280    0.410   75.484
  274.000   15.149    0.275    0.406   76.701
  274.250   15.434    0.280    0.402   76.088
  274.500   16.326    0.291    0.410   75.474
  274.750   17.267    0.289    0.401   75.471
  275.000   17.592    0.286    0.391   74.857
  275.250   17.921    0.297    0.406   73.022
  275.500   17.581    0.304    0.417   71.801
  275.750   13.761    0.315    0.418   69.969
  276.000   10.570    0.321    0.405   76.062
  276.250    9.090    0.303    0.395   83.376
  276.500    8.271    0.271    0.405   88.860
  276.750    7.814    0.238    0.421   93.124
  277.000    7.960    0.215    0.428   94.951
  277.250    8.420    0.222    0.401   93.119
  277.500    9.076    0.216    0.378   90.066
  277.750    9.600    0.209    0.363   88.842
  278.000    9.597    0.195    0.357   89.448
  278.250    9.415    0.204    0.368   88.836
  278.500    9.065    0.205    0.371   85.784
  278.750    8.727    0.200    0.363   84.560
  279.000    8.725    0.202    0.395   78.459
  279.250   10.332    0.197    0.408   71.748
  279.500   11.783    0.197    0.402   68.087
  279.750   13.693    0.237    0.407   63.814
  280.000   14.760    0.266    0.398   61.372
  280.250   15.909    0.259    0.387   56.490
  280.500   16.207    0.263    0.385   52.828
  280.750   13.677    0.280    0.383   51.605
  281.000   10.310    0.274    0.389   54.651
  281.250    8.539    0.265    0.405   70.501
  281.500    7.482    0.243    0.412   82.083
  281.750    6.937    0.209    0.429   90.615
  282.000    6.555    0.185    0.441   95.490
  282.250    6.192    0.170    0.452   99.144
  282.500    5.851    0.149    0.450  100.361
  282.750    5.323    0.141    0.440  104.625
  283.000    5.125    0.190    0.433  107.670
  283.250    4.663    0.197    0.452  107.667
  283.500    4.406    0.191    0.475  106.443
  283.750    4.010    0.185    0.479  105.221
  284.000    3.648    0.187    0.469  102.168
  284.250    3.257    0.209    0.461  100.946
  284.500    3.196    0.198    0.475  105.820
  284.750    3.445    0.220    0.500  107.646
  285.000    4.079    0.236    0.506  105.814
  285.250    5.308    0.248    0.446   94.834
  285.500    7.036    0.257    0.396   82.635
  285.750    8.333    0.282    0.358   72.266
  286.000    9.684    0.293    0.345   71.043
  286.250   10.636    0.279    0.373   73.478
  286.500   11.464    0.243    0.379   74.085
  286.750   11.901    0.223    0.370   74.691
  287.000   11.034    0.216    0.373   76.516
  287.250   10.041    0.201    0.379   78.343
  287.500    9.310    0.213    0.372   76.508
  287.750    9.306    0.207    0.386   76.506
  288.000   10.030    0.214    0.379   76.503
  288.250   10.611    0.224    0.383   77.109
  288.500   12.101    0.247    0.377   77.715
  288.750   13.800    0.274    0.373   76.492
  289.000   14.876    0.304    0.376   75.269
  289.250   16.338    0.319    0.383   87.459
  289.500   17.282    0.307    0.392   97.212
  289.750   18.279    0.319    0.388  102.087
  290.000   18.276    0.331    0.411  107.572
  290.250   17.266    0.340    0.418  106.959
  290.500   16.939    0.346    0.412   94.759
  290.750   16.618    0.341    0.415   87.439
  291.000   16.613    0.335    0.420   83.777
  291.250   16.296    0.330    0.420   83.164
  291.500   16.292    0.339    0.407   81.331
  291.750   16.596    0.332    0.417   80.107
  292.000   16.593    0.322    0.428   79.495
  292.250   16.279    0.308    0.426   78.270
  292.500   15.673    0.295    0.415   77.656
  292.750   14.530    0.298    0.411   78.265
  293.000   14.256    0.290    0.420   78.871
  293.250   13.725    0.291    0.429   79.476
  293.500   13.464    0.302    0.438   79.473
  293.750   13.462    0.311    0.429   79.470
  294.000   13.457    0.302    0.425   75.198
  294.250   13.708    0.298    0.417   66.047
  294.500   14.229    0.286    0.409   59.947
  294.750   15.049    0.267    0.399   55.064
  295.000   15.332    0.263    0.392   53.841
  295.250   15.915    0.285    0.386   52.620
  295.500   16.213    0.309    0.378   51.397
  295.750   16.516    0.317    0.386   48.344
  296.000   16.826    0.328    0.403   44.683
  296.250   17.463    0.311    0.405   44.678
  296.500   17.459    0.292    0.404   45.895
  296.750   17.456    0.278    0.392   49.548
  297.000   17.449    0.267    0.378   51.375
  297.250   17.444    0.280    0.387   52.590
  297.500   17.115    0.288    0.391   51.978
  297.750   16.788    0.298    0.392   50.145
  298.000   16.470    0.306    0.393   50.752
  298.250   16.158    0.309    0.395   52.576
  298.500   15.854    0.311    0.402   54.402
  298.750   15.553    0.319    0.410   56.227
  299.000   14.973    0.327    0.403   58.053
  299.250   14.415    0.336    0.403   60.488
  299.500   13.879    0.312    0.406   62.314
  299.750   13.114    0.322    0.408   63.531
  300.000   11.932    0.300    0.400   64.748
  300.250   11.487    0.264    0.394   66.573
  300.500   11.483    0.295    0.391   67.180
  300.750   11.481    0.271    0.394   69.614
  301.000   11.916    0.250    0.409   76.319
  301.250   12.140    0.236    0.422   76.925
  301.500   12.366    0.249    0.430   73.871
  301.750   12.364    0.269    0.447   74.478
  302.000   12.359    0.241    0.443   76.303
  302.250   12.356    0.221    0.427   77.520
  302.500   12.122    0.258    0.420   78.737
  302.750   11.239    0.273    0.410   81.780
  303.000   10.619    0.261    0.403   84.216
  303.250    9.846    0.258    0.407   85.433
  303.500    8.791    0.263    0.414   86.648
  303.750    8.625    0.257    0.407   90.914
  304.000    7.997    0.252    0.426   98.226
  304.250    7.699    0.234    0.449  100.663
  304.500    7.553    0.223    0.460  101.878
  304.750    7.411    0.227    0.472  101.875
  305.000    7.408    0.250    0.470  100.652
  305.250    7.689    0.241    0.460   96.990
  305.500    7.833    0.235    0.460   89.059
  305.750    8.132    0.230    0.469   88.446
  306.000    8.763    0.235    0.462   88.442
  306.250    8.928    0.248    0.450   89.049
  306.500    9.268    0.243    0.456   89.655
  306.750    9.803    0.243    0.464   90.262
  307.000   10.176    0.255    0.443   89.038
  307.250   10.367    0.268    0.428   85.986
  307.500   10.760    0.279    0.415   82.932
  307.750   10.758    0.283    0.416   85.979
  308.000   10.755    0.279    0.430   86.585
  308.250   10.955    0.267    0.426   89.020
