~VERSION INFORMATION
 VERS.                 2.0:   CWLS LOG ASCII STANDARD -VERSION 2.0
 WRAP.                  NO:   ONE LINE PER DEPTH STEP
~WELL INFORMATION BLOCK
#MNEM.UNIT           DATA                    DESCRIPTION OF MNEMONIC
#---------    -------------------            -------------------------------
# Generated from Intellog Unique Number	CW_70_72/WELL/1051
NULL.         -999.25                        : NULL_VALUE
WELL.         DECALTA ET AL SMITH 11-03      : Well_name    - WELL              
LOC .         11-03-071-01W5                 : Location     - LOCATION          
UWI .         00/11-03-071-01W5/0            : Uwi          - UNIQUE WELL ID    
ENTR.         JAYE                           : Entered      - ENTERED BY        
SRVC.         SCHLUMBERGER                   : Scn          - SERVICE COMPANY   
DATE.         1 NOV 77                       : Date         - LOG DATE          
STRT.M        384.048                        : top_depth    - START DEPTH       
STOP.M        644.298                        : bot_depth    - STOP DEPTH        
STEP.M        0.25                           : increment    - STEP LENGTH       
~CURVE INFORMATION BLOCK
#MNEM UNIT       ERCB CURVE CODE    CURVE DESCRIPTION
#-----------   ------------------   ----------------------------------
DEPT.M        00 001 00 00         : DEPTH        - DEPTH                       
DPHI.V/V      00 890 00 00         : PHID         - DENSITY POROSITY (SANDSTONE)
NPHI.V/V      00 330 00 00         : PHIN         - NEUTRON POROSITY (SANDSTONE)
GR  .API      00 310 00 00         : GR           - GAMMA RAY                   
CALI.MM       00 280 01 00         : CAL          - CALIPER                     
ILD .OHMM     00 120 00 00         : RESD         - DEEP RESISTIVITY (DIL)      
~PARAMETER INFORMATION       
#MNEM.UNIT           DATA             DESCRIPTION OF MNEMONIC
#---------         -----------     ------------------------------
GL  .M        572.11               : gl           - GROUND LEVEL ELEVATION      
EREF.M        575.158              : kb           - ELEVATION OF DEPTH REFERENCE
DATM.M        572.11               : datum        - DATUM ELEVATION             
TDD .M        649.224              : tdd          - TOTAL DEPTH DRILLER         
RUN .         ONE                  : Run          - RUN NUMBER                  
ENG .         KUBICA               : Engineer     - RECORDING ENGINEER          
WIT .         RIES                 : Witness      - WITNESSED BY                
BASE.         EDM                  : Branch       - HOME BASE OF LOGGING UNIT   
MUD .         GEL                  : Mud_type     - MUD TYPE                    
MATR.         SANDSTONE            : Logunit      - NEUTRON MATRIX              
TMAX.C        26.6667              : BHT          - MAXIMUM RECORDED TEMPERATURE
BHTD.M        651.358              : BHTDEP       - MAXIMUM RECORDED TEMPERATURE
RMT .C        8.88889              : MDTP         - TEMPERATURE OF MUD          
MUDD.KG/M     1116                 : MWT          - MUD DENSITY                 
NEUT.         1                    : NEUTRON      - NEUTRON TYPE                
RESI.         0                    : RESIST       - RESISTIVITY TYPE            
RM  .OHMM     4.03                 : RM           - RESISTIVITY OF MUD          
RMC .OHMM     0                    : RMC          - RESISTIVITY OF MUD CAKE     
RMF .OHMM     4.38                 : RMF          - RESISTIVITY OF MUD FILTRATE 
SUFT.C        0                    : SUFT         - SURFACE TEMPERATURE         
~A  DEPTH     PHID     PHIN       GR      CAL     RESD
# ...
  530.048    0.169    0.409  116.627  164.112    4.362
  530.298    0.208    0.392  105.030  162.191    4.793
  530.548    0.248    0.370   93.061  159.633    5.807
  530.798    0.277    0.354   88.236  158.019    7.128
  531.048    0.269    0.361   87.951  157.358    8.271
  531.298    0.246    0.372   88.226  157.223    9.191
  531.548    0.236    0.383   89.551  157.707    8.609
  531.798    0.232    0.394   93.368  158.626    7.327
  532.048    0.231    0.391   91.400  159.543    6.463
  532.298    0.240    0.377   86.207  160.568    6.250
  532.548    0.204    0.318   81.009  161.587    6.491
  532.798    0.179    0.304   75.628  162.717    6.870
  533.048    0.161    0.317   74.284  163.528    7.149
  533.298    0.155    0.335   75.983  164.549    7.246
  533.548    0.163    0.355   79.363  165.355    7.166
  533.798    0.142    0.324   79.761  166.268    6.801
  534.048    0.142    0.309   79.906  166.666    5.921
  534.298    0.200    0.333   82.540  160.316    5.135
  534.548    0.224    0.360   86.786  155.548    4.495
  534.798    0.253    0.396   86.314  152.886    3.664
  535.048    0.268    0.405   84.844  151.903    3.202
  535.298    0.276    0.408   87.107  153.031    3.033
  535.548    0.286    0.411   90.174  154.682    3.051
  535.798    0.275    0.418   90.074  155.708    3.181
  536.048    0.255    0.425   86.927  156.937    3.335
  536.298    0.250    0.433   89.435  158.062    3.549
  536.548    0.248    0.429   93.313  158.875    3.577
  536.798    0.279    0.405   94.828  159.790    3.427
  537.048    0.315    0.390   91.305  160.390    3.240
  537.298    0.270    0.375   85.058  160.777    3.175
  537.548    0.260    0.368   87.876  159.062    3.212
  537.798    0.255    0.377   88.273  155.349    3.348
  538.048    0.248    0.384   86.432  152.687    3.458
  538.298    0.240    0.389   84.344  153.597    3.673
  538.548    0.234    0.395   83.000  154.623    4.021
  538.798    0.229    0.398   83.638  156.486    4.353
  539.048    0.221    0.392   84.098  158.033    4.783
  539.298    0.216    0.370   84.124  159.053    5.275
  539.548    0.210    0.361   85.577  159.754    5.646
  539.798    0.204    0.355   86.531  159.931    6.021
  540.048    0.218    0.349   84.071  160.324    6.229
  540.298    0.207    0.347   84.341  160.506    6.409
  540.548    0.193    0.350   84.365  160.580    6.508
  540.798    0.198    0.347   84.760  160.441    6.486
  541.048    0.208    0.342   87.021  160.304    6.367
  541.298    0.219    0.348   91.206  160.060    6.009
  541.548    0.229    0.361   93.964  159.819    5.431
  541.798    0.240    0.383   98.835  159.684    4.827
  542.048    0.254    0.403  103.080  159.231    4.249
  542.298    0.271    0.409  103.539  158.882    3.769
  542.548    0.278    0.413  103.503  158.113    3.484
  542.798    0.259    0.419  103.896  157.346    3.301
  543.048    0.265    0.425  104.170  156.578    3.277
  543.298    0.273    0.442  103.139  155.494    3.303
  543.548    0.271    0.440   99.805  154.936    3.323
  543.798    0.274    0.431  100.262  154.695    3.368
  544.048    0.259    0.418  102.152  154.873    3.426
  544.298    0.242    0.408  104.660  155.155    3.466
  544.548    0.237    0.400   98.222  155.332    3.526
  544.798    0.256    0.415   99.170  155.833    3.574
  545.048    0.265    0.404  101.063  156.536    3.629
  545.298    0.264    0.396  103.446  157.349    3.651
  545.548    0.242    0.409  105.892  157.947    3.673
  545.798    0.254    0.435  109.019  158.128    3.681
  546.048    0.258    0.442  112.588  158.410    3.738
  546.298    0.256    0.419  115.531  158.800    3.803
  546.548    0.237    0.417  109.466  158.768    3.869
  546.798    0.240    0.413  108.059  159.053    3.921
  547.048    0.239    0.406  109.823  159.128    3.944
  547.298    0.218    0.397  108.729  159.305    3.975
  547.548    0.191    0.387  104.527  158.959    3.977
  547.798    0.200    0.366  104.614  158.609    4.008
  548.048    0.189    0.354  106.564  158.157    4.055
  548.298    0.190    0.355  107.018  157.599    4.048
  548.548    0.182    0.359  108.039  157.040    4.065
  548.798    0.154    0.328  109.156  156.378    4.354
  549.048    0.102    0.329  101.211  159.100    4.532
  549.298    0.112    0.311   97.128  161.359    4.789
  549.548    0.147    0.350  101.763  162.884    5.186
  549.798    0.169    0.364  102.907  163.240    5.744
  550.048    0.170    0.362  104.179  161.809    6.139
  550.298    0.152    0.340  106.197  159.532    5.972
  550.548    0.163    0.338  109.585  157.467    5.649
  550.798    0.179    0.347  110.236  156.666    5.362
  551.048    0.182    0.357  111.257  156.816    4.902
  551.298    0.164    0.361  112.778  157.915    4.533
  551.548    0.181    0.354  110.935  159.858    4.352
  551.798    0.167    0.323  119.428  161.696    4.404
  552.048    0.160    0.337  132.843  162.799    4.533
  552.298    0.169    0.349  144.886  163.153    4.737
  552.548    0.170    0.363  148.275  163.623    4.876
  552.798    0.160    0.374  139.708  164.079    4.906
  553.048    0.147    0.368  128.898  164.761    4.863
  553.298    0.009    0.378  113.420  165.020    4.803
  553.548   -0.009    0.395  104.604  165.169    4.770
  553.798   -0.017    0.256   90.433  165.309    4.873
  554.048   -0.000    0.232   77.819  165.881    5.297
  554.298    0.029    0.251   72.552  166.244    5.856
  554.548    0.072    0.287   74.882  166.403    7.755
  554.798    0.098    0.302   85.371  166.549    9.708
  555.048    0.106    0.306   93.303  166.495   11.101
  555.298    0.101    0.307   97.749  166.224   12.134
  555.548    0.115    0.315  102.010  166.146   11.348
  555.798    0.136    0.342  106.704  165.870   10.220
  556.048    0.154    0.361  112.023  165.598    8.798
  556.298    0.123    0.375  123.322  165.444    7.747
  556.548    0.114    0.358  120.546  165.592    6.964
  556.798    0.121    0.361  123.808  166.261    6.355
  557.048    0.110    0.378  126.326  166.832    5.955
  557.298    0.088    0.384  119.313  167.194    5.814
  557.548    0.072    0.326  113.176  167.232    5.785
  557.798    0.094    0.322  106.976  167.385    5.822
  558.048    0.122    0.343  111.608  167.327    6.129
  558.298    0.121    0.355  118.608  167.165    6.453
  558.548    0.120    0.339  117.948  167.002    6.505
  558.798    0.131    0.322  119.595  167.042    6.376
  559.048    0.138    0.333  124.729  167.089    6.215
  559.298    0.111    0.344  125.626  167.238    6.126
  559.548    0.120    0.353  125.901  167.285    6.084
  559.798    0.102    0.365  124.928  167.430    6.031
  560.048    0.082    0.352  119.849  167.690    5.990
  560.298    0.088    0.315  116.761  167.843    6.062
  560.548    0.105    0.333  122.765  167.877    6.111
  560.798    0.129    0.348  128.207  167.912    6.127
  561.048    0.146    0.353  128.359  167.857    6.074
  561.298    0.126    0.360  128.258  167.895    5.964
  561.548    0.130    0.349  128.224  167.943    5.878
  561.798    0.112    0.332  127.191  167.876    5.730
  562.048    0.098    0.318  121.862  167.180    5.617
  562.298    0.094    0.310  118.586  164.692    5.619
  562.548    0.103    0.304  120.730  161.157    5.762
  562.798    0.078    0.294  117.397  159.935    6.241
  563.048    0.088    0.302  114.430  160.405    6.645
  563.298    0.110    0.315  113.398  161.494    7.088
  563.548    0.128    0.336  118.655  162.700    7.589
  563.798    0.073    0.349  127.460  164.333    8.080
  564.048    0.082    0.330  119.641  165.534    8.086
  564.298    0.115    0.297  119.107  166.316    7.865
  564.548    0.139    0.310  129.034  167.097    7.453
  564.798    0.105    0.342  136.779  167.768    6.931
  565.048    0.086    0.337  128.710  168.549    6.567
  565.298    0.063    0.318  120.395  169.342    6.222
  565.548    0.094    0.314  121.353  169.909    6.110
  565.798    0.106    0.313  137.629  170.482    6.230
  566.048    0.118    0.317  141.641  170.624    6.364
  566.298    0.127    0.322  142.975  170.884    6.429
