~VERSION INFORMATION
 VERS.                 2.0:   CWLS LOG ASCII STANDARD -VERSION 2.0
 WRAP.                  NO:   ONE LINE PER DEPTH STEP
~WELL INFORMATION BLOCK
#MNEM.UNIT           DATA                    DESCRIPTION OF MNEMONIC
#---------    -------------------            -------------------------------
# Generated from Intellog Unique Number	CS_69_70/WELL/2903
WELL.         HUSKY OIL OPERATIONS LTD.      : Well_name    - WELL
LOC .         00/12-31-069-08W4/0            : Location     - LOCATION
UWI .         00/12-31-069-08W4/0            : Uwi          - UNIQUE WELL ID
ENTR.         JOETTE                         : Entered      - ENTERED BY
SRVC.         SCHLUMBERGER                   : Scn          - SERVICE COMPANY
DATE.         05/15/92                       : Date         - LOG DATE
STRT.M        350                            : top_depth    - START DEPTH
STOP.M        560                            : bot_depth    - STOP DEPTH
STEP.M        0.25                           : increment    - STEP LENGTH
 NULL. -999.2500:NULL Value
~CURVE INFORMATION BLOCK
#MNEM UNIT       ERCB CURVE CODE    CURVE DESCRIPTION
#-----------   ------------------   ----------------------------------
DEPT.M        00 001 00 00         : DEPTH        - DEPTH
GR  .API      00 310 00 00         : GR           - GAMMA RAY
NPHI.V/V      00 330 00 00         : PHIN         - NEUTRON POROSITY (SANDSTONE)
DPHI.V/V      00 890 00 00         : PHID         - DENSITY POROSITY (SANDSTONE)
ILD .OHMM     00 120 00 00         : RESD         - DEEP RESISTIVITY (DIL)
CALI.MM       00 280 01 00         : CAL          - CALIPER
~PARAMETER INFORMATION
#MNEM.UNIT           DATA             DESCRIPTION OF MNEMONIC
#---------         -----------     ------------------------------
GL  .M        683.4                : gl           - GROUND LEVEL ELEVATION
EREF.M        687.1                : kb           - ELEVATION OF DEPTH REFERENCE
DATM.M        687.1                : datum        - DATUM ELEVATION
TDD .M        561.7                : tdd          - TOTAL DEPTH DRILLER
RUN .         ONE                  : Run          - RUN NUMBER
ENG .         BILL                 : Engineer     - RECORDING ENGINEER
WIT .         JIM                  : Witness      - WITNESSED BY
MUD .         GEL                  : Mud_type     - MUD TYPE
MATR.         SANDSTONE            : Logunit      - NEUTRON MATRIX
TMAX.C        23                   : BHT          - MAXIMUM RECORDED TEMPERATURE
BHTD.M        561.7                : BHTDEP       - MAXIMUM RECORDED TEMPERATURE
RMT .C        14.4                 : MDTP         - TEMPERATURE OF MUD
MUDD.KG/M     1100                 : MWT          - MUD DENSITY
NEUT.         1                    : NEUTRON      - NEUTRON TYPE
RESI.         0                    : RESIST       - RESISTIVITY TYPE
RM  .OHMM     4.51                 : RM           - RESISTIVITY OF MUD
RMC .OHMM     5.23                 : RMC          - RESISTIVITY OF MUD CAKE
RMF .OHMM     5.23                 : RMF          - RESISTIVITY OF MUD FILTRATE
SUFT.C        4                    : SUFT         - SURFACE TEMPERATURE
~A  DEPTH       GR     PHIN     PHID     RESD      CAL
  350.000  105.175    0.477    0.232    2.420  175.227
  350.250  105.227    0.468    0.230    2.148  177.346
  350.500  106.508    0.471    0.231    1.974  178.456
  350.750  107.144    0.487    0.237    1.942  177.518
  351.000  109.655    0.505    0.252    1.944  177.587
  351.250  109.696    0.526    0.265    2.013  177.655
  351.500  107.893    0.537    0.267    2.160  176.700
  351.750  107.309    0.514    0.267    2.199  175.744
  352.000  111.664    0.505    0.276    2.317  171.714
  352.250  111.081    0.506    0.271    2.485  170.741
  352.500  103.129    0.517    0.263    2.574  171.851
  352.750  103.170    0.508    0.237    2.667  171.920
  353.000  109.370    0.514    0.233    2.670  168.915
  353.250  111.266    0.520    0.250    2.673  162.870
  353.500  110.068    0.486    0.252    2.629  161.880
  353.750  106.430    0.466    0.253    2.587  161.949
  354.000  103.398    0.461    0.258    2.376  164.067
  354.250  102.199    0.520    0.275    2.074  166.202
  354.500  103.470    0.478    0.223    1.937  167.296
  354.750  105.970    0.314    0.179    2.225  168.407
  355.000  104.782    0.293    0.162    4.912  167.434
  355.250   99.290    0.261    0.167   10.303  163.404
  355.500   83.961    0.245    0.215   11.236  159.391
  355.750   55.710    0.255    0.260   12.685  158.435
  356.000   48.384    0.260    0.304   12.917  157.479
  356.250   46.571    0.268    0.344   12.283  157.548
  356.500   44.767    0.280    0.337   13.631  157.617
  356.750   49.123    0.265    0.325   13.881  157.686
  357.000   52.853    0.235    0.335   12.975  156.730
  357.250   48.590    0.218    0.378   11.718  155.774
  357.500   43.109    0.260    0.388   10.944  153.811
  357.750   39.451    0.289    0.382    9.227  152.820
  358.000   39.492    0.327    0.352    8.187  149.815
  358.250   41.378    0.360    0.335    7.392  148.859
  358.500   44.504    0.352    0.311    6.339  154.069
  358.750   51.923    0.377    0.273    5.822  157.229
  359.000   58.727    0.393    0.262    5.631  159.364
  359.250   77.223    0.389    0.245    5.542  159.399
  359.500   90.186    0.397    0.248    5.549  158.443
  359.750   92.061    0.413    0.246    5.553  157.487
  360.000   90.258    0.406    0.232    5.656  157.556
  360.250   94.603    0.398    0.228    5.660  160.699
  360.500   95.885    0.409    0.234    5.666  160.785
  360.750   93.477    0.416    0.217    5.770  159.829
  361.000   96.582    0.406    0.212    5.877  158.890
  361.250  101.552    0.408    0.214    5.883  158.976
  361.500  102.823    0.422    0.236    5.887  158.003
  361.750  101.635    0.424    0.247    5.894  157.030
  362.000   97.998    0.417    0.255    5.899  157.099
  362.250   96.174    0.417    0.271    5.906  157.168
  362.500   90.682    0.410    0.286    5.810  157.237
  362.750   83.960    0.399    0.300    5.620  157.305
  363.000   66.786    0.400    0.309    5.437  157.374
  363.250   54.531    0.406    0.305    5.260  157.478
  363.500   50.894    0.413    0.293    5.262  158.571
  363.750   56.458    0.413    0.271    5.359  158.623
  364.000   68.796    0.415    0.247    5.552  158.709
  364.250   78.685    0.413    0.250    5.654  158.760
  364.500   84.259    0.387    0.263    5.659  159.871
  364.750   81.237    0.375    0.258    5.665  159.940
  365.000   79.424    0.391    0.248    5.673  159.992
  365.250   83.779    0.395    0.252    5.677  159.053
  365.500   86.894    0.404    0.267    5.683  159.139
  365.750   89.395    0.413    0.273    5.690  158.200
  366.000   88.832    0.425    0.266    5.694  158.235
  366.250   84.559    0.418    0.260    5.700  159.328
  366.500   81.536    0.411    0.270    5.708  161.464
  366.750   85.871    0.416    0.279    5.711  163.582
  367.000   88.372    0.428    0.284    5.526  163.651
  367.250   81.650    0.410    0.283    5.532  162.678
  367.500   78.617    0.397    0.280    5.536  159.673
  367.750   82.368    0.390    0.270    5.542  157.692
  368.000   81.159    0.381    0.269    5.453  156.771
  368.250   77.511    0.363    0.271    5.460  156.822
  368.500   72.030    0.359    0.288    5.463  157.916
  368.750   75.145    0.377    0.293    5.285  160.068
  369.000   79.501    0.412    0.283    5.111  162.152
  369.250   84.450    0.433    0.268    5.029  166.354
  369.500   91.254    0.412    0.265    5.121  169.480
  369.750   97.454    0.402    0.240    5.304  171.598
  370.000   95.026    0.414    0.223    5.497  170.642
  370.250   91.378    0.427    0.238    5.502  167.654
  370.500   85.886    0.419    0.264    5.507  165.674
  370.750   80.404    0.430    0.274    5.420  164.718
  371.000   89.053    0.434    0.251    5.332  163.745
  371.250   94.628    0.420    0.237    5.158  162.806
  371.500   92.220    0.406    0.236    4.988  162.875
  371.750   92.866    0.415    0.230    4.907  162.927
  372.000   99.055    0.435    0.220    4.828  162.995
  372.250  103.421    0.459    0.227    4.752  164.089
  372.500  101.003    0.487    0.260    4.756  168.308
  372.750   94.886    0.418    0.300    4.760  169.367
  373.000   80.776    0.415    0.312    4.850  168.411
  373.250   55.005    0.394    0.303    4.854  165.406
  373.500   54.432    0.388    0.301    4.860  161.376
  373.750   52.014    0.396    0.305    4.864  160.420
  374.000   50.825    0.399    0.297    4.868  160.489
  374.250   59.464    0.401    0.283    4.872  160.558
  374.500   69.373    0.400    0.275    4.963  161.652
  374.750   70.009    0.404    0.264    4.968  162.780
  375.000   66.361    0.399    0.259    5.058  163.873
  375.250   66.403    0.401    0.253    5.153  165.001
  375.500   67.059    0.405    0.265    5.157  165.035
  375.750   64.026    0.389    0.294    5.074  165.087
  376.000   54.845    0.379    0.309    5.079  165.173
  376.250   46.904    0.397    0.301    4.999  164.234
  376.500   49.394    0.400    0.292    5.003  163.261
  376.750   51.895    0.394    0.304    5.008  162.323
  377.000   50.706    0.373    0.325    5.015  161.332
  377.250   42.755    0.387    0.329    5.017  159.369
  377.500   33.574    0.357    0.334    5.023  158.430
  377.750   31.781    0.345    0.339    5.028  158.499
  378.000   31.208    0.375    0.303    4.947  158.568
  378.250   32.468    0.414    0.272    4.952  157.612
  378.500   47.276    0.414    0.265    4.957  157.681
  378.750   58.998    0.398    0.282    4.962  157.750
  379.000   50.432    0.396    0.299    4.968  157.802
  379.250   41.262    0.398    0.311    4.972  157.870
  379.500   35.144    0.395    0.319    4.979  161.013
  379.750   31.507    0.371    0.339    4.983  161.117
  380.000   31.548    0.361    0.344    4.986  159.136
  380.250   33.434    0.373    0.344    4.993  157.155
  380.500   35.935    0.366    0.331    4.999  155.175
  380.750   37.821    0.357    0.317    5.004  153.194
  381.000   40.936    0.349    0.314    5.007  152.238
  381.250   46.521    0.364    0.306    5.012  152.290
  381.500   52.085    0.398    0.284    4.932  152.376
  381.750   58.889    0.383    0.275    4.938  154.477
  382.000   63.266    0.392    0.261    4.941  157.620
  382.250   63.286    0.415    0.236    4.863  163.889
  382.500   71.935    0.442    0.207    4.868  165.973
  382.750   94.120    0.442    0.212    4.790  169.133
  383.000  109.532    0.437    0.213    4.714  170.226
  383.250  109.573    0.437    0.204    4.639  168.263
  383.500  111.480    0.435    0.200    4.562  167.290
  383.750  111.511    0.432    0.206    4.568  166.351
  384.000  110.322    0.431    0.201    4.652  166.403
  384.250  113.448    0.428    0.203    4.658  166.472
  384.500  112.260    0.432    0.223    4.741  168.607
  384.750  109.831    0.439    0.225    4.828  171.750
  385.000  106.184    0.443    0.228    5.001  173.868
  385.250  103.766    0.441    0.246    5.553  172.912
  385.500  100.118    0.441    0.287    5.654  168.865
  385.750   94.626    0.433    0.297    5.759  163.811
  386.000   87.290    0.428    0.294    5.764  155.682
  386.250   91.635    0.440    0.295    5.870  154.726
