~VERSION INFORMATION
 VERS.                 2.0:   CWLS LOG ASCII STANDARD -VERSION 2.0
 WRAP.                  NO:   ONE LINE PER DEPTH STEP
~WELL INFORMATION BLOCK
#MNEM.UNIT           DATA                    DESCRIPTION OF MNEMONIC
#---------    -------------------            -------------------------------
# Generated from Intellog Unique Number	CC_80_83/WELL/2360
NULL.         -999.25                        : NULL_VALUE
WELL.         NUMAC SURMONT                  : Well_name    - WELL
LOC .         10-20-082-06W4                 : Location     - LOCATION          
UWI .         00/10-20-082-06W4/0            : Uwi          - UNIQUE WELL ID    
ENTR.         DW                             : Entered      - ENTERED BY        
SRVC.         DRESSER ATLAS                  : Scn          - SERVICE COMPANY   
DATE.         07 MAR 73                      : Date         - LOG DATE
STRT.M        67.056                         : top_depth    - START DEPTH       
STOP.M        295.655                        : bot_depth    - STOP DEPTH        
STEP.M        0.3048                         : increment    - STEP LENGTH       
~CURVE INFORMATION BLOCK
#MNEM UNIT       ERCB CURVE CODE    CURVE DESCRIPTION
#-----------   ------------------   ----------------------------------
DEPT.M        00 001 00 00         : DEPTH        - DEPTH                       
NPHI.V/V      00 330 00 00         : PHIN         - NEUTRON POROSITY (LIMESTONE)
GR  .API      00 310 00 00         : GR           - GAMMA RAY                   
RHOB.KG/M3    00 350 00 00         : DENS         - BULK DENSITY                
ILD .OHMM     00 120 00 00         : RESD         - DEEP RESISTIVITY (DIL)      
~PARAMETER INFORMATION       
#MNEM.UNIT           DATA             DESCRIPTION OF MNEMONIC
#---------         -----------     ------------------------------
GL  .M        529.133              : gl           - GROUND LEVEL ELEVATION      
EREF.M        530.962              : kb           - ELEVATION OF DEPTH REFERENCE
DATM.M        530.962              : datum        - DATUM ELEVATION             
TDD .M        295.351              : tdd          - TOTAL DEPTH DRILLER         
RUN .         ONE                  : Run          - RUN NUMBER                  
ENG .         BILL                 : Engineer     - RECORDING ENGINEER          
WIT .         JIM                  : Witness      - WITNESSED BY                
MUD .         GEL                  : Mud_type     - MUD TYPE                    
MATR.         LIMESTONE            : Logunit      - NEUTRON MATRIX              
TMAX.C        17.7778              : BHT          - MAXIMUM RECORDED TEMPERATURE
BHTD.M        295.351              : BHTDEP       - MAXIMUM RECORDED TEMPERATURE
MATR.         1                    : LOGUNIT      - NEUTRON MATRIX              
RMT .C        25                   : MDTP         - TEMPERATURE OF MUD          
NEUT.         0                    : NEUTRON      - NEUTRON TYPE                
RESI.         0                    : RESIST       - RESISTIVITY TYPE            
RMC .OHMM     0.25                 : RMC          - RESISTIVITY OF MUD CAKE     
RMF .OHMM     0.25                 : RMF          - RESISTIVITY OF MUD FILTRATE 
SUFT.C        15                   : SUFT         - SURFACE TEMPERATURE         
~A  DEPTH     PHIN       GR     DENS     RESD
# ...
  120.092    0.277   70.082 2123.390   16.334
  120.396    0.275   65.257 2099.000   16.646
  120.701    0.283   67.077 2084.770   16.648
  121.006    0.286   70.102 2170.120   15.160
  121.311    0.290   74.335 2178.250   12.806
  121.616    0.295   80.381 2192.470   11.661
  121.920    0.315   82.802 2212.790    9.850
  122.225    0.326   84.019 2222.950    9.313
  122.530    0.325   84.023 2200.590   10.040
  122.835    0.321   82.824 2137.590   11.670
  123.140    0.317   81.019 2139.620   12.119
  123.444    0.309   78.608 2184.320   10.830
  123.749    0.295   73.782 2192.450   11.898
  124.054    0.263   62.919 2200.580   12.828
  124.359    0.257   56.886 2200.570   10.437
  124.664    0.263   49.646 2196.500   10.438
  124.968    0.265   40.594 2157.890   13.326
  125.273    0.262   32.751 2125.370   17.013
  125.578    0.258   30.341 2078.620   21.720
  125.883    0.256   33.972 2090.810   18.005
  126.188    0.257   40.621 2105.030   15.791
  126.492    0.261   44.250 2123.320   19.057
  126.797    0.263   43.049 2188.350   12.611
  127.102    0.273   44.262 2176.150   10.454
  127.407    0.299   47.289 2151.760   16.719
  127.712    0.298   40.048 2111.110   20.947
  128.016    0.296   32.204 2117.210   21.755
  128.321    0.296   34.023 2113.140   20.185
  128.626    0.297   40.671 2127.360   17.701
  128.931    0.301   50.341 2151.750   13.871
  129.236    0.304   60.009 2176.130   13.114
  129.540    0.310   67.262 2174.090   16.430
  129.845    0.313   73.911 2224.900   12.636
  130.150    0.320   78.145 2265.540    9.536
  130.455    0.327   82.379 2245.220   11.294
  130.760    0.332   86.613 2255.370    9.363
  131.064    0.332   92.659 2253.340    9.019
  131.369    0.326   95.684 2267.560    7.067
  131.674    0.347   99.917 2296.010    5.538
  131.979    0.352  103.549 2324.460    6.317
  132.284    0.356  104.157 2330.560    6.684
  132.588    0.348  101.147 2300.070    5.974
  132.893    0.345   99.943 2314.290    6.321
  133.198    0.344   96.326 2296.000    7.486
  133.503    0.337   94.523 2253.310    9.033
  133.807    0.328   93.925 2237.050    9.559
  134.112    0.328   91.516 2226.890    9.560
  134.417    0.331   91.521 2222.820    9.562
  134.722    0.337   96.966 2222.810    8.872
  135.027    0.342   98.782 2261.430    7.781
  135.331    0.343   99.394 2302.070    8.390
  135.636    0.340   99.398 2291.900    8.391
  135.941    0.339   98.800 2261.420    7.641
  136.246    0.342   96.391 2239.060    7.224
  136.551    0.360   93.981 2196.370    8.717
  136.855    0.359   86.137 2161.820   11.340
  137.160    0.349   84.937 2171.980   11.776
  137.465    0.343   89.170 2204.490   10.136
  137.770    0.335   87.365 2212.620   11.346
  138.075    0.315   82.541 2241.070   12.942
  138.379    0.304   81.944 2247.160   12.236
  138.684    0.300   84.969 2241.060   11.353
  138.989    0.314   90.411 2289.830   10.146
  139.294    0.334   94.643 2267.480    9.067
  139.599    0.344   92.840 2247.150    9.068
  139.903    0.344   89.223 2241.050    9.777
  140.208    0.337   85.604 2176.010   12.719
  140.513    0.323   77.760 2090.650   15.348
  140.818    0.295   69.313 2068.290   15.938
  141.123    0.344   68.113 2078.450   12.257
  141.427    0.350   69.327 2121.120   10.953
  141.732    0.334   69.331 2192.250   10.955
  142.037    0.326   65.716 2159.730   12.975
  142.342    0.335   63.909 2165.830   13.473
  142.647    0.350   69.955 2188.180    9.612
  142.951    0.338   76.605 2214.590    8.753
  143.256    0.310   79.026 2222.720    8.591
  143.561    0.347   78.430 2204.430    7.823
  143.866    0.351   76.623 2230.840    7.825
  144.170    0.339   74.217 2245.070    8.760
  144.475    0.316   73.620 2145.480   11.182
  144.780    0.341   73.625 2072.310   15.103
  145.085    0.340   74.234 2098.730   13.246
  145.390    0.335   76.656 2159.700    8.766
  145.694    0.305   81.493 2222.690    7.132
  145.999    0.304   90.558 2255.210    5.912
  146.304    0.319   95.397 2220.650    5.089
  146.609    0.329   96.612 2190.170    4.548
  146.914    0.338   95.411 2182.030    4.299
  147.218    0.344   93.602 2204.390    4.300
  147.523    0.352   90.593 2234.870    4.143
  147.828    0.359   88.787 2198.280    3.844
  148.133    0.361   87.584 2186.090    3.634
  148.438    0.352   86.384 2214.530    3.704
  148.742    0.345   84.577 2212.500    4.069
  149.047    0.341   71.902 2145.430    6.150
  149.352    0.327   63.453 2153.550    9.836
  149.657    0.308   59.233 2139.320   17.605
  149.962    0.297   57.429 2147.450   14.323
  150.266    0.282   58.643 2145.410   12.562
  150.571    0.269   59.856 2135.250   11.655
  150.876    0.258   58.050 2133.210   11.657
  151.181    0.241   51.416 2214.500   14.068
  151.486    0.210   49.006 2379.120   27.142
  151.790    0.153   47.201 2574.220  263.176
  152.095    0.104   47.206 2559.990  317.578
  152.400    0.105   48.421 2320.170   14.894
  152.705    0.122   56.279 2194.160   13.310
  153.010    0.178   60.512 2068.160   13.313
  153.314    0.313   58.706 2076.280   14.905
  153.619    0.323   55.093 2086.440   15.770
  153.924    0.322   53.889 2100.660   16.376
  154.229    0.311   55.104 2072.210   16.380
  154.533    0.301   56.921 2094.560   16.382
  154.838    0.298   57.531 2090.490   16.385
  155.143    0.298   56.329 2102.680   15.491
  155.448    0.302   55.129 2131.130   14.373
  155.753    0.291   52.724 2147.390   13.589
  156.057    0.270   52.124 2147.380   13.338
  156.362    0.241   52.128 2141.280   16.096
  156.667    0.214   52.135 2210.380   23.434
  156.972    0.174   49.121 2448.160   82.448
  157.277    0.129   45.508 2671.710  124.631
  157.581    0.088   44.908 2629.030  206.938
  157.886    0.115   45.517 2529.440  318.744
  158.191    0.135   49.751 2409.530   54.595
  158.496    0.173   58.213 2283.520   12.867
  158.801    0.242   61.238 2165.650   11.939
  159.105    0.370   61.848 2104.670   11.941
  159.410    0.372   61.251 2086.380   11.502
  159.715    0.369   62.465 2108.730   10.474
  160.020    0.361   65.493 2078.240   12.880
  160.325    0.353   66.704 2088.400   11.950
  160.629    0.346   68.523 2118.880   10.480
  160.934    0.339   71.549 2141.230    7.337
  161.239    0.333   76.387 2175.780    5.435
  161.544    0.335   83.036 2206.260    4.102
  161.849    0.346   87.874 2255.030    4.340
  162.153    0.344   93.316 2267.220    4.769
  162.458    0.349   92.114 2257.060    4.681
  162.763    0.367   93.329 2234.700    4.425
  163.068    0.373   93.939 2206.240    4.184
  163.373    0.381   90.321 2257.050    5.442
  163.677    0.375   83.685 2283.470    9.741
  163.982    0.352   81.276 2202.170   10.502
  164.287    0.343   83.094 2246.880    4.109
  164.592    0.358   87.931 2259.070    3.812
  164.896    0.345   95.184 2277.360    4.688
  165.201    0.337   97.004 2210.290    4.868
  165.506    0.339   93.989 2194.020    2.572
  165.811    0.373   90.373 2224.510    2.342
  166.116    0.392   93.400 2240.760    2.432
  166.420    0.399   94.614 2234.660    3.047
  166.725    0.387   93.412 2189.950    4.520
  167.030    0.383   86.775 2212.300    5.880
  167.335    0.382   83.158 2165.550    5.993
  167.640    0.390   82.560 2175.710    4.439
  167.944    0.412   94.041 2222.450    3.478
  168.249    0.421   97.067 2250.900    3.351
  168.554    0.422   93.451 2261.060    3.546
  168.859    0.418   92.249 2256.990    3.547
  169.164    0.413   96.482 2232.600    3.481
  169.468    0.404   98.904 2204.140    3.548
  169.773    0.393   96.495 2216.330    4.201
  170.078    0.389   91.670 2254.940    4.047
  170.383    0.389   85.036 2295.590    3.617
  170.688    0.398   83.835 2283.390    3.232
  170.992    0.410   85.652 2246.800    3.294
  171.297    0.413   86.263 2193.960    3.758
  171.602    0.408   85.060 2208.180    3.830
  171.907    0.401   83.255 2222.410    3.553
  172.212    0.391   80.845 2220.370    3.488
  172.516    0.380   77.833 2216.300    4.288
  172.821    0.362   72.405 2216.300    7.821
