~VERSION INFORMATION
 VERS.                 2.0:   CWLS LOG ASCII STANDARD -VERSION 2.0
 WRAP.                  NO:   ONE LINE PER DEPTH STEP
~WELL INFORMATION BLOCK
#MNEM.UNIT           DATA                    DESCRIPTION OF MNEMONIC
#---------    -------------------            -------------------------------
# Generated from Intellog Unique Number	CS_77_79/WELL/986
WELL.         PCI PCEJ LEISMER               : Well_name    - WELL
LOC .         00/11-03-079-07W4/0            : Location     - LOCATION
UWI .         00/11-03-079-07W4/0            : Uwi          - UNIQUE WELL ID
ENTR.         JHS                            : Entered      - ENTERED BY
SRVC.         SCHLUMBERGER                   : Scn          - SERVICE COMPANY
STRT.M        125                            : top_depth    - START DEPTH
STOP.M        355                            : bot_depth    - STOP DEPTH
STEP.M        0.25                           : increment    - STEP LENGTH
 NULL. -999.2500:NULL Value
~CURVE INFORMATION BLOCK
#MNEM UNIT       ERCB CURVE CODE    CURVE DESCRIPTION
#-----------   ------------------   ----------------------------------
DEPT.M        00 001 00 00         : DEPTH        - DEPTH
DPHI.V/V      00 890 00 00         : PHID         - DENSITY POROSITY (LIMESTONE)
NPHI.V/V      00 330 00 00         : PHIN         - NEUTRON POROSITY (LIMESTONE)
GR  .API      00 310 00 00         : GR           - GAMMA RAY
ILD .OHMM     00 120 00 00         : RESD         - DEEP RESISTIVITY (DIL)
RHOB.KG/M3    00 350 00 00         : DENS         - BULK DENSITY
~PARAMETER INFORMATION
#MNEM.UNIT           DATA             DESCRIPTION OF MNEMONIC
#---------         -----------     ------------------------------
GL  .M        554.2                : gl           - GROUND LEVEL ELEVATION
EREF.M        557.3                : kb           - ELEVATION OF DEPTH REFERENCE
DATM.M        557.3                : datum        - DATUM ELEVATION
TDD .M        361                  : tdd          - TOTAL DEPTH DRILLER
RUN .         ONE                  : Run          - RUN NUMBER
ENG .         BILL                 : Engineer     - RECORDING ENGINEER
WIT .         JIM                  : Witness      - WITNESSED BY
MUD .         GEL                  : Mud_type     - MUD TYPE
MATR.         LIMESTONE            : Logunit      - NEUTRON MATRIX
TMAX.C        24                   : BHT          - MAXIMUM RECORDED TEMPERATURE
BHTD.M        361                  : BHTDEP       - MAXIMUM RECORDED TEMPERATURE
MATR.         1                    : LOGUNIT      - NEUTRON MATRIX
RMT .C        25                   : MDTP         - TEMPERATURE OF MUD
NEUT.         1                    : NEUTRON      - NEUTRON TYPE
RESI.         0                    : RESIST       - RESISTIVITY TYPE
RMC .OHMM     0.25                 : RMC          - RESISTIVITY OF MUD CAKE
RMF .OHMM     0.25                 : RMF          - RESISTIVITY OF MUD FILTRATE
SUFT.C        15                   : SUFT         - SURFACE TEMPERATURE
~A  DEPTH     PHID     PHIN       GR     RESD     DENS
# ...
  234.500    0.276    0.611   91.049    4.591    0.000
  234.750    0.287    0.588   85.505    5.340    0.000
  235.000    0.293    0.536   82.427    6.329    0.000
  235.250    0.280    0.508   82.439    7.224    0.000
  235.500    0.255    0.503   79.981    8.092    0.000
  235.750    0.235    0.503   80.608    8.565    0.000
  236.000    0.277    0.486   84.323    8.896    0.000
  236.250    0.297    0.487   82.482    8.731    0.000
  236.500    0.293    0.486   82.492    8.569    0.000
  236.750    0.278    0.483   86.823    8.410    0.000
  237.000    0.278    0.498   87.450    8.411    0.000
  237.250    0.278    0.477   81.907    9.073    0.000
  237.500    0.261    0.456   78.213    9.785    0.000
  237.750    0.163    0.501   73.901   10.756    0.000
  238.000    0.115    0.531   60.331   10.758    0.000
  238.250    0.069    0.284   54.787   10.558    0.000
  238.500    0.082    0.266   60.969    9.979    0.000
  238.750    0.158    0.323   75.177    9.254    0.000
  239.000    0.240    0.402   90.623    8.583    0.000
  239.250    0.262    0.491   94.338    7.960    0.000
  239.500    0.263    0.531   94.347    7.523    0.000
  239.750    0.259    0.521   92.505    7.668    0.000
  240.000    0.258    0.499   88.195    7.385    0.000
  240.250    0.264    0.479   84.504    7.248    0.000
  240.500    0.272    0.459   83.280    6.850    0.000
  240.750    0.263    0.508   88.844    6.353    0.000
  241.000    0.259    0.534   95.645    5.674    0.000
  241.250    0.261    0.507   93.805    5.164    0.000
  241.500    0.263    0.501   91.963    4.525    0.000
  241.750    0.276    0.506   98.145    3.748    0.000
  242.000    0.297    0.545  107.416    2.988    0.000
  242.250    0.311    0.603  109.898    2.522    0.000
  242.500    0.311    0.615  104.968    2.429    0.000
  242.750    0.311    0.619   99.422    2.429    0.000
  243.000    0.311    0.613   97.581    2.430    0.000
  243.250    0.297    0.602   96.361    2.524    0.000
  243.500    0.285    0.600   95.135    2.722    0.000
  243.750    0.279    0.603   94.526    3.049    0.000
  244.000    0.275    0.599   91.450    3.415    0.000
  244.250    0.275    0.578   88.992    3.753    0.000
  244.500    0.275    0.534   86.533    4.204    0.000
  244.750    0.288    0.545   90.248    4.983    0.000
  245.000    0.298    0.547   85.938    6.134    0.000
  245.250    0.302    0.518   81.626    7.135    0.000
  245.500    0.303    0.481   81.021    8.619    0.000
  245.750    0.292    0.441   77.326   10.025    0.000
  246.000    0.266    0.453   71.163   11.661    0.000
  246.250    0.248    0.437   65.617   13.061    0.000
  246.500    0.266    0.373   68.098   14.909    0.000
  246.750    0.363    0.304   75.516   17.017    0.000
  247.000    0.391    0.276   81.701   18.705    0.000
  247.250    0.380    0.266   81.712   20.559    0.000
  247.500    0.303    0.272   71.844   22.175    0.000
  247.750    0.107    0.339   52.718   23.031    0.000
  248.000    0.099    0.265   45.320   23.922    0.000
  248.250    0.124    0.218   52.737   23.479    0.000
  248.500    0.327    0.200   68.182   22.189    0.000
  248.750    0.380    0.221   77.451   20.195    0.000
  249.000    0.348    0.254   73.760   18.728    0.000
  249.250    0.342    0.293   70.068   16.413    0.000
  249.500    0.338    0.313   69.460   13.339    0.000
  249.750    0.320    0.397   73.174   11.912    0.000
  250.000    0.316    0.435   72.567   10.440    0.000
  250.250    0.306    0.428   73.195    9.866    0.000
  250.500    0.299    0.433   78.144    9.503    0.000
  250.750    0.309    0.452   76.919    9.685    0.000
  251.000    0.321    0.465   73.844    9.871    0.000
  251.250    0.321    0.466   75.088   10.253    0.000
  251.500    0.320    0.462   80.040   10.255    0.000
  251.750    0.309    0.469   80.666   10.065    0.000
  252.000    0.279    0.479   78.823    9.878    0.000
  252.250    0.245    0.493   73.898    9.336    0.000
  252.500    0.235    0.447   73.910    8.823    0.000
  252.750    0.271    0.403   79.476    8.339    0.000
  253.000    0.296    0.415   81.954    8.031    0.000
  253.250    0.285    0.447   83.198    7.590    0.000
  253.500    0.286    0.464   86.914    7.310    0.000
  253.750    0.282    0.474   87.540    7.175    0.000
  254.000    0.277    0.494   85.701    7.042    0.000
  254.250    0.272    0.490   87.562    7.043    0.000
  254.500    0.274    0.494   88.810    7.044    0.000
  254.750    0.269    0.508   86.347    7.179    0.000
  255.000    0.264    0.491   83.891    7.599    0.000
  255.250    0.264    0.453   82.052    8.511    0.000
  255.500    0.261    0.441   82.061    8.840    0.000
  255.750    0.258    0.431   81.453    9.182    0.000
  256.000    0.262    0.431   80.228    9.011    0.000
  256.250    0.274    0.438   83.325    8.679    0.000
  256.500    0.301    0.454   80.249    8.518    0.000
  256.750    0.311    0.473   74.086    8.360    0.000
  257.000    0.314    0.467   69.775    8.052    0.000
  257.250    0.308    0.447   79.045    7.755    0.000
  257.500    0.291    0.452   88.934    7.469    0.000
  257.750    0.291    0.506   91.412    7.059    0.000
  258.000    0.291    0.479   90.809    6.798    0.000
  258.250    0.286    0.450   88.350    6.305    0.000
  258.500    0.275    0.454   87.741    6.073    0.000
  258.750    0.270    0.501   90.224    5.960    0.000
  259.000    0.263    0.519   90.849    5.740    0.000
  259.250    0.266    0.497   91.477    5.425    0.000
  259.500    0.274    0.523   92.722    5.031    0.000
  259.750    0.280    0.551   89.031    4.938    0.000
  260.000    0.287    0.547   85.337    5.033    0.000
  260.250    0.292    0.552   84.111    5.130    0.000
  260.500    0.303    0.555   79.801    5.533 2191.860
  260.750    0.330    0.521   73.020    6.197 2145.730
  261.000    0.336    0.492   64.388    6.941 2135.290
  261.250    0.324    0.472   63.166    7.629 2156.310
  261.500    0.325    0.469   66.263    8.075 2154.250
  261.750    0.332    0.472   68.740    8.231 2141.700
  262.000    0.335    0.489   70.604    8.232 2137.540
  262.250    0.326    0.475   68.762    8.233 2152.270
  262.500    0.325    0.453   72.477    8.080 2154.400
  262.750    0.319    0.460   74.958    7.782 2164.940
  263.000    0.309    0.481   72.498    7.355 2181.760
  263.250    0.302    0.497   73.125    6.569 2194.380
  263.500    0.300    0.475   79.927    5.978 2196.530
  263.750    0.300    0.456   83.641    5.045 2196.560
  264.000    0.294    0.470   86.739    4.859 2207.090
  264.250    0.285    0.508   86.749    4.769 2221.810
  264.500    0.283    0.559   84.291    4.860 2226.050
  264.750    0.295    0.498   80.597    5.048 2205.110
  265.000    0.300    0.476   78.138    5.445 2196.760
  265.250    0.303    0.483   78.149    5.763 2192.610
  265.500    0.303    0.494   73.224    6.456 2192.640
  265.750    0.295    0.478   72.614    6.832 2205.270
  266.000    0.279    0.466   76.945    7.370 2232.570
  266.250    0.264    0.461   73.870    7.511 2257.800
  266.500    0.274    0.451   75.118    7.656 2241.050
  266.750    0.295    0.441   77.597    8.257 2205.420
  267.000    0.300    0.463   77.605    9.248 2197.060
  267.250    0.075    0.516   70.208   10.556 2581.080
  267.500    0.036    0.479   57.872   11.603 2648.260
  267.750    0.010    0.253   49.240   12.282 2692.360
  268.000    0.154    0.218   46.782   12.283 2446.910
  268.250    0.207    0.241   54.818   11.392 2356.720
  268.500    0.290    0.410   62.853    8.748 2214.080
  268.750    0.308    0.441   70.888    6.846 2182.640
  269.000    0.275    0.432   80.775    5.887 2239.340
  269.250    0.256    0.441   87.579    5.460 2272.950
  269.500    0.247    0.475   86.354    4.785 2287.680
  269.750    0.258    0.498   86.983    3.963 2268.840
  270.000    0.270    0.527   91.313    3.817 2247.890
  270.250    0.280    0.582   95.646    3.890 2231.140
  270.500    0.284    0.567   96.273    4.196 2224.880
  270.750    0.275    0.518   88.876    4.525 2239.610
