~VERSION INFORMATION
 VERS.                 2.0:   CWLS LOG ASCII STANDARD -VERSION 2.0
 WRAP.                  NO:   ONE LINE PER DEPTH STEP
~WELL INFORMATION BLOCK
#MNEM.UNIT           DATA                    DESCRIPTION OF MNEMONIC
#---------    -------------------            -------------------------------
# Generated from Intellog Unique Number	CC_80_83/WELL/2369
NULL.         -999.25                        : NULL_VALUE
WELL.         BVX ET AL WATCHUSK             : Well_name    - WELL
LOC .         10-25-081-03W4                 : Location     - LOCATION          
UWI .         00/10-25-081-03W400            : Uwi          - UNIQUE WELL ID    
ENTR.         DW                             : Entered      - ENTERED BY        
SRVC.         SCHLUMBERGER                   : Scn          - SERVICE COMPANY   
DATE.         26 FEB 78                      : Date         - LOG DATE
STRT.M        106.68                         : top_depth    - START DEPTH       
STOP.M        265.174                        : bot_depth    - STOP DEPTH        
STEP.M        0.305                          : increment    - STEP LENGTH       
~CURVE INFORMATION BLOCK
#MNEM UNIT       ERCB CURVE CODE    CURVE DESCRIPTION
#-----------   ------------------   ----------------------------------
DEPT.M        00 001 00 00         : DEPTH        - DEPTH                       
DPHI.V/V      00 890 00 00         : PHID         - DENSITY POROSITY (LIMESTONE)
NPHI.V/V      00 330 00 00         : PHIN         - NEUTRON POROSITY (LIMESTONE)
GR  .API      00 310 00 00         : GR           - GAMMA RAY                   
ILD .OHMM     00 120 00 00         : RESD         - DEEP RESISTIVITY (DIL)      
~PARAMETER INFORMATION       
#MNEM.UNIT           DATA             DESCRIPTION OF MNEMONIC
#---------         -----------     ------------------------------
GL  .M        473.659              : gl           - GROUND LEVEL ELEVATION      
EREF.M        476.707              : kb           - ELEVATION OF DEPTH REFERENCE
DATM.M        476.707              : datum        - DATUM ELEVATION             
TDD .M        364.54               : tdd          - TOTAL DEPTH DRILLER         
RUN .         ONE                  : Run          - RUN NUMBER                  
ENG .         BILL                 : Engineer     - RECORDING ENGINEER          
WIT .         JIM                  : Witness      - WITNESSED BY                
MUD .         GEL                  : Mud_type     - MUD TYPE                    
MATR.         LIMESTONE            : Logunit      - NEUTRON MATRIX              
TMAX.C        21.1111              : BHT          - MAXIMUM RECORDED TEMPERATURE
BHTD.M        364.541              : BHTDEP       - MAXIMUM RECORDED TEMPERATURE
MATR.         1                    : LOGUNIT      - NEUTRON MATRIX              
RMT .C        25                   : MDTP         - TEMPERATURE OF MUD          
NEUT.         1                    : NEUTRON      - NEUTRON TYPE                
RESI.         0                    : RESIST       - RESISTIVITY TYPE            
RMC .OHMM     0.25                 : RMC          - RESISTIVITY OF MUD CAKE     
RMF .OHMM     0.25                 : RMF          - RESISTIVITY OF MUD FILTRATE 
SUFT.C        15                   : SUFT         - SURFACE TEMPERATURE         
~A  DEPTH     PHID     PHIN       GR     RESD
  106.680    0.234    0.414   78.109    8.219
  106.985    0.249    0.427   79.364    9.037
  107.290    0.261    0.434   78.136   10.127
  107.594    0.277    0.439   68.232   11.349
  107.899    0.243    0.444   66.386   12.014
  108.204    0.266    0.476   60.825   13.209
  108.509    0.278    0.470   57.122   13.720
  108.814    0.281    0.455   57.756   13.983
  109.118    0.278    0.432   58.384   14.251
  109.423    0.272    0.430   60.264   13.983
  109.728    0.270    0.440   60.275   13.983
  110.033    0.267    0.447   65.247   13.462
  110.338    0.267    0.446   70.840   12.961
  110.642    0.272    0.453   67.756   12.478
  110.947    0.274    0.461   65.909   12.478
  111.252    0.263    0.453   67.166   12.478
  111.557    0.260    0.432   64.083   12.961
  111.862    0.269    0.438   61.617   13.209
  112.166    0.279    0.446   61.011   13.462
  112.471    0.271    0.436   62.266   13.209
  112.776    0.250    0.441   64.754   12.717
  113.081    0.263    0.448   69.732   12.014
  113.386    0.257    0.436   71.604   11.788
  113.690    0.233    0.434   69.757   11.566
  113.995    0.212    0.439   61.095   11.566
  114.300    0.191    0.448   59.867   11.788
  114.605    0.241    0.453   64.844   12.244
  114.910    0.270    0.456   66.095   12.717
  115.214    0.252    0.455   66.111   12.717
  115.519    0.270    0.432   63.647   12.478
  115.824    0.270    0.422   61.800   12.244
  116.129    0.250    0.437   61.812   12.014
  116.434    0.244    0.455   64.925   11.566
  116.738    0.254    0.457   67.419   11.135
  117.043    0.237    0.457   68.055   10.721
  117.348    0.230    0.452   67.450   10.721
  117.653    0.223    0.444   65.605   10.926
  117.958    0.219    0.446   63.140   11.135
  118.262    0.214    0.454   61.296   11.349
  118.567    0.230    0.455   62.548   11.349
  118.872    0.234    0.451   66.281   11.135
  119.177    0.228    0.446   63.193   10.519
  119.482    0.231    0.431   56.393   10.321
  119.786    0.228    0.407   55.163   10.321
  120.091    0.226    0.419   75.635   10.321
  120.396    0.239    0.455   67.591   10.519
  120.701    0.265    0.468   63.267   10.926
  121.006    0.256    0.464   62.662   11.349
  121.310    0.242    0.467   63.920   11.135
  121.615    0.257    0.464   63.309   10.519
  121.920    0.276    0.451   62.089    8.065
  122.225    0.281    0.443   63.958    5.212
  122.530    0.271    0.438   76.369    4.073
  122.835    0.256    0.481   92.501    3.704
  123.139    0.206    0.499  100.575    3.566
  123.444    0.201    0.504   98.110    3.566
  123.749    0.209    0.515   90.687    3.921
  124.054    0.214    0.526   88.222    4.230
  124.359    0.209    0.478   89.472    4.230
  124.663    0.216    0.501   94.446    4.151
  124.968    0.214    0.515   99.424    3.921
  125.273    0.209    0.500  101.916    3.499
  125.578    0.212    0.527  102.550    3.123
  125.883    0.221    0.545  101.940    2.950
  126.187    0.232    0.558   99.476    2.840
  126.492    0.221    0.571   95.150    2.950
  126.797    0.208    0.564   85.868    3.064
  127.102    0.196    0.527   84.641    3.182
  127.407    0.192    0.519   89.617    3.182
  127.711    0.203    0.548   88.388    3.182
  128.016    0.231    0.564   82.204    3.369
  128.321    0.242    0.560   75.399    4.564
  128.626    0.251    0.525   66.116    7.913
  128.931    0.266    0.414   58.692    9.037
  129.235    0.274    0.414   60.568    9.387
  129.540    0.267    0.429   63.678    9.387
  129.845    0.266    0.419   61.834    9.211
  130.150    0.269    0.413   55.649    9.037
  130.454    0.267    0.430   59.387    8.701
  130.759    0.268    0.430   60.643    8.701
  131.064    0.268    0.445   60.651    8.377
  131.369    0.270    0.423   59.424    8.537
  131.674    0.272    0.430   57.583    8.537
  131.978    0.273    0.447   56.355    8.868
  132.283    0.272    0.447   55.748    9.037
  132.588    0.273    0.426   59.489    9.037
  132.893    0.274    0.411   60.115    9.037
  133.198    0.274    0.408   60.134    8.868
  133.502    0.271    0.440   59.526    8.868
  133.807    0.263    0.453   60.781    8.537
  134.112    0.263    0.443   62.659    8.377
  134.417    0.266    0.437   62.668    8.377
  134.722    0.270    0.428   61.446    8.537
  135.026    0.275    0.422   58.361    8.868
  135.331    0.270    0.443   58.371    8.701
  135.636    0.263    0.447   61.483    8.701
  135.941    0.265    0.421   63.360    8.868
  136.246    0.268    0.407   58.419    8.868
  136.550    0.267    0.424   57.812    8.701
  136.855    0.260    0.435   59.687    9.037
  137.160    0.254    0.445   62.178    9.387
  137.465    0.238    0.426   63.429    9.750
  137.770    0.178    0.411   62.825    9.750
  138.074    0.133    0.380   66.559    9.567
  138.379    0.159    0.403   69.053    9.211
  138.684    0.266    0.435   67.831    8.701
  138.989    0.263    0.454   66.600    8.377
  139.294    0.256    0.459   63.518    8.537
  139.598    0.245    0.457   65.391    9.567
  139.903    0.213    0.439   65.404    9.937
  140.208    0.064    0.381   57.358   10.321
  140.513    0.039    0.318   46.835   10.321
  140.817    0.059    0.340   45.609    9.937
  141.122    0.220    0.439   56.784    9.567
  141.427    0.260    0.439   58.036    9.387
  141.732    0.278    0.435   55.575    8.701
  142.037    0.292    0.462   56.206    8.537
  142.341    0.284    0.474   61.797    8.537
  142.646    0.267    0.468   62.433    9.037
  142.951    0.267    0.429   58.733    9.387
  143.256    0.267    0.426   58.126    9.567
  143.561    0.269    0.426   58.755    9.387
  143.865    0.273    0.424   60.012    9.387
  144.170    0.274    0.419   60.646    9.211
  144.475    0.271    0.415   61.277    9.211
  144.780    0.274    0.415   60.055    9.037
  145.085    0.284    0.416   59.446    8.868
  145.389    0.284    0.420   59.466    8.537
  145.694    0.280    0.437   61.340    8.537
  145.999    0.275    0.455   63.211    8.537
  146.304    0.270    0.447   61.364    8.701
  146.609    0.269    0.441   55.184    8.868
  146.913    0.270    0.436   52.719    8.868
  147.218    0.272    0.434   52.730    9.037
  147.523    0.268    0.434   53.367    9.037
  147.828    0.265    0.435   53.998    9.211
  148.133    0.270    0.434   55.256    9.211
  148.437    0.275    0.428   56.503    9.387
  148.742    0.271    0.427   60.240    9.937
  149.047    0.276    0.461   60.254   10.321
  149.352    0.279    0.462   59.029   10.926
  149.657    0.280    0.446   62.140   11.135
  149.961    0.268    0.440   63.396   11.349
  150.266    0.264    0.444   57.831   11.135
  150.571    0.258    0.431   58.467   11.566
  150.876    0.254    0.394   60.337   12.014
  151.180    0.237    0.423   64.694   14.251
  151.485    0.145    0.238   60.367   15.375
  151.790    0.000    0.155   52.943   16.276
  152.095    0.028    0.145   47.999   16.905
  152.400    0.066    0.177   51.115   14.802
  152.704    0.095    0.309   54.225   11.788
  153.009    0.169    0.358   60.440    9.567
  153.314    0.270    0.440   65.412    9.037
  153.619    0.276    0.451   66.665    8.065
  153.924    0.278    0.457   65.438    7.764
  154.228    0.277    0.438   58.634    7.618
  154.533    0.276    0.457   56.794    7.618
  154.838    0.274    0.467   57.425    7.764
  155.143    0.273    0.456   58.683    7.913
  155.448    0.271    0.425   58.692    7.913
  155.752    0.271    0.441   59.326    7.913
  156.057    0.274    0.459   60.579    7.764
  156.362    0.270    0.467   61.836    7.764
  156.667    0.258    0.474   59.991    7.913
  156.972    0.267    0.478   60.622    8.065
  157.276    0.268    0.466   63.118    8.219
  157.581    0.267    0.450   59.410    8.219
  157.886    0.260    0.437   64.385    8.219
  158.191    0.254    0.439   62.539    8.377
  158.496    0.251    0.421   53.881    8.537
  158.800    0.248    0.411   52.649    8.701
  159.105    0.247    0.406   55.768    8.868
  159.410    0.254    0.402   58.880    8.868
