~VERSION INFORMATION
 VERS.                 2.0:   CWLS LOG ASCII STANDARD -VERSION 2.0
 WRAP.                  NO:   ONE LINE PER DEPTH STEP
~WELL INFORMATION BLOCK
#MNEM.UNIT           DATA                    DESCRIPTION OF MNEMONIC
#---------    -------------------            -------------------------------
# Generated from Intellog Unique Number	CW_76_78/WELL/3587
WELL.         SASKATCHEWAN OIL & GAS CORP.   : Well_name    - WELL
LOC .         00/11-06-076-19W4/0            : Location     - LOCATION
UWI .         00/11-06-076-19W4/0            : Uwi          - UNIQUE WELL ID
ENTR.         JO                             : Entered      - ENTERED BY
SRVC.         SCHLUMBERGER                   : Scn          - SERVICE COMPANY
DATE.         05/25/92                       : Date         - LOG DATE
STRT.M        215                            : top_depth    - START DEPTH
STOP.M        460                            : bot_depth    - STOP DEPTH
STEP.M        0.25                           : increment    - STEP LENGTH
 NULL. -999.2500:NULL Value
~CURVE INFORMATION BLOCK
#MNEM UNIT       ERCB CURVE CODE    CURVE DESCRIPTION
#-----------   ------------------   ----------------------------------
DEPT.M        00 001 00 00         : DEPTH        - DEPTH
NPHI.V/V      00 330 00 00         : PHIN         - NEUTRON POROSITY (SANDSTONE)
GR  .API      00 310 00 00         : GR           - GAMMA RAY
DPHI.V/V      00 890 00 00         : PHID         - DENSITY POROSITY (SANDSTONE)
ILD .OHMM     00 120 00 00         : RESD         - DEEP RESISTIVITY (DIL)
~PARAMETER INFORMATION
#MNEM.UNIT           DATA             DESCRIPTION OF MNEMONIC
#---------         -----------     ------------------------------
GL  .M        590.9                : gl           - GROUND LEVEL ELEVATION
EREF.M        594.7                : kb           - ELEVATION OF DEPTH REFERENCE
DATM.M        594.7                : datum        - DATUM ELEVATION
TDD .M        465                  : tdd          - TOTAL DEPTH DRILLER
RUN .         ONE                  : Run          - RUN NUMBER
ENG .         BILL                 : Engineer     - RECORDING ENGINEER
WIT .         JIM                  : Witness      - WITNESSED BY
MUD .         GEL                  : Mud_type     - MUD TYPE
MATR.         SANDSTONE            : Logunit      - NEUTRON MATRIX
TMAX.C        35                   : BHT          - MAXIMUM RECORDED TEMPERATURE
BHTD.M        465                  : BHTDEP       - MAXIMUM RECORDED TEMPERATURE
MATR.         1                    : LOGUNIT      - NEUTRON MATRIX
RMT .C        12                   : MDTP         - TEMPERATURE OF MUD
NEUT.         1                    : NEUTRON      - NEUTRON TYPE
RESI.         0                    : RESIST       - RESISTIVITY TYPE
RMC .OHMM     2.24                 : RMC          - RESISTIVITY OF MUD CAKE
RMF .OHMM     2.38                 : RMF          - RESISTIVITY OF MUD FILTRATE
SUFT.C        5                    : SUFT         - SURFACE TEMPERATURE
~A  DEPTH     PHIN       GR     PHID     RESD
# ...
  432.500    0.358   92.046    0.090    6.081
  432.750    0.359   94.969    0.118    6.195
  433.000    0.353   94.965    0.153    6.311
  433.250    0.355   93.786    0.122    6.312
  433.500    0.364   94.951    0.124    6.312
  433.750    0.385   97.290    0.151    6.197
  434.000    0.365   96.699    0.164    6.197
  434.250    0.357   89.659    0.164    6.198
  434.500    0.363   91.998    0.141    6.085
  434.750    0.379   98.440    0.141    6.085
  435.000    0.400   96.674    0.157    5.865
  435.250    0.405   98.428    0.174    5.865
  435.500    0.408  102.525    0.168    5.653
  435.750    0.368  106.621    0.151    5.653
  436.000    0.343  106.615    0.126    5.349
  436.250    0.287  106.023    0.086    5.061
  436.500    0.290  106.017    0.076    5.350
  436.750    0.320   85.495    0.123    5.868
  437.000    0.346  100.142    0.150    6.557
  437.250    0.353  101.896    0.152    7.193
  437.500    0.380  105.407    0.155    7.327
  437.750    0.387  111.263    0.157    6.806
  438.000    0.397  115.358    0.167    6.439
  438.250    0.405  112.423    0.164    6.439
  438.500    0.390  111.243    0.159    6.440
  438.750    0.386  115.928    0.146    6.561
  439.000    0.391  112.404    0.115    6.935
  439.250    0.307  105.365    0.099    7.468
  439.500    0.298   79.567    0.267    8.345
  439.750    0.263   44.390    0.329   13.007
  440.000    0.503   42.039    0.387   21.830
  440.250    0.554   42.030    0.443   24.394
  440.500    0.604   48.474    0.477   23.080
  440.750    0.619   61.364    0.549   22.243
  441.000    0.645   70.737    0.565   19.910
  441.250    0.669   78.351    0.229   19.188
  441.500    0.686   82.447    0.243   18.154
  441.750    0.709   78.924    0.252   17.496
  442.000    0.735   78.333    0.193   16.553
  442.250    0.771   87.706    0.166   16.251
  442.500    0.794   92.976    0.134   15.376
  442.750    0.278   90.039    0.121   15.095
  443.000    0.271   83.585    0.119   14.282
  443.250    0.262   80.647    0.117   14.021
  443.500    0.258   84.745    0.114   13.513
  443.750    0.269   88.843    0.113   13.024
  444.000    0.278   94.697    0.105   12.786
  444.250    0.277   98.210    0.098   12.553
  444.500    0.268  101.721    0.096   12.098
  444.750    0.267  102.886    0.102   11.660
  445.000    0.273   99.364    0.136   11.447
  445.250    0.279   91.738    0.177   10.632
  445.500    0.296   87.627    0.175   10.247
  445.750    0.309   83.519    0.162    9.343
  446.000    0.310   78.824    0.157    9.004
  446.250    0.292   78.231    0.161    8.678
  446.500    0.291   77.053    0.166    8.060
  446.750    0.289   69.425    0.167    8.061
  447.000    0.282   74.109    0.160    8.061
  447.250    0.278   84.654    0.153    8.681
  447.500    0.312  104.580    0.147    9.008
  447.750    0.332  116.297    0.157    9.701
  448.000    0.329  112.773    0.172   10.067
  448.250    0.303  107.491    0.166   10.068
  448.500    0.297  103.967    0.155    9.703
  448.750    0.326  120.962    0.156    9.180
  449.000    0.354  120.956    0.174    9.012
  449.250    0.424  115.674    0.194    8.527
  449.500    0.429  110.978    0.206    7.775
  449.750    0.426   65.250    0.213    7.356
  450.000    0.415   63.486    0.214    7.921
  450.250    0.405   66.997    0.212   11.256
  450.500    0.393   70.508    0.270   12.347
  450.750    0.366   68.157    0.268   14.054
  451.000    0.360   62.876    0.238   14.585
  451.250    0.346   60.525    0.215   14.319
  451.500    0.395   66.381    0.208   13.547
  451.750    0.397   75.754    0.252   12.817
  452.000    0.384   86.299    0.295   11.472
  452.250    0.384   90.980    0.305   10.268
  452.500    0.394   92.735    0.295    8.536
  452.750    0.402   96.831    0.276    8.380
  453.000    0.373   95.068    0.246    8.537
  453.250    0.344   93.302    0.232    9.025
  453.500    0.388   96.225    0.228    9.365
  453.750    0.385   98.564    0.232   10.085
  454.000    0.334  100.903    0.190   10.466
  454.250    0.300  100.897    0.053   11.480
  454.500    0.284   99.132    0.140   11.695
  454.750    0.341   97.955    0.173   12.594
  455.000    0.375   96.775    0.199   13.069
  455.250    0.389   96.768    0.219   11.916
  455.500    0.345   97.348    0.230   10.470
  455.750    0.310   97.930    0.206   10.280
  456.000    0.283   99.098    0.125   11.701
  456.250    0.292  100.850    0.102   13.820
  456.500    0.312  103.189    0.088   15.732
  456.750    0.317  104.354    0.085   16.325
  457.000    0.312  106.105    0.088   16.941
  457.250    0.275  107.861    0.049   18.244
  457.500    0.243  112.544    0.038   18.932
  457.750    0.266  120.159    0.029   19.287
  458.000    0.240  121.325    0.029   19.289
  458.250    0.235  117.800    0.039   19.290
  458.500    0.245  114.279    0.066   18.938
  458.750    0.258  108.997    0.101   18.252
  459.000    0.268  103.715    0.158   17.269
  459.250    0.259   99.603    0.130   16.643
  459.500    0.259   96.082    0.094   15.746
  459.750    0.268   93.145    0.101   14.625
  460.000    0.265   91.966    0.112   13.837
