~VERSION INFORMATION
 VERS.                 2.0:   CWLS LOG ASCII STANDARD -VERSION 2.0
 WRAP.                  NO:   ONE LINE PER DEPTH STEP
~WELL INFORMATION BLOCK
#MNEM.UNIT           DATA                    DESCRIPTION OF MNEMONIC
#---------    -------------------            -------------------------------
# Generated from Intellog Unique Number	CC_80_83/WELL/920
WELL.         PARAMOUNT RES.                 : Well_name    - WELL
LOC .         00/14-20-081-06W4/0            : Location     - LOCATION
UWI .         00/14-20-081-06W4/0            : Uwi          - UNIQUE WELL ID
ENTR.         TIM                            : Entered      - ENTERED BY
SRVC.         SCHLUMBERGER                   : Scn          - SERVICE COMPANY
STRT.M        65                             : top_depth    - START DEPTH
STOP.M        280                            : bot_depth    - STOP DEPTH
STEP.M        0.25                           : increment    - STEP LENGTH
 NULL. -999.2500:NULL Value
~CURVE INFORMATION BLOCK
#MNEM UNIT       ERCB CURVE CODE    CURVE DESCRIPTION
#-----------   ------------------   ----------------------------------
DEPT.M        00 001 00 00         : DEPTH        - DEPTH
GR  .API      00 310 00 00         : GR           - GAMMA RAY
NPHI.V/V      00 330 00 00         : PHIN         - NEUTRON POROSITY (SANDSTONE)
DPHI.V/V      00 890 00 00         : PHID         - DENSITY POROSITY (SANDSTONE)
ILD .OHMM     00 120 00 00         : RESD         - DEEP RESISTIVITY (DIL)
~PARAMETER INFORMATION
#MNEM.UNIT           DATA             DESCRIPTION OF MNEMONIC
#---------         -----------     ------------------------------
GL  .M        500.9                : gl           - GROUND LEVEL ELEVATION
EREF.M        504                  : kb           - ELEVATION OF DEPTH REFERENCE
DATM.M        504                  : datum        - DATUM ELEVATION
TDD .M        278                  : tdd          - TOTAL DEPTH DRILLER
RUN .         ONE                  : Run          - RUN NUMBER
ENG .         BILL                 : Engineer     - RECORDING ENGINEER
WIT .         JIM                  : Witness      - WITNESSED BY
MUD .         GEL                  : Mud_type     - MUD TYPE
MATR.         SANDSTONE            : Logunit      - NEUTRON MATRIX
TMAX.C        18                   : BHT          - MAXIMUM RECORDED TEMPERATURE
BHTD.M        278                  : BHTDEP       - MAXIMUM RECORDED TEMPERATURE
MATR.         1                    : LOGUNIT      - NEUTRON MATRIX
RMT .C        11                   : MDTP         - TEMPERATURE OF MUD
NEUT.         1                    : NEUTRON      - NEUTRON TYPE
RESI.         6                    : RESIST       - RESISTIVITY TYPE
RMC .OHMM     7                    : RMC          - RESISTIVITY OF MUD CAKE
RMF .OHMM     5                    : RMF          - RESISTIVITY OF MUD FILTRATE
SUFT.C        4                    : SUFT         - SURFACE TEMPERATURE
~A  DEPTH       GR     PHIN     PHID     RESD
# ...
  152.000  104.626    0.526    0.225    3.850
  152.250  104.558    0.549    0.217    3.843
  152.500  104.422    0.551    0.215    3.837
  152.750  104.958    0.542    0.224    3.829
  153.000  105.449    0.515    0.250    3.894
  153.250  105.963    0.495    0.261    4.036
  153.500  105.917    0.482    0.272    4.259
  153.750  106.431    0.458    0.275    4.663
  154.000  103.922    0.446    0.275    5.013
  154.250   98.994    0.437    0.276    5.490
  154.500   95.857    0.427    0.276    5.905
  154.750   92.094    0.415    0.277    6.589
  155.000   90.212    0.417    0.276    7.489
  155.250   87.075    0.424    0.276    8.667
  155.500   86.425    0.430    0.278    9.151
  155.750   84.498    0.429    0.279   10.018
  156.000   83.802    0.407    0.278   10.193
  156.250   82.479    0.401    0.278   10.757
  156.500   81.784    0.393    0.282   11.145
  156.750   81.088    0.394    0.285   11.324
  157.000   80.370    0.398    0.292   11.310
  157.250   80.324    0.398    0.299   11.290
  157.500   79.629    0.396    0.303   11.276
  157.750   78.933    0.392    0.307   11.257
  158.000   78.238    0.388    0.304   11.233
  158.250   78.147    0.393    0.300   11.428
  158.500   78.033    0.401    0.294   11.617
  158.750   77.942    0.400    0.285   11.820
  159.000   78.456    0.393    0.278   12.235
  159.250   79.529    0.384    0.276   12.918
  159.500   80.042    0.376    0.285   14.406
  159.750   80.579    0.372    0.295   14.931
  160.000   80.510    0.369    0.311   16.346
  160.250   79.769    0.362    0.323   17.266
  160.500   79.097    0.350    0.332   18.556
  160.750   78.424    0.330    0.320   19.232
  161.000   77.078    0.326    0.307   20.668
  161.250   76.428    0.350    0.311   21.412
  161.500   75.128    0.363    0.334   22.588
  161.750   73.155    0.365    0.368   22.569
  162.000   72.505    0.358    0.378   22.502
  162.250   70.601    0.352    0.369   22.060
  162.500   69.882    0.339    0.359   21.221
  162.750   69.791    0.323    0.338   20.414
  163.000   69.073    0.308    0.320   19.638
  163.250   67.796    0.305    0.298   19.253
  163.500   65.914    0.339    0.262   18.520
  163.750   63.359    0.357    0.252   17.816
  164.000   62.686    0.389    0.319   17.139
  164.250   62.573    0.397    0.327   16.170
  164.500   64.273    0.399    0.329   15.846
  164.750   65.436    0.399    0.329   15.522
  165.000   67.159    0.402    0.329   15.509
  165.250   67.673    0.405    0.329   15.192
  165.500   67.559    0.413    0.331   15.166
  165.750   67.491    0.417    0.335   15.140
  166.000   67.400    0.424    0.336   15.108
  166.250   67.286    0.425    0.337   14.812
  166.500   69.614    0.422    0.338   14.787
  166.750   71.359    0.417    0.338   14.755
  167.000   70.037    0.415    0.338   15.018
  167.250   68.759    0.414    0.337   14.993
  167.500   68.064    0.414    0.336   14.961
  167.750   67.345    0.413    0.334   14.935
  168.000   66.627    0.416    0.334   14.910
  168.250   66.536    0.425    0.334   15.157
  168.500   65.863    0.438    0.336   15.124
  168.750   65.772    0.443    0.334   15.111
  169.000   65.659    0.442    0.331   15.355
  169.250   65.591    0.441    0.328   15.355
  169.500   66.082    0.434    0.326   16.171
  169.750   65.991    0.431    0.326   14.733
  170.000   66.527    0.427    0.330   14.702
  170.250   66.391    0.422    0.332   14.408
  170.500   66.345    0.418    0.334   14.389
  170.750   66.209    0.414    0.329   14.365
  171.000   66.163    0.422    0.327   14.334
  171.250   66.049    0.427    0.326   14.304
  171.500   65.936    0.428    0.328   14.546
  171.750   66.495    0.429    0.331   14.787
  172.000   66.986    0.427    0.333   15.051
  172.250   68.127    0.424    0.334   15.586
  172.500   63.758    0.415    0.330   15.851
  172.750   61.249    0.404    0.320   16.721
  173.000   61.135    0.410    0.310   17.020
  173.250   61.694    0.416    0.315   17.308
  173.500   61.604    0.412    0.319   17.595
  173.750   61.490    0.364    0.279   17.572
  174.000   61.399    0.296    0.228   17.870
  174.250   61.935    0.272    0.178   16.875
  174.500   64.867    0.279    0.115   15.073
  174.750   68.381    0.317    0.202   13.710
  175.000   70.686    0.350    0.231   13.430
  175.250   71.245    0.408    0.338   13.166
  175.500   69.922    0.419    0.339   13.138
  175.750   67.995    0.418    0.338   13.116
  176.000   67.322    0.417    0.337   13.588
  176.250   66.604    0.415    0.337   13.565
  176.500   66.535    0.417    0.337   13.548
  176.750   67.049    0.420    0.336   13.525
  177.000   67.540    0.424    0.336   13.502
  177.250   68.031    0.429    0.338   13.725
  177.500   67.986    0.433    0.339   13.707
  177.750   67.894    0.434    0.340   13.433
  178.000   66.594    0.421    0.342   12.674
  178.250   65.294    0.403    0.344   11.528
  178.500   64.599    0.406    0.345   11.094
  178.750   66.926    0.419    0.342   10.095
  179.000   69.858    0.428    0.340    9.021
  179.250   74.604    0.428    0.338    7.074
  179.500   78.768    0.427    0.333    5.550
  179.750   84.118    0.431    0.319    4.689
  180.000   87.655    0.478    0.294    3.678
  180.250   89.982    0.493    0.263    3.225
  180.500   92.869    0.508    0.257    3.045
  180.750   94.032    0.542    0.310    2.821
  181.000   96.360    0.560    0.320    2.664
  181.250  100.478    0.566    0.326    2.660
  181.500  102.246    0.568    0.318    2.705
  181.750  105.156    0.568    0.293    2.802
  182.000  106.833    0.567    0.282    2.957
  182.250  106.788    0.564    0.279    3.121
  182.500  106.719    0.562    0.272    3.235
  182.750  105.374    0.558    0.266    3.478
  183.000  104.096    0.552    0.260    3.808
  183.250  102.796    0.528    0.255    4.095
  183.500  103.264    0.526    0.253    4.738
  183.750  103.824    0.509    0.248    5.098
  184.000  103.733    0.492    0.243    5.792
  184.250  100.014    0.472    0.245    6.346
  184.500   94.459    0.452    0.256    9.174
  184.750   91.950    0.445    0.266    9.330
  185.000   90.604    0.440    0.268    9.670
  185.250   90.536    0.434    0.258   10.396
  185.500   89.841    0.425    0.261   11.178
  185.750   89.123    0.416    0.281   11.796
  186.000   89.054    0.394    0.308   11.992
  186.250   88.382    0.367    0.331   12.195
  186.500   87.013    0.345    0.358   12.180
  186.750   86.363    0.323    0.359   11.936
  187.000   87.459    0.320    0.352   11.467
  187.250   90.995    0.334    0.340   11.242
  187.500   93.345    0.365    0.290   10.824
  187.750   95.673    0.401    0.271   10.217
  188.000   98.023    0.450    0.247    9.820
  188.250  100.328    0.458    0.234    9.631
  188.500  100.864    0.452    0.229    9.611
  188.750  101.378    0.438    0.228   11.133
  189.000  101.264    0.426    0.226   10.700
  189.250  101.755    0.405    0.223   10.691
  189.500  101.687    0.399    0.222   10.468
  189.750  101.596    0.412    0.225   10.455
  190.000  101.527    0.450    0.230   10.249
  190.250  100.786    0.460    0.237   10.044
  190.500  100.114    0.458    0.239    9.658
  190.750   96.395    0.450    0.241    9.120
  191.000   95.700    0.451    0.236    8.143
  191.250   98.632    0.456    0.233    7.980
  191.500  102.773    0.455    0.226    8.264
  191.750   96.636    0.448    0.228    8.565
  192.000   90.454    0.435    0.233    8.565
  192.250   89.758    0.423    0.260    8.692
  192.500   90.272    0.422    0.262    8.525
  192.750   91.390    0.434    0.269    8.503
  193.000   91.276    0.440    0.281    8.496
  193.250   90.626    0.445    0.286    8.326
  193.500   86.885    0.449    0.277    7.714
  193.750   88.631    0.452    0.256    7.288
  194.000   93.981    0.466    0.249    6.155
  194.250   99.936    0.471    0.242    5.705
  194.500  100.450    0.474    0.240    5.284
  194.750  100.359    0.478    0.238    5.183
  195.000   99.641    0.481    0.238    5.077
  195.250   99.550    0.488    0.242    5.070
