~VERSION INFORMATION
 VERS.                 2.0:   CWLS LOG ASCII STANDARD -VERSION 2.0
 WRAP.                  NO:   ONE LINE PER DEPTH STEP
~WELL INFORMATION BLOCK
#MNEM.UNIT           DATA                    DESCRIPTION OF MNEMONIC
#---------    -------------------            -------------------------------
# Generated from Intellog Unique Number	CS_71_72/WELL/3248
WELL.         AEC KIRBY                      : Well_name    - WELL
LOC .         00/15-32-071-04W4/0            : Location     - LOCATION
UWI .         00/15-32-071-04W4/0            : Uwi          - UNIQUE WELL ID
ENTR.         T                              : Entered      - ENTERED BY
SRVC.         COMPUTALOG                     : Scn          - SERVICE COMPANY
DATE.         03/24/92                       : Date         - LOG DATE
STRT.M        300                            : top_depth    - START DEPTH
STOP.M        500                            : bot_depth    - STOP DEPTH
STEP.M        0.25                           : increment    - STEP LENGTH
 NULL. -999.2500:NULL Value
~CURVE INFORMATION BLOCK
#MNEM UNIT       ERCB CURVE CODE    CURVE DESCRIPTION
#-----------   ------------------   ----------------------------------
DEPT.M        00 001 00 00         : DEPTH        - DEPTH
NPHI.V/V      00 330 00 00         : PHIN         - NEUTRON POROSITY (SANDSTONE)
GR  .API      00 310 00 00         : GR           - GAMMA RAY
DPHI.V/V      00 890 00 00         : PHID         - DENSITY POROSITY (SANDSTONE)
ILD .OHMM     00 120 00 00         : RESD         - DEEP RESISTIVITY (DIL)
~PARAMETER INFORMATION
#MNEM.UNIT           DATA             DESCRIPTION OF MNEMONIC
#---------         -----------     ------------------------------
GL  .M        679                  : gl           - GROUND LEVEL ELEVATION
EREF.M        682.5                : kb           - ELEVATION OF DEPTH REFERENCE
DATM.M        682.5                : datum        - DATUM ELEVATION
TDD .M        503                  : tdd          - TOTAL DEPTH DRILLER
RUN .         ONE                  : Run          - RUN NUMBER
ENG .         BILL                 : Engineer     - RECORDING ENGINEER
WIT .         JIM                  : Witness      - WITNESSED BY
MUD .         GEL                  : Mud_type     - MUD TYPE
MATR.         SANDSTONE            : Logunit      - NEUTRON MATRIX
TMAX.C        18                   : BHT          - MAXIMUM RECORDED TEMPERATURE
BHTD.M        503                  : BHTDEP       - MAXIMUM RECORDED TEMPERATURE
RMT .C        17                   : MDTP         - TEMPERATURE OF MUD
MUDD.KG/M     1100                 : MWT          - MUD DENSITY
NEUT.         1                    : NEUTRON      - NEUTRON TYPE
RESI.         0                    : RESIST       - RESISTIVITY TYPE
RM  .OHMM     4.4                  : RM           - RESISTIVITY OF MUD
RMC .OHMM     5.2                  : RMC          - RESISTIVITY OF MUD CAKE
RMF .OHMM     4.2                  : RMF          - RESISTIVITY OF MUD FILTRATE
SUFT.C        4                    : SUFT         - SURFACE TEMPERATURE
~A  DEPTH     PHIN       GR     PHID     RESD
# ...
  474.000    0.398  106.202    0.209    6.246
  474.250    0.396  102.510    0.207    6.249
  474.500    0.383   98.197    0.206    6.259
  474.750    0.371   95.738    0.206    6.262
  475.000    0.370  101.309    0.204    6.270
  475.250    0.373  104.413    0.204    6.274
  475.500    0.372  105.656    0.204    6.282
  475.750    0.368  101.961    0.203    6.288
  476.000    0.363   96.418    0.200    6.414
  476.250    0.367   92.105    0.200    6.420
  476.500    0.388   83.473    0.209    6.550
  476.750    0.389   79.781    0.221    6.678
  477.000    0.384   84.114    0.220    6.813
  477.250    0.388   92.151    0.213    6.951
  477.500    0.384   98.336    0.214    6.956
  477.750    0.382  102.052    0.214    6.835
  478.000    0.380   99.594    0.211    6.713
  478.250    0.378   88.492    0.209    6.595
  478.500    0.375   85.420    0.209    6.477
  478.750    0.373   87.283    0.209    6.363
  479.000    0.372   89.761    0.209    6.370
  479.250    0.368   94.712    0.210    6.379
  479.500    0.369  100.280    0.212    6.385
  479.750    0.369  104.616    0.212    6.392
  480.000    0.369  104.007    0.212    6.517
  480.250    0.369  101.549    0.211    6.649
  480.500    0.369  100.328    0.212    7.041
  480.750    0.376   99.722    0.217    7.181
  481.000    0.390   96.647    0.224    7.461
  481.250    0.400   91.102    0.233    7.905
  481.500    0.364   82.470    0.236    7.909
  481.750    0.338   85.568    0.233    7.917
  482.000    0.348   90.519    0.228    7.355
  482.250    0.359   94.234    0.229    7.090
  482.500    0.367   97.950    0.230    6.712
  482.750    0.376  102.283    0.230    6.718
  483.000    0.377   86.860    0.230    6.600
  483.250    0.376   95.515    0.228    6.730
  483.500    0.376  105.404    0.223    6.866
  483.750    0.377  106.033    0.230    7.132
  484.000    0.382   88.140    0.248    7.993
  484.250    0.387   85.065    0.264    8.623
  484.500    0.397   77.668    0.288    9.129
  484.750    0.400   68.418    0.323   10.229
  485.000    0.405   61.641    0.346   11.458
  485.250    0.410   60.418    0.360   12.363
  485.500    0.408   59.192    0.350   13.343
  485.750    0.408   56.736    0.341   13.870
  486.000    0.409   57.365    0.344   13.877
  486.250    0.410   59.846    0.343   13.134
  486.500    0.406   63.559    0.340   12.197
  486.750    0.399   75.921    0.332   11.119
  487.000    0.388   79.637    0.308   10.717
  487.250    0.377   85.822    0.287   10.141
  487.500    0.363   93.859    0.240    9.598
  487.750    0.358  100.662    0.216    9.424
  488.000    0.358  105.615    0.192    8.917
  488.250    0.367  108.714    0.174    8.599
  488.500    0.378  110.574    0.174    8.293
  488.750    0.385  106.884    0.174    7.849
  489.000    0.386  104.423    0.174    7.709
  489.250    0.380  101.965    0.178    7.571
  489.500    0.374   97.658    0.183    7.300
  489.750    0.369   94.579    0.217    7.173
  490.000    0.366   89.652    0.226    7.047
  490.250    0.361   85.959    0.216    7.054
  490.500    0.363   93.996    0.206    7.061
  490.750    0.364   99.564    0.194    6.936
  491.000    0.364  103.283    0.191    6.941
  491.250    0.360  105.152    0.190    6.950
  491.500    0.359  105.775    0.186    6.955
  491.750    0.360  107.021    0.180    6.964
  492.000    0.366  104.563    0.174    6.971
  492.250    0.375   98.401    0.191    6.848
  492.500    0.376   91.006    0.217    6.729
  492.750    0.375   86.082    0.225    6.734
  493.000    0.373   86.710    0.217    6.620
  493.250    0.371   87.951    0.203    6.500
  493.500    0.368   90.432    0.211    6.505
  493.750    0.365   91.063    0.220    6.513
  494.000    0.366   87.991    0.227    6.520
  494.250    0.377   85.527    0.239    6.526
  494.500    0.377   80.602    0.246    6.533
  494.750    0.383   78.758    0.247    6.539
  495.000    0.389   78.770    0.249    6.547
  495.250    0.387   83.106    0.249    6.552
  495.500    0.378   85.587    0.245    6.560
  495.750    0.366   86.213    0.240    6.567
  496.000    0.351   88.076    0.236    6.573
  496.250    0.339   90.557    0.229    6.578
  496.500    0.303   91.806    0.213    6.709
  496.750    0.261   91.820    0.148    6.973
  497.000    0.206   91.212    0.024    7.385
  497.250    0.192   90.609    0.014    7.969
  497.500    0.188   90.620    0.024    8.759
  497.750    0.187   93.104    0.029   12.063
  498.000    0.194   94.344    0.029   14.030
  498.250    0.201   98.677    0.031   14.047
  498.500    0.204  109.805    0.032   14.058
  498.750    0.204  111.051    0.033   13.813
  499.000    0.202  112.297    0.035   13.827
  499.250    0.201  112.308    0.028   13.580
  499.500    0.201  112.320    0.024   13.600
  499.750    0.200  112.331    0.025   13.611
  500.000    0.200  112.342    0.028   13.624
