~VERSION INFORMATION
 VERS.                 2.0:   CWLS LOG ASCII STANDARD -VERSION 2.0
 WRAP.                  NO:   ONE LINE PER DEPTH STEP
~WELL INFORMATION BLOCK
#MNEM.UNIT           DATA                    DESCRIPTION OF MNEMONIC
#---------    -------------------            -------------------------------
# Generated from Intellog Unique Number	CS_77_79/WELL/981
WELL.         CANON SIEBANS COWPAR           : Well_name    - WELL
LOC .         00/10-33-079-04W4/0            : Location     - LOCATION
UWI .         00/10-33-079-04W4/0            : Uwi          - UNIQUE WELL ID
ENTR.         JHS                            : Entered      - ENTERED BY
SRVC.         SCHLUMBERGER                   : Scn          - SERVICE COMPANY
STRT.M        103.632                        : top_depth    - START DEPTH
STOP.M        319.882                        : bot_depth    - STOP DEPTH
STEP.M        0.25                           : increment    - STEP LENGTH
 NULL. -999.2500:NULL Value
~CURVE INFORMATION BLOCK
#MNEM UNIT       ERCB CURVE CODE    CURVE DESCRIPTION
#-----------   ------------------   ----------------------------------
DEPT.M        00 001 00 00         : DEPTH        - DEPTH
RHOB.KG/M3    00 350 00 00         : DENS         - BULK DENSITY
GR  .API      00 310 00 00         : GR           - GAMMA RAY
DPHI.V/V      00 890 00 00         : PHID         - DENSITY POROSITY (SANDSTONE)
NPHI.V/V      00 330 00 00         : PHIN         - NEUTRON POROSITY (SANDSTONE)
ILD .OHMM     00 120 00 00         : RESD         - DEEP RESISTIVITY (DIL)
~PARAMETER INFORMATION
#MNEM.UNIT           DATA             DESCRIPTION OF MNEMONIC
#---------         -----------     ------------------------------
GL  .M        470.916              : gl           - GROUND LEVEL ELEVATION
EREF.M        474.269              : kb           - ELEVATION OF DEPTH REFERENCE
DATM.M        474.269              : datum        - DATUM ELEVATION
TDD .M        329.184              : tdd          - TOTAL DEPTH DRILLER
RUN .         ONE                  : Run          - RUN NUMBER
ENG .         BILL                 : Engineer     - RECORDING ENGINEER
WIT .         JIM                  : Witness      - WITNESSED BY
MUD .         GEL                  : Mud_type     - MUD TYPE
MATR.         SANDSTONE            : Logunit      - NEUTRON MATRIX
TMAX.C        60                   : BHT          - MAXIMUM RECORDED TEMPERATURE
BHTD.M        329.184              : BHTDEP       - MAXIMUM RECORDED TEMPERATURE
MATR.         1                    : LOGUNIT      - NEUTRON MATRIX
RMT .C        25                   : MDTP         - TEMPERATURE OF MUD
NEUT.         1                    : NEUTRON      - NEUTRON TYPE
RESI.         0                    : RESIST       - RESISTIVITY TYPE
RMC .OHMM     0.25                 : RMC          - RESISTIVITY OF MUD CAKE
RMF .OHMM     0.25                 : RMF          - RESISTIVITY OF MUD FILTRATE
SUFT.C        15                   : SUFT         - SURFACE TEMPERATURE
~A  DEPTH     DENS       GR     PHID     PHIN     RESD
# ...
  286.132 2229.300   43.529    0.281    0.384    1.539
  286.382 2258.360   55.265    0.264    0.423    1.779
  286.632 2289.690   60.257    0.246    0.430    1.950
  286.882 2267.640   58.620    0.259    0.444    1.976
  287.132 2200.860   49.516    0.298    0.444    1.889
  287.382 2182.310   37.808    0.309    0.422    1.657
  287.632 2176.470   30.081    0.312    0.408    1.509
  287.882 2163.470   27.759    0.320    0.399    1.411
  288.132 2163.140   29.193    0.320    0.384    1.405
  288.382 2199.990   32.050    0.298    0.373    1.468
  288.632 2240.170   37.136    0.275    0.374    1.590
  288.882 2236.320   41.980    0.277    0.412    1.764
  289.132 2257.110   44.961    0.265    0.387    1.860
  289.382 2297.020   36.972    0.242    0.361    1.893
  289.632 2305.280   29.224    0.237    0.345    1.839
  289.882 2254.260   30.336    0.267    0.342    1.784
  290.132 2229.330   32.454    0.281    0.350    1.728
  290.382 2193.210   37.213    0.302    0.383    1.720
  290.632 2186.330   44.088    0.306    0.397    1.753
  290.882 2219.620   51.143    0.287    0.409    1.806
  291.132 2258.750   53.912    0.264    0.509    1.856
  291.382 2180.950   45.203    0.309    0.453    1.820
  291.632 2193.230   33.205    0.302    0.402    1.764
  291.882 2205.870   28.147    0.295    0.379    1.706
  292.132 2175.320   26.169    0.313    0.366    1.657
  292.382 2223.410   27.366    0.285    0.351    1.621
  292.632 2269.880   26.352    0.260    0.340    1.661
  292.882 2247.420   27.955    0.238    0.351    1.820
  293.132 1383.400   30.158    0.269    0.365    1.954
  293.382   16.423   34.840    0.256    0.354    2.143
  293.632  -11.164   40.441    0.239    0.408    2.449
  293.882   -1.245   50.074    0.276    0.474    2.682
  294.132    0.018   59.437    0.306    0.575    3.076
  294.382    0.019   79.348    0.401    0.644    3.405
  294.632    0.002   87.401    0.450    0.663    3.521
  294.882   -0.000   93.761    0.372    0.610    3.568
  295.132   -0.000   95.275    0.244    0.574    3.570
  295.382   -0.000   99.861    0.199    0.552    3.479
  295.632    0.000  102.317    0.195    0.588    3.325
  295.882    0.000  103.726    0.208    0.579    3.130
  296.132    0.000  105.272    0.237    0.561    3.080
  296.382   -0.000  105.826    0.229    0.544    3.223
  296.632   -0.000  107.657    0.213    0.544    3.368
  296.882   -0.000  103.610    0.223    0.554    3.626
  297.132    0.000  101.326    0.244    0.526    3.847
  297.382    0.000   93.758    0.229    0.467    4.409
  297.632   -0.000   91.910    0.200    0.428    4.833
  297.882   -0.000   85.670    0.187    0.439    5.230
  298.132   -0.000   86.476    0.193    0.478    5.663
  298.382    0.000   84.729    0.235    0.449    5.724
  298.632    0.000   85.076    0.196    0.415    5.722
  298.882    0.000   87.775    0.146    0.391    5.721
  299.132   -0.000   86.286    0.156    0.380    5.663
  299.382   -0.000   82.985    0.148    0.375    5.291
  299.632   -0.000   78.717    0.157    0.367    5.209
  299.882    0.000   79.889    0.185    0.371    5.055
  300.132    0.000   82.322    0.159    0.381    4.899
  300.382   -0.000   82.385    0.143    0.397    4.843
  300.632   -0.000   78.318    0.156    0.399    4.835
  300.882   -0.000   76.806    0.159    0.392    4.962
  301.132    0.000   74.224    0.150    0.383    5.012
  301.382    0.000   71.623    0.157    0.391    5.245
  301.632    0.000   73.651    0.145    0.429    5.617
  301.882   -0.000   75.576    0.138    0.405    5.766
  302.132   -0.000   78.136    0.150    0.392    5.909
  302.382   -0.000   81.512    0.164    0.391    6.028
  302.632    0.000   84.614    0.168    0.405    6.017
  302.882    0.000   87.511    0.158    0.415    5.986
  303.132    0.000   88.502    0.155    0.406    5.799
  303.382   -0.000   87.725    0.159    0.400    5.644
  303.632   -0.000   83.360    0.153    0.403    5.218
  303.882    0.000   79.165    0.136    0.411    4.928
  304.132    0.000   75.180    0.164    0.425    4.456
  304.382    0.000   76.500    0.180    0.442    4.055
  304.632   -0.000   84.670    0.160    0.458    3.768
  304.882   -0.000   90.052    0.161    0.481    3.441
  305.132   -0.000   93.182    0.193    0.495    3.542
  305.382    0.000   98.941    0.175    0.502    3.834
  305.632    0.000  100.906    0.161    0.504    4.020
  305.882    0.000  101.884    0.154    0.505    4.322
  306.132   -0.000  103.083    0.180    0.505    4.446
  306.382   -0.000  107.288    0.180    0.507    4.534
  306.632    0.000  112.013    0.198    0.524    4.473
  306.882    0.000  116.634    0.199    0.510    4.254
  307.132    0.000  122.849    0.193    0.503    4.143
  307.382   -0.000  128.771    0.189    0.505    4.226
  307.632   -0.000  141.444    0.199    0.517    4.265
  307.882   -0.000  139.127    0.166    0.531    4.404
  308.132    0.000  136.064    0.149    0.543    4.466
  308.382    0.000  138.591    0.181    0.545    4.431
  308.632    0.000  140.898    0.202    0.518    4.286
  308.882   -0.000  141.125    0.191    0.506    4.146
  309.132   -0.000  136.921    0.234    0.562    4.040
  309.382   -0.000  128.810    0.251    0.579    3.922
  309.632    0.000  121.992    0.276    0.599    3.916
  309.882    0.000  114.856    0.291    0.595    4.007
  310.132   -0.000  113.434    0.270    0.529    4.289
  310.382   -0.000  118.411    0.196    0.506    4.534
  310.632   -0.000  119.268    0.176    0.493    5.216
  310.882    0.000  112.825    0.149    0.419    5.692
  311.132    0.000  106.197    0.129    0.367    6.245
  311.382    0.000   94.588    0.122    0.337    6.867
  311.632   -0.000   96.471    0.131    0.323    7.175
  311.882   -0.000   99.164    0.139    0.320    7.139
  312.132   -0.000   92.075    0.153    0.344    6.629
  312.382    0.000   75.174    0.130    0.380    5.915
  312.632    0.000   53.034    0.159    0.414    4.915
  312.882   -0.000   46.156    0.144    0.400    4.133
  313.132   -0.000   43.193    0.238    0.372    3.671
  313.382   -0.000   38.174    0.256    0.357    3.377
  313.632    0.000   41.110    0.241    0.341    3.196
  313.882    0.000   46.243    0.220    0.336    3.254
  314.132    0.000   57.856    0.202    0.342    3.477
  314.382   -0.000   60.447    0.206    0.394    3.880
  314.632   -0.000   59.049    0.195    0.436    4.232
  314.882   -0.000   59.057    0.116    0.394    5.197
  315.132    0.000   50.139    0.077    0.223    6.176
  315.382    0.000   37.858    0.016    0.203    7.770
  315.632    0.000   23.557    0.047    0.182   10.388
  315.882   -0.000   19.357    0.020    0.161   14.562
  316.132   -0.000   18.770    0.016    0.144   19.771
  316.382    0.000   17.685    0.002    0.143   25.651
  316.632    0.000   17.719    0.005    0.147   26.682
  316.882    0.000   17.837   -0.001    0.150   28.326
  317.132   -0.000   18.340    0.008    0.153   29.141
  317.382   -0.000   18.395    0.043    0.155   29.802
  317.632   -0.000   17.649    0.029    0.156   29.813
  317.882    0.000   16.708    0.034    0.153   30.276
  318.132    0.000   15.890    0.051    0.146   31.348
  318.382    0.000   16.629    0.017    0.141   32.602
  318.632   -0.000   17.103    0.005    0.138   34.014
  318.882   -0.000   17.612    0.000    0.139   36.006
  319.132   -0.000   19.063    0.000    0.142   36.321
  319.382    0.000   20.938    0.004    0.148   35.945
  319.632    0.000   24.479   -0.001    0.153   34.976
  319.882   -0.000   26.816    0.017    0.158   34.409
