~VERSION INFORMATION
 VERS.                 2.0:   CWLS LOG ASCII STANDARD -VERSION 2.0
 WRAP.                  NO:   ONE LINE PER DEPTH STEP
~WELL INFORMATION BLOCK
#MNEM.UNIT           DATA                    DESCRIPTION OF MNEMONIC
#---------    -------------------            -------------------------------
# Generated from Intellog Unique Number	CW_79_81/WELL/2489
WELL.         13-26-080-22W4                 : Well_name    - WELL
LOC .         00/13-26-080-22W4/0            : Location     - LOCATION
UWI .         00/13-26-080-22W4/0            : Uwi          - UNIQUE WELL ID
ENTR.         MAX                            : Entered      - ENTERED BY
SRVC.         SCHLUMBERGER                   : Scn          - SERVICE COMPANY
STRT.M        185                            : top_depth    - START DEPTH
STOP.M        440                            : bot_depth    - STOP DEPTH
STEP.M        0.25                           : increment    - STEP LENGTH
 NULL. -999.2500:NULL Value
~CURVE INFORMATION BLOCK
#MNEM UNIT       ERCB CURVE CODE    CURVE DESCRIPTION
#-----------   ------------------   ----------------------------------
DEPT.M        00 001 00 00         : DEPTH        - DEPTH
ILD .OHMM     00 120 00 00         : RESD         - DEEP RESISTIVITY (DIL)
NPHI.V/V      00 330 00 00         : PHIN         - NEUTRON POROSITY (SANDSTONE)
DPHI.V/V      00 890 00 00         : PHID         - DENSITY POROSITY (SANDSTONE)
GR  .API      00 310 00 00         : GR           - GAMMA RAY
CALI.MM       00 280 01 00         : CAL          - CALIPER
~PARAMETER INFORMATION
#MNEM.UNIT           DATA             DESCRIPTION OF MNEMONIC
#---------         -----------     ------------------------------
GL  .M        595.95               : gl           - GROUND LEVEL ELEVATION
EREF.M        600.6                : kb           - ELEVATION OF DEPTH REFERENCE
DATM.M        595.95               : datum        - DATUM ELEVATION
TDD .M        449                  : tdd          - TOTAL DEPTH DRILLER
RUN .         ONE                  : Run          - RUN NUMBER
ENG .         BILL                 : Engineer     - RECORDING ENGINEER
WIT .         JIM                  : Witness      - WITNESSED BY
MUD .         GEL                  : Mud_type     - MUD TYPE
MATR.         SANDSTONE            : Logunit      - NEUTRON MATRIX
TMAX.C        36                   : BHT          - MAXIMUM RECORDED TEMPERATURE
BHTD.M        449                  : BHTDEP       - MAXIMUM RECORDED TEMPERATURE
MATR.         1                    : LOGUNIT      - NEUTRON MATRIX
RMT .C        17                   : MDTP         - TEMPERATURE OF MUD
NEUT.         1                    : NEUTRON      - NEUTRON TYPE
RESI.         0                    : RESIST       - RESISTIVITY TYPE
RMC .OHMM     4.46                 : RMC          - RESISTIVITY OF MUD CAKE
RMF .OHMM     4.55                 : RMF          - RESISTIVITY OF MUD FILTRATE
SUFT.C        -20                  : SUFT         - SURFACE TEMPERATURE
~A  DEPTH     RESD     PHIN     PHID       GR      CAL
# ...
  221.500    2.746    0.562    0.273   95.789  225.258
  221.750    2.813    0.534    0.266   93.606  225.185
  222.000    3.028    0.504    0.263   90.773  225.115
  222.250    3.513    0.488    0.256   82.686  225.032
  222.500    3.945    0.473    0.234   76.943  224.967
  222.750    4.622    0.413    0.183   71.428  224.897
  223.000    5.344    0.412    0.218   66.807  225.135
  223.250    6.524    0.425    0.274   61.411  226.857
  223.500    8.453    0.439    0.320   55.243  228.966
  223.750   10.218    0.476    0.362   49.065  227.505
  224.000   12.828    0.480    0.360   44.556  224.548
  224.250   17.504    0.450    0.349   45.708  220.916
  224.500   23.081    0.428    0.345   47.570  219.064
  224.750   29.079    0.424    0.345   48.599  218.201
  225.000   34.921    0.437    0.345   49.092  217.931
  225.250   40.782    0.458    0.347   51.433  218.404
  225.500   43.694    0.469    0.351   52.637  219.172
  225.750   48.350    0.476    0.351   52.115  221.085
  226.000   52.977    0.477    0.341   52.492  221.506
  226.250   57.639    0.469    0.336   52.091  221.043
  226.500   62.384    0.462    0.342   50.794  220.289
  226.750   68.051    0.478    0.350   49.986  220.056
  227.000   72.903    0.484    0.339   49.699  221.223
  227.250   77.799    0.463    0.317   49.181  220.360
  227.500   81.275    0.453    0.299   47.771  218.897
  227.750   83.947    0.458    0.301   46.180  218.632
  228.000   86.219    0.468    0.326   44.947  219.759
  228.250   88.034    0.456    0.359   44.425  220.855
  228.500   87.949    0.447    0.363   44.386  220.804
  228.750   87.848    0.454    0.361   46.970  219.544
  229.000   87.259    0.457    0.351   48.655  219.475
  229.250   86.514    0.441    0.311   48.016  219.607
  229.500   85.457    0.412    0.257   46.663  219.243
  229.750   82.819    0.406    0.260   49.432  217.879
  230.000   79.591    0.450    0.340   50.375  217.393
  230.250   76.030    0.451    0.347   50.337  217.727
  230.500   73.045    0.447    0.355   50.475  216.866
  230.750   70.310    0.449    0.361   50.911  215.808
  231.000   67.025    0.459    0.363   52.122  215.744
  231.250   60.152    0.476    0.358   55.874  218.700
  231.500   51.613    0.481    0.347   60.543  221.931
  231.750   37.041    0.467    0.312   59.550  223.455
  232.000   25.369    0.447    0.280   54.987  220.204
  232.250   16.010    0.422    0.289   51.255  217.160
  232.500   11.469    0.408    0.331   50.082  216.307
  232.750   11.303    0.438    0.352   50.764  216.867
  233.000   12.300    0.474    0.351   51.959  218.034
  233.250   14.209    0.467    0.345   53.583  218.764
  233.500   15.433    0.459    0.338   55.745  219.489
  233.750   15.594    0.455    0.330   58.080  219.225
  234.000   14.833    0.455    0.323   59.459  217.969
  234.250   13.380    0.461    0.321   57.786  216.608
  234.500   12.101    0.472    0.324   56.764  216.137
  234.750   11.130    0.461    0.306   63.855  216.456
  235.000   10.125    0.445    0.284   73.458  217.074
  235.250    8.668    0.432    0.263   81.868  217.804
  235.500    7.394    0.426    0.250   84.920  219.037
  235.750    6.952    0.432    0.259   76.927  221.723
  236.000    6.891    0.442    0.288   71.670  221.657
  236.250    7.247    0.458    0.300   69.971  220.787
  236.500    7.915    0.454    0.316   67.909  219.636
  236.750    8.711    0.440    0.321   67.393  218.582
  237.000    9.348    0.427    0.310   69.197  217.915
  237.250    9.444    0.432    0.294   73.199  217.825
  237.500    9.290    0.443    0.288   74.403  217.760
  237.750    8.742    0.451    0.283   74.357  218.086
  238.000    8.228    0.465    0.277   73.957  218.116
  238.250    7.805    0.463    0.268   76.536  218.439
  238.500    7.413    0.443    0.255   83.580  219.456
  238.750    6.785    0.437    0.237   95.659  221.695
  239.000    6.137    0.474    0.238  100.328  223.289
  239.250    5.191    0.475    0.236  100.044  222.816
  239.500    4.638    0.518    0.238   94.414  221.758
  239.750    4.405    0.550    0.252   83.784  220.899
  240.000    4.470    0.550    0.276   71.010  220.730
  240.250    5.168    0.525    0.306   60.946  221.688
  240.500    7.266    0.492    0.307   58.419  222.861
  240.750    8.456    0.453    0.303   60.047  222.798
  241.000    9.804    0.425    0.290   62.207  223.320
  241.250   11.209    0.415    0.279   60.381  224.245
  241.500   12.247    0.424    0.281   54.925  225.276
  241.750   12.304    0.442    0.312   51.511  225.818
  242.000   13.179    0.431    0.339   53.707  224.912
  242.250   14.167    0.421    0.331   58.185  222.073
  242.500   14.991    0.436    0.324   61.412  220.127
  242.750   15.318    0.448    0.323   64.106  219.257
  243.000   14.867    0.445    0.320   66.865  219.175
  243.250   12.908    0.435    0.291   71.245  219.023
  243.500   10.284    0.436    0.279   76.658  218.545
  243.750    9.109    0.432    0.271   87.089  219.275
  244.000    6.708    0.429    0.264   93.053  221.179
  244.250    5.555    0.443    0.260   94.084  223.489
  244.500    5.234    0.468    0.253   92.977  226.304
  244.750    5.166    0.477    0.236   95.479  231.244
  245.000    5.241    0.453    0.226   93.949  234.483
  245.250    5.553    0.438    0.240   92.951  234.414
  245.500    6.333    0.422    0.248   91.070  230.780
  245.750    7.226    0.418    0.252   86.988  225.952
  246.000    7.814    0.419    0.254   80.224  221.616
  246.250    8.156    0.397    0.252   70.980  218.432
  246.500    9.159    0.374    0.247   70.197  216.707
  246.750   10.506    0.387    0.267   68.014  215.455
  247.000   11.944    0.403    0.285   65.649  216.273
  247.250   13.167    0.412    0.292   66.799  216.997
  247.500   13.786    0.414    0.287   71.342  217.030
  247.750   13.189    0.423    0.274   75.036  217.255
  248.000   11.574    0.427    0.276   73.509  216.784
  248.250   10.406    0.405    0.273   76.327  216.714
  248.500    9.806    0.401    0.261   81.821  218.136
  248.750    9.081    0.421    0.246   89.277  219.653
  249.000    7.956    0.466    0.229   96.021  220.373
  249.250    6.133    0.527    0.205   98.096  219.568
  249.500    4.678    0.509    0.191  101.522  217.843
  249.750    4.079    0.498    0.214  106.481  217.773
  250.000    3.928    0.485    0.213  108.760  218.304
  250.250    4.039    0.479    0.197  106.694  219.229
  250.500    4.290    0.478    0.167  102.484  220.747
  250.750    4.467    0.471    0.128  103.185  223.609
  251.000    4.394    0.481    0.169  108.111  224.355
  251.250    4.165    0.509    0.217  109.021  223.103
  251.500    3.882    0.529    0.242  104.399  222.440
  251.750    3.657    0.523    0.262   96.149  222.370
  252.000    3.535    0.489    0.277   88.791  222.797
  252.250    3.652    0.431    0.266   89.751  223.680
  252.500    4.404    0.405    0.254   91.195  224.440
  252.750    6.550    0.420    0.243   87.822  226.729
  253.000    7.786    0.423    0.235   88.199  228.444
  253.250    7.777    0.424    0.235   87.922  228.983
  253.500    7.449    0.431    0.248   83.298  228.034
  253.750    7.607    0.462    0.286   69.563  224.491
  254.000    8.212    0.468    0.312   60.597  219.056
  254.250    9.420    0.454    0.333   52.704  216.211
  254.500   11.891    0.452    0.347   49.985  214.847
  254.750   16.565    0.455    0.352   49.822  214.380
  255.000   24.697    0.458    0.352   50.254  214.314
  255.250   33.104    0.455    0.356   49.821  214.140
  255.500   36.599    0.448    0.361   49.034  213.654
  255.750   40.499    0.451    0.363   48.750  213.584
  256.000   44.139    0.456    0.362   49.192  213.520
  256.250   47.837    0.456    0.358   50.227  213.457
  256.500   51.867    0.453    0.355   51.909  213.492
  256.750   57.324    0.454    0.356   54.275  213.888
  257.000   63.361    0.454    0.359   53.244  214.235
  257.250   68.616    0.443    0.354   52.492  214.555
  257.500   75.529    0.448    0.351   54.414  215.480
  257.750   89.015    0.456    0.350   56.754  217.202
