~VERSION INFORMATION
 VERS.                 2.0:   CWLS LOG ASCII STANDARD -VERSION 2.0
 WRAP.                  NO:   ONE LINE PER DEPTH STEP
~WELL INFORMATION BLOCK
#MNEM.UNIT           DATA                    DESCRIPTION OF MNEMONIC
#---------    -------------------            -------------------------------
# Generated from Intellog Unique Number	CW_82_90/WELL/913
WELL.         PARAMOUNT ET AL GRANOR 10-25   : Well_name    - WELL
LOC .         00/10-25-083-19W4/0            : Location     - LOCATION
UWI .         00/10-25-083-19W400            : Uwi          - UNIQUE WELL ID
ENTR.         JAYE                           : Entered      - ENTERED BY
SRVC.         COMPUTALOG                     : Scn          - SERVICE COMPANY
DATE.         4 MAR 77                       : Date         - LOG DATE
STRT.M        183.185                        : top_depth    - START DEPTH
STOP.M        336.685                        : bot_depth    - STOP DEPTH
STEP.M        0.25                           : increment    - STEP LENGTH
 NULL. -999.2500:NULL Value
~CURVE INFORMATION BLOCK
#MNEM UNIT       ERCB CURVE CODE    CURVE DESCRIPTION
#-----------   ------------------   ----------------------------------
DEPT.M        00 001 00 00         : DEPTH        - DEPTH
ILD .OHMM     00 120 00 00         : RESD         - DEEP RESISTIVITY (DIL)
CALI.MM       00 280 01 00         : CAL          - CALIPER
GR  .API      00 310 00 00         : GR           - GAMMA RAY
NPHI.V/V      00 330 00 00         : PHIN         - NEUTRON POROSITY (SANDSTONE)
DPHI.V/V      00 890 00 00         : PHID         - DENSITY POROSITY (SANDSTONE)
~PARAMETER INFORMATION
#MNEM.UNIT           DATA             DESCRIPTION OF MNEMONIC
#---------         -----------     ------------------------------
GL  .M        570.89               : gl           - GROUND LEVEL ELEVATION
EREF.M        573.938              : kb           - ELEVATION OF DEPTH REFERENCE
DATM.M        570.89               : datum        - DATUM ELEVATION
TDD .M        336.499              : tdd          - TOTAL DEPTH DRILLER
RUN .         ONE                  : Run          - RUN NUMBER
ENG .         KING/HALL            : Engineer     - RECORDING ENGINEER
WIT .         CONNELLY             : Witness      - WITNESSED BY
BASE.         MEDICINE HAT         : Branch       - HOME BASE OF LOGGING UNIT
MUD .         GEL CHEM             : Mud_type     - MUD TYPE
MATR.         SANDSTONE            : Logunit      - NEUTRON MATRIX
TMAX.C        0                    : BHT          - MAXIMUM RECORDED TEMPERATURE
BHTD.M        62                   : BHTDEP       - MAXIMUM RECORDED TEMPERATURE
RMT .C        1104                 : MDTP         - TEMPERATURE OF MUD
MUDD.KG/M     58                   : MWT          - MUD DENSITY
NEUT.         9.1                  : NEUTRON      - NEUTRON TYPE
RM  .OHMM     1                    : RM           - RESISTIVITY OF MUD
RMC .OHMM     4.1                  : RMC          - RESISTIVITY OF MUD CAKE
RMF .OHMM     0                    : RMF          - RESISTIVITY OF MUD FILTRATE
SUFT.C        3.5                  : SUFT         - SURFACE TEMPERATURE
SUFT.C        0                    : SUFT         - SURFACE TEMPERATURE
~A  DEPTH     RESD      CAL       GR     PHIN     PHID
  183.185   16.959  157.390   33.294    0.481    0.395
  183.435   17.435  156.141   35.279    0.489    0.398
  183.685   18.015  173.754   36.708    0.504    0.373
  183.935   18.522  223.119   33.804    0.493    0.377
  184.185   18.917  234.654   31.335    0.503    0.373
  184.435   19.279  239.484   34.125    0.491    0.351
  184.685   19.536  238.236   34.749    0.499    0.349
  184.935   19.252  238.665   34.073    0.509    0.349
  185.185   18.614  239.930   34.637    0.503    0.355
  185.435   18.387  240.044   36.251    0.483    0.367
  185.685   18.119  233.451   38.917    0.472    0.377
  185.935   18.013  183.267   41.459    0.451    0.382
  186.185   17.939  166.824   43.259    0.427    0.352
  186.435   17.825  155.096   41.408    0.398    0.340
  186.685   17.735  153.534   38.505    0.390    0.333
  186.935   17.540  153.754   36.963    0.409    0.345
  187.185   17.281  154.706   37.648    0.406    0.339
  187.435   17.054  155.238   37.654    0.411    0.339
  187.685   16.786  155.456   38.093    0.416    0.343
  187.935   16.575  155.991   42.925    0.399    0.347
  188.185   16.356  156.107   45.406    0.384    0.346
  188.435   16.113  156.009   46.401    0.385    0.339
  188.685   15.708  155.912   47.829    0.405    0.330
  188.935   15.255  155.922   47.897    0.408    0.323
  189.185   14.592  156.037   47.222    0.392    0.320
  189.435   14.147  156.043   49.022    0.401    0.314
  189.685   13.605  155.950   48.284    0.413    0.287
  189.935   13.055  155.120   46.123    0.418    0.232
  190.185   12.674  153.872   45.015    0.427    0.185
  190.435   12.213  152.832   48.919    0.436    0.214
  190.685   11.639  150.011   54.185    0.457    0.287
  190.935   10.556  149.496   52.642    0.455    0.284
  191.185    8.965  151.182   51.659    0.447    0.280
  191.435    8.060  153.915   53.458    0.421    0.271
  191.685    7.049  158.117   56.124    0.404    0.251
  191.935    5.434  160.116   61.452    0.433    0.251
  192.185    4.359  161.697   68.202    0.455    0.256
  192.435    4.310  163.278   63.876    0.494    0.255
  192.685    4.591  164.020   65.119    0.493    0.260
  192.935    5.082  162.667   65.990    0.460    0.273
  193.185    5.396  159.533   65.005    0.443    0.303
  193.435    5.484  154.931   65.320    0.434    0.303
  193.685    5.466  153.996   66.749    0.431    0.293
  193.935    5.578  155.158   65.454    0.456    0.278
  194.185    5.682  155.482   62.923    0.463    0.272
  194.435    5.972  155.071   61.010    0.454    0.283
  194.685    6.407  154.032   58.044    0.437    0.292
  194.935    7.600  153.728   51.738    0.425    0.302
  195.185   10.352  153.526   51.743    0.418    0.306
  195.435   12.070  153.327   52.182    0.417    0.303
  195.685   12.497  154.385   51.197    0.415    0.302
  195.935   12.624  154.707   50.893    0.412    0.302
  196.185   12.664  155.239   51.517    0.413    0.300
  196.435   12.743  155.877   51.770    0.383    0.305
  196.685   12.767  156.620   51.775    0.398    0.306
  196.935   12.765  157.468   53.575    0.397    0.301
  197.185   12.458  156.323   53.581    0.374    0.294
  197.435   12.037  155.389   52.781    0.372    0.291
  197.685   12.003  155.503   48.888    0.370    0.292
  197.935   12.148  155.826   43.014    0.363    0.296
  198.185   12.389  156.150   37.141    0.353    0.302
  198.435   12.646  155.635   37.395    0.354    0.310
  198.685   12.766  154.806   38.699    0.391    0.331
  198.935   12.934  154.501   40.993    0.403    0.342
  199.185   13.102  154.614   41.741    0.399    0.338
  199.435   13.271  154.730   43.046    0.393    0.334
  199.685   13.407  154.213   46.332    0.384    0.336
  199.935   13.527  154.013   46.956    0.373    0.338
  200.185   13.598  153.708   47.023    0.361    0.340
  200.435   13.646  153.718   48.328    0.345    0.337
  200.685   13.645  153.515   48.581    0.353    0.335
  200.935   13.700  153.839   45.182    0.351    0.333
  201.185   13.642  154.268   41.722    0.343    0.332
  201.435   13.464  154.276   39.747    0.387    0.329
  201.685   13.317  153.867   39.506    0.387    0.326
  201.935   12.977  153.770   42.481    0.393    0.326
  202.185   12.766  154.095   45.828    0.407    0.326
  202.435   12.483  153.790   44.472    0.411    0.326
  202.685   12.296  153.483   44.972    0.399    0.325
  202.935   12.294  153.810   41.760    0.398    0.326
  203.185   12.495  153.817   43.746    0.378    0.329
  203.435   12.801  153.720   45.730    0.360    0.333
  203.685   12.969  153.939   44.870    0.337    0.333
  203.935   13.025  154.262   36.830    0.315    0.332
  204.185   13.072  155.005   33.618    0.334    0.336
  204.435   12.990  155.539   37.522    0.355    0.336
  204.685   12.674  155.442   37.589    0.384    0.335
  204.935   12.560  155.555   36.047    0.406    0.333
  205.185   12.664  155.356   36.983    0.408    0.332
  205.435   12.937  155.364   37.296    0.405    0.329
  205.685   13.154  155.163   38.538    0.384    0.325
  205.935   13.274  155.175   44.052    0.371    0.302
  206.185   13.346  155.184   46.286    0.397    0.209
  206.435   13.353  155.191   40.844    0.387    0.182
  206.685   13.295  154.780   40.912    0.370    0.187
  206.935   13.036  154.791   41.597    0.415    0.282
  207.185   12.784  155.218   42.718    0.431    0.337
  207.435   12.719  155.436   41.423    0.404    0.339
  207.685   12.847  155.236   40.005    0.395    0.341
  207.935   13.055  155.245   36.916    0.402    0.345
  208.185   13.579  155.569   37.478    0.417    0.346
  208.435   14.991  155.997   37.607    0.423    0.346
  208.685   16.313  156.424   37.984    0.398    0.344
  208.935   16.457  156.433   38.360    0.390    0.338
  209.185   16.069  156.443   38.860    0.391    0.335
  209.435   15.535  156.766   40.352    0.396    0.335
  209.685   14.355  157.509   37.881    0.398    0.327
  209.935   13.539  158.356   37.330    0.399    0.319
  210.185   13.053  159.098   37.645    0.389    0.313
  210.435   13.133  159.422   36.227    0.380    0.303
  210.685   13.681  159.431   36.046    0.366    0.288
  210.935   14.543  159.020   36.485    0.343    0.254
  211.185   15.358  157.877   36.676    0.298    0.162
  211.435   15.510  155.685   33.092    0.225    0.069
  211.685   15.396  154.230   29.817    0.141    0.080
  211.935   14.741  154.132   30.627    0.191    0.210
  212.185   13.997  154.246   31.375    0.326    0.296
  212.435   13.294  155.093   31.875    0.393    0.331
  212.685   12.179  155.836   31.386    0.391    0.332
  212.935   11.927  155.008   32.010    0.393    0.330
  213.185   11.894  154.177   32.943    0.390    0.330
  213.435   11.925  152.195   32.144    0.382    0.331
  213.685   11.940  149.794   31.036    0.382    0.329
  213.935   11.931  149.909   29.866    0.416    0.335
  214.185   11.889  149.393   29.066    0.402    0.340
  214.435   11.832  148.251   28.205    0.389    0.334
  214.685   11.822  148.049   29.758    0.379    0.330
  214.935   11.773  148.897   30.072    0.378    0.324
  215.185   11.715  150.267   32.862    0.382    0.322
  215.435   11.642  151.953   36.271    0.426    0.324
  215.685   11.608  153.325   36.276    0.403    0.328
  215.935   11.526  153.650   36.096    0.395    0.332
  216.185   11.444  154.077   37.340    0.388    0.335
  216.435   11.379  153.980   40.687    0.390    0.337
  216.685   11.313  153.675   42.487    0.402    0.334
  216.935   11.256  153.579   42.059    0.391    0.333
  217.185   11.254  153.066   40.392    0.404    0.333
  217.435   11.253  153.076   39.842    0.428    0.331
  217.685   11.211  152.978   41.579    0.420    0.325
  217.935   11.178  152.882   38.552    0.397    0.320
  218.185   11.121  152.368   38.126    0.374    0.320
  218.435   11.031  152.271   39.863    0.384    0.327
  218.685   10.941  151.651   42.095    0.392    0.319
  218.935   10.916  151.765   44.144    0.385    0.313
  219.185   10.826  152.089   45.449    0.382    0.312
  219.435   10.752  152.516   47.558    0.392    0.316
