~VERSION INFORMATION
 VERS.                 2.0:   CWLS LOG ASCII STANDARD -VERSION 2.0
 WRAP.                  NO:   ONE LINE PER DEPTH STEP
~WELL INFORMATION BLOCK
#MNEM.UNIT           DATA                    DESCRIPTION OF MNEMONIC
#---------    -------------------            -------------------------------
# Generated from Intellog Unique Number	CW_76_78/WELL/901
WELL.         PCP MARTEN HILLS 10-22         : Well_name    - WELL
LOC .         00/10-22-076-04W5/0            : Location     - LOCATION
UWI .         00/10-22-076-04W5/0            : Uwi          - UNIQUE WELL ID
ENTR.         JAYE                           : Entered      - ENTERED BY
SRVC.         SCHLUMBERGER                   : Scn          - SERVICE COMPANY
DATE.         24 MAR 74                      : Date         - LOG DATE
STRT.M        524.256                        : top_depth    - START DEPTH
STOP.M        777.256                        : bot_depth    - STOP DEPTH
STEP.M        0.25                           : increment    - STEP LENGTH
 NULL. -999.2500:NULL Value
~CURVE INFORMATION BLOCK
#MNEM UNIT       ERCB CURVE CODE    CURVE DESCRIPTION
#-----------   ------------------   ----------------------------------
DEPT.M        00 001 00 00         : DEPTH        - DEPTH
ILD .OHMM     00 120 00 00         : RESD         - DEEP RESISTIVITY (DIL)
NPHI.V/V      00 330 00 00         : PHIN         - NEUTRON POROSITY (SANDSTONE)
DPHI.V/V      00 890 00 00         : PHID         - DENSITY POROSITY (SANDSTONE)
GR  .API      00 310 00 00         : GR           - GAMMA RAY
CALI.MM       00 280 01 00         : CAL          - CALIPER
~PARAMETER INFORMATION
#MNEM.UNIT           DATA             DESCRIPTION OF MNEMONIC
#---------         -----------     ------------------------------
GL  .M        833.476              : gl           - GROUND LEVEL ELEVATION
EREF.M        837.133              : kb           - ELEVATION OF DEPTH REFERENCE
DATM.M        833.476              : datum        - DATUM ELEVATION
TDD .M        790.346              : tdd          - TOTAL DEPTH DRILLER
RUN .         ONE                  : Run          - RUN NUMBER
ENG .         WILLIGER             : Engineer     - RECORDING ENGINEER
WIT .         BOND                 : Witness      - WITNESSED BY
BASE.         RD                   : Branch       - HOME BASE OF LOGGING UNIT
MUD .         CHEM GEL             : Mud_type     - MUD TYPE
MATR.         SANDSTONE            : Logunit      - NEUTRON MATRIX
TMAX.C        27.7778              : BHT          - MAXIMUM RECORDED TEMPERATURE
BHTD.M        790.651              : BHTDEP       - MAXIMUM RECORDED TEMPERATURE
RMT .C        9.44444              : MDTP         - TEMPERATURE OF MUD
MUDD.KG/M     1164                 : MWT          - MUD DENSITY
NEUT.         1                    : NEUTRON      - NEUTRON TYPE
RESI.         0                    : RESIST       - RESISTIVITY TYPE
RM  .OHMM     4.84                 : RM           - RESISTIVITY OF MUD
RMC .OHMM     0                    : RMC          - RESISTIVITY OF MUD CAKE
RMF .OHMM     5.54                 : RMF          - RESISTIVITY OF MUD FILTRATE
SUFT.C        -17.7778             : SUFT         - SURFACE TEMPERATURE
~A  DEPTH     RESD     PHIN     PHID       GR      CAL
  524.256    2.764    0.439    0.214   97.037  210.912
  524.506    2.784    0.455    0.211   97.106  210.204
  524.756    2.804    0.453    0.208   96.628  208.266
  525.006    2.835    0.445    0.200   96.029  207.353
  525.256    2.834    0.456    0.208   95.917  206.025
  525.506    2.834    0.482    0.206   93.248  204.391
  525.756    2.833    0.475    0.195   91.918  203.071
  526.006    2.859    0.457    0.185   93.451  202.259
  526.256    2.895    0.448    0.175   94.068  201.867
  526.506    2.916    0.448    0.174   94.746  201.881
  526.756    2.932    0.429    0.179   94.999  202.307
  527.006    2.986    0.438    0.171   94.765  202.322
  527.256    3.069    0.427    0.180   92.035  203.577
  527.506    3.214    0.399    0.177   90.096  204.519
  527.756    3.447    0.404    0.192   92.175  203.921
  528.006    3.684    0.385    0.210   91.272  202.595
  528.256    3.759    0.383    0.212   81.055  200.549
  528.506    3.549    0.408    0.215   74.428  198.501
  528.756    3.140    0.410    0.219   68.106  197.486
  529.006    2.810    0.378    0.222   62.576  196.987
  529.256    2.634    0.392    0.209   63.621  197.416
  529.506    2.477    0.404    0.214   61.194  198.049
  529.756    2.383    0.379    0.211   54.386  198.581
  530.006    2.445    0.334    0.212   48.125  198.905
  530.256    2.541    0.317    0.218   42.960  199.027
  530.506    2.588    0.317    0.230   50.214  199.144
  530.756    2.568    0.343    0.226   56.554  199.574
  531.006    2.544    0.425    0.220   62.712  199.794
  531.256    2.506    0.422    0.222   67.834  199.811
  531.506    2.460    0.410    0.232   71.071  199.725
  531.756    2.437    0.401    0.227   71.324  199.532
  532.006    2.441    0.397    0.214   69.141  199.135
  532.256    2.500    0.393    0.231   65.072  197.917
  532.506    2.546    0.389    0.245   61.125  196.178
  532.756    2.540    0.381    0.244   57.359  194.854
  533.006    2.507    0.375    0.250   54.569  193.944
  533.256    2.456    0.364    0.259   52.630  193.029
  533.506    2.411    0.355    0.261   50.569  192.530
  533.756    2.353    0.346    0.262   50.701  192.443
  534.006    2.322    0.340    0.265   50.893  191.843
  534.256    2.292    0.338    0.273   50.355  191.859
  534.506    2.262    0.339    0.268   49.634  191.875
  534.756    2.237    0.352    0.264   49.887  191.888
  535.006    2.216    0.360    0.265   50.321  192.319
  535.256    2.179    0.363    0.269   49.478  192.334
  535.506    2.162    0.367    0.270   46.383  192.660
  535.756    2.166    0.373    0.268   49.132  192.673
  536.006    2.161    0.379    0.261   51.942  192.689
  536.256    2.161    0.381    0.274   53.534  192.706
  536.506    2.157    0.386    0.259   55.369  193.341
  536.756    2.184    0.392    0.248   57.997  195.725
  537.006    2.221    0.406    0.232   61.294  199.453
  537.256    2.321    0.441    0.216   65.686  205.963
  537.506    2.439    0.435    0.223   67.400  210.104
  537.756    2.484    0.423    0.225   65.582  210.530
  538.006    2.507    0.415    0.216   67.723  210.856
  538.256    2.465    0.449    0.192   71.750  211.593
  538.506    2.402    0.480    0.201   74.316  213.466
  538.756    2.305    0.475    0.190   75.056  214.511
  539.006    2.229    0.465    0.221   75.553  215.454
  539.256    2.136    0.459    0.224   74.040  216.502
  539.506    2.058    0.457    0.231   72.040  216.313
  539.756    1.991    0.500    0.240   74.668  214.987
  540.006    1.929    0.508    0.221   77.782  213.251
  540.256    1.900    0.519    0.234   79.617  211.515
  540.506    1.861    0.519    0.238   82.426  209.880
  540.756    1.817    0.523    0.238   84.871  207.526
  541.006    1.754    0.537    0.239   85.793  205.274
  541.256    1.693    0.539    0.239   85.196  203.435
  541.506    1.637    0.563    0.237   83.864  202.626
  541.756    1.577    0.563    0.227   83.266  202.026
  542.006    1.514    0.577    0.238   84.674  201.628
  542.256    1.464    0.576    0.231   86.388  201.437
  542.506    1.421    0.592    0.236   88.224  201.245
  542.756    1.387    0.597    0.244   88.539  201.159
  543.006    1.380    0.588    0.245   88.791  200.868
  543.256    1.389    0.568    0.241   87.948  201.192
  543.506    1.426    0.572    0.244   89.114  201.517
  543.756    1.457    0.579    0.234   88.879  202.459
  544.006    1.501    0.573    0.246   86.941  204.845
  544.256    1.537    0.573    0.262   86.524  209.810
  544.506    1.583    0.562    0.260   85.559  213.434
  544.756    1.615    0.543    0.261   85.143  205.718
  545.006    1.648    0.527    0.254   84.117  202.436
  545.256    1.669    0.574    0.249   81.266  205.339
  545.506    1.700    0.584    0.257   80.118  207.931
  545.756    1.731    0.591    0.234   81.467  210.524
  546.006    1.773    0.595    0.236   85.007  211.467
  546.256    1.792    0.595    0.237   86.356  210.659
  546.506    1.819    0.594    0.234   86.182  208.407
  546.756    1.852    0.586    0.227   86.070  206.155
  547.006    1.872    0.577    0.232   87.114  203.697
  547.256    1.893    0.562    0.222   87.733  201.858
  547.506    1.921    0.546    0.213   86.646  200.841
  547.756    1.956    0.550    0.203   86.472  200.144
  548.006    1.992    0.544    0.192   88.856  201.801
  548.256    2.025    0.535    0.189   89.292  203.466
  548.506    2.055    0.546    0.196   85.588  204.616
  548.756    2.074    0.529    0.190   84.684  205.664
  549.006    2.093    0.534    0.204   88.772  206.093
  549.256    2.108    0.543    0.221   90.790  206.107
  549.506    2.139    0.539    0.226   90.191  205.713
  549.756    2.190    0.527    0.215   88.740  205.418
  550.006    2.239    0.510    0.205   87.897  205.021
  550.256    2.289    0.487    0.202   86.750  207.303
  550.506    2.375    0.467    0.197   85.177  207.216
  550.756    2.450    0.458    0.193   83.359  203.625
  551.006    2.584    0.479    0.192   80.325  203.125
  551.256    2.691    0.446    0.201   78.874  204.379
  551.506    2.908    0.418    0.204   77.177  204.395
  551.756    3.278    0.383    0.185   72.683  203.894
  552.006    3.655    0.363    0.206   67.213  203.704
  552.256    3.877    0.351    0.213   62.717  202.592
  552.506    4.083    0.342    0.216   58.648  201.991
  552.756    4.355    0.331    0.201   60.544  201.594
  553.006    4.493    0.341    0.186   65.790  201.194
  553.256    4.345    0.353    0.192   72.495  201.209
  553.506    4.202    0.371    0.194   78.105  201.428
  553.756    3.974    0.388    0.177   78.236  201.858
  554.006    3.616    0.406    0.156   76.358  201.978
  554.256    3.212    0.425    0.125   76.915  201.890
  554.506    2.864    0.446    0.145   83.621  202.010
  554.756    2.591    0.468    0.192   90.814  202.439
  555.006    2.455    0.481    0.200   91.859  202.865
  555.256    2.357    0.471    0.210   89.128  203.706
  555.506    2.284    0.461    0.210   84.633  204.030
  555.756    2.213    0.463    0.217   81.355  204.562
  556.006    2.180    0.476    0.221   81.303  205.916
  556.256    2.187    0.477    0.229   81.373  211.294
  556.506    2.244    0.484    0.242   80.165  212.958
  556.756    2.346    0.489    0.258   83.037  213.698
  557.006    2.502    0.465    0.269   82.862  212.579
  557.256    2.749    0.443    0.273   79.403  209.090
  557.506    3.037    0.427    0.269   76.794  205.497
  557.756    3.392    0.436    0.285   74.673  203.658
  558.006    3.754    0.422    0.280   74.317  203.986
  558.256    3.946    0.403    0.267   73.413  204.308
  558.506    3.837    0.390    0.258   71.535  204.840
  558.756    3.402    0.391    0.248   70.266  204.547
  559.006    3.095    0.423    0.233   73.198  204.252
  559.256    3.044    0.474    0.224   77.103  203.752
  559.506    3.152    0.469    0.251   79.426  203.149
  559.756    3.387    0.439    0.303   72.921  199.971
  560.006    3.687    0.412    0.312   60.147  197.925
  560.256    4.043    0.392    0.303   53.766  200.105
  560.506    4.458    0.410    0.290   54.261  202.390
