~VERSION INFORMATION
 VERS.                 2.0:   CWLS LOG ASCII STANDARD -VERSION 2.0
 WRAP.                  NO:   ONE LINE PER DEPTH STEP
~WELL INFORMATION BLOCK
#MNEM.UNIT           DATA                    DESCRIPTION OF MNEMONIC
#---------    -------------------            -------------------------------
# Generated from Intellog Unique Number	CW_73_75/WELL/2738
WELL.         MANNVILLE ET AL FAWCETT 10-05  : Well_name    - WELL
LOC .         00/10-05-073-01W5/0            : Location     - LOCATION
UWI .         00/10-05-073-01W5/0            : Uwi          - UNIQUE WELL ID
ENTR.         JAYE                           : Entered      - ENTERED BY
SRVC.         SCHLUMBERGER                   : Scn          - SERVICE COMPANY
DATE.         20 NOV 77                      : Date         - LOG DATE
STRT.M        426.72                         : top_depth    - START DEPTH
STOP.M        685.72                         : bot_depth    - STOP DEPTH
STEP.M        0.25                           : increment    - STEP LENGTH
 NULL. -999.2500:NULL Value
~CURVE INFORMATION BLOCK
#MNEM UNIT       ERCB CURVE CODE    CURVE DESCRIPTION
#-----------   ------------------   ----------------------------------
DEPT.M        00 001 00 00         : DEPTH        - DEPTH
DPHI.V/V      00 890 00 00         : PHID         - DENSITY POROSITY (SANDSTONE)
NPHI.V/V      00 330 00 00         : PHIN         - NEUTRON POROSITY (SANDSTONE)
GR  .API      00 310 00 00         : GR           - GAMMA RAY
CALI.MM       00 280 01 00         : CAL          - CALIPER
ILD .OHMM     00 120 00 00         : RESD         - DEEP RESISTIVITY (DIL)
~PARAMETER INFORMATION
#MNEM.UNIT           DATA             DESCRIPTION OF MNEMONIC
#---------         -----------     ------------------------------
GL  .M        635.203              : gl           - GROUND LEVEL ELEVATION
EREF.M        638.251              : kb           - ELEVATION OF DEPTH REFERENCE
DATM.M        635.203              : datum        - DATUM ELEVATION
TDD .M        694.944              : tdd          - TOTAL DEPTH DRILLER
RUN .         ONE                  : Run          - RUN NUMBER
ENG .         KUBICA/RIVOLLIER     : Engineer     - RECORDING ENGINEER
WIT .         WOOLLEY              : Witness      - WITNESSED BY
BASE.         EDM                  : Branch       - HOME BASE OF LOGGING UNIT
MUD .         GEL                  : Mud_type     - MUD TYPE
MATR.         SANDSTONE            : Logunit      - NEUTRON MATRIX
TMAX.C        21.1111              : BHT          - MAXIMUM RECORDED TEMPERATURE
BHTD.M        694.944              : BHTDEP       - MAXIMUM RECORDED TEMPERATURE
RMT .C        11.1111              : MDTP         - TEMPERATURE OF MUD
MUDD.KG/M     1116                 : MWT          - MUD DENSITY
NEUT.         1                    : NEUTRON      - NEUTRON TYPE
RESI.         0                    : RESIST       - RESISTIVITY TYPE
RM  .OHMM     3.89                 : RM           - RESISTIVITY OF MUD
RMC .OHMM     0                    : RMC          - RESISTIVITY OF MUD CAKE
RMF .OHMM     5.51                 : RMF          - RESISTIVITY OF MUD FILTRATE
SUFT.C        -17.7778             : SUFT         - SURFACE TEMPERATURE
~A  DEPTH     PHID     PHIN       GR      CAL     RESD
# ...
  572.720    0.042    0.235   67.060  173.632   13.659
  572.970    0.031    0.236   63.735  172.975   13.222
  573.220    0.034    0.228   66.895  172.942   12.157
  573.470    0.059    0.266   75.663  173.324   10.617
  573.720    0.131    0.342   86.304  174.771    9.912
  573.970    0.167    0.340   91.271  176.414    9.669
  574.220    0.155    0.328   87.573  178.070    9.522
  574.470    0.126    0.309   86.868  178.885    9.306
  574.720    0.109    0.293   86.911  179.589    9.218
  574.970    0.088    0.290   86.264  180.289    9.043
  575.220    0.127    0.319   85.246  180.890    8.411
  575.470    0.154    0.349   88.594  181.168    7.748
  575.720    0.159    0.365   91.499  181.458    7.247
  575.970    0.148    0.347   87.867  182.158    6.676
  576.220    0.132    0.324   88.284  182.875    6.365
  576.470    0.116    0.338   89.756  182.933    6.209
  576.720    0.137    0.350   91.231  183.003    6.150
  576.970    0.154    0.342   92.459  183.076    6.103
  577.220    0.166    0.342   93.999  183.361    6.068
  577.470    0.144    0.347   94.973  183.638    5.999
  577.720    0.153    0.353   96.701  184.237    5.942
  577.970    0.163    0.361  100.479  184.630    5.863
  578.220    0.169    0.368   96.285  185.541    5.774
  578.470    0.179    0.383   94.456  186.245    5.632
  578.720    0.173    0.388   98.114  186.638    5.515
  578.970    0.163    0.389   99.152  186.711    5.462
  579.220    0.146    0.400  101.629  187.201    5.400
  579.470    0.148    0.410  104.409  187.476    5.400
  579.720    0.150    0.392  106.261  187.863    5.420
  579.970    0.141    0.385  101.943  187.940    5.451
  580.220    0.154    0.385  100.111  188.227    5.472
  580.470    0.147    0.382   98.781  188.084    5.514
  580.720    0.143    0.390  103.374  187.520    5.545
  580.970    0.136    0.385  107.159  186.532    5.556
  581.220    0.132    0.373  105.954  185.544    5.513
  581.470    0.136    0.359  105.621  184.465    5.471
  581.720    0.136    0.361  106.348  183.796    5.409
  581.970    0.135    0.374  106.579  183.443    5.347
  582.220    0.138    0.388  106.868  183.104    5.266
  582.470    0.139    0.405  107.406  182.944    5.137
  582.720    0.152    0.420  108.386  182.919    4.944
  582.970    0.164    0.416  109.301  182.672    4.832
  583.220    0.172    0.435  109.214  182.735    4.759
  583.470    0.173    0.438  106.826  182.921    4.786
  583.720    0.166    0.418  100.449  182.774    5.048
  583.970    0.158    0.414   94.444  182.525    5.459
  584.220    0.158    0.400   88.252  182.177    5.960
  584.470    0.170    0.386   81.498  181.200    6.359
  584.720    0.158    0.368   76.427  180.423    6.850
  584.970    0.133    0.339   76.351  179.545    7.492
  585.220    0.111    0.288   81.252  179.192    8.163
  585.470    0.069    0.288   87.654  179.687    8.116
  585.720    0.085    0.332   97.105  180.282    7.322
  585.970    0.139    0.353  104.381  180.880    6.333
  586.220    0.154    0.377  108.911  181.477    5.659
  586.470    0.156    0.408  115.120  182.391    5.066
  586.720    0.166    0.420  120.525  183.943    4.694
  586.970    0.157    0.427  123.557  184.854    4.605
  587.220    0.143    0.419  122.293  185.031    4.649
  587.470    0.157    0.407  116.411  185.102    4.711
  587.720    0.158    0.388  113.089  185.279    4.783
  587.970    0.172    0.385  109.075  185.248    4.922
  588.220    0.166    0.388  105.006  185.322    5.065
  588.470    0.172    0.392  103.489  185.399    5.192
  588.720    0.163    0.398  106.276  185.359    5.252
  588.970    0.156    0.405  109.555  185.634    5.261
  589.220    0.148    0.409  108.789  185.819    5.261
  589.470    0.158    0.405  104.655  185.361    5.251
  589.720    0.160    0.395   99.583  185.008    5.221
  589.970    0.165    0.380   94.577  184.546    5.231
  590.220    0.172    0.365   95.056  184.300    5.231
  590.470    0.173    0.360   99.025  183.636    5.250
  590.720    0.169    0.361  103.493  183.181    5.382
  590.970    0.158    0.369  104.906  182.616    5.645
  591.220    0.139    0.369  103.015  182.157    5.932
  591.470    0.113    0.352   97.384  180.864    6.127
  591.720    0.114    0.336   92.250  179.568    6.221
  591.970    0.127    0.337   90.236  179.208    6.092
  592.220    0.115    0.329   95.763  179.596    5.852
  592.470    0.141    0.340  102.853  179.982    5.548
  592.720    0.150    0.355  109.686  180.918    5.309
  592.970    0.136    0.366  117.022  181.181    5.081
  593.220    0.154    0.378  113.821  180.930    5.014
  593.470    0.162    0.392  109.875  181.334    4.966
  593.720    0.149    0.388  107.864  181.508    4.966
  593.970    0.127    0.383  108.398  181.672    4.975
  594.220    0.162    0.383  110.560  181.641    4.965
  594.470    0.161    0.388  112.036  181.713    5.003
  594.720    0.149    0.395  111.828  181.796    5.032
  594.970    0.150    0.400  110.688  181.533    5.099
  595.220    0.142    0.406  114.032  180.759    5.129
  595.470    0.130    0.397  117.630  179.891    5.138
  595.720    0.139    0.388  118.231  179.422    5.177
  595.970    0.154    0.383  116.404  179.182    5.187
  596.220    0.141    0.388  120.183  179.167    5.247
  596.470    0.124    0.402  118.921  179.534    5.348
  596.720    0.108    0.400  114.658  179.921    5.430
  596.970    0.105    0.385  117.506  180.001    5.576
  597.220    0.139    0.383  118.420  180.288    5.694
  597.470    0.149    0.381  117.405  179.819    5.738
  597.720    0.146    0.374  117.135  179.157    5.804
  597.970    0.133    0.387  118.484  178.384    5.938
  598.220    0.125    0.406  116.407  177.500    6.252
  598.470    0.119    0.356  108.657  176.094    6.773
  598.720    0.120    0.349  102.962  175.531    7.268
  598.970    0.147    0.367  103.884  175.506    7.550
  599.220    0.162    0.378  103.795  175.564    7.859
  599.470    0.165    0.379  102.339  175.437    8.290
  599.720    0.166    0.375  100.448  175.297    8.579
  599.970    0.167    0.365   97.879  174.726    8.794
  600.220    0.149    0.344   92.055  174.391    8.929
  600.470    0.131    0.353   90.978  174.558    8.997
  600.720    0.129    0.370   92.015  174.837    8.997
  600.970    0.131    0.373   93.929  174.904    8.911
  601.220    0.137    0.361   95.469  174.551    8.709
  601.470    0.150    0.359   97.440  174.626    8.561
  601.720    0.159    0.362  100.101  174.486    8.463
  601.970    0.167    0.360  102.140  174.131    8.335
  602.220    0.163    0.358  101.307  174.099    8.115
  602.470    0.147    0.355  102.844  174.587    7.931
  602.720    0.139    0.348  105.191  174.761    7.736
  602.970    0.128    0.343  110.223  174.729    7.677
  603.220    0.114    0.356  112.817  174.798    7.721
  603.470    0.101    0.321  106.627  174.449    8.191
  603.720    0.093    0.281   97.753  173.264    8.790
  603.970    0.067    0.259   85.767  172.378    9.725
  604.220    0.059    0.236   74.399  171.920   10.925
  604.470    0.062    0.250   68.208  171.781   12.226
  604.720    0.052    0.279   73.298  171.854   12.319
  604.970    0.066    0.301   87.244  172.033   10.535
  605.220    0.083    0.330   99.751  172.200    8.639
  605.470    0.094    0.348  106.151  172.498    7.617
  605.720    0.106    0.355  110.497  172.664    6.897
  605.970    0.119    0.345  111.846  172.533    6.366
  606.220    0.114    0.349  103.973  172.590    5.966
  606.470    0.125    0.385  101.522  172.566    5.699
  606.720    0.124    0.375  101.316  172.630    5.602
  606.970    0.140    0.369  102.915  173.128    5.731
  607.220    0.127    0.382  104.388  173.632    5.852
  607.470    0.119    0.380  100.627  174.120    6.057
  607.720    0.100    0.374  100.981  174.290    6.244
  607.970    0.105    0.367  100.461  174.470    6.438
  608.220    0.127    0.359   99.880  174.752    6.574
  608.470    0.136    0.364  101.484  174.939    6.599
  608.720    0.118    0.361  103.890  174.999    6.649
  608.970    0.112    0.349  104.993  174.965    6.700
