~VERSION INFORMATION
 VERS.                 2.0:   CWLS LOG ASCII STANDARD -VERSION 2.0
 WRAP.                  NO:   ONE LINE PER DEPTH STEP
~WELL INFORMATION BLOCK
#MNEM.UNIT           DATA                    DESCRIPTION OF MNEMONIC
#---------    -------------------            -------------------------------
# Generated from Intellog Unique Number	CC_80_83/WELL/2439
NULL.         -999.25                        : NULL_VALUE
WELL.         CWWE CORNER                    : Well_name    - WELL
LOC .         15-10-080-10W4                 : Location     - LOCATION          
UWI .         00/15-10-080-10W400            : Uwi          - UNIQUE WELL ID    
ENTR.         DW                             : Entered      - ENTERED BY        
SRVC.         SCHLUMBERGER                   : Scn          - SERVICE COMPANY   
DATE.         15 JAN 85                      : Date         - LOG DATE
STRT.M        260                            : top_depth    - START DEPTH       
STOP.M        494.89                         : bot_depth    - STOP DEPTH        
STEP.M        0.3                            : increment    - STEP LENGTH       
~CURVE INFORMATION BLOCK
#MNEM UNIT       ERCB CURVE CODE    CURVE DESCRIPTION
#-----------   ------------------   ----------------------------------
DEPT.M        00 001 00 00         : DEPTH        - DEPTH                       
DPHI.V/V      00 890 00 00         : PHID         - DENSITY POROSITY (LIMESTONE)
NPHI.V/V      00 330 00 00         : PHIN         - NEUTRON POROSITY (LIMESTONE)
GR  .API      00 310 00 00         : GR           - GAMMA RAY                   
ILD .OHMM     00 120 00 00         : RESD         - DEEP RESISTIVITY (DIL)      
~PARAMETER INFORMATION       
#MNEM.UNIT           DATA             DESCRIPTION OF MNEMONIC
#---------         -----------     ------------------------------
GL  .M        696                  : gl           - GROUND LEVEL ELEVATION      
EREF.M        699.2                : kb           - ELEVATION OF DEPTH REFERENCE
DATM.M        699.2                : datum        - DATUM ELEVATION             
TDD .M        504                  : tdd          - TOTAL DEPTH DRILLER         
RUN .         ONE                  : Run          - RUN NUMBER                  
ENG .         BILL                 : Engineer     - RECORDING ENGINEER          
WIT .         JIM                  : Witness      - WITNESSED BY                
MUD .         GEL                  : Mud_type     - MUD TYPE                    
MATR.         LIMESTONE            : Logunit      - NEUTRON MATRIX              
TMAX.C        22                   : BHT          - MAXIMUM RECORDED TEMPERATURE
BHTD.M        502                  : BHTDEP       - MAXIMUM RECORDED TEMPERATURE
MATR.         1                    : LOGUNIT      - NEUTRON MATRIX              
RMT .C        25                   : MDTP         - TEMPERATURE OF MUD          
NEUT.         1                    : NEUTRON      - NEUTRON TYPE                
RESI.         0                    : RESIST       - RESISTIVITY TYPE            
RMC .OHMM     0.25                 : RMC          - RESISTIVITY OF MUD CAKE     
RMF .OHMM     0.25                 : RMF          - RESISTIVITY OF MUD FILTRATE 
SUFT.C        15                   : SUFT         - SURFACE TEMPERATURE         
~A  DEPTH     PHID     PHIN       GR     RESD
# ...
  364.396    0.291    0.574   95.956    2.379
  364.696    0.285    0.581   97.189    2.377
  364.996    0.281    0.555  103.978    2.777
  365.296    0.280    0.562  108.914    2.776
  365.596    0.276    0.571  104.593    2.775
  365.896    0.276    0.589   99.654    2.828
  366.196    0.281    0.600   97.802    2.828
  366.496    0.285    0.580   96.566    2.882
  366.796    0.291    0.553   94.097    3.054
  367.096    0.298    0.554  105.205    3.237
  367.396    0.306    0.570  103.970    3.565
  367.696    0.304    0.581   97.797    4.005
  367.996    0.280    0.520   95.944    4.412
  368.296    0.286    0.489   95.943    4.586
  368.596    0.280    0.520   94.708    5.052
  368.896    0.268    0.545   91.621    5.786
  369.196    0.275    0.540   89.151    6.252
  369.496    0.289    0.491   84.213    6.626
  369.796    0.294    0.484   81.743    7.021
  370.096    0.300    0.467   82.359    7.156
  370.396    0.247    0.452   86.061    6.749
  370.695    0.268    0.455   83.592    6.121
  370.995    0.295    0.437   85.442    5.886
  371.295    0.274    0.435   91.614    5.135
  371.595    0.263    0.457   96.550    4.657
  371.895    0.268    0.549   97.166    4.747
  372.195    0.267    0.521   95.931    5.129
  372.495    0.254    0.484   87.907    5.542
  372.795    0.244    0.497   84.202    5.760
  373.095    0.245    0.523   89.139    5.758
  373.395    0.247    0.494   90.990    5.645
  373.695    0.263    0.483   89.754    5.323
  373.995    0.267    0.478   86.667    5.219
  374.295    0.270    0.470   87.283    5.216
  374.595    0.267    0.476   88.517    5.317
  374.895    0.268    0.511   88.516    5.634
  375.195    0.278    0.496   87.898    5.743
  375.495    0.270    0.484   85.428    5.630
  375.795    0.267    0.477   79.872    5.628
  376.095    0.265    0.460   78.020    5.964
  376.395    0.265    0.450   82.957    6.571
  376.695    0.267    0.442   81.721    7.382
  376.995    0.264    0.431   80.486    7.822
  377.295    0.258    0.436   79.251    6.824
  377.595    0.253    0.447   84.187    6.071
  377.895    0.254    0.507   89.124    6.187
  378.195    0.269    0.473   81.716    6.307
  378.495    0.272    0.448   79.247    6.554
  378.795    0.253    0.452   76.160    6.552
  379.095    0.247    0.458   80.479    6.300
  379.395    0.283    0.465   81.713    5.941
  379.695    0.297    0.472   80.477    5.824
  379.995    0.302    0.476   81.711    5.937
  380.295    0.268    0.491   84.178    5.821
  380.595    0.302    0.490   86.647    5.279
  380.895    0.313    0.487   82.325    4.430
  381.195    0.321    0.491   85.410    4.097
  381.495    0.328    0.529   93.433    4.017
  381.795    0.324    0.514   96.518    4.015
  382.095    0.315    0.508   93.431    4.093
  382.395    0.308    0.547   90.344    4.092
  382.695    0.300    0.567   88.492    4.170
  382.995    0.277    0.531   85.405    4.088
  383.295    0.274    0.473   89.107    4.087
  383.595    0.300    0.495   94.044    4.247
  383.895    0.308    0.521   92.808    4.865
  384.195    0.292    0.539   90.338    5.465
  384.495    0.297    0.505   89.720    6.508
  384.795    0.304    0.457   89.719    8.376
  385.095    0.145    0.493   89.101   12.595
  385.395    0.076    0.390   70.584   15.593
  385.695    0.163    0.258   57.622   14.421
  385.995    0.210    0.297   64.410    9.041
  386.295    0.251    0.376   79.839    7.736
  386.595    0.289    0.473   86.011    7.294
  386.895    0.279    0.473   87.861    7.292
  387.195    0.282    0.457   85.391    7.290
  387.495    0.262    0.468   83.539    7.286
  387.795    0.269    0.480   81.069    7.144
  388.095    0.294    0.476   83.537    7.004
  388.395    0.285    0.482   89.708    7.001
  388.695    0.249    0.472   84.769    6.732
  388.995    0.256    0.463   81.065    6.226
  389.295    0.388    0.472   76.744    5.327
  389.595    0.342    0.473   74.891    4.558
  389.895    0.305    0.472   78.594    3.752
  390.195    0.315    0.476   90.320    2.801
  390.495    0.328    0.480   98.342    2.492
  390.795    0.365    0.517   99.576    2.350
  391.095    0.340    0.566   93.403    2.395
  391.395    0.348    0.582   88.464    2.588
  391.695    0.366    0.559   86.612    2.690
  391.995    0.386    0.544   84.142    3.891
  392.295    0.416    0.538   82.906    5.206
  392.595    0.279    0.528   82.906    5.963
  392.895    0.232    0.497   94.014    6.319
  393.195    0.217    0.470   90.927    6.441
  393.495    0.215    0.476   87.841    6.437
  393.795    0.244    0.482   85.988    6.562
  394.095    0.271    0.465   84.135    7.091
  394.395    0.305    0.451   85.369    7.810
  394.695    0.317    0.447   89.688    7.962
  394.995    0.287    0.441   92.773    8.603
  395.294    0.251    0.425   93.390   10.244
  395.594    0.225    0.404   91.537   11.507
  395.894    0.208    0.380   87.216   12.193
  396.194    0.135    0.357   85.980   11.954
  396.494    0.240    0.347   88.448   11.057
  396.794    0.292    0.411   89.064    7.942
  397.094    0.350    0.451   87.212    7.204
  397.394    0.363    0.449   87.828    6.661
  397.694    0.354    0.456   84.741    6.406
  397.994    0.381    0.467   87.826    6.159
  398.294    0.393    0.489   88.442    5.808
  398.594    0.255    0.527   84.121    5.806
  398.894    0.232    0.507   79.800    6.153
  399.194    0.259    0.475   77.330    7.327
  399.494    0.255    0.451   77.946    8.557
  399.794    0.277    0.424   90.289    9.068
  400.094    0.272    0.421   92.140    9.063
  400.394    0.261    0.449   87.201    8.886
  400.694    0.283    0.433   84.115    8.544
  400.994    0.292    0.428   82.262    8.707
  401.294    0.302    0.464   80.409    8.705
  401.594    0.304    0.446   78.557    8.534
  401.894    0.287    0.415   80.408    8.207
  402.194    0.293    0.401   85.344    7.589
  402.494    0.296    0.438   87.812    7.441
  402.794    0.284    0.474   87.194    7.437
  403.094    0.277    0.467   83.490    7.581
  403.394    0.276    0.467   85.957    7.728
  403.694    0.262    0.474   85.957    8.850
  403.994    0.257    0.457   81.018    9.022
  404.294    0.270    0.419   81.634    9.195
  404.594    0.281    0.423   84.102    9.014
  404.894    0.277    0.444   88.422    8.501
  405.194    0.281    0.441   88.421    8.017
  405.494    0.286    0.454   82.248    7.708
  405.794    0.286    0.480   74.223    7.706
  406.094    0.316    0.486   71.753    8.008
  406.394    0.323    0.455   71.752    8.322
  406.694    0.311    0.418   65.579    8.482
  406.994    0.291    0.414   64.961    8.480
  407.294    0.301    0.440   69.898    8.314
  407.594    0.311    0.459   72.983    8.150
  407.894    0.313    0.465   77.302    7.990
  408.194    0.323    0.466   77.919    7.834
  408.494    0.327    0.453   73.597    7.681
  408.794    0.324    0.445   73.597    7.530
  409.094    0.316    0.429   76.681    7.241
  409.394    0.311    0.426   75.446    6.828
  409.694    0.307    0.453   74.211    6.074
  409.994    0.307    0.451   75.444    5.403
  410.294    0.364    0.441   77.295    4.806
  410.594    0.347    0.472   76.060    4.805
  410.894    0.306    0.521   81.614    5.091
  411.194    0.281    0.501   81.613    5.720
  411.494    0.292    0.464   85.932    6.679
  411.794    0.299    0.466   84.697    7.503
  412.094    0.301    0.455   77.289    8.107
  412.394    0.286    0.521   72.968    8.931
  412.694    0.237    0.545   68.647   10.229
  412.994    0.191    0.506   62.474   11.717
  413.294    0.230    0.271   59.387   13.421
  413.594    0.276    0.375   63.089   14.220
  413.894    0.260    0.466   56.916   14.494
  414.194    0.075    0.409   47.040   14.212
  414.494    0.197    0.235   55.062   10.822
  414.794    0.239    0.370   69.874    8.240
  415.094    0.246    0.433   86.538    7.189
  415.394    0.261    0.474   82.834    6.779
  415.694    0.268    0.487   82.216    6.518
  415.994    0.323    0.474   85.300    6.516
  416.294    0.295    0.478   86.534    6.772
