~VERSION INFORMATION
 VERS.                 2.0:   CWLS LOG ASCII STANDARD -VERSION 2.0
 WRAP.                  NO:   ONE LINE PER DEPTH STEP
~WELL INFORMATION BLOCK
#MNEM.UNIT           DATA                    DESCRIPTION OF MNEMONIC
#---------    -------------------            -------------------------------
# Generated from Intellog Unique Number	CW_79_81/WELL/2464
WELL.         TEXEX WABASCA                  : Well_name    - WELL
LOC .         00/10-07-081-24W4/0            : Location     - LOCATION
UWI .         00/10-07-081-24W4/0            : Uwi          - UNIQUE WELL ID
ENTR.         MAX                            : Entered      - ENTERED BY
SRVC.         WESTERN ATLAS                  : Scn          - SERVICE COMPANY
STRT.M        243.84                         : top_depth    - START DEPTH
STOP.M        453.84                         : bot_depth    - STOP DEPTH
STEP.M        0.25                           : increment    - STEP LENGTH
 NULL. -999.2500:NULL Value
~CURVE INFORMATION BLOCK
#MNEM UNIT       ERCB CURVE CODE    CURVE DESCRIPTION
#-----------   ------------------   ----------------------------------
DEPT.M        00 001 00 00         : DEPTH        - DEPTH
ILD .OHMM     00 120 00 00         : RESD         - DEEP RESISTIVITY (DIL)
NPHI.V/V      00 330 00 00         : PHIN         - NEUTRON POROSITY (SANDSTONE)
DPHI.V/V      00 890 00 00         : PHID         - DENSITY POROSITY (SANDSTONE)
GR  .API      00 310 00 00         : GR           - GAMMA RAY
CALI.MM       00 280 01 00         : CAL          - CALIPER
~PARAMETER INFORMATION
#MNEM.UNIT           DATA             DESCRIPTION OF MNEMONIC
#---------         -----------     ------------------------------
GL  .M        600.761              : gl           - GROUND LEVEL ELEVATION
EREF.M        604.418              : kb           - ELEVATION OF DEPTH REFERENCE
DATM.M        600.761              : datum        - DATUM ELEVATION
TDD .M        457.2                : tdd          - TOTAL DEPTH DRILLER
RUN .         ONE                  : Run          - RUN NUMBER
ENG .         BILL                 : Engineer     - RECORDING ENGINEER
WIT .         JIM                  : Witness      - WITNESSED BY
MUD .         GEL                  : Mud_type     - MUD TYPE
MATR.         SANDSTONE            : Logunit      - NEUTRON MATRIX
TMAX.C        26.6667              : BHT          - MAXIMUM RECORDED TEMPERATURE
BHTD.M        457.2                : BHTDEP       - MAXIMUM RECORDED TEMPERATURE
MATR.         1                    : LOGUNIT      - NEUTRON MATRIX
RMT .C        18.3333              : MDTP         - TEMPERATURE OF MUD
NEUT.         1                    : NEUTRON      - NEUTRON TYPE
RESI.         0                    : RESIST       - RESISTIVITY TYPE
RMC .OHMM     11                   : RMC          - RESISTIVITY OF MUD CAKE
RMF .OHMM     11                   : RMF          - RESISTIVITY OF MUD FILTRATE
SUFT.C        -20.5556             : SUFT         - SURFACE TEMPERATURE
~A  DEPTH     RESD     PHIN     PHID       GR      CAL
  243.840    2.803    0.414    0.303   66.834  276.933
  244.090    2.825    0.402    0.293   68.560  265.855
  244.340    2.845    0.406    0.234   70.498  253.585
  244.590    2.846    0.416    0.195   72.738  248.091
  244.840    2.826    0.423    0.194   74.570  250.208
  245.090    2.863    0.418    0.191   74.685  251.517
  245.340    3.186    0.406    0.193   73.978  251.976
  245.590    3.496    0.385    0.206   73.063  252.402
  245.840    4.342    0.372    0.198   71.975  254.025
  246.090    5.720    0.365    0.198   69.431  255.447
  246.340    7.495    0.361    0.206   64.786  253.405
  246.590   10.202    0.357    0.204   56.339  242.366
  246.840   17.145    0.361    0.266   47.849  240.351
  247.090   19.355    0.360    0.297   44.837  240.781
  247.340   20.220    0.358    0.303   44.277  240.618
  247.590   20.372    0.354    0.302   44.651  240.658
  247.840   20.376    0.350    0.305   45.024  240.996
  248.090   20.381    0.342    0.309   45.005  241.035
  248.340   20.386    0.329    0.315   44.783  241.079
  248.590   19.952    0.324    0.317   44.570  241.117
  248.840   18.783    0.319    0.298   44.188  241.746
  249.090   17.209    0.313    0.230   43.627  242.375
  249.340   15.778    0.307    0.161   42.827  243.206
  249.590   15.075    0.305    0.195   41.296  246.222
  249.840   15.423    0.303    0.155   39.377  251.195
  250.090   17.169    0.307    0.157   38.701  251.633
  250.340   18.153    0.336    0.174   39.248  255.328
  250.590   18.426    0.359    0.208   40.903  255.166
  250.840   18.330    0.366    0.246   42.910  251.443
  251.090   18.310    0.370    0.259   43.823  251.806
  251.340   18.174    0.372    0.273   43.603  251.434
  251.590   18.047    0.372    0.251   43.857  250.678
  251.840   17.920    0.373    0.251   44.812  250.221
  252.090   17.859    0.375    0.273   46.002  250.062
  252.340   17.896    0.378    0.298   46.901  250.891
  252.590   18.111    0.381    0.292   46.833  254.516
  252.840   18.530    0.379    0.286   46.367  256.614
  253.090   19.213    0.382    0.303   47.555  257.044
  253.340   20.030    0.389    0.293   47.170  255.704
  253.590   20.850    0.396    0.267   46.726  256.730
  253.840   21.661    0.402    0.251   47.739  259.727
  254.090   22.867    0.409    0.292   51.491  259.279
  254.340   24.118    0.409    0.306   50.299  256.848
  254.590   25.367    0.407    0.310   49.621  256.092
  254.840   27.536    0.403    0.304   51.396  258.007
  255.090   30.461    0.393    0.290   52.471  262.000
  255.340   33.874    0.381    0.277   52.084  266.291
  255.590   38.170    0.371    0.286   52.265  267.753
  255.840   43.465    0.367    0.314   54.233  266.965
  256.090   50.454    0.361    0.302   55.190  268.189
  256.340   55.452    0.354    0.289   52.471  270.602
  256.590   57.356    0.347    0.244   49.224  271.828
  256.840   56.641    0.344    0.187   46.735  271.472
  257.090   54.278    0.352    0.194   44.478  271.290
  257.340   50.757    0.363    0.213   44.742  272.150
  257.590   48.245    0.373    0.243   47.104  273.769
  257.840   45.865    0.382    0.275   47.884  275.385
  258.090   43.936    0.390    0.304   46.621  277.203
  258.340   42.857    0.391    0.324   44.949  279.021
  258.590   43.499    0.374    0.322   46.903  280.497
  258.840   45.185    0.361    0.317   48.390  281.772
  259.090   49.246    0.361    0.327   46.776  283.794
  259.340   50.112    0.357    0.314   45.340  285.215
  259.590   48.304    0.346    0.265   44.076  286.238
  259.840   45.369    0.334    0.205   42.754  287.063
  260.090   42.586    0.335    0.209   40.915  288.065
  260.340   41.335    0.350    0.262   40.936  288.928
  260.590   40.749    0.361    0.307   43.293  290.156
  260.840   40.172    0.368    0.323   44.950  290.783
  261.090   39.749    0.374    0.331   45.674  291.412
  261.340   39.755    0.379    0.337   45.522  292.243
  261.590   41.291    0.375    0.336   44.848  293.163
  261.840   44.899    0.365    0.325   44.876  293.614
  262.090   48.934    0.356    0.303   44.430  292.067
  262.340   48.445    0.346    0.273   43.636  289.338
  262.590   45.527    0.342    0.229   42.490  288.190
  262.840   42.071    0.349    0.197   41.283  289.317
  263.090   38.476    0.377    0.240   40.755  291.429
  263.340   36.518    0.415    0.290   41.510  291.876
  263.590   34.966    0.405    0.303   41.997  291.915
  263.840   33.299    0.394    0.311   42.311  291.058
  264.090   32.018    0.381    0.315   42.685  288.129
  264.340   31.171    0.370    0.316   43.292  284.515
  264.590   30.325    0.366    0.316   44.400  284.333
  264.840   29.433    0.368    0.315   45.155  285.193
  265.090   26.967    0.372    0.318   44.473  285.622
  265.340   22.659    0.372    0.324   44.319  284.872
  265.590   19.564    0.369    0.327   44.575  282.538
  265.840   18.273    0.364    0.321   45.065  279.016
  266.090   19.530    0.362    0.286   45.416  275.258
  266.340   22.068    0.367    0.201   44.710  274.062
  266.590   24.738    0.375    0.145   45.428  273.705
  266.840   28.468    0.384    0.173   46.679  273.348
  267.090   33.148    0.388    0.248   47.402  272.593
  267.340   36.551    0.388    0.318   46.955  271.641
  267.590   30.719    0.383    0.312   44.730  271.375
  267.840   21.121    0.379    0.299   42.806  271.830
  268.090   12.479    0.373    0.298   42.830  271.473
  268.340    9.712    0.368    0.302   44.951  270.224
  268.590    8.808    0.363    0.325   48.006  267.693
  268.840    8.927    0.357    0.355   49.839  264.176
  269.090   10.301    0.350    0.341   46.911  260.911
  269.340   12.979    0.343    0.278   44.986  262.182
  269.590   14.858    0.301    0.173   45.242  265.382
  269.840   16.517    0.301    0.191   43.396  266.505
  270.090   18.028    0.322    0.252   40.967  266.936
  270.340   19.533    0.347    0.308   39.124  268.260
  270.590   21.483    0.359    0.341   39.364  272.756
  270.840   23.182    0.364    0.354   42.790  275.263
  271.090   22.197    0.369    0.359   44.682  272.534
  271.340   18.953    0.373    0.322   45.346  267.434
  271.590   15.314    0.373    0.298   45.486  266.289
  271.840   12.615    0.372    0.299   45.337  270.284
  272.090   11.259    0.377    0.297   44.564  273.320
  272.340   11.261    0.378    0.294   44.101  262.650
  272.590   11.510    0.378    0.273   48.792  259.131
  272.840   11.954    0.380    0.262   49.630  259.168
  273.090   12.531    0.388    0.269   48.368  261.185
  273.340   13.142    0.399    0.290   47.340  264.585
  273.590   13.849    0.411    0.308   49.274  275.613
  273.840   15.060    0.426    0.306   48.327  304.894
  274.090   16.882    0.422    0.296   46.014  319.556
  274.340   18.845    0.416    0.336   43.349  329.182
  274.590   21.288    0.401    0.363   41.970  322.895
  274.840   24.382    0.382    0.350   42.285  297.235
  275.090   27.713    0.372    0.316   43.436  256.501
  275.340   28.142    0.369    0.342   43.216  258.196
  275.590   26.749    0.368    0.338   43.467  259.408
  275.840   24.727    0.366    0.327   44.072  257.072
  276.090   23.111    0.366    0.313   44.913  254.541
  276.340   21.851    0.372    0.300   45.638  253.097
  276.590   19.964    0.384    0.297   45.470  252.780
  276.840   18.258    0.404    0.307   44.519  256.938
  277.090   16.482    0.401    0.349   45.006  265.278
  277.340   14.550    0.388    0.348   45.321  280.144
  277.590   13.876    0.379    0.341   45.344  284.136
  277.840   14.602    0.378    0.330   45.131  273.990
  278.090   17.350    0.378    0.291   44.439  260.266
  278.340   22.918    0.373    0.307   42.031  258.659
  278.590   28.495    0.363    0.333   39.020  261.860
  278.840   37.443    0.357    0.317   35.307  268.025
  279.090   45.961    0.357    0.274   32.878  274.587
  279.340   48.046    0.361    0.243   32.493  279.074
  279.590   44.320    0.365    0.280   34.023  279.612
  279.840   37.393    0.368    0.285   35.749  282.126
  280.090   33.757    0.371    0.284   35.772  289.672
