~VERSION INFORMATION
 VERS.                 2.0:   CWLS LOG ASCII STANDARD -VERSION 2.0
 WRAP.                  NO:   ONE LINE PER DEPTH STEP
~WELL INFORMATION BLOCK
#MNEM.UNIT           DATA                    DESCRIPTION OF MNEMONIC
#---------    -------------------            -------------------------------
# Generated from Intellog Unique Number	CW_70_72/WELL/1041
NULL.         -999.25                        : NULL_VALUE
WELL.         HOME ALMX MITSUE 10-23         : Well_name    - WELL              
LOC .         10-23-071-04W5                 : Location     - LOCATION          
UWI .         00/10-23-071-04W5/0            : Uwi          - UNIQUE WELL ID    
ENTR.         JAYE                           : Entered      - ENTERED BY        
SRVC.         SCHLUMBERGER                   : Scn          - SERVICE COMPANY   
DATE.         20 FEB 74                      : Date         - LOG DATE          
STRT.M        502.92                         : top_depth    - START DEPTH       
STOP.M        731.42                         : bot_depth    - STOP DEPTH        
STEP.M        0.25                           : increment    - STEP LENGTH       
~CURVE INFORMATION BLOCK
#MNEM UNIT       ERCB CURVE CODE    CURVE DESCRIPTION
#-----------   ------------------   ----------------------------------
DEPT.M        00 001 00 00         : DEPTH        - DEPTH                       
DPHI.V/V      00 890 00 00         : PHID         - DENSITY POROSITY (SANDSTONE)
NPHI.V/V      00 330 00 00         : PHIN         - NEUTRON POROSITY (SANDSTONE)
GR  .API      00 310 00 00         : GR           - GAMMA RAY                   
CALI.MM       00 280 01 00         : CAL          - CALIPER                     
ILD .OHMM     00 120 00 00         : RESD         - DEEP RESISTIVITY (DIL)      
~PARAMETER INFORMATION       
#MNEM.UNIT           DATA             DESCRIPTION OF MNEMONIC
#---------         -----------     ------------------------------
GL  .M        670.011              : gl           - GROUND LEVEL ELEVATION      
EREF.M        674.218              : kb           - ELEVATION OF DEPTH REFERENCE
DATM.M        670.011              : datum        - DATUM ELEVATION             
TDD .M        760.476              : tdd          - TOTAL DEPTH DRILLER         
RUN .         ONE                  : Run          - RUN NUMBER                  
BASE.         EDM                  : Branch       - HOME BASE OF LOGGING UNIT   
MUD .         GEL                  : Mud_type     - MUD TYPE                    
MATR.         SANDSTONE            : Logunit      - NEUTRON MATRIX              
TMAX.C        26.6667              : BHT          - MAXIMUM RECORDED TEMPERATURE
BHTD.M        763.219              : BHTDEP       - MAXIMUM RECORDED TEMPERATURE
RMT .C        10                   : MDTP         - TEMPERATURE OF MUD          
MUDD.KG/M     1128                 : MWT          - MUD DENSITY                 
NEUT.         1                    : NEUTRON      - NEUTRON TYPE                
RESI.         0                    : RESIST       - RESISTIVITY TYPE            
RM  .OHMM     5.97                 : RM           - RESISTIVITY OF MUD          
RMC .OHMM     3.87                 : RMC          - RESISTIVITY OF MUD CAKE     
RMF .OHMM     0.37                 : RMF          - RESISTIVITY OF MUD FILTRATE 
SUFT.C        0                    : SUFT         - SURFACE TEMPERATURE         
~A  DEPTH     PHID     PHIN       GR      CAL     RESD
# ...
  539.420    0.246    0.414   59.553  160.823    3.107
  539.670    0.220    0.422   62.541  161.412    3.258
  539.920    0.192    0.428   71.056  162.853    3.354
  540.170    0.181    0.449   76.307  164.511    3.275
  540.420    0.170    0.463   81.616  164.990    3.128
  540.670    0.178    0.449   83.409  161.524    3.038
  540.920    0.204    0.446   84.760  159.972    2.929
  541.170    0.203    0.438   82.591  158.851    2.823
  541.420    0.206    0.441   83.248  158.480    2.687
  541.670    0.205    0.478   85.609  158.313    2.610
  541.920    0.204    0.496   87.712  158.374    2.525
  542.170    0.209    0.463   84.223  158.536    2.470
  542.420    0.220    0.449   80.420  158.699    2.425
  542.670    0.232    0.450   76.115  159.065    2.398
  542.920    0.240    0.447   72.938  159.123    2.425
  543.170    0.237    0.430   71.211  159.073    2.455
  543.420    0.231    0.439   67.658  159.121    2.627
  543.670    0.234    0.444   64.983  159.065    2.877
  543.920    0.234    0.421   61.621  159.127    3.067
  544.170    0.217    0.398   58.196  158.964    3.111
  544.420    0.187    0.364   57.034  159.224    2.908
  544.670    0.196    0.405   57.754  159.607    2.743
  544.920    0.218    0.431   59.231  159.868    2.634
  545.170    0.244    0.395   61.401  159.820    2.558
  545.420    0.236    0.409   63.691  159.651    2.475
  545.670    0.251    0.424   62.094  159.499    2.421
  545.920    0.252    0.420   58.605  158.700    2.382
  546.170    0.251    0.393   58.882  157.472    2.347
  546.420    0.248    0.403   59.480  156.560    2.329
  546.670    0.237    0.430   60.075  156.083    2.329
  546.920    0.222    0.452   60.110  155.708    2.337
  547.170    0.234    0.437   56.246  155.554    2.358
  547.420    0.231    0.415   57.408  155.594    2.358
  547.670    0.210    0.444   60.331  155.448    2.366
  547.920    0.228    0.455   60.487  155.277    2.388
  548.170    0.242    0.428   58.759  155.221    2.427
  548.420    0.243    0.434   60.294  155.283    2.462
  548.670    0.232    0.438   63.218  155.231    2.476
  548.920    0.216    0.450   67.338  155.284    2.494
  549.170    0.211    0.456   71.645  155.235    2.530
  549.420    0.222    0.444   76.391  155.068    2.581
  549.670    0.203    0.458   80.945  154.592    2.623
  549.920    0.202    0.466   85.126  154.005    2.633
  550.170    0.214    0.478   89.432  153.741    2.515
  550.420    0.211    0.496   89.276  154.434    2.402
  550.670    0.194    0.502   89.748  157.154    2.329
  550.920    0.187    0.495   93.549  159.450    2.270
  551.170    0.193    0.525  100.245  160.451    2.208
  551.420    0.168    0.551  105.933  160.835    2.192
  551.670    0.189    0.575  110.930  161.211    2.172
  551.920    0.196    0.572  114.230  162.004    2.156
  552.170    0.180    0.571  110.930  162.481    2.136
  552.420    0.170    0.577  104.360  162.758    2.112
  552.670    0.176    0.572  105.648  162.807    2.097
  552.920    0.184    0.578  108.194  162.756    2.093
  553.170    0.225    0.550  104.389  162.702    2.054
  553.420    0.247    0.519   91.662  162.224    2.010
  553.670    0.260    0.473   81.257  161.312    1.941
  553.920    0.285    0.440   66.391  160.092    1.902
  554.170    0.317    0.432   53.535  159.397    1.902
  554.420    0.307    0.434   45.267  159.767    1.930
  554.670    0.314    0.445   47.185  160.144    1.990
  554.920    0.311    0.467   50.798  159.870    2.075
  555.170    0.312    0.463   51.961  160.038    2.176
  555.420    0.314    0.477   52.056  160.714    2.261
  555.670    0.329    0.517   54.284  161.320    2.327
  555.920    0.338    0.498   53.439  161.689    2.379
  556.170    0.313    0.498   50.450  161.960    2.409
  556.420    0.312    0.515   49.975  161.584    2.435
  556.670    0.314    0.515   50.513  161.305    2.457
  556.920    0.311    0.501   51.296  161.049    2.443
  557.170    0.302    0.499   52.084  160.568    2.399
  557.420    0.298    0.514   53.186  159.877    2.317
  557.670    0.283    0.510   53.971  159.078    2.246
  557.920    0.270    0.487   57.017  158.277    2.270
  558.170    0.281    0.471   59.376  155.126    2.333
  558.420    0.299    0.478   61.231  155.284    2.384
  558.670    0.280    0.485   62.142  155.448    2.428
  558.920    0.262    0.493   63.304  155.707    2.450
  559.170    0.251    0.505   64.971  156.516    2.441
  559.420    0.243    0.517   67.199  157.845    2.374
  559.670    0.274    0.466   71.193  157.474    2.240
  559.920    0.295    0.430   67.640  157.420    2.112
  560.170    0.287    0.409   61.007  158.001    2.066
  560.420    0.277    0.397   57.078  158.485    2.073
  560.670    0.274    0.409   54.407  158.858    2.127
  560.920    0.251    0.427   55.003  158.492    2.238
  561.170    0.239    0.442   59.623  157.898    2.390
  561.420    0.216    0.450   64.808  157.213    2.661
  561.670    0.195    0.446   72.826  157.160    3.040
  561.920    0.177    0.436   81.657  159.881    3.367
  562.170    0.160    0.442   88.980  161.099    3.742
  562.420    0.168    0.493   94.101  161.899    3.895
  562.670    0.169    0.499   98.409  162.921    3.895
  562.920    0.190    0.469   98.943  163.607    3.831
  563.170    0.211    0.445   94.511  163.880    3.761
  563.420    0.197    0.415   90.326  164.038    3.672
  563.670    0.180    0.446   90.111  165.159    3.579
  563.920    0.173    0.463   95.230  162.331    3.553
  564.170    0.173    0.441   98.972  158.439    3.494
  564.420    0.197    0.416  102.336  154.971    3.412
  564.670    0.201    0.408   98.470  152.147    3.307
  564.920    0.229    0.430   95.610  149.633    3.212
  565.170    0.232    0.427   90.359  148.626    3.080
  565.420    0.234    0.419   89.135  148.251    2.980
  565.670    0.232    0.427   91.048  148.306    2.936
  565.920    0.217    0.444   91.270  148.573    2.973
  566.170    0.231    0.459   90.799  150.442    3.112
  566.420    0.236    0.474   90.642  153.474    3.390
  566.670    0.222    0.483   89.668  155.561    3.667
  566.920    0.200    0.484   88.563  158.071    3.951
  567.170    0.198    0.467   88.471  157.159    4.105
  567.420    0.185    0.449   87.682  153.051    4.037
  567.670    0.187    0.437   86.647  150.977    3.808
  567.920    0.194    0.451   85.171  154.975    3.419
  568.170    0.204    0.474   82.437  158.226    2.922
  568.420    0.226    0.473   78.822  155.933    2.506
  568.670    0.271    0.461   67.349  150.860    2.238
  568.920    0.298    0.470   57.008  149.538    2.107
  569.170    0.301    0.460   50.061  148.842    2.107
  569.420    0.295    0.446   45.252  148.999    2.145
  569.670    0.296    0.437   46.412  148.836    2.200
  569.920    0.288    0.424   47.759  148.682    2.286
  570.170    0.270    0.418   49.432  148.845    2.362
  570.420    0.255    0.430   50.843  149.110    2.362
  570.670    0.271    0.462   51.630  149.464    2.260
  570.920    0.289    0.457   52.479  149.646    2.159
  571.170    0.273    0.435   52.446  149.477    2.078
  571.420    0.291    0.415   50.778  149.422    2.036
  571.670    0.299    0.439   48.360  149.587    2.029
  571.920    0.286    0.452   44.367  149.852    2.025
  572.170    0.284    0.449   43.392  150.116    2.028
  572.420    0.300    0.458   44.054  150.061    2.046
  572.670    0.307    0.469   46.975  149.796    2.069
  572.920    0.319    0.465   47.192  149.963    2.091
  573.170    0.323    0.434   46.034  149.790    2.114
  573.420    0.317    0.430   46.314  149.637    2.145
  573.670    0.317    0.452   47.537  149.693    2.160
  573.920    0.308    0.457   47.510  149.961    2.180
  574.170    0.318    0.449   46.787  150.334    2.195
  574.420    0.316    0.461   45.057  150.708    2.207
  574.670    0.294    0.466   45.025  151.194    2.207
  574.920    0.277    0.435   46.374  151.558    2.207
  575.170    0.272    0.414   47.980  152.356    2.206
  575.420    0.281    0.427   49.140  152.621    2.198
  575.670    0.281    0.451   50.364  152.045    2.170
