~VERSION INFORMATION
 VERS.                 2.0:   CWLS LOG ASCII STANDARD -VERSION 2.0
 WRAP.                  NO:   ONE LINE PER DEPTH STEP
~WELL INFORMATION BLOCK
#MNEM.UNIT           DATA                    DESCRIPTION OF MNEMONIC
#---------    -------------------            -------------------------------
# Generated from Intellog Unique Number	CW_70_72/WELL/1070
NULL.         -999.25                        : NULL_VALUE
WELL.         CNW PETER 15-13                : Well_name    - WELL              
LOC .         15-13-072-01W5                 : Location     - LOCATION          
UWI .         00/15-13-072-01W5/0            : Uwi          - UNIQUE WELL ID    
ENTR.         JAYE                           : Entered      - ENTERED BY        
SRVC.         COMPUTALOG                     : Scn          - SERVICE COMPANY   
DATE.         5 DEC 88                       : Date         - LOG DATE          
STRT.M        415                            : top_depth    - START DEPTH       
STOP.M        650                            : bot_depth    - STOP DEPTH        
STEP.M        0.25                           : increment    - STEP LENGTH       
~CURVE INFORMATION BLOCK
#MNEM UNIT       ERCB CURVE CODE    CURVE DESCRIPTION
#-----------   ------------------   ----------------------------------
DEPT.M        00 001 00 00         : DEPTH        - DEPTH                       
DPHI.V/V      00 890 00 00         : PHID         - DENSITY POROSITY (SANDSTONE)
NPHI.V/V      00 330 00 00         : PHIN         - NEUTRON POROSITY (SANDSTONE)
GR  .API      00 310 00 00         : GR           - GAMMA RAY                   
CALI.MM       00 280 01 00         : CAL          - CALIPER                     
ILD .OHMM     00 120 00 00         : RESD         - DEEP RESISTIVITY (DIL)      
~PARAMETER INFORMATION       
#MNEM.UNIT           DATA             DESCRIPTION OF MNEMONIC
#---------         -----------     ------------------------------
GL  .M        631.9                : gl           - GROUND LEVEL ELEVATION      
EREF.M        636.2                : kb           - ELEVATION OF DEPTH REFERENCE
DATM.M        631.9                : datum        - DATUM ELEVATION             
TDD .M        667                  : tdd          - TOTAL DEPTH DRILLER         
RUN .         ONE                  : Run          - RUN NUMBER                  
ENG .         HOMER                : Engineer     - RECORDING ENGINEER          
WIT .         TOPIC                : Witness      - WITNESSED BY                
BASE.         EDM                  : Branch       - HOME BASE OF LOGGING UNIT   
MUD .         GEL CHEM             : Mud_type     - MUD TYPE                    
MATR.         SANDSTONE            : Logunit      - NEUTRON MATRIX              
TMAX.C        30                   : BHT          - MAXIMUM RECORDED TEMPERATURE
BHTD.M        667                  : BHTDEP       - MAXIMUM RECORDED TEMPERATURE
RMT .C        17                   : MDTP         - TEMPERATURE OF MUD          
MUDD.KG/M     1180                 : MWT          - MUD DENSITY                 
NEUT.         1                    : NEUTRON      - NEUTRON TYPE                
RESI.         0                    : RESIST       - RESISTIVITY TYPE            
RM  .OHMM     4                    : RM           - RESISTIVITY OF MUD          
RMC .OHMM     3.3                  : RMC          - RESISTIVITY OF MUD CAKE     
RMF .OHMM     4.3                  : RMF          - RESISTIVITY OF MUD FILTRATE 
SUFT.C        0                    : SUFT         - SURFACE TEMPERATURE         
~A  DEPTH     PHID     PHIN       GR      CAL     RESD
# ...
  561.000    0.181    0.414   78.749  207.653    6.367
  561.250    0.170    0.395   80.158  207.661    6.241
  561.500    0.168    0.384   80.346  207.667    6.231
  561.750    0.166    0.388   80.716  207.572    6.222
  562.000    0.159    0.390   80.782  207.273    6.236
  562.250    0.151    0.413   79.624  206.975    6.204
  562.500    0.141    0.402   77.734  206.471    6.206
  562.750    0.132    0.391   77.126  205.968    6.140
  563.000    0.139    0.386   77.069  205.262    6.097
  563.250    0.150    0.390   77.745  204.454    6.088
  563.500    0.162    0.392   79.339  203.441    6.193
  563.750    0.174    0.391   81.666  202.837    6.300
  564.000    0.184    0.390   84.542  203.353    6.397
  564.250    0.166    0.392   81.979  204.684    6.495
  564.500    0.150    0.402   75.504  205.709    6.546
  564.750    0.136    0.401   71.229  206.735    6.476
  565.000    0.121    0.397   73.679  207.354    6.278
  565.250    0.127    0.405   76.005  207.767    6.074
  565.500    0.151    0.422   78.393  208.284    5.822
  565.750    0.157    0.440   80.842  208.595    5.633
  566.000    0.151    0.454   84.574  208.807    5.521
  566.250    0.140    0.454   87.451  208.813    5.225
  566.500    0.156    0.449   90.267  208.617    5.130
  566.750    0.159    0.449   89.843  208.521    5.123
  567.000    0.156    0.441   85.630  208.324    5.270
  567.250    0.156    0.434   85.450  208.127    5.471
  567.500    0.158    0.427   85.271  208.031    5.819
  567.750    0.169    0.413   84.175  207.936    6.317
  568.000    0.171    0.395   81.245  207.841    7.051
  568.250    0.147    0.380   74.586  207.745    7.798
  568.500    0.100    0.368   67.805  207.549    8.279
  568.750    0.066    0.369   64.142  207.657    7.775
  569.000    0.122    0.385   80.405  207.969    7.128
  569.250    0.145    0.404   85.238  208.791    6.463
  569.500    0.152    0.418   87.809  209.716    5.838
  569.750    0.157    0.422   90.503  210.231    5.452
  570.000    0.168    0.415   93.075  210.543    5.325
  570.250    0.177    0.410   94.912  209.225    5.347
  570.500    0.174    0.416   96.872  206.379    5.583
  570.750    0.166    0.422   90.947  204.654    5.774
  571.000    0.154    0.427   91.012  202.624    6.040
  571.250    0.146    0.426   91.627  201.713    6.341
  571.500    0.164    0.422   90.408  201.312    6.682
  571.750    0.172    0.410   88.579  201.013    7.002
  572.000    0.167    0.395   86.260  200.816    7.324
  572.250    0.161    0.391   78.562  200.620    7.506
  572.500    0.155    0.418   72.698  200.422    7.565
  572.750    0.146    0.413   72.397  200.225    7.554
  573.000    0.162    0.404   76.496  200.130    7.529
  573.250    0.173    0.396   81.207  200.137    7.546
  573.500    0.173    0.388   83.717  200.042    7.578
  573.750    0.150    0.379   77.303  199.947    7.637
  574.000    0.136    0.386   76.451  199.953    7.640
  574.250    0.150    0.391   79.022  199.655    7.586
  574.500    0.127    0.387   81.838  199.661    7.547
  574.750    0.107    0.391   74.263  199.464    7.439
  575.000    0.124    0.403   70.488  209.969    7.278
  575.250    0.127    0.398   77.093  210.328    6.600
  575.500    0.132    0.387   83.022  210.802    6.462
  575.750    0.146    0.384   86.803  211.465    6.363
  576.000    0.153    0.404   90.031  211.619    6.372
  576.250    0.154    0.413   89.517  210.859    6.560
  576.500    0.151    0.423   88.754  209.883    6.779
  576.750    0.146    0.417   87.749  208.923    6.876
  577.000    0.133    0.412   85.511  207.841    6.910
  577.250    0.112    0.416   79.222  206.563    6.895
  577.500    0.114    0.411   80.914  205.491    6.865
  577.750    0.137    0.403   84.573  204.314    6.734
  578.000    0.140    0.395   85.349  203.650    6.571
  578.250    0.127    0.406   83.539  204.011    6.506
  578.500    0.131    0.417   84.557  203.967    6.514
  578.750    0.143    0.430   89.877  203.096    6.670
  579.000    0.149    0.439   91.935  201.714    7.021
  579.250    0.158    0.397   91.235  199.513    7.671
  579.500    0.173    0.373   82.674  197.014    8.813
  579.750    0.176    0.364   72.951  196.052    9.537
  580.000    0.157    0.356   66.598  196.503   10.734
  580.250    0.146    0.344   59.879  198.398   11.815
  580.500    0.158    0.339   62.129  200.507   12.861
  580.750    0.150    0.333   64.127  201.482   13.691
  581.000    0.143    0.326   64.840  201.537   14.466
  581.250    0.141    0.313   66.041  201.181   15.173
  581.500    0.117    0.319   61.965  200.418   15.362
  581.750    0.099    0.332   57.147  199.035   14.711
  582.000    0.147    0.342   61.361  198.169   13.499
  582.250    0.182    0.357   69.440  199.964   12.004
  582.500    0.188    0.357   75.125  201.662   11.075
  582.750    0.176    0.341   76.085  202.737   10.239
  583.000    0.157    0.331   75.627  202.798    9.448
  583.250    0.136    0.334   78.609  202.641    9.031
  583.500    0.138    0.350   84.108  202.493    9.026
  583.750    0.117    0.363   90.344  201.737    9.140
  584.000    0.078    0.377   83.260  201.162    9.411
  584.250    0.044    0.383   75.311  200.605    9.759
  584.500    0.008    0.361   63.068  200.357    9.992
  584.750    0.008    0.347   62.429  200.310    9.693
  585.000    0.044    0.359   69.711  200.252    9.028
  585.250    0.111    0.376   73.000  200.114    8.208
  585.500    0.111    0.386   76.112  200.162    7.560
  585.750    0.117    0.396   77.928  200.110    7.375
  586.000    0.124    0.398   78.574  200.060    7.537
  586.250    0.127    0.386   78.732  199.912    7.890
  586.500    0.120    0.381   78.462  199.864    8.322
  586.750    0.101    0.386   76.103  199.917    8.568
  587.000    0.081    0.395   74.356  199.769    8.610
  587.250    0.086    0.402   74.456  199.726    8.574
  587.500    0.107    0.400   76.147  199.479    8.568
  587.750    0.123    0.391   77.289  199.420    8.344
  588.000    0.118    0.390   75.914  199.376    8.021
  588.250    0.105    0.401   76.377  199.430    7.824
  588.500    0.118    0.411   81.324  199.375    7.734
  588.750    0.127    0.414   81.178  199.434    7.757
  589.000    0.120    0.398   79.866  199.483    7.840
  589.250    0.112    0.382   80.452  199.554    7.952
  589.500    0.122    0.374   82.636  199.706    8.129
  589.750    0.137    0.377   85.125  199.863    8.320
  590.000    0.147    0.369   80.741  199.713    8.662
  590.250    0.139    0.366   77.584  199.666    9.154
  590.500    0.130    0.355   80.198  199.402    9.854
  590.750    0.137    0.340   83.551  199.150   10.567
  591.000    0.118    0.311   79.350  199.010   11.440
  591.250    0.093    0.311   69.991  199.153   11.930
  591.500    0.075    0.325   68.004  199.415   12.169
  591.750    0.107    0.339   76.509  201.013   12.028
  592.000    0.126    0.347   80.600  202.297   11.799
  592.250    0.121    0.334   80.203  203.374   11.489
  592.500    0.112    0.318   79.136  203.936   11.085
  592.750    0.098    0.304   78.925  204.201   10.957
  593.000    0.116    0.305   80.866  204.359   11.073
  593.250    0.116    0.326   86.302  204.307   10.964
  593.500    0.070    0.324   79.708  204.153   10.617
  593.750    0.039    0.315   73.422  203.907   10.205
  594.000    0.022    0.328   75.301  203.749    9.755
  594.250    0.109    0.343   86.446  203.404    9.222
  594.500    0.134    0.355   95.384  203.345    8.477
  594.750    0.124    0.357   88.484  204.018    7.496
  595.000    0.105    0.343   82.748  205.200    6.542
  595.250    0.092    0.363   80.327  205.875    5.380
  595.500    0.153    0.404   82.695  206.129    4.327
  595.750    0.185    0.447   91.204  206.179    3.474
  596.000    0.253    0.486   94.743  206.135    2.868
  596.250    0.229    0.514   90.908  205.470    2.569
  596.500    0.209    0.500   87.630  204.299    2.393
  596.750    0.197    0.477   87.609  204.143    2.283
  597.000    0.191    0.461   89.118  205.230    2.381
  597.250    0.185    0.460   93.323  205.792    2.597
