~VERSION INFORMATION
 VERS.                 2.0:   CWLS LOG ASCII STANDARD -VERSION 2.0
 WRAP.                  NO:   ONE LINE PER DEPTH STEP
~WELL INFORMATION BLOCK
#MNEM.UNIT           DATA                    DESCRIPTION OF MNEMONIC
#---------    -------------------            -------------------------------
# Generated from Intellog Unique Number	CS_77_79/WELL/995
WELL.         HOME LEISTER                   : Well_name    - WELL
LOC .         00/11-14-078-06W4/0            : Location     - LOCATION
UWI .         00/11-14-078-06W4/0            : Uwi          - UNIQUE WELL ID
ENTR.         JHS                            : Entered      - ENTERED BY
SRVC.         SCHLUMBERGER                   : Scn          - SERVICE COMPANY
STRT.M        140                            : top_depth    - START DEPTH
STOP.M        420                            : bot_depth    - STOP DEPTH
STEP.M        0.25                           : increment    - STEP LENGTH
 NULL. -999.2500:NULL Value
~CURVE INFORMATION BLOCK
#MNEM UNIT       ERCB CURVE CODE    CURVE DESCRIPTION
#-----------   ------------------   ----------------------------------
DEPT.M        00 001 00 00         : DEPTH        - DEPTH
DPHI.V/V      00 890 00 00         : PHID         - DENSITY POROSITY (LIMESTONE)
NPHI.V/V      00 330 00 00         : PHIN         - NEUTRON POROSITY (LIMESTONE)
GR  .API      00 310 00 00         : GR           - GAMMA RAY
ILD .OHMM     00 120 00 00         : RESD         - DEEP RESISTIVITY (DIL)
RHOB.KG/M3    00 350 00 00         : DENS         - BULK DENSITY
~PARAMETER INFORMATION
#MNEM.UNIT           DATA             DESCRIPTION OF MNEMONIC
#---------         -----------     ------------------------------
GL  .M        593.32               : gl           - GROUND LEVEL ELEVATION
EREF.M        596.32               : kb           - ELEVATION OF DEPTH REFERENCE
DATM.M        596.32               : datum        - DATUM ELEVATION
TDD .M        430                  : tdd          - TOTAL DEPTH DRILLER
RUN .         ONE                  : Run          - RUN NUMBER
ENG .         BILL                 : Engineer     - RECORDING ENGINEER
WIT .         JIM                  : Witness      - WITNESSED BY
MUD .         GEL                  : Mud_type     - MUD TYPE
MATR.         LIMESTONE            : Logunit      - NEUTRON MATRIX
TMAX.C        24                   : BHT          - MAXIMUM RECORDED TEMPERATURE
BHTD.M        430                  : BHTDEP       - MAXIMUM RECORDED TEMPERATURE
MATR.         1                    : LOGUNIT      - NEUTRON MATRIX
RMT .C        25                   : MDTP         - TEMPERATURE OF MUD
NEUT.         1                    : NEUTRON      - NEUTRON TYPE
RESI.         0                    : RESIST       - RESISTIVITY TYPE
RMC .OHMM     0.25                 : RMC          - RESISTIVITY OF MUD CAKE
RMF .OHMM     0.25                 : RMF          - RESISTIVITY OF MUD FILTRATE
SUFT.C        15                   : SUFT         - SURFACE TEMPERATURE
~A  DEPTH     PHID     PHIN       GR     RESD     DENS
# ...
  249.500    0.268    0.349   59.742   17.106    0.000
  249.750    0.346    0.396   65.922   16.817    0.000
  250.000    0.339    0.424   69.633   16.519    0.000
  250.250    0.338    0.456   68.406   15.643    0.000
  250.500    0.327    0.409   68.410   15.371    0.000
  250.750    0.298    0.365   74.591   15.110    0.000
  251.000    0.259    0.347   67.808   15.143    0.000
  251.250    0.321    0.365   64.727   15.156    0.000
  251.500    0.336    0.364   69.055   14.902    0.000
  251.750    0.341    0.375   68.445   14.928    0.000
  252.000    0.336    0.363   67.835   14.956    0.000
  252.250    0.328    0.398   66.606   14.968    0.000
  252.500    0.332    0.397   61.057   15.278    0.000
  252.750    0.325    0.392   57.980   15.304    0.000
  253.000    0.322    0.398   57.986   15.040    0.000
  253.250    0.339    0.408   59.843   15.067    0.000
  253.500    0.344    0.378   61.701   14.534    0.000
  253.750    0.340    0.370   61.708   14.560    0.000
  254.000    0.332    0.358   64.801   14.303    0.000
  254.250    0.322    0.347   68.513   14.069    0.000
  254.500    0.329    0.361   67.285   14.082    0.000
  254.750    0.333    0.383   70.377   13.584    0.000
  255.000    0.338    0.420   70.384   13.102    0.000
  255.250    0.326    0.351   66.069   12.414    0.000
  255.500    0.313    0.318   66.694   12.194    0.000
  255.750    0.275    0.282   75.960   11.546    0.000
  256.000    0.284    0.300   80.905   10.928    0.000
  256.250    0.300    0.334   80.913    9.782    0.000
  256.500    0.277    0.359   80.920    8.917    0.000
  256.750    0.257    0.384   81.544    8.134    0.000
  257.000    0.253    0.366   84.637    7.853    0.000
  257.250    0.267    0.348   88.347    7.714    0.000
  257.500    0.273    0.355   94.528    7.582    0.000
  257.750    0.248    0.368   95.769    7.314    0.000
  258.000    0.230    0.371   94.541    7.189    0.000
  258.250    0.231    0.374   95.165    7.067    0.000
  258.500    0.246    0.356   95.789    6.949    0.000
  258.750    0.243    0.339   95.178    6.701    0.000
  259.000    0.240    0.310  100.123    6.708    0.000
  259.250    0.215    0.321  100.749    6.598    0.000
  259.500    0.225    0.343  100.137    6.483    0.000
  259.750    0.236    0.371  101.996    6.371    0.000
  260.000    0.215    0.395  102.002    6.146    0.000
  260.250    0.213    0.396  104.477    5.819    0.000
  260.500    0.191    0.380  108.188    5.509    0.000
  260.750    0.225    0.366  107.578    5.024    0.000
  261.000    0.216    0.347  110.670    4.667    0.000
  261.250    0.204    0.351  113.146    4.418    0.000
  261.500    0.209    0.447  115.005    4.029    0.000
  261.750    0.208    0.500  111.308    3.674    0.000
  262.000    0.214    0.464  113.167    3.414    0.000
  262.250    0.225    0.398  110.706    3.232    0.000
  262.500    0.220    0.427  113.180    3.237    0.000
  262.750    0.206    0.443  115.040    3.430    0.000
  263.000    0.224    0.466  111.343    3.703    0.000
  263.250    0.220    0.453  114.436    3.923    0.000
  263.500    0.227    0.428  116.294    4.236    0.000
  263.750    0.226    0.397  112.597    4.404    0.000
  264.000    0.221    0.434  108.283    4.580    0.000
  264.250    0.230    0.504  103.351    4.336    0.000
  264.500    0.239    0.460  103.358    3.953    0.000
  264.750    0.241    0.423  106.452    3.408    0.000
  265.000    0.227    0.428  109.544    3.226    0.000
  265.250    0.203    0.373  112.021    3.170    0.000
  265.500    0.206    0.364  113.880    3.236    0.000
  265.750    0.220    0.374  115.119    3.366    0.000
  266.000    0.204    0.411  116.363    3.566    0.000
  266.250    0.195    0.450  112.664    3.707    0.000
  266.500    0.208    0.467  110.821    3.646    0.000
  266.750    0.223    0.488  107.739    3.518    0.000
  267.000    0.223    0.493  110.836    3.392    0.000
  267.250    0.220    0.451  112.692    3.272    0.000
  267.500    0.221    0.405  110.845    3.277    0.000
  267.750    0.225    0.376  107.150    3.281    0.000
  268.000    0.237    0.372  112.095    3.349    0.000
  268.250    0.247    0.385  118.274    3.684    0.000
  268.500    0.251    0.443  118.899    3.979    0.000
  268.750    0.237    0.498  118.286    4.377    0.000
  269.000    0.239    0.527  120.146    4.726    0.000
  269.250    0.270    0.466  122.621    5.198    0.000
  269.500    0.278    0.416  108.431    5.507    0.000
  269.750    0.245    0.365   91.769    5.518    0.000
  270.000    0.226    0.344   88.073    5.125    0.000
  270.250    0.212    0.351   91.166    4.946    0.000
  270.500    0.228    0.455   95.493    4.953    0.000
  270.750    0.232    0.403   99.205    5.248    0.000
  271.000    0.213    0.337   97.976    5.457    0.000
  271.250    0.200    0.311  106.009    5.566    0.000
  271.500    0.223    0.346  106.632    5.685    0.000
  271.750    0.223    0.351  103.552    5.583    0.000
  272.000    0.219    0.371   99.238    5.489    0.000
  272.250    0.210    0.388   98.011    5.496    0.000
  272.500    0.216    0.440   93.079    5.717    0.000
  272.750    0.216    0.455   93.087    5.725    0.000
  273.000    0.210    0.441   93.092    5.733    0.000
  273.250    0.216    0.366   94.951    5.230    0.000
  273.500    0.216    0.342   97.428    4.768    0.000
  273.750    0.208    0.354   95.581    4.187    0.000
  274.000    0.208    0.375   94.972    3.478    0.000
  274.250    0.213    0.392   96.829    3.353    0.000
  274.500    0.229    0.354  101.774    3.487    0.000
  274.750    0.247    0.375  106.105    4.215    0.000
  275.000    0.243    0.469  106.110    4.813    0.000
  275.250    0.235    0.514  106.116    5.707    0.000
  275.500    0.245    0.492  103.653    7.025    0.000
  275.750    0.277    0.461   99.339    8.331    0.000
  276.000    0.304    0.490  109.840    9.169    0.000
  276.250    0.321    0.465  106.761    9.358    0.000
  276.500    0.323    0.404   93.186    8.692    0.000
  276.750    0.318    0.355   71.587    8.547    0.000
  277.000    0.318    0.345   65.422    8.559    0.000
  277.250    0.313    0.356   66.662    8.732    0.000
  277.500    0.307    0.405   65.437    9.260    0.000
  277.750    0.320    0.426   66.059    9.269    0.000
  278.000    0.328    0.402   67.300    9.464    0.000
  278.250    0.324    0.380   65.457    9.473    0.000
  278.500    0.323    0.345   64.843    9.490    0.000
  278.750    0.318    0.372   66.702    9.499    0.000
  279.000    0.318    0.387   71.648    9.341    0.000
  279.250    0.319    0.402   72.272    9.359    0.000
  279.500    0.318    0.372   69.193    9.367    0.000
  279.750    0.311    0.383   72.286    9.386    0.000
  280.000    0.308    0.399   71.675    9.404    0.000
  280.250    0.315    0.404   70.447    9.412    0.000
  280.500    0.319    0.371   68.601    9.426    0.000
  280.750    0.321    0.379   66.757    9.440    0.000
  281.000    0.324    0.393   71.084    9.455    0.000
  281.250    0.332    0.378   73.560    9.470    0.000
  281.500    0.321    0.373   70.480    9.486    0.000
  281.750    0.307    0.397   74.191    9.503    0.000
  282.000    0.306    0.412   71.112    9.516    0.000
  282.250    0.317    0.405   66.798    9.533    0.000
  282.500    0.321    0.416   71.124    9.372    0.000
  282.750    0.311    0.449   74.835    9.210    0.000
  283.000    0.316    0.414   69.904    9.049    0.000
  283.250    0.312    0.347   70.528    8.567    0.000
  283.500    0.300    0.324   71.151    7.816    0.000
  283.750    0.309    0.355   68.072    7.537    0.000
  284.000    0.309    0.378   68.696    7.134    0.000
  284.250    0.297    0.365   74.258    6.755    0.000
  284.500    0.291    0.347   75.502    6.644    0.000
  284.750    0.258    0.340   76.123    6.527    0.000
  285.000    0.236    0.367   88.478    6.535    0.000
  285.250    0.246    0.379   92.189    6.674    0.000
  285.500    0.264    0.411   89.727    6.808    0.000
  285.750    0.271    0.423   91.583    6.821    0.000
