~VERSION INFORMATION
 VERS.                 2.0:   CWLS LOG ASCII STANDARD -VERSION 2.0
 WRAP.                  NO:   ONE LINE PER DEPTH STEP
~WELL INFORMATION BLOCK
#MNEM.UNIT           DATA                    DESCRIPTION OF MNEMONIC
#---------    -------------------            -------------------------------
# Generated from Intellog Unique Number	CS_73_76/WELL/855
WELL.         MAYNARD ENERGY                 : Well_name    - WELL
LOC .         00/13-22-073-13W4/0            : Location     - LOCATION
UWI .         00/13-22-073-13W4/0            : Uwi          - UNIQUE WELL ID
ENTR.         SP                             : Entered      - ENTERED BY
SRVC.         SCHLUMBERGER                   : Scn          - SERVICE COMPANY
STRT.M        320                            : top_depth    - START DEPTH
STOP.M        531                            : bot_depth    - STOP DEPTH
STEP.M        0.25                           : increment    - STEP LENGTH
 NULL. -999.2500:NULL Value
~CURVE INFORMATION BLOCK
#MNEM UNIT       ERCB CURVE CODE    CURVE DESCRIPTION
#-----------   ------------------   ----------------------------------
DEPT.M        00 001 00 00         : DEPTH        - DEPTH
ILD .OHMM     00 120 00 00         : RESD         - DEEP RESISTIVITY (DIL)
DPHI.V/V      00 890 00 00         : PHID         - DENSITY POROSITY (LIMESTONE)
NPHI.V/V      00 330 00 00         : PHIN         - NEUTRON POROSITY (LIMESTONE)
GR  .API      00 310 00 00         : GR           - GAMMA RAY
~PARAMETER INFORMATION
#MNEM.UNIT           DATA             DESCRIPTION OF MNEMONIC
#---------         -----------     ------------------------------
GL  .M        674.31               : gl           - GROUND LEVEL ELEVATION
EREF.M        677.76               : kb           - ELEVATION OF DEPTH REFERENCE
DATM.M        674.31               : datum        - DATUM ELEVATION
TDD .M        541                  : tdd          - TOTAL DEPTH DRILLER
RUN .         ONE                  : Run          - RUN NUMBER
ENG .         BILL                 : Engineer     - RECORDING ENGINEER
WIT .         JIM                  : Witness      - WITNESSED BY
MUD .         GEL                  : Mud_type     - MUD TYPE
MATR.         LIMESTONE            : Logunit      - NEUTRON MATRIX
TMAX.C        22                   : BHT          - MAXIMUM RECORDED TEMPERATURE
BHTD.M        541                  : BHTDEP       - MAXIMUM RECORDED TEMPERATURE
MATR.         1                    : LOGUNIT      - NEUTRON MATRIX
RMT .C        25                   : MDTP         - TEMPERATURE OF MUD
NEUT.         1                    : NEUTRON      - NEUTRON TYPE
RESI.         0                    : RESIST       - RESISTIVITY TYPE
RMC .OHMM     0.25                 : RMC          - RESISTIVITY OF MUD CAKE
RMF .OHMM     0.25                 : RMF          - RESISTIVITY OF MUD FILTRATE
SUFT.C        15                   : SUFT         - SURFACE TEMPERATURE
~A  DEPTH     RESD     PHID     PHIN       GR
# ...
  363.500    8.589    0.244    0.398  104.473
  363.750    8.429    0.228    0.403  106.298
  364.000    8.350    0.210    0.403  109.339
  364.250    7.947    0.197    0.403  112.379
  364.500    7.464    0.185    0.405  114.204
  364.750    6.817    0.195    0.408  116.638
  365.000    6.332    0.193    0.418  118.462
  365.250    5.848    0.196    0.432  118.466
  365.500    5.527    0.213    0.446  120.292
  365.750    5.286    0.225    0.451  120.903
  366.000    5.371    0.241    0.450  121.514
  366.250    5.456    0.237    0.450  121.516
  366.500    5.622    0.228    0.449  120.306
  366.750    5.788    0.228    0.448  116.058
  367.000    5.954    0.233    0.446  108.774
  367.250    6.040    0.243    0.445  106.956
  367.500    6.043    0.234    0.445  109.388
  367.750    6.127    0.231    0.443  113.036
  368.000    6.293    0.245    0.434  114.255
  368.250    6.541    0.268    0.430  114.258
  368.500    6.871    0.280    0.423  111.225
  368.750    7.036    0.286    0.415  106.977
  369.000    7.122    0.273    0.411  107.589
  369.250    7.126    0.259    0.409  108.807
  369.500    6.966    0.242    0.406  109.419
  369.750    7.051    0.237    0.410  109.421
  370.000    7.542    0.248    0.412  105.781
  370.250    7.952    0.255    0.411  100.318
  370.500    8.524    0.277    0.406   93.643
  370.750    8.934    0.288    0.404   89.395
  371.000    9.425    0.296    0.402   85.755
  371.250    9.673    0.297    0.401   86.366
  371.500    9.678    0.288    0.401   88.799
  371.750    9.355    0.236    0.407   92.447
  372.000    8.464    0.192    0.425   94.879
  372.250    7.736    0.176    0.433   99.134
  372.500    7.090    0.192    0.440  100.958
  372.750    6.767    0.209    0.448  104.606
  373.000    6.447    0.216    0.445  106.431
  373.250    6.368    0.215    0.442  107.042
  373.500    6.698    0.226    0.439  108.868
  373.750    6.863    0.227    0.438  110.086
  374.000    7.110    0.227    0.446  110.089
  374.250    7.360    0.238    0.446  104.627
  374.500    7.525    0.241    0.442   94.914
  374.750    7.611    0.259    0.440   89.453
  375.000    7.614    0.273    0.437   85.812
  375.250    7.617    0.267    0.436   86.424
  375.500    7.459    0.261    0.435   89.464
  375.750    7.380    0.247    0.437   91.289
  376.000    7.301    0.239    0.439   93.114
  376.250    7.224    0.258    0.437   96.155
  376.500    7.228    0.271    0.436   96.765
  376.750    7.394    0.283    0.435   96.769
  377.000    7.724    0.289    0.435   96.772
  377.250    7.889    0.278    0.437   95.562
  377.500    8.219    0.269    0.435   95.564
  377.750    8.384    0.259    0.432   94.962
  378.000    8.471    0.252    0.426   95.573
  378.250    8.474    0.245    0.423   96.184
  378.500    8.558    0.243    0.417   96.187
  378.750    8.560    0.244    0.413   95.583
  379.000    8.566    0.244    0.412   93.764
  379.250    8.649    0.244    0.411   91.947
  379.500    8.815    0.241    0.412   92.556
  379.750    8.981    0.237    0.419   93.775
  380.000    9.230    0.242    0.428   94.386
  380.250    9.313    0.245    0.438   94.390
  380.500    9.481    0.264    0.452   87.714
  380.750    9.728    0.294    0.462   81.644
  381.000    9.894    0.424    0.466   76.181
  381.250   10.140    0.435    0.438   69.505
  381.500   10.389    0.413    0.413   64.650
  381.750   10.392    0.366    0.393   67.690
  382.000   10.314    0.290    0.386   68.908
  382.250    9.993    0.278    0.389   69.519
  382.500    9.833    0.310    0.391   68.915
  382.750    9.594    0.327    0.393   65.883
  383.000    9.517    0.334    0.392   64.671
  383.250    9.439    0.336    0.389   64.675
  383.500    9.443    0.345    0.387   65.286
  383.750    9.446    0.331    0.386   67.112
  384.000    9.449    0.330    0.387   68.938
  384.250    9.371    0.330    0.387   70.156
  384.500    9.375    0.340    0.386   71.374
  384.750    9.296    0.350    0.384   71.377
  385.000    9.218    0.356    0.382   72.595
  385.250    9.141    0.367    0.381   72.599
  385.500    9.064    0.376    0.382   72.602
  385.750    8.986    0.385    0.390   72.609
  386.000    8.910    0.381    0.392   72.611
  386.250    8.912    0.377    0.397   72.613
  386.500    8.835    0.363    0.402   71.402
  386.750    8.837    0.348    0.407   71.405
  387.000    8.761    0.333    0.411   72.018
  387.250    8.764    0.325    0.418   72.021
  387.500    8.766    0.326    0.420   73.240
  387.750    8.688    0.324    0.421   73.850
  388.000    8.692    0.334    0.419   74.460
  388.250    8.778    0.343    0.415   75.073
  388.500    8.700    0.348    0.413   75.682
  388.750    8.704    0.356    0.411   75.687
  389.000    8.707    0.341    0.416   75.082
  389.250    8.712    0.326    0.422   74.479
  389.500    8.634    0.318    0.425   73.874
  389.750    8.636    0.329    0.428   73.271
  390.000    8.641    0.326    0.430   72.668
  390.250    8.643    0.324    0.428   72.672
  390.500    8.565    0.330    0.427   72.675
  390.750    8.568    0.349    0.423   73.284
  391.000    8.572    0.343    0.421   74.504
  391.250    8.495    0.351    0.421   76.329
  391.500    8.418    0.344    0.425   76.332
  391.750    8.339    0.331    0.431   75.121
  392.000    8.262    0.329    0.436   73.303
  392.250    8.104    0.329    0.438   72.699
  392.500    8.025    0.335    0.434   73.311
  392.750    7.866    0.347    0.431   75.745
  393.000    7.626    0.338    0.425   76.962
  393.250    7.467    0.318    0.421   77.572
  393.500    7.389    0.324    0.418   78.183
  393.750    7.311    0.330    0.415   76.366
  394.000    7.316    0.324    0.410   75.154
  394.250    7.481    0.313    0.403   72.729
  394.500    7.647    0.303    0.399   70.303
  394.750    7.814    0.308    0.393   69.698
  395.000    7.818    0.318    0.392   69.095
  395.250    7.820    0.331    0.390   68.491
  395.500    7.662    0.337    0.390   70.317
  395.750    7.583    0.339    0.390   75.178
  396.000    7.425    0.327    0.392   81.255
  396.250    7.265    0.307    0.392   86.117
  396.500    7.026    0.288    0.395   90.979
  396.750    6.866    0.284    0.403   95.235
  397.000    6.627    0.282    0.405   97.060
  397.250    6.548    0.268    0.400   98.884
  397.500    6.390    0.246    0.399  101.318
  397.750    6.392    0.226    0.398  102.536
  398.000    6.234    0.219    0.404  102.539
  398.250    6.074    0.224    0.416  101.935
  398.500    5.672    0.236    0.422  100.725
  398.750    5.349    0.251    0.432  102.551
  399.000    4.784    0.235    0.440  105.590
  399.250    4.219    0.218    0.451  105.593
  399.500    3.816    0.204    0.456  104.383
  399.750    3.413    0.213    0.469  103.779
  400.000    3.254    0.238    0.486  101.355
  400.250    3.013    0.271    0.494  101.357
  400.500    2.854    0.281    0.497  103.791
  400.750    2.776    0.288    0.495  105.008
  401.000    2.943    0.275    0.486  108.049
  401.250    3.110    0.248    0.481  109.874
  401.500    3.357    0.243    0.466  109.270
  401.750    3.850    0.244    0.458  106.238
  402.000    4.095    0.243    0.445  104.418
  402.250    4.506    0.268    0.438   95.314
  402.500    4.752    0.266    0.431   86.814
  402.750    5.244    0.289    0.422   78.923
  403.000    5.655    0.297    0.414   69.818
  403.250    5.982    0.310    0.410   63.748
  403.500    6.474    0.322    0.413   57.071
  403.750    6.885    0.323    0.411   55.252
  404.000    7.213    0.323    0.403   56.471
  404.250    7.460    0.326    0.400   57.690
  404.500    7.626    0.334    0.393   60.123
  404.750    7.712    0.340    0.388   61.341
  405.000    7.715    0.345    0.388   61.951
  405.250    7.638    0.335    0.393   61.348
  405.500    7.641    0.331    0.405   60.137
  405.750    7.565    0.316    0.414   59.534
  406.000    7.567    0.316    0.418   59.537
  406.250    7.571    0.329    0.423   60.148
  406.500    7.574    0.337    0.419   61.366
  406.750    7.496    0.341    0.412   64.406
