~VERSION INFORMATION
 VERS.                 2.0:   CWLS LOG ASCII STANDARD -VERSION 2.0
 WRAP.                  NO:   ONE LINE PER DEPTH STEP
~WELL INFORMATION BLOCK
#MNEM.UNIT           DATA                    DESCRIPTION OF MNEMONIC
#---------    -------------------            -------------------------------
# Generated from Intellog Unique Number	CC_80_83/WELL/2329
NULL.         -999.25                        : NULL_VALUE
WELL.         HOMESTEAD ET AL COWPAR         : Well_name    - WELL
LOC .         10-02-082-05W4                 : Location     - LOCATION          
UWI .         00/10-02-082-05W4/0            : Uwi          - UNIQUE WELL ID    
ENTR.         DW                             : Entered      - ENTERED BY        
DATE.         18 FEB 75                      : Date         - LOG DATE
SRVC.         SCHLUMBERGER                   : Scn          - SERVICE COMPANY   
STRT.M        60.96                          : top_depth    - START DEPTH       
STOP.M        268.222                        : bot_depth    - STOP DEPTH        
STEP.M        0.3048                         : increment    - STEP LENGTH       
~CURVE INFORMATION BLOCK
#MNEM UNIT       ERCB CURVE CODE    CURVE DESCRIPTION
#-----------   ------------------   ----------------------------------
DEPT.M        00 001 00 00         : DEPTH        - DEPTH                       
DPHI.V/V      00 890 00 00         : PHID         - DENSITY POROSITY (LIMESTONE)
NPHI.V/V      00 330 00 00         : PHIN         - NEUTRON POROSITY (LIMESTONE)
GR  .API      00 310 00 00         : GR           - GAMMA RAY                   
ILD .OHMM     00 120 00 00         : RESD         - DEEP RESISTIVITY (DIL)      
~PARAMETER INFORMATION       
#MNEM.UNIT           DATA             DESCRIPTION OF MNEMONIC
#---------         -----------     ------------------------------
GL  .M        455.981              : gl           - GROUND LEVEL ELEVATION      
EREF.M        459.638              : kb           - ELEVATION OF DEPTH REFERENCE
DATM.M        459.638              : datum        - DATUM ELEVATION             
TDD .M        282.55               : tdd          - TOTAL DEPTH DRILLER         
RUN .         ONE                  : Run          - RUN NUMBER                  
ENG .         BILL                 : Engineer     - RECORDING ENGINEER          
WIT .         JIM                  : Witness      - WITNESSED BY                
MUD .         GEL                  : Mud_type     - MUD TYPE                    
MATR.         LIMESTONE            : Logunit      - NEUTRON MATRIX              
TMAX.C        19.4444              : BHT          - MAXIMUM RECORDED TEMPERATURE
BHTD.M        282.55               : BHTDEP       - MAXIMUM RECORDED TEMPERATURE
MATR.         1                    : LOGUNIT      - NEUTRON MATRIX              
RMT .C        25                   : MDTP         - TEMPERATURE OF MUD          
NEUT.         1                    : NEUTRON      - NEUTRON TYPE                
RESI.         0                    : RESIST       - RESISTIVITY TYPE            
RMC .OHMM     0.25                 : RMC          - RESISTIVITY OF MUD CAKE     
RMF .OHMM     0.25                 : RMF          - RESISTIVITY OF MUD FILTRATE 
SUFT.C        15                   : SUFT         - SURFACE TEMPERATURE         
~A  DEPTH     PHID     PHIN       GR     RESD
# ...
  113.995    0.229    0.566  106.933    4.658
  114.300    0.245    0.544  110.015    4.240
  114.605    0.230    0.528  111.242    3.787
  114.910    0.203    0.530  108.767    3.579
  115.215    0.231    0.546  105.056    3.446
  115.520    0.226    0.558  105.051    3.319
  115.824    0.240    0.575  112.452    3.257
  116.129    0.241    0.592  111.829    3.257
  116.434    0.253    0.569  107.500    3.319
  116.739    0.227    0.547  100.703    3.382
  117.044    0.224    0.534   96.374    3.446
  117.348    0.248    0.522   92.046    3.511
  117.653    0.234    0.512   92.657    4.082
  117.958    0.215    0.542   97.590    4.927
  118.263    0.230    0.515   99.436    5.020
  118.568    0.216    0.497   97.577    4.927
  118.872    0.236    0.533   96.335    4.569
  119.177    0.226    0.563   95.712    4.081
  119.482    0.252    0.591   93.235    3.645
  119.787    0.244    0.582   96.315    3.445
  120.092    0.237    0.602   96.309    3.195
  120.396    0.229    0.592   93.217    3.135
  120.701    0.262    0.580   87.037    2.963
  121.006    0.252    0.574   78.387    3.077
  121.311    0.268    0.568   69.737    3.317
  121.616    0.267    0.580   58.616    3.929
  121.920    0.306    0.573   53.670    4.833
  122.225    0.289    0.529   53.663    5.945
  122.530    0.284    0.490   53.039    8.501
  122.835    0.304    0.453   57.356   11.274
  123.140    0.323    0.451   63.524   13.608
  123.444    0.336    0.464   61.047   16.119
  123.749    0.332    0.448   53.014   17.055
  124.054    0.318    0.441   57.948   16.737
  124.359    0.312    0.437   64.114   16.424
  124.664    0.314    0.449   61.639   16.118
  124.968    0.321    0.458   56.074   15.521
  125.273    0.347    0.426   56.686   15.521
  125.578    0.325    0.437   57.299   15.231
  125.883    0.330    0.431   57.293   14.668
  126.188    0.331    0.426   55.433   14.394
  126.492    0.313    0.448   52.956   15.230
  126.797    0.283    0.456   52.951   15.519
  127.102    0.325    0.459   54.178   15.814
  127.407    0.320    0.464   56.026   16.113
  127.712    0.294    0.468   57.254   16.113
  128.016    0.296    0.420   56.630   16.113
  128.321    0.310    0.430   57.857   15.812
  128.626    0.328    0.441   60.318   15.811
  128.931    0.329    0.452   60.932   15.516
  129.236    0.326    0.434   59.691   15.226
  129.540    0.331    0.436   52.893   14.942
  129.845    0.310    0.447   48.565   14.941
  130.150    0.285    0.434   53.497   15.225
  130.455    0.299    0.428   54.110   15.225
  130.760    0.328    0.432   54.102   15.224
  131.064    0.324    0.463   57.181   15.224
  131.369    0.323    0.460   59.027   14.940
  131.674    0.318    0.441   57.788   14.661
  131.979    0.314    0.437   54.694   14.660
  132.284    0.323    0.445   52.836   14.386
  132.588    0.309    0.439   50.360   14.118
  132.893    0.312    0.440   50.971   14.659
  133.198    0.311    0.440   48.494   14.937
  133.503    0.313    0.424   44.784   15.509
  133.807    0.302    0.413   42.308   15.804
  134.112    0.281    0.426   42.302   18.029
  134.417    0.227    0.410   51.556   23.027
  134.722    0.063    0.181   59.576   23.026
  135.027    0.035    0.231   52.779   20.183
  135.331    0.171    0.361   54.623   18.027
  135.636    0.238    0.440   58.940   15.801
  135.941    0.318    0.481   59.550   14.655
  136.246    0.324    0.459   55.838   14.113
  136.551    0.328    0.451   53.980   14.381
  136.855    0.334    0.440   53.975   14.380
  137.160    0.297    0.441   57.672   14.112
  137.465    0.314    0.451   55.813   13.848
  137.770    0.323    0.446   53.956   13.848
  138.075    0.324    0.443   53.950   14.111
  138.379    0.291    0.451   55.177   14.378
  138.684    0.319    0.472   55.788   14.378
  138.989    0.314    0.483   52.694   14.378
  139.294    0.329    0.452   51.454   13.846
  139.599    0.345    0.441   50.830   13.846
  139.903    0.351    0.436   50.824   14.108
  140.208    0.328    0.451   55.756   14.376
  140.513    0.313    0.456   56.984   14.649
  140.818    0.323    0.464   54.509   16.094
  141.123    0.338    0.474   47.712   18.709
  141.427    0.324    0.480   50.175   23.012
  141.732    0.237    0.396   59.427   24.810
  142.037    0.039    0.228   61.891   25.282
  142.342    0.126    0.320   61.269   21.341
  142.647    0.198    0.407   58.175   17.026
  142.951    0.295    0.453   58.167   13.841
  143.256    0.301    0.456   58.780   12.837
  143.561    0.290    0.451   58.772   12.837
  143.866    0.304    0.443   58.150   13.081
  144.170    0.327    0.437   58.143   13.582
  144.475    0.320    0.442   56.901   13.581
  144.780    0.316    0.437   55.042   13.328
  145.085    0.309    0.447   54.417   13.328
  145.390    0.312    0.461   54.412   12.835
  145.694    0.311    0.470   55.025   12.595
  145.999    0.331    0.476   58.721   12.595
  146.304    0.317    0.479   60.569   12.360
  146.609    0.320    0.464   58.092   12.129
  146.914    0.305    0.466   64.878   12.128
  147.218    0.334    0.476   66.105   12.128
  147.523    0.322    0.466   64.865   11.680
  147.828    0.304    0.449   61.769   11.679
  148.133    0.293    0.458   61.765   11.679
  148.438    0.338    0.448   62.375   11.901
  148.742    0.319    0.444   62.367   12.126
  149.047    0.307    0.458   62.980   12.591
  149.352    0.320    0.457   62.355   12.591
  149.657    0.293    0.452   62.346   12.591
  149.962    0.315    0.458   61.726   12.590
  150.266    0.335    0.473   62.335   12.590
  150.571    0.346    0.447   61.713   12.589
  150.876    0.337    0.469   62.939   12.828
  151.181    0.320    0.496   64.788   12.589
  151.486    0.321    0.480   66.017   12.588
  151.790    0.312    0.478   66.628   12.353
  152.095    0.308    0.464   63.533   12.123
  152.400    0.311    0.454   64.762   12.122
  152.705    0.299    0.467   67.844   11.896
  153.010    0.301    0.468   69.689   11.674
  153.314    0.306    0.460   66.594   11.033
  153.619    0.304    0.469   69.676   10.427
  153.924    0.299    0.467   72.757    9.854
  154.229    0.293    0.470   73.985    8.163
  154.533    0.304    0.483   86.327    6.272
  154.838    0.299    0.465   93.112    5.099
  155.143    0.272    0.472   94.340    4.386
  155.448    0.236    0.522   94.334    3.773
  155.753    0.256    0.525   98.650    3.185
  156.057    0.252    0.522  101.728    2.792
  156.362    0.257    0.570  102.341    2.589
  156.667    0.257    0.597  104.188    2.401
  156.972    0.286    0.592  104.181    2.401
  157.277    0.268    0.606   96.148    2.447
  157.581    0.277    0.622   93.054    2.493
  157.886    0.254    0.616   96.751    2.739
  158.191    0.238    0.600   97.362    3.009
  158.496    0.219    0.565   96.123    3.369
  158.801    0.208    0.559   91.795    3.565
  159.105    0.209    0.575   92.405    3.843
  159.410    0.239    0.533   93.017    4.222
  159.715    0.250    0.523   93.010    4.552
  160.020    0.255    0.533   88.682    5.392
  160.325    0.229    0.530   83.118    5.924
  160.629    0.238    0.509   77.553    6.887
  160.934    0.245    0.487   73.842    8.006
  161.239    0.256    0.474   72.603    9.847
  161.544    0.257    0.510   71.978   11.447
  161.849    0.256    0.508   72.589   12.112
  162.153    0.257    0.490   73.818   13.059
  162.458    0.266    0.504   76.897   13.817
  162.763    0.286    0.505   79.362   13.816
  163.068    0.301    0.501   85.531   13.559
  163.373    0.266    0.478   92.314   11.884
  163.677    0.266    0.466   92.923    9.305
  163.982    0.254    0.501   91.685    8.630
  164.287    0.240    0.513   90.442    8.960
  164.592    0.234    0.484   91.671    9.661
  164.896    0.225    0.451   91.666   10.222
  165.201    0.222    0.439   91.041   11.021
  165.506    0.239    0.440   89.800   11.661
  165.811    0.240    0.444   89.174   11.882
  166.116    0.202    0.471   89.169   11.660
  166.420    0.243    0.456   89.782   11.442
  166.725    0.228    0.473   89.156   10.612
