~VERSION INFORMATION
 VERS.                 2.0:   CWLS LOG ASCII STANDARD -VERSION 2.0
 WRAP.                  NO:   ONE LINE PER DEPTH STEP
~WELL INFORMATION BLOCK
#MNEM.UNIT           DATA                    DESCRIPTION OF MNEMONIC
#---------    -------------------            -------------------------------
# Generated from Intellog Unique Number	CS_69_70/WELL/892
NULL.         -999.25                        : NULL_VALUE
WELL.         HB PITLOCHRIE                  : Well_name    - WELL              
LOC .         00/11-21-070-12W4/0            : Location     - LOCATION          
UWI .         00/11-21-070-12W4/0            : Uwi          - UNIQUE WELL ID    
ENTR.         SP                             : Entered      - ENTERED BY        
SRVC.         SCHLUMBERGER                   : Scn          - SERVICE COMPANY   
STRT.M        259.080                        : top_depth    - START DEPTH       
STOP.M        456.830                        : bot_depth    - STOP DEPTH        
STEP.M        0.25                           : increment    - STEP LENGTH       
~CURVE INFORMATION BLOCK
#MNEM UNIT       ERCB CURVE CODE    CURVE DESCRIPTION
#-----------   ------------------   ----------------------------------
DEPT.M        00 001 00 00         : DEPTH        - DEPTH                       
GR  .API      00 310 00 00         : GR           - GAMMA RAY                   
DPHI.V/V      00 890 00 00         : PHID         - DENSITY POROSITY (SANDSTONE)
NPHI.V/V      00 330 00 00         : PHIN         - NEUTRON POROSITY (SANDSTONE)
ILD .OHMM     00 120 00 00         : RESD         - DEEP RESISTIVITY (DIL)      
~PARAMETER INFORMATION       
#MNEM.UNIT           DATA             DESCRIPTION OF MNEMONIC
#---------         -----------     ------------------------------
GL  .M        576.682              : gl           - GROUND LEVEL ELEVATION      
EREF.M        580.339              : kb           - ELEVATION OF DEPTH REFERENCE
DATM.M        576.682              : datum        - DATUM ELEVATION             
TDD .M        460.248              : tdd          - TOTAL DEPTH DRILLER         
RUN .         ONE                  : Run          - RUN NUMBER                  
ENG .         BILL                 : Engineer     - RECORDING ENGINEER          
WIT .         JIM                  : Witness      - WITNESSED BY                
MUD .         GEL                  : Mud_type     - MUD TYPE                    
MATR.         SANDSTONE            : Logunit      - NEUTRON MATRIX              
TMAX.C        12.2222              : BHT          - MAXIMUM RECORDED TEMPERATURE
BHTD.M        460.248              : BHTDEP       - MAXIMUM RECORDED TEMPERATURE
MATR.         1                    : LOGUNIT      - NEUTRON MATRIX              
RMT .C        25                   : MDTP         - TEMPERATURE OF MUD          
NEUT.         1                    : NEUTRON      - NEUTRON TYPE                
RESI.         0                    : RESIST       - RESISTIVITY TYPE            
RMC .OHMM     0.25                 : RMC          - RESISTIVITY OF MUD CAKE     
RMF .OHMM     0.25                 : RMF          - RESISTIVITY OF MUD FILTRATE 
SUFT.C        15                   : SUFT         - SURFACE TEMPERATURE         
~A  DEPTH       GR     PHID     PHIN     RESD
# ...
  346.080   82.561    0.295    0.503    5.963
  346.330   81.648    0.280    0.509    5.912
  346.580   79.699    0.270    0.499    5.877
  346.830   77.335    0.288    0.488    5.883
  347.080   77.207    0.292    0.468    6.049
  347.330   80.900    0.280    0.452    6.223
  347.580   82.959    0.262    0.453    6.630
  347.830   82.560    0.236    0.459    7.758
  348.080   79.430    0.187    0.453    8.739
  348.330   73.772    0.151    0.413    9.204
  348.580   70.333    0.110    0.371    9.469
  348.830   65.344    0.071    0.263    9.149
  349.080   73.979    0.091    0.338    8.294
  349.330   81.148    0.157    0.433    7.541
  349.580   88.133    0.206    0.475    7.012
  349.830   90.899    0.210    0.477    6.648
  350.080   91.495    0.224    0.477    6.365
  350.330   87.888    0.235    0.478    6.256
  350.580   85.078    0.248    0.492    6.203
  350.830   82.375    0.255    0.485    6.194
  351.080   81.543    0.237    0.475    6.160
  351.330   84.384    0.218    0.480    6.162
  351.580   87.304    0.207    0.480    6.173
  351.830   89.895    0.222    0.480    6.190
  352.080   88.864    0.230    0.481    6.190
  352.330   87.373    0.236    0.498    6.165
  352.580   87.464    0.246    0.511    6.139
  352.830   87.168    0.240    0.500    6.126
  353.080   85.351    0.249    0.482    6.111
  353.330   83.835    0.224    0.480    6.104
  353.580   83.290    0.217    0.490    6.096
  353.830   84.687    0.217    0.501    6.125
  354.080   86.414    0.219    0.502    6.173
  354.330   88.949    0.211    0.493    6.229
  354.580   91.559    0.198    0.484    6.312
  354.830   92.063    0.232    0.468    6.381
  355.080   92.859    0.218    0.475    6.383
  355.330   91.993    0.222    0.478    6.253
  355.580   90.157    0.213    0.476    6.135
  355.830   88.968    0.210    0.485    6.042
  356.080   89.655    0.212    0.500    5.980
  356.330   87.357    0.233    0.503    5.977
  356.580   82.409    0.258    0.493    6.033
  356.830   79.905    0.254    0.483    6.273
  357.080   80.910    0.265    0.485    6.717
  357.330   80.597    0.277    0.495    7.247
  357.580   79.968    0.230    0.481    8.018
  357.830   81.310    0.197    0.462    8.690
  358.080   83.545    0.153    0.432    8.729
  358.330   86.366    0.138    0.403    7.596
  358.580   88.824    0.181    0.410    6.602
  358.830   91.789    0.211    0.457    5.751
  359.080   94.264    0.237    0.483    5.293
  359.330   94.318    0.212    0.472    5.549
  359.580   94.097    0.200    0.466    5.792
  359.830   92.279    0.195    0.474    6.131
  360.080   92.283    0.194    0.480    6.381
  360.330   93.679    0.193    0.482    6.666
  360.580   94.214    0.194    0.497    6.845
  360.830   92.949    0.183    0.489    6.925
  361.080   92.260    0.165    0.481    6.947
  361.330   92.534    0.161    0.476    6.877
  361.580   93.726    0.172    0.472    6.731
  361.830   95.568    0.181    0.468    6.546
  362.080   96.573    0.182    0.465    6.418
  362.330   95.716    0.182    0.492    6.318
  362.580   94.541    0.185    0.513    6.223
  362.830   92.270    0.200    0.522    6.191
  363.080   90.041    0.220    0.511    6.141
  363.330   88.957    0.223    0.503    6.130
  363.580   90.623    0.213    0.500    6.064
  363.830   94.021    0.196    0.491    5.842
  364.080   96.280    0.184    0.483    5.292
  364.330   96.420    0.192    0.495    4.925
  364.580   95.958    0.193    0.491    4.763
  364.830   96.805    0.185    0.509    4.947
  365.080   98.053    0.188    0.524    5.202
  365.330   98.186    0.211    0.521    5.417
  365.580   96.551    0.219    0.502    5.511
  365.830   94.407    0.239    0.489    5.359
  366.080   92.179    0.230    0.503    4.644
  366.330   91.015    0.244    0.519    3.449
  366.580   90.407    0.385    0.529    2.606
  366.830   90.767    0.438    0.567    2.129
  367.080   92.789    0.401    0.604    1.858
  367.330   95.786    0.346    0.654    1.703
  367.580   96.272    0.308    0.680    1.862
  367.830   95.952    0.307    0.664    2.242
  368.080   93.059    0.344    0.607    2.795
  368.330   90.052    0.366    0.656    3.426
  368.580   92.665    0.337    0.623    4.107
  368.830   97.545    0.290    0.544    4.629
  369.080  100.540    0.261    0.503    5.022
  369.330   99.775    0.234    0.486    5.265
  369.580   97.593    0.220    0.477    5.467
  369.830   95.650    0.210    0.471    5.590
  370.080   97.247    0.205    0.492    5.695
  370.330   96.034    0.218    0.505    5.756
  370.580   92.457    0.225    0.492    5.766
  370.830   87.916    0.236    0.499    5.754
  371.080   84.746    0.256    0.505    5.763
  371.330   83.341    0.272    0.513    5.652
  371.580   83.103    0.266    0.539    5.625
  371.830   84.354    0.259    0.514    5.728
  372.080   85.389    0.247    0.504    5.922
  372.330   85.618    0.243    0.500    6.096
  372.580   83.493    0.249    0.511    6.208
  372.830   80.747    0.270    0.510    6.217
  373.080   77.912    0.293    0.499    6.132
  373.330   74.043    0.304    0.485    5.968
  373.580   70.052    0.308    0.485    5.853
  373.830   68.323    0.316    0.488    5.713
  374.080   65.658    0.306    0.480    5.658
  374.330   62.857    0.301    0.479    5.608
  374.580   61.314    0.317    0.475    5.588
  374.830   61.893    0.328    0.463    5.580
  375.080   63.772    0.334    0.454    5.561
  375.330   66.259    0.321    0.460    5.557
  375.580   67.607    0.314    0.454    5.552
  375.830   68.567    0.309    0.449    5.596
  376.080   70.142    0.306    0.447    5.684
  376.330   72.234    0.299    0.462    5.840
  376.580   74.970    0.297    0.483    6.054
  376.830   77.148    0.300    0.482    6.461
  377.080   77.746    0.259    0.472    7.176
  377.330   77.405    0.205    0.462    8.041
  377.580   69.593    0.149    0.420    9.095
  377.830   65.008    0.091    0.333    9.343
  378.080   62.215    0.065    0.316    6.450
  378.330   65.760    0.056    0.307    5.235
  378.580   71.921    0.178    0.341    4.606
  378.830   78.476    0.233    0.471    4.152
  379.080   81.969    0.241    0.481    3.969
  379.330   81.100    0.224    0.434    4.086
  379.580   80.674    0.213    0.414    4.348
  379.830   81.937    0.204    0.434    4.698
  380.080   83.887    0.221    0.456    5.097
  380.330   84.984    0.231    0.470    5.549
  380.580   84.727    0.221    0.455    6.054
  380.830   83.311    0.202    0.428    6.192
  381.080   80.504    0.178    0.377    6.187
  381.330   77.903    0.151    0.343    5.794
  381.580   78.939    0.153    0.393    5.315
  381.830   80.790    0.181    0.423    5.015
  382.080   81.700    0.204    0.437    4.845
  382.330   84.204    0.211    0.438    4.763
  382.580   84.892    0.217    0.444    4.715
  382.830   83.377    0.219    0.454    4.720
  383.080   81.130    0.211    0.455    4.699
  383.330   80.189    0.198    0.449    4.709
  383.580   80.217    0.191    0.446    4.697
  383.830   81.448    0.189    0.455    4.668
  384.080   83.499    0.193    0.460    4.639
  384.330   86.120    0.223    0.458    4.592
  384.580   88.287    0.242    0.457    4.556
  384.830   89.789    0.233    0.457    4.510
  385.080   90.609    0.223    0.460    4.507
  385.330   89.308    0.209    0.469    4.577
  385.580   87.650    0.194    0.466    4.697
  385.830   87.231    0.205    0.458    4.796
  386.080   88.219    0.206    0.449    4.824
  386.330   89.376    0.191    0.444    4.784
  386.580   91.224    0.193    0.449    4.720
  386.830   93.419    0.193    0.471    4.615
  387.080   96.262    0.197    0.489    4.523
  387.330   98.504    0.213    0.490    4.381
  387.580   99.110    0.223    0.483    4.191
  387.830   99.122    0.248    0.472    3.813
  388.080   97.889    0.271    0.471    3.507
  388.330   95.836    0.311    0.518    3.289
  388.580   93.567    0.334    0.546    3.336
  388.830   91.685    0.362    0.559    3.445
  389.080   90.087    0.383    0.550    3.498
  389.330   89.555    0.386    0.528    3.517
