~VERSION INFORMATION
 VERS.                 2.0:   CWLS LOG ASCII STANDARD -VERSION 2.0
 WRAP.                  NO:   ONE LINE PER DEPTH STEP
~WELL INFORMATION BLOCK
#MNEM.UNIT           DATA                    DESCRIPTION OF MNEMONIC
#---------    -------------------            -------------------------------
# Generated from Intellog Unique Number	CW_73_75/WELL/2738
WELL.         MANNVILLE ET AL FAWCETT 10-05  : Well_name    - WELL
LOC .         00/10-05-073-01W5/0            : Location     - LOCATION
UWI .         00/10-05-073-01W5/0            : Uwi          - UNIQUE WELL ID
ENTR.         JAYE                           : Entered      - ENTERED BY
SRVC.         SCHLUMBERGER                   : Scn          - SERVICE COMPANY
DATE.         20 NOV 77                      : Date         - LOG DATE
STRT.M        426.72                         : top_depth    - START DEPTH
STOP.M        685.72                         : bot_depth    - STOP DEPTH
STEP.M        0.25                           : increment    - STEP LENGTH
 NULL. -999.2500:NULL Value
~CURVE INFORMATION BLOCK
#MNEM UNIT       ERCB CURVE CODE    CURVE DESCRIPTION
#-----------   ------------------   ----------------------------------
DEPT.M        00 001 00 00         : DEPTH        - DEPTH
DPHI.V/V      00 890 00 00         : PHID         - DENSITY POROSITY (SANDSTONE)
NPHI.V/V      00 330 00 00         : PHIN         - NEUTRON POROSITY (SANDSTONE)
GR  .API      00 310 00 00         : GR           - GAMMA RAY
CALI.MM       00 280 01 00         : CAL          - CALIPER
ILD .OHMM     00 120 00 00         : RESD         - DEEP RESISTIVITY (DIL)
~PARAMETER INFORMATION
#MNEM.UNIT           DATA             DESCRIPTION OF MNEMONIC
#---------         -----------     ------------------------------
GL  .M        635.203              : gl           - GROUND LEVEL ELEVATION
EREF.M        638.251              : kb           - ELEVATION OF DEPTH REFERENCE
DATM.M        635.203              : datum        - DATUM ELEVATION
TDD .M        694.944              : tdd          - TOTAL DEPTH DRILLER
RUN .         ONE                  : Run          - RUN NUMBER
ENG .         KUBICA/RIVOLLIER     : Engineer     - RECORDING ENGINEER
WIT .         WOOLLEY              : Witness      - WITNESSED BY
BASE.         EDM                  : Branch       - HOME BASE OF LOGGING UNIT
MUD .         GEL                  : Mud_type     - MUD TYPE
MATR.         SANDSTONE            : Logunit      - NEUTRON MATRIX
TMAX.C        21.1111              : BHT          - MAXIMUM RECORDED TEMPERATURE
BHTD.M        694.944              : BHTDEP       - MAXIMUM RECORDED TEMPERATURE
RMT .C        11.1111              : MDTP         - TEMPERATURE OF MUD
MUDD.KG/M     1116                 : MWT          - MUD DENSITY
NEUT.         1                    : NEUTRON      - NEUTRON TYPE
RESI.         0                    : RESIST       - RESISTIVITY TYPE
RM  .OHMM     3.89                 : RM           - RESISTIVITY OF MUD
RMC .OHMM     0                    : RMC          - RESISTIVITY OF MUD CAKE
RMF .OHMM     5.51                 : RMF          - RESISTIVITY OF MUD FILTRATE
SUFT.C        -17.7778             : SUFT         - SURFACE TEMPERATURE
~A  DEPTH     PHID     PHIN       GR      CAL     RESD
  426.720    0.204    0.472   91.885  195.929    3.111
  426.970    0.213    0.416   85.070  186.184    3.320
  427.220    0.207    0.392   83.683  178.761    3.659
  427.470    0.192    0.413   87.150  185.591    3.645
  427.720    0.212    0.435   91.682  197.806    3.275
  427.970    0.224    0.460   94.463  211.068    2.966
  428.220    0.256    0.505   94.069  226.022    2.686
  428.470    0.277    0.520   90.435  240.025    2.418
  428.720    0.313    0.541   92.096  250.545    2.240
  428.970    0.371    0.562   97.501  247.341    2.279
  429.220    0.372    0.505   97.731  191.368    2.570
  429.470    0.322    0.435   89.790  171.482    3.011
  429.720    0.245    0.412   81.232  163.111    3.487
  429.970    0.232    0.410   74.795  160.646    4.047
  430.220    0.224    0.413   72.528  162.003    4.435
  430.470    0.218    0.405   72.255  163.544    4.555
  430.720    0.214    0.406   71.984  164.872    4.511
  430.970    0.193    0.414   72.781  165.897    4.520
  431.220    0.202    0.421   74.008  166.080    4.607
  431.470    0.218    0.414   74.918  167.092    4.786
  431.720    0.227    0.396   75.651  168.328    5.096
  431.970    0.139    0.371   72.071  169.457    5.459
  432.220    0.105    0.328   66.380  170.258    5.747
  432.470    0.082    0.293   61.867  170.549    5.736
  432.720    0.149    0.314   59.544  169.982    5.314
  432.970    0.185    0.343   65.634  168.255    4.877
  433.220    0.228    0.391   72.717  163.790    4.349
  433.470    0.220    0.409   75.687  164.076    4.007
  433.720    0.204    0.421   79.036  165.195    3.834
  433.970    0.209    0.442   81.757  166.853    3.719
  434.220    0.215    0.438   83.172  168.723    3.573
  434.470    0.202    0.423   82.964  170.581    3.465
  434.720    0.207    0.435   85.685  173.934    3.279
  434.970    0.234    0.452   85.539  174.842    3.120
  435.220    0.269    0.467   84.458  173.010    3.061
  435.470    0.251    0.481   85.872  178.366    3.096
  435.720    0.267    0.492   85.795  180.122    3.168
  435.970    0.213    0.478   85.895  175.123    3.335
  436.220    0.220    0.442   89.800  173.614    3.552
  436.470    0.198    0.433   94.894  174.957    3.704
  436.720    0.188    0.430  100.045  174.817    3.914
  436.970    0.190    0.417   97.718  173.305    4.082
  437.220    0.225    0.357   84.921  170.416    4.160
  437.470    0.204    0.365   76.424  167.636    4.043
  437.720    0.231    0.385   74.841  166.019    3.732
  437.970    0.260    0.407   80.930  169.043    3.418
  438.220    0.232    0.435   92.941  183.893    3.431
  438.470    0.295    0.478   99.660  204.862    3.578
  438.720    0.291    0.507  103.560  224.353    3.781
  438.970    0.204    0.443   98.366  183.049    4.058
  439.220    0.173    0.401   93.237  167.600    4.272
  439.470    0.152    0.375   93.090  169.786    4.388
  439.720    0.173    0.397   96.250  172.724    4.247
  439.970    0.191    0.435  101.899  173.410    4.127
  440.220    0.225    0.428   95.023  172.538    4.183
  440.470    0.209    0.397   87.834  172.708    4.280
  440.720    0.216    0.405   87.438  172.682    4.329
  440.970    0.226    0.402   87.417  171.798    4.312
  441.220    0.216    0.391   90.514  171.231    4.198
  441.470    0.197    0.379   95.733  171.622    3.987
  441.720    0.186    0.383  103.318  179.395    3.730
  441.970    0.174    0.433  111.711  190.866    3.449
  442.220    0.157    0.471  117.238  202.443    3.147
  442.470    0.172    0.489  120.458  214.335    2.938
  442.720    0.158    0.485  122.372  203.009    2.989
  442.970    0.200    0.503  120.231  207.725    3.141
  443.220    0.218    0.431  112.920  216.342    3.390
  443.470    0.233    0.376  106.728  198.683    3.765
  443.720    0.188    0.364  101.847  186.724    4.419
  443.970    0.180    0.375   96.089  184.157    4.643
  444.220    0.206    0.373   89.896  181.588    4.608
  444.470    0.224    0.363   81.272  177.114    4.393
  444.720    0.248    0.348   72.899  171.277    3.978
  444.970    0.280    0.342   61.471  164.908    3.528
  445.220    0.286    0.359   52.473  159.915    3.350
  445.470    0.277    0.389   44.912  157.344    3.188
  445.720    0.301    0.377   39.157  155.632    3.057
  445.970    0.316    0.374   37.080  154.642    2.976
  446.220    0.304    0.381   37.559  154.284    2.848
  446.470    0.296    0.352   37.535  154.042    2.731
  446.720    0.289    0.351   37.515  154.428    2.659
  446.970    0.270    0.364   39.055  155.046    2.629
  447.220    0.256    0.378   42.274  155.430    2.695
  447.470    0.240    0.382   48.801  156.133    2.881
  447.720    0.231    0.350   59.875  156.619    3.097
  447.970    0.204    0.344   78.307  157.116    3.330
  448.220    0.218    0.355   86.454  157.491    3.580
  448.470    0.206    0.361   93.476  158.325    3.727
  448.720    0.191    0.377   92.647  158.706    3.784
  448.970    0.204    0.388   89.258  158.979    3.798
  449.220    0.210    0.367   95.783  159.154    3.827
  449.470    0.200    0.372  101.248  159.321    3.886
  449.720    0.186    0.364  108.216  162.560    4.115
  449.970    0.196    0.382  112.116  171.925    4.441
  450.220    0.232    0.398  114.965  182.341    4.649
  450.470    0.225    0.399  117.253  189.064    4.390
  450.720    0.170    0.372  120.599  193.773    3.797
  450.970    0.166    0.410  124.817  197.644    3.335
  451.220    0.176    0.448  130.216  203.208    2.798
  451.470    0.203    0.480  132.566  208.446    2.421
  451.720    0.199    0.501  131.051  215.171    2.251
  451.970    0.197    0.516  129.282  220.837    2.150
  452.220    0.217    0.513  129.266  224.281    2.251
  452.470    0.244    0.461  123.818  225.731    2.607
  452.720    0.228    0.436  117.876  224.112    3.078
  452.970    0.205    0.445  110.126  204.229    3.386
  453.220    0.205    0.463  108.050  206.409    3.668
  453.470    0.215    0.461  104.726  206.164    3.760
  453.720    0.230    0.431   98.472  197.794    3.598
  453.970    0.218    0.425   91.094  187.624    3.405
  454.220    0.224    0.440   83.533  175.978    3.252
  454.470    0.242    0.433   78.150  166.231    3.246
  454.720    0.276    0.436   79.319  161.242    3.340
  454.970    0.247    0.446   80.851  160.569    3.598
  455.220    0.250    0.402   81.022  162.229    3.861
  455.470    0.237    0.384   79.943  163.664    4.073
  455.720    0.225    0.371   80.543  165.322    4.255
  455.970    0.207    0.368   83.141  166.874    4.263
  456.220    0.220    0.395   87.358  167.363    4.151
  456.470    0.219    0.405   90.206  163.950    4.018
  456.720    0.235    0.409   91.056  162.649    3.927
  456.970    0.228    0.403   92.407  165.677    3.809
  457.220    0.177    0.426   94.631  171.244    3.645
  457.470    0.203    0.452   97.478  177.962    3.556
  457.720    0.256    0.458   96.647  176.976    3.495
  457.970    0.236    0.446   97.129  170.393    3.495
  458.220    0.227    0.437   99.415  166.030    3.495
  458.470    0.229    0.430   98.581  168.745    3.542
  458.720    0.247    0.432   93.822  174.302    3.645
  458.970    0.267    0.452   91.371  183.977    3.779
  459.220    0.295    0.476   91.293  187.320    3.971
  459.470    0.225    0.429   92.515  174.830    4.352
  459.720    0.219    0.423   96.112  163.922    4.529
  459.970    0.201    0.423   98.834  164.626    4.529
  460.220    0.196    0.406  100.498  166.810    4.486
  460.470    0.190    0.409  100.599  168.889    4.368
  460.720    0.159    0.429  102.077  170.858    4.148
  460.970    0.189    0.455   99.187  170.722    3.955
  461.220    0.208    0.450   92.748  166.881    3.664
  461.470    0.235    0.396   86.492  163.477    3.467
  461.720    0.283    0.381   79.366  161.643    3.231
  461.970    0.275    0.377   78.660  160.240    3.115
  462.220    0.271    0.379   82.008  158.941    3.074
  462.470    0.275    0.385   83.546  158.182    3.080
  462.720    0.271    0.384   82.588  157.937    3.127
  462.970    0.263    0.397   85.060  158.215    3.181
