~VERSION INFORMATION
 VERS.                 2.0:   CWLS LOG ASCII STANDARD -VERSION 2.0
 WRAP.                  NO:   ONE LINE PER DEPTH STEP
~WELL INFORMATION BLOCK
#MNEM.UNIT           DATA                    DESCRIPTION OF MNEMONIC
#---------    -------------------            -------------------------------
# Generated from Intellog Unique Number	CW_82_90/WELL/3448
WELL.         NUMAC LIEGE                    : Well_name    - WELL
LOC .         00/11-14-088-21W4/0            : Location     - LOCATION
UWI .         00/11-14-088-21W4/0            : Uwi          - UNIQUE WELL ID
ENTR.         MAX                            : Entered      - ENTERED BY
SRVC.         WESTERN ATLAS                  : Scn          - SERVICE COMPANY
STRT.M        125                            : top_depth    - START DEPTH
STOP.M        303                            : bot_depth    - STOP DEPTH
STEP.M        0.25                           : increment    - STEP LENGTH
 NULL. -999.2500:NULL Value
~CURVE INFORMATION BLOCK
#MNEM UNIT       ERCB CURVE CODE    CURVE DESCRIPTION
#-----------   ------------------   ----------------------------------
DEPT.M        00 001 00 00         : DEPTH        - DEPTH
ILD .OHMM     00 120 00 00         : RESD         - DEEP RESISTIVITY (DIL)
NPHI.V/V      00 330 00 00         : PHIN         - NEUTRON POROSITY (SANDSTONE)
DPHI.V/V      00 890 00 00         : PHID         - DENSITY POROSITY (SANDSTONE)
CALI.MM       00 280 01 00         : CAL          - CALIPER
GR  .API      00 310 00 00         : GR           - GAMMA RAY
~PARAMETER INFORMATION
#MNEM.UNIT           DATA             DESCRIPTION OF MNEMONIC
#---------         -----------     ------------------------------
GL  .M        529.86               : gl           - GROUND LEVEL ELEVATION
EREF.M        532.96               : kb           - ELEVATION OF DEPTH REFERENCE
DATM.M        529.86               : datum        - DATUM ELEVATION
TDD .M        304                  : tdd          - TOTAL DEPTH DRILLER
RUN .         ONE                  : Run          - RUN NUMBER
ENG .         BILL                 : Engineer     - RECORDING ENGINEER
WIT .         JIM                  : Witness      - WITNESSED BY
MUD .         GEL                  : Mud_type     - MUD TYPE
MATR.         SANDSTONE            : Logunit      - NEUTRON MATRIX
TMAX.C        18                   : BHT          - MAXIMUM RECORDED TEMPERATURE
BHTD.M        304                  : BHTDEP       - MAXIMUM RECORDED TEMPERATURE
MATR.         1                    : LOGUNIT      - NEUTRON MATRIX
RMT .C        18                   : MDTP         - TEMPERATURE OF MUD
NEUT.         1                    : NEUTRON      - NEUTRON TYPE
RESI.         0                    : RESIST       - RESISTIVITY TYPE
RMC .OHMM     2.5                  : RMC          - RESISTIVITY OF MUD CAKE
RMF .OHMM     1                    : RMF          - RESISTIVITY OF MUD FILTRATE
SUFT.C        -1                   : SUFT         - SURFACE TEMPERATURE
~A  DEPTH     RESD     PHIN     PHID      CAL       GR
# ...
  161.500    5.175    0.479    0.279  222.428  111.143
  161.750    5.231    0.491    0.285  220.493  105.208
  162.000    5.285    0.498    0.280  220.042  103.148
  162.250    5.390    0.499    0.283  223.566   99.006
  162.500    5.548    0.478    0.290  223.624  101.120
  162.750    5.821    0.474    0.299  222.179  105.616
  163.000    6.047    0.473    0.294  221.226  101.172
  163.250    6.401    0.458    0.281  217.788   96.131
  163.500    6.712    0.447    0.262  212.374   93.181
  163.750    7.305    0.434    0.267  211.421   94.401
  164.000    8.175    0.419    0.277  213.454   96.218
  164.250    9.065    0.443    0.279  214.003   92.973
  164.500    9.507    0.467    0.286  215.048   91.205
  164.750    9.789    0.422    0.304  212.610   84.376
  165.000    9.889    0.411    0.298  213.147   79.931
  165.250    9.722    0.411    0.279  220.161   84.133
  165.500    9.119    0.419    0.289  221.195   91.614
  165.750    8.094    0.418    0.293  221.738  101.781
  166.000    6.732    0.410    0.257  221.784  101.809
  166.250    5.151    0.418    0.194  221.836  103.029
  166.500    4.657    0.415    0.200  221.882  108.423
  166.750    4.172    0.430    0.252  221.431  120.677
  167.000    4.025    0.453    0.265  221.472  128.158
  167.250    4.030    0.491    0.244  222.014  124.608
  167.500    4.227    0.480    0.242  222.066  127.322
  167.750    4.432    0.444    0.247  221.610  129.735
  168.000    4.692    0.415    0.245  223.158  119.626
  168.250    4.697    0.414    0.214  224.689  121.443
  168.500    4.367    0.450    0.186  225.232  121.474
  168.750    3.985    0.496    0.234  224.284  121.501
  169.000    3.671    0.480    0.273  222.845  123.911
  169.250    3.350    0.502    0.253  223.388  118.870
  169.500    3.057    0.518    0.250  223.452  101.010
  169.750    2.949    0.521    0.278  223.486  104.615
  170.000    2.872    0.485    0.288  223.035  110.605
  170.250    2.875    0.470    0.294  223.081  116.599
  170.500    3.071    0.488    0.299  222.631  115.434
  170.750    3.502    0.502    0.309  222.174  108.903
  171.000    3.883    0.516    0.304  221.232  101.176
  171.250    4.385    0.522    0.292  219.285   94.946
  171.500    4.908    0.476    0.292  217.852   94.672
  171.750    5.243    0.481    0.290  217.395  100.073
  172.000    5.600    0.466    0.287  216.442  100.101
  172.250    6.095    0.423    0.278  214.506   99.529
  172.500    6.452    0.402    0.260  214.558   95.979
  172.750    6.768    0.394    0.230  216.095   91.836
  173.000    7.097    0.382    0.183  216.141   91.267
  173.250    7.512    0.401    0.157  215.696   95.465
  173.500    8.100    0.387    0.230  215.730   95.195
  173.750    8.983    0.387    0.215  213.303   87.173
  174.000    9.333    0.410    0.234  211.350   84.223
  174.250    9.519    0.395    0.303  208.421   80.971
  174.500    9.183    0.409    0.243  213.441   81.304
  174.750    8.458    0.432    0.168  217.457   83.113
  175.000    7.369    0.459    0.297  219.496   87.613
  175.250    6.980    0.494    0.292  218.057   87.942
  175.500    6.795    0.503    0.295  216.619   90.951
  175.750    6.495    0.482    0.293  215.665   95.451
  176.000    5.984    0.439    0.288  215.208   99.652
  176.250    5.719    0.407    0.283  215.260  105.344
  176.500    5.518    0.397    0.280  215.809  104.481
  176.750    5.575    0.401    0.284  216.340  108.083
  177.000    5.633    0.459    0.294  216.392  106.325
  177.250    5.909    0.399    0.298  217.432   97.107
  177.500    6.432    0.409    0.294  217.969   95.051
  177.750    6.934    0.457    0.300  218.524   92.989
  178.000    7.835    0.481    0.328  218.061   89.141
  178.250    8.448    0.477    0.344  217.125   86.485
  178.500    9.108    0.422    0.339  215.686   82.041
  178.750    9.731    0.406    0.329  215.721   80.283
  179.000    9.925    0.392    0.316  215.767   83.292
  179.250   10.217    0.414    0.311  215.813   82.429
  179.500   11.016    0.428    0.300  215.859   82.456
  179.750   11.991    0.404    0.330  215.911   82.182
  180.000   12.692    0.404    0.325  215.454   74.459
  180.250   13.190    0.413    0.286  215.506   75.082
  180.500   13.578    0.374    0.239  214.564   78.986
  180.750   13.592    0.361    0.274  213.114   79.013
  181.000   13.235    0.430    0.249  212.166   74.871
  181.250   12.418    0.413    0.253  211.721   72.215
  181.500   10.522    0.415    0.316  211.767   79.398
  181.750    8.513    0.416    0.302  213.304   98.807
  182.000    7.914    0.415    0.287  214.344  104.208
  182.250    7.289    0.419    0.281  215.886  100.651
  182.500    6.775    0.408    0.286  216.435   95.909
  182.750    6.069    0.414    0.283  215.476   98.322
  183.000    5.489    0.414    0.265  213.037  101.927
  183.250    5.150    0.418    0.274  211.102   99.275
  183.500    4.832    0.447    0.256  211.142  101.989
  183.750    4.661    0.432    0.231  212.182  100.526
  184.000    4.667    0.427    0.248  215.215  101.445
  184.250    4.849    0.441    0.296  220.235  109.823
  184.500    5.133    0.432    0.299  221.270  104.183
  184.750    5.383    0.459    0.287  220.819   98.844
  185.000    5.804    0.492    0.283  216.399   94.105
  185.250    6.318    0.458    0.278  213.960   93.533
  185.500    7.069    0.433    0.285  213.018   93.263
  185.750    8.136    0.437    0.279  213.053   95.086
  186.000    8.221    0.425    0.252  214.590   93.616
  186.250    7.931    0.404    0.232  218.125   90.663
  186.500    8.017    0.416    0.236  217.178   95.166
  186.750    8.327    0.414    0.244  215.733   97.280
  187.000    8.898    0.433    0.250  216.270   89.258
  187.250    9.865    0.410    0.222  215.323   88.988
  187.500   11.040    0.378    0.167  215.369   87.525
  187.750   12.126    0.368    0.163  216.414   84.273
  188.000   13.573    0.357    0.267  212.988   80.425
  188.250   13.972    0.392    0.295  210.544   79.860
  188.500   12.631    0.412    0.313  210.093   80.480
  188.750    8.410    0.404    0.318  210.139   82.002
  189.000    6.616    0.404    0.315  211.185   84.415
  189.250    5.710    0.410    0.303  212.727   90.107
  189.500    5.825    0.415    0.294  214.252   96.097
  189.750    6.828    0.447    0.297  215.795  100.007
  190.000    8.228    0.447    0.297  216.332   94.364
  190.250   10.389    0.406    0.289  216.378   83.360
  190.500   12.066    0.445    0.289  215.933   74.742
  190.750   11.641    0.461    0.310  214.488   72.385
  191.000    8.990    0.446    0.301  213.055   78.975
  191.250    7.831    0.439    0.292  213.101   84.071
  191.500    6.636    0.447    0.285  213.142   90.064
  191.750    5.999    0.428    0.279  213.182   96.353
  192.000    5.476    0.413    0.269  212.731   92.799
  192.250    5.185    0.432    0.240  212.286   88.951
  192.500    4.910    0.386    0.266  211.835   93.752
  192.750    4.872    0.412    0.291  211.887   99.445
  193.000    5.061    0.446    0.309  210.939  100.068
  193.250    5.770    0.436    0.301  211.482   92.941
  193.500    7.559    0.409    0.293  212.516   80.447
  193.750    9.632    0.425    0.281  213.059   78.388
  194.000   12.618    0.412    0.247  214.105   84.676
  194.250   17.317    0.397    0.275  215.642   88.281
  194.500   26.322    0.355    0.278  217.675   84.135
  194.750   33.536    0.331    0.243  220.708   79.393
  195.000   41.557    0.311    0.073  223.730   73.760
  195.250   43.986    0.283    0.030  225.267   68.719
  195.500   41.675    0.233    0.021  223.828   64.271
  195.750   38.373    0.245    0.046  221.886   70.858
  196.000   33.118    0.262    0.103  218.951   74.168
  196.250   21.446    0.285    0.205  217.015   78.966
  196.500   17.673    0.313    0.250  213.086   81.084
  196.750   16.128    0.343    0.275  217.599   85.882
  197.000   13.793    0.374    0.250  218.142   93.660
  197.250   12.126    0.366    0.214  218.684  101.141
  197.500   10.866    0.371    0.233  219.233  110.713
  197.750   11.081    0.423    0.237  220.279  102.094
