~VERSION INFORMATION
 VERS.                 2.0:   CWLS LOG ASCII STANDARD -VERSION 2.0
 WRAP.                  NO:   ONE LINE PER DEPTH STEP
~WELL INFORMATION BLOCK
#MNEM.UNIT           DATA                    DESCRIPTION OF MNEMONIC
#---------    -------------------            -------------------------------
# Generated from Intellog Unique Number	CS_73_76/WELL/3257
WELL.         CANADIAN WORLDWIDE ENERGY      : Well_name    - WELL
LOC .         00/11-07-076-03W4/0            : Location     - LOCATION
UWI .         00/11-07-076-03W4/0            : Uwi          - UNIQUE WELL ID
ENTR.         SP                             : Entered      - ENTERED BY
SRVC.         SCHLUMBERGER                   : Scn          - SERVICE COMPANY
STRT.M        225                            : top_depth    - START DEPTH
STOP.M        485                            : bot_depth    - STOP DEPTH
STEP.M        0.25                           : increment    - STEP LENGTH
 NULL. -999.2500:NULL Value
~CURVE INFORMATION BLOCK
#MNEM UNIT       ERCB CURVE CODE    CURVE DESCRIPTION
#-----------   ------------------   ----------------------------------
DEPT.M        00 001 00 00         : DEPTH        - DEPTH
DPHI.V/V      00 890 00 00         : PHID         - DENSITY POROSITY (LIMESTONE)
NPHI.V/V      00 330 00 00         : PHIN         - NEUTRON POROSITY (LIMESTONE)
GR  .API      00 310 00 00         : GR           - GAMMA RAY
ILD .OHMM     00 120 00 00         : RESD         - DEEP RESISTIVITY (DIL)
~PARAMETER INFORMATION
#MNEM.UNIT           DATA             DESCRIPTION OF MNEMONIC
#---------         -----------     ------------------------------
GL  .M        617.13               : gl           - GROUND LEVEL ELEVATION
EREF.M        620.23               : kb           - ELEVATION OF DEPTH REFERENCE
DATM.M        617.13               : datum        - DATUM ELEVATION
TDD .M        492                  : tdd          - TOTAL DEPTH DRILLER
RUN .         ONE                  : Run          - RUN NUMBER
ENG .         BILL                 : Engineer     - RECORDING ENGINEER
WIT .         JIM                  : Witness      - WITNESSED BY
MUD .         GEL                  : Mud_type     - MUD TYPE
MATR.         LIMESTONE            : Logunit      - NEUTRON MATRIX
TMAX.C        18                   : BHT          - MAXIMUM RECORDED TEMPERATURE
BHTD.M        492                  : BHTDEP       - MAXIMUM RECORDED TEMPERATURE
MATR.         1                    : LOGUNIT      - NEUTRON MATRIX
RMT .C        25                   : MDTP         - TEMPERATURE OF MUD
NEUT.         1                    : NEUTRON      - NEUTRON TYPE
RESI.         0                    : RESIST       - RESISTIVITY TYPE
RMC .OHMM     0.25                 : RMC          - RESISTIVITY OF MUD CAKE
RMF .OHMM     0.25                 : RMF          - RESISTIVITY OF MUD FILTRATE
SUFT.C        15                   : SUFT         - SURFACE TEMPERATURE
~A  DEPTH     PHID     PHIN       GR     RESD
# ...
  399.000    0.218    0.438   93.501    3.458
  399.250    0.225    0.449   94.112    3.268
  399.500    0.235    0.464   92.901    3.146
  399.750    0.229    0.479   92.906    3.145
  400.000    0.235    0.468   92.457    3.204
  400.250    0.244    0.445   88.795    4.488
  400.500    0.247    0.406   84.528    5.516
  400.750    0.243    0.387   77.195    6.409
  401.000    0.264    0.376   68.641    7.171
  401.250    0.271    0.365   63.762    7.305
  401.500    0.273    0.360   64.386    7.442
  401.750    0.265    0.359   67.469    7.581
  402.000    0.250    0.352   68.096    7.869
  402.250    0.248    0.355   68.721    8.481
  402.500    0.246    0.375   67.516    9.140
  402.750    0.204    0.378   65.079    9.488
  403.000    0.088    0.306   57.749   10.035
  403.250    0.092    0.310   52.867    9.847
  403.500    0.246    0.324   50.432    8.472
  403.750    0.294    0.327   59.638    7.427
  404.000    0.313    0.334   63.936    6.390
  404.250    0.297    0.365   65.176    5.295
  404.500    0.279    0.387   67.645    4.820
  404.750    0.264    0.400   73.782    4.555
  405.000    0.268    0.438   74.409    4.818
  405.250    0.281    0.481   64.627    6.753
  405.500    0.299    0.402   51.175    9.117
  405.750    0.312    0.366   44.457   14.573
  406.000    0.298    0.345   43.248   18.948
  406.250    0.303    0.331   46.326   20.421
  406.500    0.312    0.326   46.954   20.803
  406.750    0.314    0.340   45.134   20.799
  407.000    0.307    0.353   43.311   21.588
  407.250    0.303    0.353   40.269   21.994
  407.500    0.306    0.350   40.282   21.179
  407.750    0.307    0.337   41.524   20.781
  408.000    0.301    0.343   42.152   19.273
  408.250    0.297    0.360   45.236   16.896
  408.500    0.292    0.374   46.474   15.671
  408.750    0.285    0.346   47.101   15.090
  409.000    0.292    0.348   47.114   13.736
  409.250    0.308    0.376   48.355   11.382
  409.500    0.322    0.399   48.983    9.611
  409.750    0.302    0.385   72.878    8.269
  410.000    0.250    0.399  105.344    7.386
  410.250    0.200    0.420  107.809    6.851
  410.500    0.206    0.444  110.889    6.006
  410.750    0.210    0.437  113.964    5.570
  411.000    0.213    0.442  116.431    5.166
  411.250    0.213    0.445  117.671    4.975
  411.500    0.212    0.456  112.177    4.881
  411.750    0.210    0.482  112.809    4.973
  412.000    0.210    0.498  114.046    5.161
  412.250    0.209    0.471  112.837    5.358
  412.500    0.206    0.440  111.022    5.667
  412.750    0.209    0.426  111.647    5.883
  413.000    0.214    0.417  112.273    6.106
  413.250    0.215    0.417  112.904    6.105
  413.500    0.208    0.424  111.083    6.103
  413.750    0.203    0.434  108.040    5.989
  414.000    0.199    0.444  104.991    6.216
  414.250    0.197    0.460  101.333    6.575
  414.500    0.204    0.438   99.512    6.698
  414.750    0.208    0.411   97.082    6.823
  415.000    0.202    0.408   95.259    6.822
  415.250    0.207    0.419   92.218    6.821
  415.500    0.204    0.401   92.234    6.948
  415.750    0.197    0.391   93.475    6.817
  416.000    0.195    0.385   94.713    6.689
  416.250    0.198    0.396   93.503    6.564
  416.500    0.203    0.395   91.683    6.562
  416.750    0.204    0.388   89.249    6.812
  417.000    0.196    0.392   91.716    6.810
  417.250    0.195    0.379   91.735    6.682
  417.500    0.204    0.372   89.912    6.556
  417.750    0.210    0.376   89.932    6.433
  418.000    0.207    0.382   91.781    6.312
  418.250    0.201    0.400   93.631    6.193
  418.500    0.200    0.419   92.424    5.964
  418.750    0.201    0.427   86.929    5.743
  419.000    0.217    0.417   88.174    5.530
  419.250    0.236    0.415   80.839    5.226
  419.500    0.257    0.454   73.508    5.032
  419.750    0.277    0.383   67.401    4.938
  420.000    0.305    0.334   90.683    4.845
  420.250    0.304    0.345   99.272    4.844
  420.500    0.267    0.362   91.332    5.319
  420.750    0.255    0.347   94.407    5.733
  421.000    0.262    0.338  104.830    6.178
  421.250    0.251    0.346  104.847    6.785
  421.500    0.240    0.334   98.128    6.533
  421.750    0.239    0.327   83.451    6.656
  422.000    0.243    0.319   76.731    6.409
  422.250    0.253    0.315   74.299    6.288
  422.500    0.257    0.320   78.599    6.055
  422.750    0.258    0.337   76.167    5.831
  423.000    0.260    0.376   71.285    5.510
  423.250    0.263    0.373   66.406    5.407
  423.500    0.268    0.369   63.971    5.207
  423.750    0.275    0.359   62.762    4.920
  424.000    0.285    0.359   70.127    4.919
  424.250    0.275    0.370   79.939    4.918
  424.500    0.248    0.384   73.219    4.736
  424.750    0.269    0.391   54.866    4.560
  425.000    0.304    0.369   38.353    4.310
  425.250    0.331    0.335   29.797    4.229
  425.500    0.338    0.321   34.711    4.149
  425.750    0.336    0.338   34.117    4.071
  426.000    0.333    0.355   31.069    3.994
  426.250    0.337    0.355   35.370    3.919
  426.500    0.326    0.342   45.184    3.993
  426.750    0.304    0.351   48.263    3.917
  427.000    0.313    0.372   39.094    3.917
  427.250    0.318    0.362   41.564    3.916
  427.500    0.312    0.368   43.412    3.842
  427.750    0.321    0.388   37.917    3.841
  428.000    0.329    0.384   30.585    3.769
  428.250    0.334    0.357   32.441    3.768
  428.500    0.333    0.354   37.354    3.767
  428.750    0.333    0.379   43.493    3.838
  429.000    0.324    0.390   42.903    3.837
  429.250    0.322    0.385   39.241    3.836
  429.500    0.324    0.372   33.744    3.835
  429.750    0.326    0.363   41.109    3.834
  430.000    0.331    0.366   47.245    3.906
  430.250    0.326    0.346   48.491    3.980
  430.500    0.318    0.346   44.833    4.131
  430.750    0.319    0.373   47.910    4.369
  431.000    0.312    0.370   61.395    4.535
  431.250    0.297    0.343   79.776    4.708
  431.500    0.288    0.354   78.568    4.887
  431.750    0.297    0.354   71.239    5.169
  432.000    0.276    0.340   71.865    5.467
  432.250    0.247    0.352   82.291    5.675
  432.500    0.236    0.368   79.858    5.891
  432.750    0.260    0.360   65.181    5.889
  433.000    0.269    0.349   56.013    5.888
  433.250    0.261    0.369   60.929    5.777
  433.500    0.237    0.394   80.534    5.563
  433.750    0.242    0.425   68.309    5.458
  434.000    0.274    0.404   61.588    5.356
  434.250    0.290    0.351   60.993    5.157
  434.500    0.271    0.339   63.460    5.156
  434.750    0.249    0.348   64.698    4.965
  435.000    0.250    0.368   64.714    4.872
  435.250    0.260    0.384   62.892    4.871
  435.500    0.260    0.388   59.238    5.450
  435.750    0.260    0.387   54.970    5.449
  436.000    0.269    0.377   50.696    5.448
  436.250    0.257    0.371   48.265    5.246
  436.500    0.231    0.378   54.404    5.245
  436.750    0.210    0.368   62.386    5.343
  437.000    0.188    0.333   65.456    5.443
  437.250    0.213    0.357   70.371    5.442
  437.500    0.238    0.361   66.711    5.339
  437.750    0.253    0.363   59.994    5.239
  438.000    0.260    0.357   61.234    4.951
  438.250    0.231    0.357   60.026    4.950
  438.500    0.207    0.389   57.591    4.949
  438.750    0.237    0.391   60.059    4.856
  439.000    0.255    0.391   63.747    4.764
  439.250    0.275    0.404   57.639    4.675
  439.500    0.302    0.421   42.961    4.418
  439.750    0.320    0.393   32.569    4.254
  440.000    0.313    0.357   36.260    4.333
  440.250    0.293    0.328   46.685    4.333
  440.500    0.258    0.337   55.271    4.498
  440.750    0.256    0.344   55.292    4.668
  441.000    0.250    0.349   56.528    4.938
  441.250    0.240    0.350   62.057    5.031
  441.500    0.231    0.345   72.483    5.321
  441.750    0.223    0.338   78.006    5.523
  442.000    0.217    0.359   76.188    5.522
  442.250    0.210    0.359   72.531    5.625
