~VERSION INFORMATION
 VERS.                 2.0:   CWLS LOG ASCII STANDARD -VERSION 2.0
 WRAP.                  NO:   ONE LINE PER DEPTH STEP
~WELL INFORMATION BLOCK
#MNEM.UNIT           DATA                    DESCRIPTION OF MNEMONIC
#---------    -------------------            -------------------------------
# Generated from Intellog Unique Number	CW_70_72/WELL/1059
NULL.         -999.25                        : NULL_VALUE
WELL.         G&W ET AL DECRENE 11-20        : Well_name    - WELL              
LOC .         11-20-071-02W5                 : Location     - LOCATION          
UWI .         00/11-20-071-02W5/0             : Uwi          - UNIQUE WELL ID    
ENTR.         JAYE                           : Entered      - ENTERED BY        
SRVC.         SCHLUMBERGER                   : Scn          - SERVICE COMPANY   
DATE.         8 FEB 89                       : Date         - LOG DATE          
STRT.M        410                            : top_depth    - START DEPTH       
STOP.M        640                            : bot_depth    - STOP DEPTH        
STEP.M        0.25                           : increment    - STEP LENGTH       
~CURVE INFORMATION BLOCK
#MNEM UNIT       ERCB CURVE CODE    CURVE DESCRIPTION
#-----------   ------------------   ----------------------------------
DEPT.M        00 001 00 00         : DEPTH        - DEPTH                       
DPHI.V/V      00 890 00 00         : PHID         - DENSITY POROSITY (SANDSTONE)
NPHI.V/V      00 330 00 00         : PHIN         - NEUTRON POROSITY (SANDSTONE)
GR  .API      00 310 00 00         : GR           - GAMMA RAY                   
CALI.MM       00 280 01 00         : CAL          - CALIPER                     
ILD .OHMM     00 120 00 00         : RESD         - DEEP RESISTIVITY (DIL)      
~PARAMETER INFORMATION       
#MNEM.UNIT           DATA             DESCRIPTION OF MNEMONIC
#---------         -----------     ------------------------------
GL  .M        595.7                : gl           - GROUND LEVEL ELEVATION      
EREF.M        598.7                : kb           - ELEVATION OF DEPTH REFERENCE
DATM.M        595.7                : datum        - DATUM ELEVATION             
TDD .M        648                  : tdd          - TOTAL DEPTH DRILLER         
RUN .         ONE                  : Run          - RUN NUMBER                  
ENG .         KNAPIK               : Engineer     - RECORDING ENGINEER          
WIT .         ANDREWS              : Witness      - WITNESSED BY                
BASE.         EDM                  : Branch       - HOME BASE OF LOGGING UNIT   
MUD .         GEL CHEM             : Mud_type     - MUD TYPE                    
MATR.         SANDSTONE            : Logunit      - NEUTRON MATRIX              
TMAX.C        36                   : BHT          - MAXIMUM RECORDED TEMPERATURE
BHTD.M        648                  : BHTDEP       - MAXIMUM RECORDED TEMPERATURE
RMT .C        12                   : MDTP         - TEMPERATURE OF MUD          
MUDD.KG/M     1130                 : MWT          - MUD DENSITY                 
NEUT.         1                    : NEUTRON      - NEUTRON TYPE                
RESI.         0                    : RESIST       - RESISTIVITY TYPE            
RM  .OHMM     4.89                 : RM           - RESISTIVITY OF MUD          
RMC .OHMM     2.42                 : RMC          - RESISTIVITY OF MUD CAKE     
RMF .OHMM     5.37                 : RMF          - RESISTIVITY OF MUD FILTRATE 
SUFT.C        0                    : SUFT         - SURFACE TEMPERATURE         
~A  DEPTH     PHID     PHIN       GR      CAL     RESD
# ...
  483.000    0.345    0.402   54.225  157.769    2.034
  483.250    0.346    0.397   55.970  159.060    2.065
  483.500    0.344    0.396   56.806  159.242    2.096
  483.750    0.337    0.411   57.036  159.227    2.108
  484.000    0.337    0.415   56.179  158.903    2.128
  484.250    0.342    0.398   54.110  158.584    2.129
  484.500    0.347    0.390   54.220  158.465    2.137
  484.750    0.351    0.392   53.119  158.442    2.146
  485.000    0.352    0.397   52.744  158.324    2.174
  485.250    0.352    0.406   54.792  158.306    2.202
  485.500    0.349    0.409   58.049  158.188    2.243
  485.750    0.343    0.392   58.765  157.969    2.306
  486.000    0.338    0.398   58.754  157.544    2.341
  486.250    0.332    0.431   56.684  157.222    2.380
  486.500    0.331    0.447   51.952  157.007    2.429
  486.750    0.337    0.423   50.306  157.191    2.516
  487.000    0.338    0.406   52.656  157.170    2.629
  487.250    0.318    0.431   55.975  156.747    2.752
  487.500    0.313    0.459   57.478  156.530    2.902
  487.750    0.328    0.429   60.311  156.610    3.000
  488.000    0.329    0.376   68.109  158.910    3.152
  488.250    0.309    0.390   78.268  162.626    3.288
  488.500    0.279    0.421   84.492  166.441    3.417
  488.750    0.230    0.452   92.531  169.954    3.500
  489.000    0.204    0.478   93.368  172.663    3.315
  489.250    0.218    0.482   90.754  175.972    2.919
  489.500    0.250    0.501   92.620  178.879    2.497
  489.750    0.260    0.519   93.092  180.779    2.297
  490.000    0.228    0.493   92.112  183.482    2.188
  490.250    0.207    0.468   92.828  184.980    2.129
  490.500    0.213    0.478   95.239  185.766    2.103
  490.750    0.231    0.476   97.345  185.748    2.108
  491.000    0.239    0.461   97.093  185.325    2.175
  491.250    0.230    0.460   96.296  184.503    2.277
  491.500    0.216    0.488   94.589  182.164    2.383
  491.750    0.214    0.498   90.401  178.612    2.518
  492.000    0.221    0.480   85.789  172.642    2.636
  492.250    0.229    0.430   80.693  165.259    2.750
  492.500    0.241    0.395   72.874  158.985    2.816
  492.750    0.259    0.377   68.080  156.744    2.610
  493.000    0.279    0.390   65.648  156.223    2.397
  493.250    0.294    0.403   63.579  156.003    2.282
  493.500    0.307    0.411   61.148  156.088    2.217
  493.750    0.324    0.414   57.685  155.564    2.190
  494.000    0.326    0.411   56.645  154.738    2.231
  494.250    0.314    0.395   58.935  154.014    2.315
  494.500    0.299    0.398   65.038  153.389    2.432
  494.750    0.311    0.415   64.785  153.371    2.569
  495.000    0.313    0.414   64.169  153.658    2.739
  495.250    0.308    0.401   69.181  154.444    2.942
  495.500    0.290    0.386   74.255  155.840    3.182
  495.750    0.260    0.401   78.360  159.049    3.405
  496.000    0.237    0.413   83.494  162.361    3.532
  496.250    0.217    0.418   87.843  165.267    3.566
  496.500    0.217    0.404   86.197  166.962    3.593
  496.750    0.213    0.397   80.375  167.956    3.601
  497.000    0.202    0.400   80.422  168.942    3.661
  497.250    0.198    0.403   82.894  169.729    3.771
  497.500    0.202    0.406   84.940  170.119    3.863
  497.750    0.196    0.406   86.505  170.505    3.928
  498.000    0.183    0.404   89.097  170.787    4.015
  498.250    0.173    0.403   94.231  170.868    4.121
  498.500    0.167    0.399   92.223  170.754    4.167
  498.750    0.165    0.394   89.487  170.432    4.161
  499.000    0.172    0.390   88.689  170.212    4.147
  499.250    0.179    0.398   88.557  169.989    4.126
  499.500    0.180    0.407   89.091  170.075    4.031
  499.750    0.179    0.411   89.807  169.955    3.860
  500.000    0.177    0.421   89.614  169.937    3.609
  500.250    0.172    0.405   88.755  170.319    3.207
  500.500    0.166    0.395   89.653  171.207    2.935
  500.750    0.200    0.521   91.093  172.201    2.795
  501.000    0.224    0.522   92.292  173.394    2.696
  501.250    0.251    0.487   91.072  173.779    2.610
  501.500    0.230    0.459   84.887  172.852    2.463
  501.750    0.210    0.448   76.340  171.220    2.320
  502.000    0.237    0.432   67.129  167.974    2.193
  502.250    0.261    0.388   57.008  162.507    2.085
  502.500    0.340    0.377   57.298  157.544    2.018
  502.750    0.339    0.388   60.072  155.406    1.990
  503.000    0.326    0.392   62.302  154.782    1.998
  503.250    0.300    0.386   61.504  154.659    2.028
  503.500    0.299    0.387   59.857  154.546    2.058
  503.750    0.315    0.400   61.905  154.626    2.120
  504.000    0.328    0.411   62.621  154.707    2.155
  504.250    0.334    0.404   62.187  154.895    2.212
  504.500    0.342    0.402   61.147  154.977    2.286
  504.750    0.348    0.433   62.466  155.059    2.363
  505.000    0.346    0.456   64.452  155.140    2.425
  505.250    0.345    0.458   66.319  155.223    2.506
  505.500    0.345    0.465   63.100  155.404    2.600
  505.750    0.345    0.473   63.936  155.586    2.712
  506.000    0.354    0.485   65.620  155.571    2.793
  506.250    0.361    0.501   63.067  155.753    2.819
  506.500    0.372    0.493   60.877  155.735    2.790
  506.750    0.378    0.485   62.681  155.717    2.745
  507.000    0.377    0.474   63.820  155.699    2.648
  507.250    0.371    0.459   63.990  155.479    2.554
  507.500    0.362    0.446   62.587  155.260    2.419
  507.750    0.354    0.429   58.158  155.243    2.333
  508.000    0.361    0.447   58.813  155.018    2.284
  508.250    0.369    0.449   60.437  155.103    2.243
  508.500    0.361    0.438   61.454  155.086    2.224
  508.750    0.352    0.423   61.141  155.166    2.204
  509.000    0.345    0.411   60.161  155.347    2.181
  509.250    0.345    0.419   58.818  155.534    2.166
  509.500    0.350    0.427   59.715  155.717    2.143
  509.750    0.342    0.419   60.430  155.802    2.120
  510.000    0.328    0.398   58.907  156.186    2.102
  510.250    0.314    0.383   55.626  156.873    2.091
  510.500    0.326    0.368   54.163  157.359    2.092
  510.750    0.330    0.363   55.847  157.846    2.127
  511.000    0.320    0.380   60.073  158.231    2.175
  511.250    0.303    0.389   61.029  158.717    2.277
  511.500    0.279    0.396   54.905  159.001    2.357
  511.750    0.263    0.417   50.415  158.379    2.419
  512.000    0.281    0.421   56.154  156.543    2.420
  512.250    0.291    0.410   59.956  155.315    2.368
  512.500    0.294    0.396   60.248  154.690    2.348
  512.750    0.308    0.383   61.751  155.077    2.344
  513.000    0.322    0.376   63.253  156.363    2.362
  513.250    0.320    0.393   66.814  156.856    2.446
  513.500    0.318    0.407   66.499  157.442    2.487
  513.750    0.328    0.393   60.193  157.928    2.515
  514.000    0.331    0.387   60.061  158.413    2.553
  514.250    0.330    0.384   60.050  158.800    2.601
  514.500    0.332    0.386   59.374  159.182    2.659
  514.750    0.332    0.390   58.332  159.368    2.699
  515.000    0.324    0.397   57.657  159.750    2.759
  515.250    0.293    0.418   58.614  160.136    2.806
  515.500    0.272    0.443   61.933  160.322    2.874
  515.750    0.257    0.450   65.977  160.404    2.912
  516.000    0.256    0.426   68.811  159.981    2.886
  516.250    0.262    0.410   72.553  159.353    2.840
  516.500    0.277    0.405   65.338  159.240    2.739
  516.750    0.316    0.396   61.090  158.816    2.609
  517.000    0.327    0.389   62.714  158.693    2.530
  517.250    0.322    0.385   61.552  158.577    2.449
  517.500    0.315    0.385   60.754  158.460    2.415
  517.750    0.305    0.391   62.922  158.436    2.402
  518.000    0.299    0.416   68.844  158.318    2.394
  518.250    0.300    0.403   67.622  158.204    2.404
  518.500    0.312    0.389   64.222  158.179    2.427
  518.750    0.311    0.386   64.996  158.163    2.499
  519.000    0.303    0.399   66.015  158.246    2.588
  519.250    0.296    0.416   63.643  158.526    2.704
