~VERSION INFORMATION
 VERS.                 2.0:   CWLS LOG ASCII STANDARD -VERSION 2.0
 WRAP.                  NO:   ONE LINE PER DEPTH STEP
~WELL INFORMATION BLOCK
#MNEM.UNIT           DATA                    DESCRIPTION OF MNEMONIC
#---------    -------------------            -------------------------------
# Generated from Intellog Unique Number	CC_80_83/WELL/2396
NULL.         -999.25                        : NULL_VALUE
WELL.         BVX ET AL WATCHUSK             : Well_name    - WELL
LOC .         11-11-081-03W4                 : Location     - LOCATION          
UWI .         00/11-11-081-03W400            : Uwi          - UNIQUE WELL ID    
ENTR.         DW                             : Entered      - ENTERED BY        
SRVC.         SCHLUMBERGER                   : Scn          - SERVICE COMPANY   
DATE.         13 MAR 78                      : Date         - LOG DATE
STRT.M        106.68                         : top_depth    - START DEPTH       
STOP.M        313.944                        : bot_depth    - STOP DEPTH        
STEP.M        0.305                          : increment    - STEP LENGTH       
~CURVE INFORMATION BLOCK
#MNEM UNIT       ERCB CURVE CODE    CURVE DESCRIPTION
#-----------   ------------------   ----------------------------------
DEPT.M        00 001 00 00         : DEPTH        - DEPTH                       
ILD .OHMM     00 120 00 00         : RESD         - DEEP RESISTIVITY (DIL)      
GR  .API      00 310 00 00         : GR           - GAMMA RAY                   
NPHI.V/V      00 330 00 00         : PHIN         - NEUTRON POROSITY (LIMESTONE)
DPHI.V/V      00 890 00 00         : PHID         - DENSITY POROSITY (LIMESTONE)
~PARAMETER INFORMATION       
#MNEM.UNIT           DATA             DESCRIPTION OF MNEMONIC
#---------         -----------     ------------------------------
GL  .M        464.82               : gl           - GROUND LEVEL ELEVATION      
EREF.M        467.868              : kb           - ELEVATION OF DEPTH REFERENCE
DATM.M        467.868              : datum        - DATUM ELEVATION             
TDD .M        324.307              : tdd          - TOTAL DEPTH DRILLER         
RUN .         ONE                  : Run          - RUN NUMBER                  
ENG .         BILL                 : Engineer     - RECORDING ENGINEER          
WIT .         JIM                  : Witness      - WITNESSED BY                
MUD .         GEL                  : Mud_type     - MUD TYPE                    
MATR.         LIMESTONE            : Logunit      - NEUTRON MATRIX              
TMAX.C        21.1111              : BHT          - MAXIMUM RECORDED TEMPERATURE
BHTD.M        324.307              : BHTDEP       - MAXIMUM RECORDED TEMPERATURE
MATR.         1                    : LOGUNIT      - NEUTRON MATRIX              
RMT .C        25                   : MDTP         - TEMPERATURE OF MUD          
NEUT.         1                    : NEUTRON      - NEUTRON TYPE                
RESI.         0                    : RESIST       - RESISTIVITY TYPE            
RMC .OHMM     0.25                 : RMC          - RESISTIVITY OF MUD CAKE     
RMF .OHMM     0.25                 : RMF          - RESISTIVITY OF MUD FILTRATE 
SUFT.C        15                   : SUFT         - SURFACE TEMPERATURE         
~A  DEPTH     RESD       GR     PHIN     PHID
# ...
  212.749    3.403   96.274    0.517    0.225
  213.054    3.339   91.981    0.524    0.212
  213.359    3.401   98.135    0.489    0.199
  213.663    3.465   97.527    0.474    0.193
  213.968    3.735   94.462    0.486    0.217
  214.273    3.879   97.545    0.505    0.212
  214.578    3.877   98.783    0.506    0.187
  214.883    3.662   96.948    0.504    0.207
  215.187    3.524   95.112    0.515    0.213
  215.492    3.523   94.503    0.539    0.209
  215.797    3.521   97.585    0.507    0.208
  216.102    3.869  105.583    0.511    0.207
  216.406    4.252  105.591    0.542    0.201
  216.711    4.762   96.381    0.522    0.189
  217.016    5.135   93.929    0.505    0.186
  217.321    5.133   92.710    0.437    0.197
  217.626    5.035   93.331    0.422    0.208
  217.930    5.128   93.955    0.412    0.187
  218.235    5.426   92.733    0.488    0.204
  218.540    5.851   89.054    0.495    0.181
  218.845    6.191   84.144    0.478    0.165
  219.150    6.189   85.383    0.389    0.126
  219.454    5.216   84.775    0.374    0.191
  219.759    4.397   73.105    0.400    0.214
  220.064    3.923   56.517    0.415    0.226
  220.369    3.435   44.848    0.406    0.250
  220.674    3.182   38.094    0.405    0.274
  220.978    3.181   39.334    0.401    0.283
  221.283    3.241   41.185    0.391    0.268
  221.588    3.302   47.954    0.388    0.257
  221.893    3.238   58.412    0.404    0.261
  222.198    3.058   65.796    0.431    0.272
  222.502    2.943   71.334    0.455    0.261
  222.807    2.999   78.718    0.460    0.274
  223.112    3.233   79.341    0.465    0.273
  223.417    3.621   82.423    0.466    0.257
  223.722    4.055   87.965    0.455    0.220
  224.026    4.373   89.201    0.384    0.190
  224.331    3.976   87.981    0.386    0.163
  224.636    3.615   84.913    0.408    0.187
  224.941    3.479   70.785    0.405    0.225
  225.246    3.544   73.255    0.391    0.243
  225.550    3.822   74.488    0.382    0.252
  225.855    4.706   83.102    0.369    0.231
  226.160    5.074   89.871    0.359    0.164
  226.465    5.072   83.733    0.370    0.174
  226.769    4.700   78.826    0.377    0.173
  227.074    4.274   77.605    0.384    0.172
  227.379    3.670   76.383    0.391    0.178
  227.684    3.533   72.088    0.370    0.184
  227.989    3.152   64.720    0.365    0.220
  228.293    3.034   62.884    0.356    0.209
  228.598    2.865   62.893    0.347    0.201
  228.903    2.810   57.983    0.339    0.210
  229.208    2.604   43.854    0.350    0.223
  229.513    2.506   42.634    0.351    0.233
  229.817    2.505   44.486    0.347    0.241
  230.122    2.753   50.640    0.340    0.233
  230.427    3.389   69.087    0.339    0.227
  230.732    4.018   72.784    0.337    0.226
  231.037    4.762   76.479    0.338    0.222
  231.341    5.039   84.478    0.344    0.215
  231.646    5.038   88.788    0.355    0.206
  231.951    4.848   96.787    0.366    0.186
  232.256    4.578  103.556    0.441    0.159
  232.561    4.577  105.408    0.462    0.171
  232.865    4.663  101.729    0.461    0.174
  233.170    4.933   91.904    0.440    0.169
  233.475    5.121   91.910    0.409    0.162
  233.780    5.217   96.837    0.403    0.159
  234.085    5.215   99.302    0.401    0.164
  234.389    5.213  101.156    0.404    0.169
  234.694    5.017  101.165    0.425    0.165
  234.999    4.829  100.558    0.458    0.158
  235.304    4.647   99.336    0.435    0.170
  235.609    4.559   96.272    0.430    0.175
  235.913    4.387   96.280    0.434    0.179
  236.218    4.222   98.745    0.429    0.181
  236.523    3.913   98.753    0.424    0.177
  236.828    3.491   96.303    0.420    0.165
  237.132    3.423   93.237    0.423    0.156
  237.437    3.488   89.558    0.419    0.158
  237.742    3.554   90.796    0.429    0.177
  238.047    3.552   83.428    0.443    0.185
  238.352    3.551   78.519    0.426    0.207
  238.656    3.353   82.217    0.410    0.230
  238.961    3.227   83.452    0.395    0.197
  239.266    3.165   82.231    0.390    0.170
  239.571    3.164   85.314    0.388    0.171
  239.876    3.162   86.550    0.397    0.177
  240.180    3.102   83.486    0.404    0.202
  240.485    3.042   77.963    0.405    0.185
  240.790    3.159   73.667    0.404    0.164
  241.095    3.157   70.602    0.390    0.170
  241.400    3.097   74.297    0.374    0.189
  241.704    2.870   85.370    0.372    0.201
  242.009    2.561   96.441    0.389    0.197
  242.314    2.328   93.376    0.420    0.169
  242.619    2.241   78.632    0.462    0.194
  242.924    2.157   69.421    0.431    0.205
  243.228    2.075   71.273    0.380    0.214
  243.533    2.075   78.657    0.357    0.223
  243.838    2.154   82.969    0.358    0.235
  244.143    2.279   81.747    0.364    0.244
  244.448    2.366   73.765    0.356    0.250
  244.752    2.410   65.167    0.363    0.251
  245.057    2.410   57.187    0.361    0.240
  245.362    2.363   65.185    0.352    0.219
  245.667    2.408   68.881    0.352    0.194
  245.972    2.500   63.971    0.346    0.207
  246.276    3.077   59.062    0.345    0.219
  246.581    3.447   63.987    0.358    0.224
  246.886    4.009   71.987    0.363    0.208
  247.191    4.576   84.901    0.375    0.194
  247.495    4.750   94.745    0.396    0.174
  247.800    4.839   96.595    0.426    0.181
  248.105    4.746  105.823    0.431    0.177
  248.410    4.745  107.677    0.432    0.171
  248.715    4.567  105.225    0.429    0.157
  249.019    4.479  104.004    0.438    0.167
  249.324    4.477   99.094    0.459    0.173
  249.629    4.392  100.948    0.444    0.167
  249.934    4.226  100.956    0.436    0.161
  250.239    4.145   98.506    0.426    0.166
  250.543    4.144   97.284    0.432    0.171
  250.848    4.384   96.064    0.439    0.162
  251.153    4.639   91.154    0.422    0.173
  251.458    4.816   89.318    0.403    0.182
  251.763    4.906   89.326    0.389    0.184
  252.067    4.722   88.104    0.379    0.182
  252.372    4.632   94.875    0.391    0.173
  252.677    4.543   97.342    0.412    0.195
  252.982    4.456   99.194    0.422    0.182
  253.287    4.454  100.431    0.423    0.162
  253.591    4.453  100.439    0.417    0.158
  253.896    4.450  101.677    0.408    0.159
  254.201    4.534  105.987    0.400    0.162
  254.506    4.618  104.150    0.406    0.163
  254.811    4.616   96.169    0.434    0.177
  255.115    4.615   95.562    0.425    0.167
  255.420    4.612  104.175    0.414    0.162
  255.725    4.525  106.027    0.418    0.167
  256.030    4.438  106.036    0.424    0.170
  256.335    4.436  100.513    0.423    0.168
  256.639    4.435   98.065    0.419    0.164
  256.944    4.350   97.454    0.415    0.165
  257.249    4.431  101.151    0.409    0.179
  257.554    4.600  106.075    0.403    0.164
  257.859    4.598  106.085    0.404    0.159
  258.163    4.597   95.643    0.392    0.171
  258.468    4.682   95.038    0.386    0.183
  258.773    4.681   97.505    0.415    0.189
  259.078    4.504   93.209    0.417    0.164
  259.383    4.418   93.218    0.409    0.157
  259.687    4.334   93.227    0.397    0.159
  259.992    4.170   92.005    0.392    0.180
  260.297    4.169   92.012    0.394    0.189
  260.602    4.168   96.323    0.387    0.187
  260.907    4.087   95.102    0.382    0.158
  261.212    4.164   94.496    0.381    0.186
  261.516    4.163   96.964    0.399    0.180
  261.821    4.240   97.585    0.421    0.158
  262.126    4.239   93.291    0.431    0.168
  262.431    4.319   92.070    0.398    0.171
  262.736    4.569   91.463    0.382    0.171
  263.040    4.568   83.482    0.389    0.176
  263.345    4.480   79.802    0.432    0.182
  263.650    4.311   84.112    0.393    0.172
  263.955    4.309   99.487    0.376    0.164
  264.260    4.390   98.881    0.371    0.156
  264.564    4.472   96.430    0.371    0.167
  264.869    4.556   99.512    0.377    0.159
  265.174    4.642   99.519    0.395    0.150
  265.479    4.553   93.381    0.409    0.149
