~VERSION INFORMATION
 VERS.                 2.0:   CWLS LOG ASCII STANDARD -VERSION 2.0
 WRAP.                  NO:   ONE LINE PER DEPTH STEP
~WELL INFORMATION BLOCK
#MNEM.UNIT           DATA                    DESCRIPTION OF MNEMONIC
#---------    -------------------            -------------------------------
# Generated from Intellog Unique Number	CW_79_81/WELL/2492
WELL.         HB GODIN                       : Well_name    - WELL
LOC .         00/15-19-081-01W5/0            : Location     - LOCATION
UWI .         00/15-19-081-01W5/0            : Uwi          - UNIQUE WELL ID
ENTR.         MAX                            : Entered      - ENTERED BY
SRVC.         SCHLUMBERGER                   : Scn          - SERVICE COMPANY
STRT.M        243.84                         : top_depth    - START DEPTH
STOP.M        450.84                         : bot_depth    - STOP DEPTH
STEP.M        0.25                           : increment    - STEP LENGTH
 NULL. -999.2500:NULL Value
~CURVE INFORMATION BLOCK
#MNEM UNIT       ERCB CURVE CODE    CURVE DESCRIPTION
#-----------   ------------------   ----------------------------------
DEPT.M        00 001 00 00         : DEPTH        - DEPTH
ILD .OHMM     00 120 00 00         : RESD         - DEEP RESISTIVITY (DIL)
NPHI.V/V      00 330 00 00         : PHIN         - NEUTRON POROSITY (SANDSTONE)
DPHI.V/V      00 890 00 00         : PHID         - DENSITY POROSITY (SANDSTONE)
GR  .API      00 310 00 00         : GR           - GAMMA RAY
CALI.MM       00 280 01 00         : CAL          - CALIPER
~PARAMETER INFORMATION
#MNEM.UNIT           DATA             DESCRIPTION OF MNEMONIC
#---------         -----------     ------------------------------
GL  .M        586.13               : gl           - GROUND LEVEL ELEVATION
EREF.M        590.093              : kb           - ELEVATION OF DEPTH REFERENCE
DATM.M        586.13               : datum        - DATUM ELEVATION
TDD .M        501.091              : tdd          - TOTAL DEPTH DRILLER
RUN .         ONE                  : Run          - RUN NUMBER
ENG .         BILL                 : Engineer     - RECORDING ENGINEER
WIT .         JIM                  : Witness      - WITNESSED BY
MUD .         GEL                  : Mud_type     - MUD TYPE
MATR.         SANDSTONE            : Logunit      - NEUTRON MATRIX
TMAX.C        23.3333              : BHT          - MAXIMUM RECORDED TEMPERATURE
BHTD.M        501.091              : BHTDEP       - MAXIMUM RECORDED TEMPERATURE
MATR.         1                    : LOGUNIT      - NEUTRON MATRIX
RMT .C        11.1111              : MDTP         - TEMPERATURE OF MUD
NEUT.         1                    : NEUTRON      - NEUTRON TYPE
RESI.         0                    : RESIST       - RESISTIVITY TYPE
RMC .OHMM     7.55                 : RMC          - RESISTIVITY OF MUD CAKE
RMF .OHMM     3.88                 : RMF          - RESISTIVITY OF MUD FILTRATE
SUFT.C        -12.2222             : SUFT         - SURFACE TEMPERATURE
~A  DEPTH     RESD     PHIN     PHID       GR      CAL
# ...
  280.340   21.180    0.445    0.412   63.262  210.519
  280.590   24.950    0.406    0.354   58.018  212.160
  280.840   28.703    0.377    0.316   51.016  211.616
  281.090   33.311    0.374    0.305   48.238  212.157
  281.340   38.173    0.401    0.301   48.264  214.695
  281.590   41.557    0.420    0.315   49.471  215.928
  281.840   44.103    0.449    0.324   49.964  217.458
  282.090   45.880    0.478    0.327   50.106  218.492
  282.340   46.870    0.493    0.323   50.077  218.833
  282.590   46.846    0.484    0.309   49.776  218.810
  282.840   46.822    0.492    0.313   49.317  218.456
  283.090   46.135    0.457    0.305   48.173  218.895
  283.340   44.962    0.421    0.290   45.097  219.338
  283.590   43.990    0.388    0.266   41.259  220.379
  283.840   43.581    0.364    0.239   37.772  223.304
  284.090   44.389    0.352    0.221   35.743  230.679
  284.340   47.130    0.340    0.219   36.017  233.621
  284.590   49.527    0.329    0.212   36.521  221.367
  284.840   50.964    0.329    0.205   36.838  216.258
  285.090   47.737    0.328    0.195   37.683  215.515
  285.340   41.116    0.325    0.190   39.178  216.553
  285.590   31.582    0.328    0.216   41.244  217.006
  285.840   21.302    0.342    0.226   43.219  217.051
  286.090   15.695    0.354    0.243   47.698  219.879
  286.340   10.842    0.373    0.279   53.587  224.490
  286.590    7.546    0.443    0.329   62.637  237.828
  286.840    5.621    0.539    0.384   74.376  258.205
  287.090    4.599    0.574    0.441   87.835  278.792
  287.340    4.363    0.597    0.478   96.406  296.198
  287.590    4.362    0.595    0.534   96.668  324.810
  287.840    4.526    0.602    0.539   94.294  344.505
  288.090    4.872    0.607    0.525   87.879  345.546
  288.340    5.381    0.606    0.511   78.768  328.229
  288.590    5.947    0.603    0.508   70.289  292.725
  288.840    6.126    0.582    0.521   66.413  241.939
  289.090    6.212    0.570    0.527   61.051  262.614
  289.340    6.132    0.577    0.505   54.815  317.513
  289.590    5.976    0.590    0.491   51.680  332.247
  289.840    5.794    0.597    0.496   53.636  297.674
  290.090    5.536    0.582    0.511   61.674  268.468
  290.340    5.291    0.553    0.518   66.584  261.078
  290.590    5.138    0.549    0.516   66.146  309.128
  290.840    5.045    0.564    0.515   66.758  336.060
  291.090    5.026    0.577    0.518   67.843  337.102
  291.340    5.122    0.580    0.520   68.695  317.607
  291.590    5.504    0.576    0.510   68.438  292.074
  291.840    5.933    0.595    0.509   68.223  287.159
  292.090    6.551    0.601    0.507   69.893  314.978
  292.340    7.573    0.593    0.486   71.208  342.207
  292.590    8.820    0.563    0.464   70.768  334.323
  292.840   10.120    0.517    0.449   69.216  285.566
  293.090   11.889    0.472    0.433   69.246  224.340
  293.340   13.416    0.480    0.428   69.276  251.261
  293.590   13.800    0.516    0.429   70.012  266.377
  293.840   13.895    0.521    0.418   69.861  270.487
  294.090   13.840    0.508    0.401   69.535  266.962
  294.340   13.710    0.487    0.384   69.446  258.480
  294.590   13.488    0.465    0.380   69.327  251.741
  294.840   13.382    0.441    0.402   67.404  275.344
  295.090   13.372    0.470    0.380   67.428  276.584
  295.340   13.296    0.461    0.378   67.805  247.772
  295.590   13.198    0.450    0.374   68.067  232.942
  295.840   13.122    0.453    0.366   68.097  241.319
  296.090   13.115    0.462    0.385   68.228  245.260
  296.340   13.110    0.456    0.415   68.746  234.973
  296.590   13.104    0.463    0.401   69.242  240.972
  296.840   13.099    0.479    0.415   69.741  230.605
  297.090   13.094    0.488    0.425   70.239  219.938
  297.340   13.089    0.486    0.410   70.792  214.329
  297.590   13.101    0.478    0.364   71.719  207.858
  297.840   13.195    0.491    0.377   72.727  205.019
  298.090   13.284    0.494    0.348   73.689  208.633
  298.340   13.375    0.487    0.328   75.005  208.979
  298.590   13.466    0.486    0.317   76.204  208.833
  298.840   13.534    0.486    0.324   76.408  209.179
  299.090   13.527    0.454    0.365   73.700  209.393
  299.340   13.521    0.440    0.362   70.562  210.273
  299.590   13.516    0.441    0.386   69.881  217.462
  299.840   13.510    0.424    0.380   69.205  225.839
  300.090   13.456    0.411    0.372   68.529  237.389
  300.340   13.355    0.411    0.371   67.970  250.326
  300.590   13.252    0.420    0.369   67.921  260.191
  300.840   13.247    0.424    0.370   68.676  265.618
  301.090   13.241    0.425    0.396   69.412  266.458
  301.340   13.236    0.441    0.412   69.613  263.424
  301.590   13.278    0.461    0.403   69.758  253.152
  301.840   13.321    0.474    0.373   70.024  238.822
  302.090   13.179    0.465    0.349   70.387  229.661
  302.340   12.977    0.471    0.361   70.907  227.216
  302.590   12.787    0.476    0.368   71.632  221.313
  302.840   12.599    0.482    0.367   72.364  216.302
  303.090   12.413    0.481    0.357   73.213  213.178
  303.340   12.231    0.472    0.346   73.943  212.534
  303.590   12.033    0.454    0.353   73.828  216.309
  303.840   11.938    0.447    0.355   73.128  225.032
  304.090   11.678    0.443    0.361   72.216  236.191
  304.340   11.299    0.459    0.375   71.128  239.311
  304.590   10.612    0.472    0.387   70.219  231.025
  304.840    9.458    0.475    0.388   69.721  218.576
  305.090    7.448    0.472    0.369   70.045  223.047
  305.340    5.851    0.476    0.355   71.538  239.218
  305.590    4.411    0.517    0.359   74.614  245.612
  305.840    3.629    0.550    0.388   77.686  260.040
  306.090    3.394    0.577    0.429   79.236  295.795
  306.340    3.516    0.601    0.478   77.800  343.350
  306.590    3.762    0.626    0.545   71.099  372.704
  306.840    3.964    0.613    0.551   66.738  384.330
  307.090    4.166    0.610    0.556   67.000  382.389
  307.340    4.402    0.613    0.550   68.668  369.145
  307.590    4.677    0.621    0.529   71.272  341.623
  307.840    5.014    0.624    0.500   74.229  303.975
  308.090    5.556    0.606    0.480   78.255  262.894
  308.340    6.034    0.617    0.479   85.365  239.796
  308.590    6.478    0.623    0.448   87.730  220.803
  308.840    6.957    0.578    0.389   86.234  205.080
  309.090    7.447    0.532    0.360   82.982  198.978
  309.340    7.930    0.507    0.377   79.613  201.900
  309.590    8.569    0.496    0.415   77.111  207.308
  309.840    9.523    0.513    0.439   76.161  212.316
  310.090   10.515    0.507    0.424   74.078  203.245
  310.340   11.439    0.487    0.378   70.415  200.710
  310.590   12.418    0.470    0.352   67.283  201.350
  310.840   13.494    0.458    0.361   65.439  202.986
  311.090   14.525    0.434    0.386   64.491  204.639
  311.340   14.628    0.435    0.379   65.496  204.683
  311.590   14.411    0.439    0.381   66.461  205.127
  311.840   14.354    0.449    0.365   66.203  205.865
  312.090   14.504    0.454    0.351   65.645  206.306
  312.340   14.867    0.448    0.350   65.549  206.155
  312.590   15.564    0.431    0.366   66.862  205.502
  312.840   16.400    0.429    0.377   68.599  205.964
  313.090   16.991    0.441    0.375   69.333  204.429
  313.340   17.979    0.454    0.366   69.006  204.669
  313.590   19.305    0.459    0.347   67.508  205.309
  313.840   20.998    0.451    0.321   65.662  205.558
  314.090   23.612    0.394    0.256   65.080  205.135
  314.340   25.648    0.249    0.057   64.377  204.766
  314.590   26.008    0.232    0.054   60.657  204.822
  314.840   25.113    0.276    0.066   59.047  204.865
  315.090   22.881    0.332    0.091   59.543  204.714
  315.340   20.073    0.371    0.136   61.794  204.370
  315.590   17.215    0.400    0.233   65.793  204.107
  315.840   15.740    0.430    0.330   69.244  204.565
  316.090   14.631    0.475    0.329   69.738  205.014
  316.340   13.988    0.475    0.325   69.531  205.756
  316.590   13.538    0.473    0.325   69.442  206.594
