~VERSION INFORMATION
 VERS.                 2.0:   CWLS LOG ASCII STANDARD -VERSION 2.0
 WRAP.                  NO:   ONE LINE PER DEPTH STEP
~WELL INFORMATION BLOCK
#MNEM.UNIT           DATA                    DESCRIPTION OF MNEMONIC
#---------    -------------------            -------------------------------
# Generated from Intellog Unique Number	CS_67_68/WELL/804
WELL.         DOME PETROLEUM LIMITED         : Well_name    - WELL
LOC .         00/10-08-068-02W4/0            : Location     - LOCATION
UWI .         00/10-08-068-02W4/0            : Uwi          - UNIQUE WELL ID
ENTR.         SP                             : Entered      - ENTERED BY
SRVC.         SCHLUMBERGER                   : Scn          - SERVICE COMPANY
STRT.M        410                            : top_depth    - START DEPTH
STOP.M        665                            : bot_depth    - STOP DEPTH
STEP.M        0.25                           : increment    - STEP LENGTH
 NULL. -999.2500:NULL Value
~CURVE INFORMATION BLOCK
#MNEM UNIT       ERCB CURVE CODE    CURVE DESCRIPTION
#-----------   ------------------   ----------------------------------
DEPT.M        00 001 00 00         : DEPTH        - DEPTH
ILD .OHMM     00 120 00 00         : RESD         - DEEP RESISTIVITY (DIL)
DPHI.V/V      00 890 00 00         : PHID         - DENSITY POROSITY (LIMESTONE)
NPHI.V/V      00 330 00 00         : PHIN         - NEUTRON POROSITY (LIMESTONE)
GR  .API      00 310 00 00         : GR           - GAMMA RAY
~PARAMETER INFORMATION
#MNEM.UNIT           DATA             DESCRIPTION OF MNEMONIC
#---------         -----------     ------------------------------
GL  .M        743.94               : gl           - GROUND LEVEL ELEVATION
EREF.M        746.86               : kb           - ELEVATION OF DEPTH REFERENCE
DATM.M        743.94               : datum        - DATUM ELEVATION
TDD .M        667                  : tdd          - TOTAL DEPTH DRILLER
RUN .         ONE                  : Run          - RUN NUMBER
ENG .         BILL                 : Engineer     - RECORDING ENGINEER
WIT .         JIM                  : Witness      - WITNESSED BY
MUD .         GEL                  : Mud_type     - MUD TYPE
MATR.         LIMESTONE            : Logunit      - NEUTRON MATRIX
TMAX.C        31                   : BHT          - MAXIMUM RECORDED TEMPERATURE
BHTD.M        667                  : BHTDEP       - MAXIMUM RECORDED TEMPERATURE
MATR.         1                    : LOGUNIT      - NEUTRON MATRIX
RMT .C        25                   : MDTP         - TEMPERATURE OF MUD
NEUT.         1                    : NEUTRON      - NEUTRON TYPE
RESI.         0                    : RESIST       - RESISTIVITY TYPE
RMC .OHMM     0.25                 : RMC          - RESISTIVITY OF MUD CAKE
RMF .OHMM     0.25                 : RMF          - RESISTIVITY OF MUD FILTRATE
SUFT.C        15                   : SUFT         - SURFACE TEMPERATURE
~A  DEPTH     RESD     PHID     PHIN       GR
# ...
  453.500    8.496    0.292    0.444   98.353
  453.750    8.882    0.289    0.435   97.269
  454.000    9.079    0.278    0.443   96.185
  454.250    9.316    0.271    0.435   97.713
  454.500    9.313    0.266    0.423   98.635
  454.750    9.172    0.262    0.422  100.286
  455.000    9.016    0.260    0.432  102.056
  455.250    8.946    0.266    0.442  100.365
  455.500    8.993    0.274    0.436  102.260
  455.750    9.057    0.270    0.419  104.577
  456.000    9.054    0.264    0.436  106.410
  456.250    8.801    0.266    0.448  107.148
  456.500    8.351    0.271    0.450  103.695
  456.750    8.072    0.275    0.442   99.999
  457.000    8.267    0.285    0.438   98.491
  457.250    8.514    0.298    0.435   99.169
  457.500    8.688    0.302    0.414  100.514
  457.750    8.849    0.304    0.411  103.075
  458.000    8.895    0.307    0.415  106.125
  458.250    8.743    0.300    0.439  107.164
  458.500    8.660    0.292    0.455  108.693
  458.750    8.309    0.283    0.457  108.460
  459.000    8.001    0.278    0.450  107.012
  459.250    7.969    0.273    0.436  104.531
  459.500    8.116    0.270    0.420  101.381
  459.750    8.453    0.275    0.421  105.888
  460.000    8.722    0.277    0.428  109.482
  460.250    8.984    0.278    0.417  112.103
  460.500    9.183    0.280    0.413  113.024
  460.750    9.283    0.284    0.410  111.576
  461.000    9.350    0.288    0.407  109.277
  461.250    9.364    0.287    0.414  105.764
  461.500    9.395    0.288    0.409  101.763
  461.750    9.462    0.291    0.401   99.768
  462.000    9.477    0.298    0.398   99.595
  462.250    9.509    0.292    0.415  100.943
  462.500    9.383    0.289    0.424  102.409
  462.750    8.969    0.296    0.425  104.182
  463.000    7.839    0.296    0.425  106.257
  463.250    7.286    0.283    0.427  110.279
  463.500    7.176    0.279    0.429  112.351
  463.750    7.377    0.274    0.434  114.122
  464.000    7.784    0.271    0.444  115.408
  464.250    8.307    0.268    0.437   98.589
  464.500    8.864    0.252    0.431   92.766
  464.750    9.249    0.246    0.430   94.904
  465.000    9.615    0.262    0.441   96.067
  465.250    9.866    0.264    0.450   97.293
  465.500   10.256    0.267    0.448   95.904
  465.750   10.862    0.283    0.434   88.259
  466.000   11.271    0.304    0.411   70.650
  466.250   11.674    0.323    0.399   61.791
  466.500   12.159    0.346    0.394   68.727
  466.750   12.546    0.352    0.393   73.656
  467.000   12.682    0.358    0.391   80.108
  467.250   12.374    0.354    0.391   84.066
  467.500   12.074    0.338    0.391   87.173
  467.750   11.825    0.317    0.400   86.211
  468.000   11.366    0.306    0.390   78.991
  468.250   10.945    0.297    0.395   74.568
  468.500   10.760    0.290    0.402   74.028
  468.750   10.577    0.284    0.404   76.287
  469.000   10.554    0.280    0.401   77.269
  469.250   10.689    0.277    0.396   78.129
  469.500   10.846    0.275    0.392   78.988
  469.750   11.212    0.277    0.392   79.302
  470.000   11.655    0.282    0.405   74.028
  470.250   11.871    0.299    0.406   69.419
  470.500   12.136    0.323    0.398   65.359
  470.750   12.314    0.337    0.392   62.148
  471.000   12.448    0.343    0.390   64.101
  471.250   12.352    0.347    0.419   71.281
  471.500   12.029    0.343    0.436   76.151
  471.750   11.649    0.343    0.442   78.894
  472.000   11.601    0.348    0.430   80.058
  472.250   11.663    0.350    0.415   80.736
  472.500   11.766    0.339    0.407   82.325
  472.750   11.784    0.328    0.401   83.428
  473.000   11.912    0.321    0.397   84.107
  473.250   12.021    0.316    0.394   81.018
  473.500   12.153    0.320    0.392   74.709
  473.750   12.377    0.328    0.392   70.041
  474.000   12.606    0.336    0.405   66.589
  474.250   12.672    0.346    0.412   66.903
  474.500   12.620    0.339    0.421   68.066
  474.750   12.476    0.331    0.426   68.743
  475.000   12.104    0.339    0.401   65.108
  475.250   11.613    0.346    0.381   66.758
  475.500   11.331    0.306    0.378   73.331
  475.750   10.812    0.285    0.401   83.244
  476.000    9.327    0.270    0.416   89.692
  476.250    8.932    0.286    0.423   92.556
  476.500    8.602    0.297    0.429   89.285
  476.750    8.284    0.300    0.441   88.930
  477.000    8.098    0.294    0.463   92.039
  477.250    7.945    0.282    0.470   94.177
  477.500    7.913    0.265    0.454   95.035
  477.750    8.000    0.252    0.444   92.371
  478.000    8.208    0.246    0.429   82.844
  478.250    8.565    0.251    0.419   79.877
  478.500    8.921    0.259    0.416   78.429
  478.750    9.257    0.276    0.413   75.460
  479.000    9.676    0.306    0.400   68.302
  479.250    9.929    0.332    0.392   63.574
  479.500   10.075    0.332    0.389   62.731
  479.750   10.147    0.334    0.384   63.836
  480.000    9.993    0.330    0.379   63.602
  480.250    9.623    0.305    0.370   69.383
  480.500    9.390    0.286    0.359   80.816
  480.750    9.094    0.266    0.350   86.959
  481.000    8.742    0.246    0.353   93.653
  481.250    8.561    0.266    0.370   97.125
  481.500    8.384    0.276    0.389   97.135
  481.750    8.272    0.283    0.402   94.714
  482.000    8.253    0.295    0.404   86.766
  482.250    8.266    0.302    0.393   84.469
  482.500    8.403    0.303    0.396   82.533
  482.750    8.511    0.311    0.409   78.413
  483.000    8.492    0.331    0.417   74.656
  483.250    8.441    0.335    0.421   74.542
  483.500    8.329    0.327    0.419   78.260
  483.750    8.234    0.323    0.414   79.422
  484.000    7.929    0.321    0.405   79.128
  484.250    7.708    0.320    0.407   79.077
  484.500    7.577    0.319    0.414   82.006
  484.750    7.379    0.314    0.419   83.290
  485.000    7.160    0.307    0.421   84.817
  485.250    6.986    0.302    0.423   87.927
  485.500    7.009    0.297    0.429   90.182
  485.750    7.099    0.293    0.429   93.473
  486.000    7.353    0.294    0.416   94.758
  486.250    7.715    0.309    0.410   88.998
  486.500    7.991    0.343    0.404   85.424
  486.750    8.048    0.359    0.395   82.212
  487.000    7.926    0.358    0.390   77.483
  487.250    7.894    0.355    0.390   70.385
  487.500    7.890    0.352    0.394   65.413
  487.750    7.903    0.351    0.397   59.469
  488.000    7.929    0.348    0.403   59.236
  488.250    8.061    0.340    0.407   63.195
  488.500    8.149    0.330    0.406   63.872
  488.750    8.130    0.319    0.388   56.409
  489.000    7.991    0.310    0.371   51.803
  489.250    7.900    0.312    0.378   49.928
  489.500    7.766    0.331    0.390   53.705
  489.750    7.649    0.342    0.398   56.510
  490.000    7.366    0.345    0.407   58.647
  490.250    7.121    0.344    0.416   61.329
  490.500    7.039    0.341    0.424   64.253
  490.750    7.050    0.327    0.435   67.727
  491.000    6.467    0.328    0.429   64.456
  491.250    6.526    0.338    0.416   62.156
  491.500    6.634    0.343    0.402   60.526
  491.750    6.769    0.347    0.402   60.657
  492.000    6.805    0.348    0.407   60.303
  492.250    6.930    0.346    0.407   59.705
  492.500    6.967    0.344    0.400   59.533
  492.750    7.015    0.345    0.402   60.393
  493.000    7.000    0.347    0.399   59.734
  493.250    6.946    0.359    0.391   57.618
  493.500    6.931    0.366    0.401   55.502
  493.750    6.915    0.364    0.410   55.024
  494.000    6.900    0.361    0.398   56.917
  494.250    6.898    0.359    0.393   57.901
  494.500    6.921    0.359    0.402   56.937
  494.750    6.984    0.360    0.413   56.339
  495.000    7.060    0.358    0.414   57.869
  495.250    7.137    0.355    0.404   58.972
  495.500    7.147    0.354    0.399   58.130
  495.750    7.185    0.357    0.402   56.499
  496.000    7.237    0.360    0.404   55.660
  496.250    7.261    0.363    0.399   56.216
  496.500    7.325    0.361    0.415   56.408
  496.750    7.393    0.356    0.423   56.236
