~VERSION INFORMATION
 VERS.                 2.0:   CWLS LOG ASCII STANDARD -VERSION 2.0
 WRAP.                  NO:   ONE LINE PER DEPTH STEP
~WELL INFORMATION BLOCK
#MNEM.UNIT           DATA                    DESCRIPTION OF MNEMONIC
#---------    -------------------            -------------------------------
# Generated from Intellog Unique Number	CS_67_68/WELL/856
WELL.         CHIEFTIAN DEVELOPMENT CO.      : Well_name    - WELL
LOC .         00/14-30-068-11W4/0            : Location     - LOCATION
UWI .         00/14-30-068-11W4/0            : Uwi          - UNIQUE WELL ID
ENTR.         SP                             : Entered      - ENTERED BY
SRVC.         SCHLUMBERGER                   : Scn          - SERVICE COMPANY
STRT.M        280                            : top_depth    - START DEPTH
STOP.M        480                            : bot_depth    - STOP DEPTH
STEP.M        0.25                           : increment    - STEP LENGTH
 NULL. -999.2500:NULL Value
~CURVE INFORMATION BLOCK
#MNEM UNIT       ERCB CURVE CODE    CURVE DESCRIPTION
#-----------   ------------------   ----------------------------------
DEPT.M        00 001 00 00         : DEPTH        - DEPTH
ILD .OHMM     00 120 00 00         : RESD         - DEEP RESISTIVITY (DIL)
DPHI.V/V      00 890 00 00         : PHID         - DENSITY POROSITY (LIMESTONE)
NPHI.V/V      00 330 00 00         : PHIN         - NEUTRON POROSITY (LIMESTONE)
GR  .API      00 310 00 00         : GR           - GAMMA RAY
~PARAMETER INFORMATION
#MNEM.UNIT           DATA             DESCRIPTION OF MNEMONIC
#---------         -----------     ------------------------------
GL  .M        592.5                : gl           - GROUND LEVEL ELEVATION
EREF.M        599.5                : kb           - ELEVATION OF DEPTH REFERENCE
DATM.M        592.5                : datum        - DATUM ELEVATION
TDD .M        486                  : tdd          - TOTAL DEPTH DRILLER
RUN .         ONE                  : Run          - RUN NUMBER
ENG .         BILL                 : Engineer     - RECORDING ENGINEER
WIT .         JIM                  : Witness      - WITNESSED BY
MUD .         GEL                  : Mud_type     - MUD TYPE
MATR.         LIMESTONE            : Logunit      - NEUTRON MATRIX
TMAX.C        22                   : BHT          - MAXIMUM RECORDED TEMPERATURE
BHTD.M        486                  : BHTDEP       - MAXIMUM RECORDED TEMPERATURE
MATR.         1                    : LOGUNIT      - NEUTRON MATRIX
RMT .C        25                   : MDTP         - TEMPERATURE OF MUD
NEUT.         1                    : NEUTRON      - NEUTRON TYPE
RESI.         0                    : RESIST       - RESISTIVITY TYPE
RMC .OHMM     0.25                 : RMC          - RESISTIVITY OF MUD CAKE
RMF .OHMM     0.25                 : RMF          - RESISTIVITY OF MUD FILTRATE
SUFT.C        15                   : SUFT         - SURFACE TEMPERATURE
~A  DEPTH     RESD     PHID     PHIN       GR
# ...
  410.500    1.993    0.222    0.479  105.273
  410.750    1.957    0.232    0.478  106.133
  411.000    1.932    0.240    0.481  106.873
  411.250    1.907    0.247    0.486  107.131
  411.500    1.889    0.243    0.480  106.236
  411.750    1.883    0.234    0.464  104.012
  412.000    1.887    0.220    0.449  101.672
  412.250    1.919    0.214    0.431  100.353
  412.500    2.000    0.221    0.422   98.672
  412.750    2.112    0.230    0.422   96.569
  413.000    2.350    0.240    0.403   93.196
  413.250    2.566    0.249    0.385   90.303
  413.500    2.735    0.239    0.370   86.566
  413.750    2.992    0.228    0.354   83.193
  414.000    3.311    0.169    0.334   80.605
  414.250    3.663    0.060    0.318   79.833
  414.500    4.153    0.061    0.305   83.057
  414.750    4.535    0.111    0.302   86.036
  415.000    4.842    0.154    0.322   88.955
  415.250    5.075    0.180    0.342   90.180
  415.500    5.182    0.200    0.347   85.960
  415.750    5.106    0.083    0.347   80.954
  416.000    4.956    0.048    0.330   77.879
  416.250    4.439    0.031    0.317   72.932
  416.500    4.261    0.114    0.308   71.255
  416.750    4.689    0.146    0.342   74.474
  417.000    5.054    0.179    0.360   81.268
  417.250    5.326    0.103    0.364   84.489
  417.500    5.499    0.064    0.357   85.232
  417.750    5.689    0.083    0.348   85.729
  418.000    5.765    0.117    0.340   87.379
  418.250    5.554    0.118    0.353   89.087
  418.500    5.184    0.120    0.360   91.040
  418.750    4.884    0.123    0.357   92.326
  419.000    4.618    0.126    0.356   93.189
  419.250    4.425    0.125    0.357   93.385
  419.500    4.328    0.121    0.354   92.973
  419.750    4.304    0.099    0.345   90.690
  420.000    4.313    0.071    0.340   89.552
  420.250    4.330    0.139    0.334   92.593
  420.500    4.347    0.163    0.329   95.029
  420.750    4.308    0.179    0.350   96.496
  421.000    4.260    0.175    0.364   97.237
  421.250    4.190    0.169    0.373   97.251
  421.500    4.136    0.158    0.377   96.178
  421.750    4.106    0.148    0.372   95.345
  422.000    4.069    0.167    0.370   94.515
  422.250    4.055    0.196    0.371   93.924
  422.500    4.018    0.212    0.374   92.788
  422.750    4.018    0.202    0.371   90.624
  423.000    4.080    0.189    0.362   87.614
  423.250    4.165    0.172    0.357   82.605
  423.500    4.456    0.153    0.347   76.810
  423.750    4.749    0.135    0.340   73.255
  424.000    5.110    0.035    0.334   73.814
  424.250    5.497    0.072    0.326   79.940
  424.500    5.740    0.120    0.334   88.972
  424.750    5.634    0.158    0.348   95.826
  425.000    5.123    0.187    0.358   99.168
  425.250    4.711    0.177    0.362   99.727
  425.500    4.388    0.186    0.362   98.598
  425.750    4.134    0.204    0.364   97.461
  426.000    3.976    0.219    0.366   96.143
  426.250    3.896    0.213    0.367   94.704
  426.500    3.810    0.175    0.364   92.782
  426.750    3.797    0.145    0.360   89.591
  427.000    3.819    0.113    0.360   87.486
  427.250    3.892    0.071    0.362   85.990
  427.500    4.026    0.085    0.360   85.518
  427.750    4.087    0.113    0.356   85.354
  428.000    4.095    0.145    0.354   86.093
  428.250    4.081    0.149    0.365   89.077
  428.500    3.628    0.157    0.372   91.327
  428.750    3.142    0.172    0.377   92.915
  429.000    2.868    0.197    0.399   94.504
  429.250    2.579    0.213    0.432   95.789
  429.500    2.375    0.197    0.457   96.651
  429.750    2.100    0.190    0.445   96.665
  430.000    1.792    0.181    0.430   98.015
  430.250    1.587    0.184    0.410   98.631
  430.500    1.630    0.195    0.402   98.525
  430.750    1.689    0.207    0.387   96.426
  431.000    1.862    0.217    0.374   95.287
  431.250    2.095    0.226    0.362   91.976
  431.500    2.361    0.178    0.352   88.300
  431.750    2.697    0.148    0.342   85.953
  432.000    3.139    0.160    0.324   83.064
  432.250    3.687    0.095    0.305   80.474
  432.500    4.445    0.052    0.294   74.499
  432.750    5.390    0.024    0.284   70.701
  433.000    6.273    0.043    0.271   68.658
  433.250    6.774    0.079    0.275   73.515
  433.500    7.086    0.099    0.326   79.036
  433.750    6.904    0.108    0.348   83.287
  434.000    5.969    0.090    0.361   86.690
  434.250    5.257    0.079    0.373   91.003
  434.500    4.370    0.115    0.382   94.769
  434.750    3.572    0.148    0.392   98.293
  435.000    2.876    0.167    0.400  100.486
  435.250    2.605    0.178    0.406  100.440
  435.500    2.610    0.134    0.401   95.858
  435.750    2.856    0.081    0.396   93.087
  436.000    3.107    0.069    0.389   97.037
  436.250    3.263    0.119    0.398  100.986
  436.500    3.413    0.148    0.412  104.690
  436.750    3.388    0.180    0.425  109.124
  437.000    3.145    0.191    0.440  111.134
  437.250    2.822    0.185    0.452  112.723
  437.500    2.610    0.171    0.453  113.342
  437.750    2.440    0.158    0.447  113.662
  438.000    2.265    0.151    0.443  113.797
  438.250    2.199    0.185    0.446  113.810
  438.500    2.175    0.181    0.456  112.978
  438.750    2.224    0.156    0.450  109.483
  439.000    2.305    0.144    0.437  109.195
  439.250    2.434    0.180    0.420  111.147
  439.500    2.537    0.196    0.407  112.372
  439.750    2.679    0.210    0.388  111.054
  440.000    2.975    0.206    0.375  101.568
  440.250    3.335    0.192    0.365   86.635
  440.500    3.787    0.178    0.355   79.328
  440.750    4.466    0.154    0.344   73.110
  441.000    5.025    0.120    0.331   69.252
  441.250    5.924    0.090    0.322   66.968
  441.500    6.703    0.137    0.317   65.227
  441.750    7.091    0.193    0.314   63.730
  442.000    7.119    0.228    0.314   62.476
  442.250    7.002    0.232    0.316   62.367
  442.500    6.835    0.215    0.319   63.049
  442.750    6.537    0.199    0.324   63.972
  443.000    6.090    0.182    0.331   65.138
  443.250    5.824    0.189    0.335   66.061
  443.500    5.569    0.202    0.338   66.737
  443.750    5.366    0.211    0.340   67.541
  444.000    5.151    0.219    0.341   68.405
  444.250    4.990    0.199    0.343   69.206
  444.500    4.826    0.193    0.346   70.125
  444.750    4.667    0.126    0.351   73.169
  445.000    4.522    0.056    0.356   75.965
  445.250    4.317    0.100    0.362   80.520
  445.500    4.136    0.131    0.366   84.102
  445.750    3.940    0.148    0.359   88.776
  446.000    3.726    0.159    0.344   83.164
  446.250    3.624    0.182    0.328   71.801
  446.500    3.518    0.216    0.313   63.344
  446.750    3.585    0.240    0.323   58.520
  447.000    3.929    0.254    0.334   55.991
  447.250    4.332    0.266    0.344   55.461
  447.500    4.748    0.279    0.353   56.323
  447.750    5.463    0.292    0.358   57.368
  448.000    6.981    0.303    0.361   58.955
  448.250    8.837    0.319    0.360   63.388
  448.500   14.078    0.315    0.357   70.363
  448.750   17.166    0.313    0.356   76.609
  449.000   17.924    0.318    0.356   81.949
  449.250   17.269    0.325    0.357   86.565
  449.500   16.639    0.320    0.359   90.149
  449.750   15.473    0.310    0.358   91.918
  450.000   14.659    0.310    0.355   91.996
  450.250   13.681    0.312    0.351   89.590
  450.500   12.187    0.304    0.347   87.181
  450.750   10.594    0.301    0.344   84.110
  451.000    7.755    0.312    0.343   78.135
  451.250    6.446    0.319    0.341   74.155
  451.500    5.752    0.305    0.336   78.164
  451.750    5.260    0.267    0.334   79.994
  452.000    4.937    0.236    0.336   77.044
  452.250    4.634    0.206    0.340   73.972
  452.500    4.465    0.215    0.343   71.022
  452.750    4.309    0.233    0.346   68.682
  453.000    4.137    0.232    0.347   67.365
  453.250    4.038    0.220    0.344   66.529
  453.500    3.979    0.217    0.339   65.939
  453.750    3.884    0.208    0.336   66.317
