~VERSION INFORMATION
 VERS.                 2.0:   CWLS LOG ASCII STANDARD -VERSION 2.0
 WRAP.                  NO:   ONE LINE PER DEPTH STEP
~WELL INFORMATION BLOCK
#MNEM.UNIT           DATA                    DESCRIPTION OF MNEMONIC
#---------    -------------------            -------------------------------
# Generated from Intellog Unique Number	CW_82_90/WELL/3445
WELL.         DOME MINK                      : Well_name    - WELL
LOC .         00/10-35-088-22W4/0            : Location     - LOCATION
UWI .         00/10-35-088-22W4/0            : Uwi          - UNIQUE WELL ID
ENTR.         MAX                            : Entered      - ENTERED BY
SRVC.         WESTERN ATLAS                  : Scn          - SERVICE COMPANY
STRT.M        50                             : top_depth    - START DEPTH
STOP.M        252                            : bot_depth    - STOP DEPTH
STEP.M        0.25                           : increment    - STEP LENGTH
 NULL. -999.2500:NULL Value
~CURVE INFORMATION BLOCK
#MNEM UNIT       ERCB CURVE CODE    CURVE DESCRIPTION
#-----------   ------------------   ----------------------------------
DEPT.M        00 001 00 00         : DEPTH        - DEPTH
ILD .OHMM     00 120 00 00         : RESD         - DEEP RESISTIVITY (DIL)
NPHI.V/V      00 330 00 00         : PHIN         - NEUTRON POROSITY (SANDSTONE)
DPHI.V/V      00 890 00 00         : PHID         - DENSITY POROSITY (SANDSTONE)
CALI.MM       00 280 01 00         : CAL          - CALIPER
GR  .API      00 310 00 00         : GR           - GAMMA RAY
~PARAMETER INFORMATION
#MNEM.UNIT           DATA             DESCRIPTION OF MNEMONIC
#---------         -----------     ------------------------------
GL  .M        516.7                : gl           - GROUND LEVEL ELEVATION
EREF.M        520                  : kb           - ELEVATION OF DEPTH REFERENCE
DATM.M        516.7                : datum        - DATUM ELEVATION
TDD .M        252                  : tdd          - TOTAL DEPTH DRILLER
RUN .         ONE                  : Run          - RUN NUMBER
ENG .         BILL                 : Engineer     - RECORDING ENGINEER
WIT .         JIM                  : Witness      - WITNESSED BY
MUD .         GEL                  : Mud_type     - MUD TYPE
MATR.         SANDSTONE            : Logunit      - NEUTRON MATRIX
TMAX.C        20                   : BHT          - MAXIMUM RECORDED TEMPERATURE
BHTD.M        252                  : BHTDEP       - MAXIMUM RECORDED TEMPERATURE
MATR.         1                    : LOGUNIT      - NEUTRON MATRIX
RMT .C        18                   : MDTP         - TEMPERATURE OF MUD
NEUT.         1                    : NEUTRON      - NEUTRON TYPE
RESI.         0                    : RESIST       - RESISTIVITY TYPE
RMC .OHMM     5.4                  : RMC          - RESISTIVITY OF MUD CAKE
RMF .OHMM     4.5                  : RMF          - RESISTIVITY OF MUD FILTRATE
SUFT.C        -15                  : SUFT         - SURFACE TEMPERATURE
~A  DEPTH     RESD     PHIN     PHID      CAL       GR
   50.000   10.998    0.422    0.441  254.516   84.806
   50.250   12.409    0.468    0.475  278.875   80.906
   50.500   15.227    0.471    0.458  287.805   74.024
   50.750   19.215    0.406    0.445  283.797   61.167
   51.000   24.247    0.368    0.417  270.332   48.906
   51.250   42.019    0.370    0.411  263.337   38.737
   51.500   52.040    0.351    0.408  262.812   36.031
   51.750   51.052    0.323    0.368  264.776   43.779
   52.000   40.407    0.314    0.271  270.223   50.931
   52.250   33.196    0.318    0.285  280.647   57.185
   52.500   33.801    0.385    0.357  288.583   60.155
   52.750   37.083    0.411    0.434  301.993   56.555
   53.000   41.840    0.408    0.484  309.430   51.761
   53.250   46.771    0.411    0.523  313.879   44.875
   53.500   54.777    0.437    0.535  317.836   39.782
   53.750   65.356    0.448    0.510  323.781   37.078
   54.000   76.547    0.441    0.483  339.182   37.958
   54.250   83.982    0.430    0.447  356.573   37.045
   54.500   93.874    0.430    0.445  375.458   34.638
   54.750  116.271    0.442    0.500  381.900   33.728
   55.000  126.379    0.459    0.540  375.901   32.814
   55.250  116.122    0.469    0.457  364.925   32.499
   55.500  103.754    0.452    0.600  355.939   33.080
   55.750   94.448    0.451    0.600  347.946   34.550
   56.000   92.647    0.456    0.601  342.938   35.734
   56.250   94.342    0.464    0.601  337.938   37.808
   56.500   96.969    0.470    0.599  331.440   41.077
   56.750  105.398    0.471    0.587  316.483   43.148
   57.000  115.626    0.458    0.577  297.540   43.134
   57.250  114.492    0.435    0.549  275.615   45.507
   57.500  103.248    0.434    0.506  261.155   50.268
   57.750   98.484    0.452    0.489  253.158   52.041
   58.000   97.511    0.457    0.463  242.186   51.127
   58.250  103.070    0.450    0.443  228.721   48.427
   58.500  108.939    0.434    0.424  217.247   40.946
   58.750  111.963    0.420    0.503  213.239   37.941
   59.000  118.338    0.407    0.499  217.186   37.025
   59.250  131.048    0.382    0.469  219.153   36.413
   59.500  137.223    0.380    0.444  219.620   36.399
   59.750  132.108    0.362    0.424  219.592   36.677
   60.000  116.958    0.352    0.439  220.564   36.663
   60.250  101.616    0.346    0.509  223.018   36.047
   60.500  103.468    0.353    0.547  222.994   36.331
   60.750  108.335    0.377    0.557  226.952   37.511
   61.000  114.512    0.399    0.550  226.921   39.585
   61.250  119.899    0.408    0.518  223.414   38.673
   61.500  126.716    0.398    0.495  228.363   38.058
   61.750  131.465    0.405    0.475  238.289   38.937
   62.000  133.870    0.423    0.469  250.704   41.013
   62.250  136.299    0.435    0.464  252.667   43.684
   62.500  133.699    0.422    0.457  251.147   45.154
   62.750  127.529    0.401    0.448  248.127   45.140
   63.000  125.078    0.393    0.439  245.615   43.931
   63.250  126.184    0.396    0.440  240.109   42.422
   63.500  126.108    0.402    0.444  234.611   42.107
   63.750  126.032    0.415    0.453  239.063   43.285
   64.000  124.787    0.423    0.464  247.496   41.473
   64.250  120.144    0.440    0.482  259.413   40.266
   64.500  112.481    0.458    0.500  270.335   40.250
   64.750  106.302    0.484    0.508  278.771   42.025
   65.000   94.965    0.500    0.508  292.679   41.111
   65.250   86.461    0.507    0.529  292.648   41.391
   65.500   74.433    0.531    0.554  285.654   43.463
   65.750   70.339    0.533    0.572  272.189   43.749
   66.000   68.992    0.509    0.564  259.720   42.538
   66.250   68.316    0.471    0.552  253.717   42.221
   66.500   67.641    0.445    0.541  255.684   39.816
   66.750   66.967    0.419    0.533  263.122   38.006
   67.000   66.296    0.401    0.539  283.499   38.291
   67.250   65.041    0.408    0.556  293.923   39.767
   67.500   62.030    0.416    0.560  305.840   40.945
   67.750   59.172    0.456    0.586  316.758   39.734
   68.000   55.917    0.497    0.596  322.700   38.822
   68.250   53.337    0.480    0.597  322.676   38.507
   68.500   51.830    0.456    0.600  320.658   39.685
   68.750   50.845    0.459    0.590  317.645   41.162
   69.000   49.408    0.471    0.588  311.151   42.639
   69.250   48.466    0.477    0.600  295.692   43.815
   69.500   47.545    0.484    0.597  280.237   46.185
   69.750   46.634    0.487    0.569  263.786   48.858
   70.000   45.748    0.491    0.530  255.793   53.622
   70.250   44.876    0.539    0.515  255.264   53.900
   70.500   43.611    0.547    0.507  253.246   53.288
   70.750   41.979    0.544    0.503  249.739   54.466
   71.000   40.799    0.532    0.490  244.237   53.855
   71.250   39.649    0.470    0.478  235.746   52.941
   71.500   37.123    0.426    0.460  229.245   53.820
   71.750   33.482    0.420    0.443  225.237   56.192
   72.000   29.092    0.427    0.428  223.716   59.162
   72.250   24.809    0.452    0.400  223.689   63.627
   72.500   20.958    0.457    0.381  225.155   68.090
   72.750   19.260    0.460    0.368  225.628   75.538
   73.000   17.534    0.477    0.356  225.104   83.883
   73.250   16.265    0.480    0.339  222.581   83.568
   73.500   15.368    0.458    0.324  222.561   80.564
   73.750   14.935    0.456    0.315  225.519   80.844
   74.000   14.786    0.441    0.313  227.980   80.831
   74.250   14.778    0.393    0.313  230.438   80.516
   74.500   14.770    0.369    0.316  231.907   80.797
   74.750   15.172    0.378    0.326  231.877   81.075
   75.000   15.029    0.414    0.334  230.854   78.970
   75.250   14.881    0.429    0.341  229.831   78.359
   75.500   14.872    0.427    0.339  233.779   81.623
   75.750   14.863    0.406    0.323  236.243   84.595
   76.000   14.715    0.404    0.309  237.215   84.877
   76.250   14.844    0.456    0.306  237.685   83.071
   76.500   15.114    0.464    0.319  237.658   79.770
   76.750   15.248    0.438    0.339  237.627   78.559
   77.000   15.525    0.428    0.324  237.105   79.436
   77.250   15.809    0.424    0.315  234.586   80.017
   77.500   15.947    0.436    0.309  233.063   80.001
   77.750   16.087    0.428    0.325  233.042   78.788
   78.000   16.076    0.388    0.346  233.513   76.383
   78.250   16.068    0.377    0.338  233.482   73.978
   78.500   16.209    0.390    0.324  230.462   73.366
   78.750   16.198    0.405    0.319  229.446   73.051
   79.000   16.186    0.412    0.325  233.397   73.931
   79.250   16.177    0.408    0.328  234.859   75.405
   79.500   16.318    0.424    0.324  233.843   76.583
   79.750   16.308    0.446    0.319  231.825   77.465
   80.000   15.999    0.425    0.313  230.305   78.342
   80.250   15.548    0.434    0.302  230.775   79.819
   80.500   14.969    0.463    0.306  231.743   80.696
   80.750   14.821    0.453    0.306  232.214   83.965
   81.000   14.811    0.444    0.307  232.186   86.936
   81.250   14.941    0.428    0.316  232.156   88.114
   81.500   15.072    0.397    0.324  231.130   85.709
   81.750   15.204    0.392    0.335  229.115   82.109
   82.000   15.338    0.400    0.355  221.623   76.121
   82.250   15.329    0.411    0.371  218.609   77.299
   82.500   15.320    0.418    0.383  222.066   81.461
   82.750   15.311    0.425    0.388  228.011   82.044
   83.000   14.878    0.422    0.367  232.957   82.923
   83.250   13.929    0.421    0.342  233.430   85.592
   83.500   12.445    0.445    0.337  232.905   87.368
   83.750   11.331    0.432    0.341  232.875   87.648
   84.000   10.220    0.438    0.348  232.851   87.930
   84.250    9.658    0.435    0.353  232.817   88.810
   84.500    9.298    0.404    0.357  232.790   89.689
   84.750    9.293    0.389    0.358  232.766   87.584
   85.000    9.373    0.414    0.356  232.738   85.177
   85.250    9.999    0.427    0.345  233.209   83.968
   85.500   10.869    0.472    0.332  233.175   83.355
   85.750   11.487    0.469    0.331  233.652   83.934
   86.000   10.755    0.434    0.338  234.119   85.114
   86.250    9.087    0.451    0.354  234.593   85.095
