~VERSION INFORMATION
 VERS.                 2.0:   CWLS LOG ASCII STANDARD -VERSION 2.0
 WRAP.                  NO:   ONE LINE PER DEPTH STEP
~WELL INFORMATION BLOCK
#MNEM.UNIT           DATA                    DESCRIPTION OF MNEMONIC
#---------    -------------------            -------------------------------
# Generated from Intellog Unique Number	CS_73_76/WELL/2201
WELL.         PEX KIRBY                      : Well_name    - WELL
LOC .         00/11-18-074-08W4/0            : Location     - LOCATION
UWI .         00/11-18-074-08W4/0            : Uwi          - UNIQUE WELL ID
ENTR.         SP                             : Entered      - ENTERED BY
SRVC.         SCHLUMBERGER                   : Scn          - SERVICE COMPANY
STRT.M        290                            : top_depth    - START DEPTH
STOP.M        505                            : bot_depth    - STOP DEPTH
STEP.M        0.25                           : increment    - STEP LENGTH
 NULL. -999.2500:NULL Value
~CURVE INFORMATION BLOCK
#MNEM UNIT       ERCB CURVE CODE    CURVE DESCRIPTION
#-----------   ------------------   ----------------------------------
DEPT.M        00 001 00 00         : DEPTH        - DEPTH
ILD .OHMM     00 120 00 00         : RESD         - DEEP RESISTIVITY (DIL)
DPHI.V/V      00 890 00 00         : PHID         - DENSITY POROSITY (LIMESTONE)
NPHI.V/V      00 330 00 00         : PHIN         - NEUTRON POROSITY (LIMESTONE)
GR  .API      00 310 00 00         : GR           - GAMMA RAY
~PARAMETER INFORMATION
#MNEM.UNIT           DATA             DESCRIPTION OF MNEMONIC
#---------         -----------     ------------------------------
GL  .M        665.27               : gl           - GROUND LEVEL ELEVATION
EREF.M        669.23               : kb           - ELEVATION OF DEPTH REFERENCE
DATM.M        665.27               : datum        - DATUM ELEVATION
TDD .M        518                  : tdd          - TOTAL DEPTH DRILLER
RUN .         ONE                  : Run          - RUN NUMBER
ENG .         BILL                 : Engineer     - RECORDING ENGINEER
WIT .         JIM                  : Witness      - WITNESSED BY
MUD .         GEL                  : Mud_type     - MUD TYPE
MATR.         LIMESTONE            : Logunit      - NEUTRON MATRIX
TMAX.C        34                   : BHT          - MAXIMUM RECORDED TEMPERATURE
BHTD.M        518                  : BHTDEP       - MAXIMUM RECORDED TEMPERATURE
MATR.         1                    : LOGUNIT      - NEUTRON MATRIX
RMT .C        25                   : MDTP         - TEMPERATURE OF MUD
NEUT.         1                    : NEUTRON      - NEUTRON TYPE
RESI.         0                    : RESIST       - RESISTIVITY TYPE
RMC .OHMM     0.25                 : RMC          - RESISTIVITY OF MUD CAKE
RMF .OHMM     0.25                 : RMF          - RESISTIVITY OF MUD FILTRATE
SUFT.C        15                   : SUFT         - SURFACE TEMPERATURE
~A  DEPTH     RESD     PHID     PHIN       GR
  290.000    3.499    1.077    0.497  101.036
  290.250    3.635    0.208    0.489  104.145
  290.500    3.706    0.208    0.443  108.493
  290.750    3.706    0.201    0.414  109.122
  291.000    3.706    0.197    0.388  105.414
  291.250    3.707    0.206    0.402  100.466
  291.500    3.638    0.213    0.415   98.612
  291.750    3.570    0.215    0.432   99.246
  292.000    3.504    0.215    0.432  101.113
  292.250    3.438    0.212    0.421  104.225
  292.500    3.374    0.206    0.408  104.850
  292.750    3.375    0.201    0.403  106.102
  293.000    3.312    0.192    0.396  106.108
  293.250    3.250    0.186    0.389  103.018
  293.500    3.251    0.180    0.382   99.926
  293.750    3.377    0.177    0.394   96.837
  294.000    3.508    0.186    0.405   95.608
  294.250    3.931    0.209    0.372   92.517
  294.500    4.754    0.236    0.341   86.949
  294.750    6.320    0.262    0.327   80.139
  295.000    7.938    0.281    0.320   73.949
  295.250   10.756    0.278    0.329   66.523
  295.500   14.031    0.276    0.342   62.193
  295.750   16.027    0.279    0.349   60.343
  296.000   17.294    0.275    0.356   60.350
  296.250   14.861    0.267    0.368   61.600
  296.500   13.517    0.261    0.381   69.047
  296.750   12.064    0.268    0.379   85.793
  297.000   11.398    0.284    0.368   96.960
  297.250   13.269    0.299    0.359  102.546
  297.500   15.156    0.309    0.348   82.102
  297.750   17.983    0.306    0.360   64.135
  298.000   20.154    0.293    0.378   52.368
  298.250   20.937    0.285    0.353   49.898
  298.500   21.751    0.283    0.331   54.245
  298.750   21.755    0.285    0.337   61.074
  299.000   21.757    0.293    0.368   61.704
  299.250   22.178    0.301    0.402   60.472
  299.500   22.180    0.307    0.386   53.668
  299.750   22.184    0.310    0.376   51.195
  300.000   22.189    0.304    0.363   49.964
  300.250   22.191    0.300    0.363   58.650
  300.500   21.778    0.294    0.354   65.479
  300.750   21.780    0.289    0.349   68.586
  301.000   21.376    0.279    0.374   69.216
  301.250   20.976    0.275    0.420   72.945
  301.500   20.199    0.270    0.429   78.533
  301.750   19.821    0.265    0.408   84.741
  302.000   19.453    0.260    0.374   85.991
  302.250   19.088    0.258    0.356   83.520
  302.500   18.733    0.259    0.348   81.049
  302.750   19.096    0.263    0.361   81.679
  303.000   19.837    0.270    0.355   86.646
  303.250   20.607    0.281    0.349   87.275
  303.500   21.818    0.288    0.364   80.467
  303.750   22.239    0.288    0.375   76.758
  304.000   23.104    0.297    0.385   72.429
  304.250   23.107    0.311    0.381   68.097
  304.500   23.554    0.323    0.380   60.672
  304.750   24.007    0.331    0.393   58.200
  305.000   24.941    0.341    0.410   63.167
  305.250   25.910    0.330    0.405   61.317
  305.500   26.410    0.319    0.397   54.510
  305.750   27.436    0.315    0.391   48.941
  306.000   28.501    0.310    0.379   45.229
  306.250   27.969    0.307    0.374   41.520
  306.500   26.933    0.307    0.371   44.008
  306.750   26.430    0.310    0.361   45.257
  307.000   25.937    0.310    0.353   52.705
  307.250   25.941    0.305    0.349   55.194
  307.500   26.443    0.302    0.357   57.064
  307.750   27.470    0.300    0.344   55.212
  308.000   27.473    0.303    0.341   49.643
  308.250   28.005    0.307    0.334   45.313
  308.500   28.009    0.309    0.325   44.703
  308.750   28.549    0.313    0.314   48.431
  309.000   28.553    0.314    0.332   42.864
  309.250   27.494    0.311    0.340   38.532
  309.500   26.474    0.308    0.351   37.301
  309.750   25.493    0.303    0.353   40.411
  310.000   25.496    0.299    0.336   44.761
  310.250   25.503    0.310    0.329   46.629
  310.500   25.993    0.319    0.331   46.638
  310.750   28.050    0.320    0.333   41.690
  311.000   29.138    0.319    0.336   37.978
  311.250   30.268    0.322    0.349   33.029
  311.500   32.661    0.324    0.357   30.561
  311.750   32.665    0.320    0.344   29.954
  312.000   30.862    0.311    0.332   30.577
  312.250   28.610    0.307    0.331   32.446
  312.500   23.669    0.296    0.338   36.796
  312.750   15.300    0.282    0.362   49.200
  313.000   10.272    0.172    0.384   77.723
  313.250    7.877    0.157    0.413   97.566
  313.500    6.274    0.153    0.431  115.551
  313.750    5.290    0.180    0.419  122.379
  314.000    4.545    0.196    0.412  123.009
  314.250    4.134    0.211    0.428  122.398
  314.500    3.833    0.225    0.438  122.410
  314.750    3.907    0.233    0.432  119.322
  315.000    4.378    0.243    0.414  115.608
  315.250    5.499    0.252    0.371  106.939
  315.500    7.451    0.259    0.337   92.076
  315.750   10.893    0.263    0.315   84.025
  316.000   13.424    0.265    0.312   78.455
  316.250   15.627    0.262    0.328   75.365
  316.500   17.514    0.254    0.340   72.894
  316.750   18.543    0.239    0.337   69.807
  317.000   18.546    0.228    0.329   67.954
  317.250   16.870    0.227    0.334   70.444
  317.500   15.345    0.233    0.337   77.892
  317.750   14.498    0.234    0.349   81.620
  318.000   13.188    0.226    0.367   83.487
  318.250   12.942    0.221    0.338   81.639
  318.500   15.066    0.223    0.332   82.267
  318.750   15.951    0.226    0.340   83.519
  319.000   16.570    0.232    0.344   84.147
  319.250   17.215    0.223    0.357   82.914
  319.500   17.217    0.202    0.357   74.868
  319.750   16.895    0.184    0.355   77.978
  320.000   15.079    0.173    0.367   80.465
  320.250   11.785    0.158    0.386   81.713
  320.500    9.566    0.150    0.398   93.501
  320.750    7.914    0.143    0.402  110.863
  321.000    7.198    0.140    0.399  128.850
  321.250    6.425    0.139    0.399  130.099
  321.500    5.734    0.156    0.405  128.249
  321.750    5.316    0.185    0.405  123.299
  322.000    5.628    0.220    0.398  122.689
  322.250    6.805    0.239    0.372  125.178
  322.500    8.387    0.256    0.361  122.087
  322.750    9.222    0.271    0.365  112.180
  323.000   11.805    0.279    0.371  105.369
  323.250   14.005    0.284    0.385   99.182
  323.500   16.616    0.262    0.399   94.856
  323.750   18.273    0.255    0.393   94.242
  324.000   18.276    0.241    0.383   96.731
  324.250   16.624    0.231    0.384  102.318
  324.500   14.838    0.239    0.396  104.806
  324.750   14.287    0.244    0.383   99.240
  325.000   14.289    0.257    0.357   95.526
  325.250   15.418    0.269    0.343   85.619
  325.500   17.281    0.272    0.336   75.711
  325.750   19.369    0.255    0.331   63.327
  326.000   20.120    0.242    0.330   57.755
  326.250   21.710    0.236    0.331   51.565
  326.500   22.554    0.264    0.333   55.916
  326.750   22.990    0.287    0.335   62.126
  327.000   22.994    0.296    0.337   63.992
  327.250   22.996    0.293    0.359   64.620
  327.500   22.999    0.289    0.375   60.290
  327.750   23.003    0.285    0.354   61.538
  328.000   22.575    0.279    0.351   66.507
  328.250   21.738    0.272    0.362   70.859
  328.500   21.331    0.261    0.370   72.724
  328.750   20.540    0.251    0.365   75.212
  329.000   18.685    0.238    0.354   82.042
  329.250   17.653    0.228    0.338   85.149
  329.500   16.997    0.216    0.328   84.542
  329.750   15.758    0.203    0.325   88.888
  330.000   14.889    0.195    0.336   94.475
  330.250   14.336    0.191    0.348   96.964
  330.500   13.804    0.190    0.353   94.496
  330.750   13.042    0.191    0.340  100.081
  331.000   12.799    0.225    0.324  110.008
  331.250   12.800    0.247    0.316  110.638
  331.500   13.552    0.255    0.335  100.732
  331.750   14.079    0.243    0.345   92.681
  332.000   14.627    0.226    0.327   87.111
  332.250   14.628    0.211    0.321   87.121
  332.500   13.561    0.199    0.327   93.949
  332.750   11.876    0.188    0.346   97.058
  333.000    9.825    0.181    0.372  100.165
  333.250    8.769    0.179    0.390  110.094
