~VERSION INFORMATION
 VERS.                 2.0:   CWLS LOG ASCII STANDARD -VERSION 2.0
 WRAP.                  NO:   ONE LINE PER DEPTH STEP
~WELL INFORMATION BLOCK
#MNEM.UNIT           DATA                    DESCRIPTION OF MNEMONIC
#---------    -------------------            -------------------------------
# Generated from Intellog Unique Number	CW_70_72/WELL/3030
NULL.         -999.25                        : NULL_VALUE
WELL.         MESA SULPETRO MEYER 11-22      : Well_name    - WELL              
LOC .         11-22-070-24W4                 : Location     - LOCATION          
UWI .         00/11-22-070-24W4/0            : Uwi          - UNIQUE WELL ID    
ENTR.         jj                             : Entered      - ENTERED BY        
SRVC.         SCHLUMBERGER                   : Scn          - SERVICE COMPANY   
DATE.         20 JAN 77                      : Date         - LOG DATE          
STRT.M        411.48                         : top_depth    - START DEPTH       
STOP.M        633.98                         : bot_depth    - STOP DEPTH        
STEP.M        0.25                           : increment    - STEP LENGTH       
~CURVE INFORMATION BLOCK
#MNEM UNIT       ERCB CURVE CODE    CURVE DESCRIPTION
#-----------   ------------------   ----------------------------------
DEPT.M        00 001 00 00         : DEPTH        - DEPTH                       
ILD .OHMM     00 120 00 00         : RESD         - DEEP RESISTIVITY (DIL)      
CALI.MM       00 280 01 00         : CAL          - CALIPER                     
GR  .API      00 310 00 00         : GR           - GAMMA RAY                   
NPHI.V/V      00 330 00 00         : PHIN         - NEUTRON POROSITY (SANDSTONE)
DPHI.V/V      00 890 00 00         : PHID         - DENSITY POROSITY (SANDSTONE)
~PARAMETER INFORMATION       
#MNEM.UNIT           DATA             DESCRIPTION OF MNEMONIC
#---------         -----------     ------------------------------
GL  .M        619.049              : gl           - GROUND LEVEL ELEVATION      
EREF.M        624.23               : kb           - ELEVATION OF DEPTH REFERENCE
DATM.M        619.049              : datum        - DATUM ELEVATION             
TDD .M        649.224              : tdd          - TOTAL DEPTH DRILLER         
RUN .         ONE                  : Run          - RUN NUMBER                  
ENG .         LAGASSE              : Engineer     - RECORDING ENGINEER          
BASE.         EDM                  : Branch       - HOME BASE OF LOGGING UNIT   
MUD .         GEL CHEM             : Mud_type     - MUD TYPE                    
MATR.         SANDSTONE            : Logunit      - NEUTRON MATRIX              
TMAX.C        28.8889              : BHT          - MAXIMUM RECORDED TEMPERATURE
BHTD.M        647.395              : BHTDEP       - MAXIMUM RECORDED TEMPERATURE
RMT .C        13.3333              : MDTP         - TEMPERATURE OF MUD          
MUDD.KG/M     1080                 : MWT          - MUD DENSITY                 
NEUT.         1                    : NEUTRON      - NEUTRON TYPE                
RESI.         0                    : RESIST       - RESISTIVITY TYPE            
RM  .OHMM     1.45                 : RM           - RESISTIVITY OF MUD          
RMC .OHMM     0.25                 : RMC          - RESISTIVITY OF MUD CAKE     
RMF .OHMM     2.11                 : RMF          - RESISTIVITY OF MUD FILTRATE 
SUFT.C        -17.7778             : SUFT         - SURFACE TEMPERATURE         
~A  DEPTH     RESD      CAL       GR     PHIN     PHID
# ...
  520.980    3.921  169.935   85.719    0.429    0.209
  521.230    3.691  168.193   82.145    0.420    0.219
  521.480    3.454  167.683   77.784    0.402    0.196
  521.730    3.293  167.892   74.331    0.344    0.166
  521.980    3.436  167.690   71.424    0.322    0.152
  522.230    4.183  167.796   68.093    0.298    0.129
  522.480    5.492  168.107   64.519    0.260    0.117
  522.730    7.041  168.727   61.187    0.199    0.022
  522.980    8.557  169.756   56.219    0.156   -0.010
  523.230   10.990  170.684   52.221    0.130   -0.009
  523.480   18.228  170.995   51.194    0.126   -0.008
  523.730   25.951  171.614   51.741    0.130   -0.008
  523.980   32.303  171.412   54.106    0.142   -0.009
  524.230   31.252  171.107   57.805    0.150   -0.009
  524.480   26.778  170.803   60.838    0.166   -0.006
  524.730   22.035  170.293   66.173    0.189    0.017
  524.980   18.032  169.476   69.629    0.218    0.031
  525.230   14.595  168.452   74.298    0.304    0.086
  525.480   10.196  165.479   80.179    0.340    0.135
  525.730    7.610  163.738   83.029    0.405    0.178
  525.980    5.850  162.510   82.304    0.389    0.174
  526.230    4.744  162.719   80.973    0.393    0.194
  526.480    4.110  162.825   82.732    0.407    0.212
  526.730    3.464  162.623   83.522    0.393    0.192
  526.980    3.438  162.627   81.645    0.371    0.178
  527.230    3.594  162.629   81.648    0.363    0.173
  527.480    3.681  162.427   83.589    0.380    0.187
  527.730    3.641  162.431   84.621    0.396    0.205
  527.980    3.496  162.024   83.593    0.407    0.218
  528.230    3.345  161.924   85.352    0.398    0.218
  528.480    3.207  162.236   88.203    0.405    0.205
  528.730    3.120  162.855   88.023    0.414    0.213
  528.980    3.035  163.782   86.934    0.410    0.234
  529.230    2.985  165.120   88.148    0.418    0.227
  529.480    2.915  166.150   88.392    0.408    0.226
  529.730    2.857  166.768   90.213    0.396    0.212
  529.980    2.862  167.695   90.094    0.404    0.226
  530.230    2.826  168.110   87.975    0.415    0.241
  530.480    2.810  168.421   86.946    0.413    0.224
  530.730    2.826  168.424   86.160    0.409    0.235
  530.980    2.842  168.016   87.496    0.418    0.243
  531.230    2.847  167.610   90.103    0.428    0.221
  531.480    2.847  166.997   95.075    0.418    0.252
  531.730    2.852  166.692   98.410    0.417    0.225
  531.980    2.905  166.696   95.685    0.431    0.205
  532.230    2.943  167.315   91.627    0.422    0.196
  532.480    3.020  169.474   92.356    0.410    0.186
  532.730    3.076  172.761   94.358    0.406    0.176
  532.980    3.145  173.688   99.148    0.426    0.192
  533.230    3.293  173.486  102.241    0.434    0.190
  533.480    3.480  172.771  101.697    0.441    0.175
  533.730    3.618  171.543   96.426    0.432    0.165
  533.980    3.753  170.520   92.126    0.352    0.167
  534.230    3.901  169.292   89.339    0.368    0.155
  534.480    3.967  168.577   93.584    0.387    0.199
  534.730    3.967  170.120   97.889    0.417    0.189
  534.980    3.873  171.560   97.103    0.438    0.174
  535.230    3.625  173.000   94.620    0.448    0.177
  535.480    3.368  172.798   95.895    0.456    0.181
  535.730    3.331  171.570   97.351    0.466    0.181
  535.980    3.425  169.007   98.566    0.432    0.186
  536.230    3.508  167.165   98.992    0.434    0.189
  536.480    3.573  167.167   98.751    0.446    0.195
  536.730    3.639  170.043   97.359    0.450    0.206
  536.980    3.646  171.176  101.422    0.431    0.183
  537.230    3.660  171.282  102.091    0.441    0.160
  537.480    3.667  171.388  100.092    0.448    0.185
  537.730    3.701  171.802  100.155    0.437    0.187
  537.980    3.742  171.908  103.127    0.421    0.171
  538.230    3.784  172.014  105.189    0.414    0.176
  538.480    3.812  171.607  106.585    0.416    0.162
  538.730    3.826  171.302  106.406    0.425    0.151
  538.980    3.826  171.203  105.680    0.435    0.169
  539.230    3.833  170.488  103.925    0.435    0.184
  539.480    3.833  170.286  102.290    0.444    0.202
  539.730    3.805  170.495  101.444    0.454    0.187
  539.980    3.820  170.602  101.870    0.450    0.165
  540.230    3.862  170.912  102.357    0.438    0.145
  540.480    3.934  171.531  103.147    0.434    0.148
  540.730    3.971  171.842  103.997    0.435    0.171
  540.980    3.985  171.025  104.060    0.442    0.183
  541.230    3.978  170.617  103.274    0.426    0.177
  541.480    3.899  170.210  102.246    0.421    0.175
  541.730    3.807  170.008  101.702    0.429    0.183
  541.980    3.683  169.704  101.825    0.434    0.186
  542.230    3.609  169.399  104.130    0.419    0.188
  542.480    3.596  169.300  103.465    0.415    0.195
  542.730    3.590  169.304  100.619    0.413    0.198
  542.980    3.630  169.615   99.833    0.412    0.199
  543.230    3.637  169.618  100.502    0.413    0.200
  543.480    3.610  170.340  100.382    0.413    0.195
  543.730    3.610  170.959   98.142    0.415    0.190
  543.980    3.657  171.270   96.144    0.418    0.196
  544.230    3.725  171.479   95.601    0.427    0.172
  544.480    3.781  170.353   95.724    0.428    0.181
  544.730    3.908  166.251   92.756    0.399    0.185
  544.980    4.199  163.997   86.576    0.342    0.158
  545.230    4.689  166.361   80.033    0.278    0.066
  545.480    5.463  170.264   73.186    0.276    0.079
  545.730    6.482  171.704   71.188    0.356    0.122
  545.980    7.279  172.016   74.584    0.386    0.165
  546.230    7.678  172.019   77.495    0.414    0.184
  546.480    7.293  171.817   79.013    0.411    0.196
  546.730    6.238  171.718   75.136    0.394    0.151
  546.980    5.991  171.619   72.350    0.377    0.135
  547.230    5.991  171.417   76.473    0.386    0.159
  547.480    6.125  171.420   81.808    0.409    0.208
  547.730    5.991  171.526   82.416    0.398    0.226
  547.980    5.754  172.043   83.752    0.382    0.201
  548.230    5.258  172.353   87.026    0.391    0.179
  548.480    4.921  171.638   88.847    0.404    0.159
  548.730    4.913  171.334   86.424    0.404    0.176
  548.980    4.976  170.619   83.578    0.400    0.181
  549.230    5.230  169.802   81.579    0.382    0.159
  549.480    5.537  169.599   80.551    0.366    0.169
  549.730    5.906  171.347   80.978    0.345    0.188
  549.980    6.241  173.096   81.889    0.350    0.156
  550.230    6.173  173.714   87.769    0.373    0.138
  550.480    5.662  173.821   92.499    0.393    0.155
  550.730    5.183  173.721   97.713    0.421    0.169
  550.980    4.557  173.623  102.381    0.434    0.186
  551.230    4.066  173.523   99.596    0.431    0.208
  551.480    3.862  173.937   98.931    0.420    0.196
  551.730    3.737  174.145  100.388    0.406    0.183
  551.980    3.669  174.252  101.602    0.416    0.173
  552.230    3.576  174.255  100.028    0.424    0.164
  552.480    3.569  173.950   98.212    0.429    0.162
  552.730    3.596  173.338   98.880    0.420    0.164
  552.980    3.656  172.931  100.216    0.409    0.174
  553.230    3.710  172.831  101.248    0.408    0.158
  553.480    3.751  172.630  102.765    0.416    0.150
  553.730    3.772  172.633  104.767    0.424    0.166
  553.980    3.814  172.431  106.466    0.432    0.171
  554.230    3.836  172.127  107.377    0.435    0.160
  554.480    3.878  171.822  102.228    0.422    0.170
  554.730    3.914  171.928  102.715    0.409    0.161
  554.980    3.965  172.342  103.747    0.398    0.140
  555.230    4.047  172.550  101.385    0.394    0.156
  555.480    4.092  172.554  102.235    0.411    0.161
  555.730    4.099  172.249  105.449    0.426    0.156
  555.980    4.069  172.868  106.179    0.440    0.157
  556.230    4.077  173.180  107.029    0.431    0.163
  556.480    4.033  173.286  109.941    0.419    0.156
  556.730    3.966  173.392  112.003    0.412    0.150
  556.980    3.945  173.703  114.005    0.407    0.159
  557.230    3.945  174.014  112.189    0.399    0.158
