~VERSION INFORMATION
 VERS.                 2.0:   CWLS LOG ASCII STANDARD -VERSION 2.0
 WRAP.                  NO:   ONE LINE PER DEPTH STEP
~WELL INFORMATION BLOCK
#MNEM.UNIT           DATA                    DESCRIPTION OF MNEMONIC
#---------    -------------------            -------------------------------
# Generated from Intellog Unique Number	CN_94_101/WELL/3714
WELL.         PACIFIC PETROLEUMS LTD.        : Well_name    - WELL
LOC .         00/10-06-096-21W4/0            : Location     - LOCATION
UWI .         00/10-06-096-21W4/0            : Uwi          - UNIQUE WELL ID
ENTR.         JOETTE                         : Entered      - ENTERED BY
SRVC.         COMPUTALOG                     : Scn          - SERVICE COMPANY
DATE.         08/10/92                       : Date         - LOG DATE
STRT.M        400                            : top_depth    - START DEPTH
STOP.M        570                            : bot_depth    - STOP DEPTH
STEP.M        0.25                           : increment    - STEP LENGTH
 NULL. -999.2500:NULL Value
~CURVE INFORMATION BLOCK
#MNEM UNIT       ERCB CURVE CODE    CURVE DESCRIPTION
#-----------   ------------------   ----------------------------------
DEPT.M        00 001 00 00         : DEPTH        - DEPTH
ILD .OHMM     00 120 00 00         : RESD         - DEEP RESISTIVITY (DIL)
GR  .API      00 310 00 00         : GR           - GAMMA RAY
NPHI.V/V      00 330 00 00         : PHIN         - NEUTRON POROSITY (SANDSTONE)
DPHI.V/V      00 890 00 00         : PHID         - DENSITY POROSITY (SANDSTONE)
~PARAMETER INFORMATION
#MNEM.UNIT           DATA             DESCRIPTION OF MNEMONIC
#---------         -----------     ------------------------------
GL  .M        819.4                : gl           - GROUND LEVEL ELEVATION
EREF.M        822.9                : kb           - ELEVATION OF DEPTH REFERENCE
DATM.M        822.9                : datum        - DATUM ELEVATION
TDD .M        566.4                : tdd          - TOTAL DEPTH DRILLER
RUN .         ONE                  : Run          - RUN NUMBER
ENG .         BILL                 : Engineer     - RECORDING ENGINEER
WIT .         JIM                  : Witness      - WITNESSED BY
MUD .         GEL                  : Mud_type     - MUD TYPE
MATR.         SANDSTONE            : Logunit      - NEUTRON MATRIX
TMAX.C        25                   : BHT          - MAXIMUM RECORDED TEMPERATURE
BHTD.M        566.4                : BHTDEP       - MAXIMUM RECORDED TEMPERATURE
RMT .C        14                   : MDTP         - TEMPERATURE OF MUD
MUDD.KG/M     1402                 : MWT          - MUD DENSITY
NEUT.         1                    : NEUTRON      - NEUTRON TYPE
RESI.         0                    : RESIST       - RESISTIVITY TYPE
RM  .OHMM     7.8                  : RM           - RESISTIVITY OF MUD
RMC .OHMM     7.8                  : RMC          - RESISTIVITY OF MUD CAKE
RMF .OHMM     7.8                  : RMF          - RESISTIVITY OF MUD FILTRATE
SUFT.C        4                    : SUFT         - SURFACE TEMPERATURE
~A  DEPTH     RESD       GR     PHIN     PHID
# ...
  530.500    4.945   62.958    0.413    0.210
  530.750    5.140   59.347    0.413    0.242
  531.000    5.244   59.978    0.447    0.238
  531.250    5.250   64.257    0.480    0.216
  531.500    4.787   65.494    0.504    0.222
  531.750    4.445   60.665    0.463    0.236
  532.000    3.977   63.720    0.437    0.232
  532.250    3.493   63.139    0.428    0.220
  532.500    3.185   61.346    0.414    0.213
  532.750    2.797   57.136    0.425    0.216
  533.000    2.800   54.124    0.441    0.224
  533.250    2.855   55.362    0.476    0.278
  533.500    3.024   58.417    0.497    0.274
  533.750    3.142   61.472    0.528    0.261
  534.000    3.455   63.921    0.552    0.250
  534.250    3.657   65.764    0.600    0.245
  534.500    3.871   65.795    0.631    0.245
  534.750    4.177   62.178    0.581    0.244
  535.000    4.423   58.567    0.562    0.241
  535.250    4.596   59.198    0.514    0.239
  535.500    4.776   62.259    0.536    0.232
  535.750    4.871   59.854    0.435    0.224
  536.000    4.878   57.455    0.451    0.215
  536.250    4.703   65.364    0.463    0.225
  536.500    4.620   65.995    0.413    0.221
  536.750    4.375   63.596    0.396    0.219
  537.000    4.296   62.410    0.392    0.237
  537.250    4.221   60.617    0.450    0.231
  537.500    4.226   56.400    0.527    0.218
  537.750    4.391   57.637    0.574    0.216
  538.000    4.651   63.722    0.554    0.232
  538.250    5.211   75.267    0.545    0.233
  538.500    5.516   72.862    0.536    0.222
  538.750    5.731   65.009    0.529    0.212
  539.000    6.068   64.434    0.557    0.213
  539.250    6.425   66.883    0.566    0.211
  539.500    6.802   69.932    0.490    0.203
  539.750    7.069   76.030    0.444    0.187
  540.000    7.485   71.806    0.383    0.194
  540.250    8.076   68.195    0.379    0.197
  540.500    8.237   65.809    0.389    0.190
  540.750    8.401   67.034    0.412    0.176
  541.000    8.408   68.877    0.415    0.161
  541.250    8.112   68.914    0.357    0.163
  541.500    7.968   68.933    0.344    0.176
  541.750    7.681   70.170    0.330    0.171
  542.000    7.274   65.947    0.336    0.171
  542.250    7.145   67.790    0.341    0.172
  542.500    7.018   71.451    0.330    0.170
  542.750    6.898   68.452    0.334    0.171
  543.000    6.904   67.871    0.325    0.172
  543.250    6.909   66.072    0.337    0.171
  543.500    7.051   65.491    0.354    0.182
  543.750    7.187   64.304    0.379    0.184
  544.000    7.614   63.117    0.379    0.165
  544.250    8.059   63.748    0.374    0.150
  544.500    8.699   66.810    0.360    0.150
  544.750    8.867   69.259    0.351    0.150
  545.000    9.217   69.890    0.365    0.152
  545.250    9.398   69.915    0.355    0.163
  545.500    9.408   68.122    0.348    0.170
  545.750    9.246   67.547    0.346    0.165
  546.000    9.258   70.596    0.357    0.159
  546.250    9.263   73.651    0.328    0.154
  546.500    9.272   67.622    0.328    0.152
  546.750    9.282   62.800    0.313    0.159
  547.000    9.294   62.212    0.307    0.166
  547.250    9.304   65.267    0.329    0.172
  547.500    9.313   67.716    0.341    0.177
  547.750    9.323   71.377    0.334    0.181
  548.000    9.160   75.038    0.343    0.178
  548.250    9.172   72.033    0.367    0.162
  548.500    9.011   73.883    0.371    0.157
  548.750    8.851   72.696    0.364    0.162
  549.000    8.860   64.231    0.351    0.161
  549.250    8.870   69.110    0.338    0.155
  549.500    8.719   71.565    0.346    0.147
  549.750    8.726   67.948    0.335    0.156
  550.000    8.732   68.579    0.314    0.164
  550.250    8.746   69.216    0.314    0.180
  550.500    8.753   68.029    0.307    0.173
  550.750    8.600   70.472    0.299    0.153
  551.000    8.611   66.868    0.301    0.151
  551.250    8.458   63.856    0.321    0.169
  551.500    8.009   62.676    0.339    0.170
  551.750    7.304   60.877    0.341    0.158
  552.000    6.783   57.872    0.341    0.157
  552.250    6.416   58.503    0.343    0.159
  552.500    5.851   61.564    0.343    0.155
  552.750    5.642   63.407    0.344    0.152
  553.000    5.646   64.032    0.349    0.149
  553.250    5.762   64.057    0.386    0.149
  553.500    5.875   67.112    0.487    0.172
  553.750    6.107   70.179    0.489    0.183
  554.000    6.227   67.781    0.484    0.169
  554.250    6.234   66.587    0.480    0.153
  554.500    6.240   62.983    0.473    0.126
  554.750    6.016   61.184    0.451    0.116
  555.000    5.804   64.245    0.380    0.111
  555.250    5.701   60.022    0.377    0.172
  555.500    5.499   61.865    0.424    0.174
  555.750    5.304   66.138    0.449    0.161
  556.000    5.208   66.157    0.473    0.140
  556.250    5.025   69.818    0.497    0.137
  556.500    5.029   71.061    0.496    0.156
  556.750    4.940   71.086    0.491    0.179
  557.000    4.853   69.293    0.487    0.181
  557.250    4.859   67.500    0.458    0.173
  557.500    4.864   66.313    0.467    0.170
  557.750    4.871   66.338    0.474    0.164
  558.000    4.873   65.151    0.482    0.186
  558.250    4.878   63.965    0.488    0.187
  558.500    4.885   65.808    0.462    0.181
  558.750    4.982   65.839    0.457    0.172
  559.000    4.987   65.252    0.465    0.167
  559.250    4.994   64.677    0.472    0.170
  559.500    4.726   68.332    0.472    0.189
  559.750    4.390   70.175    0.446    0.192
  560.000    4.312   68.988    0.440    0.201
  560.250    4.318   66.595    0.451    0.206
  560.500    4.321   67.826    0.463    0.195
  560.750    4.407   64.821    0.426    0.168
  561.000    4.581   62.428    0.418    0.057
  561.250    4.673   65.477    0.442   -0.002
  561.500    4.676   67.939    0.460   -0.067
  561.750    4.427   67.345    0.469   -0.088
  562.000    4.348   64.946    0.457   -0.113
  562.250    4.273   63.153    0.466   -0.128
  562.500    4.277   65.003    0.457   -0.109
  562.750    4.281   63.210    0.439   -0.116
  563.000    4.287   63.228    0.355   -0.112
  563.250    4.372   66.902    0.246   -0.087
  563.500    4.459   70.557    0.133   -0.078
  563.750    4.549   72.400    0.365   -0.073
  564.000    4.641   71.225    0.367   -0.046
  564.250    4.731   70.026    0.369   -0.049
  564.500    4.827   67.640    0.349   -0.026
  564.750    5.016   65.834    0.342   -0.016
  565.000    5.116   62.836    0.347    0.019
  565.250    5.121   59.824    0.329    0.032
  565.500    5.224   55.607    0.320    0.063
  565.750    5.227   53.827    0.361    0.121
  566.000    5.234   53.840    0.374    0.134
  566.250    5.239   53.259    0.389    0.018
  566.500    5.148   51.466    0.500   -0.024
  566.750    5.060   54.533    0.474   -0.037
  567.000    4.969   54.546    0.446   -0.024
  567.250    4.885   53.965    0.468   -0.037
  567.500    4.798   52.178    0.451   -0.044
  567.750    4.802   50.991    0.465   -0.051
  568.000    4.719   49.798    0.457    0.273
  568.250    4.724   49.823    0.561    0.268
  568.500    4.727   49.848    0.592    0.295
  568.750    4.733   54.121    0.593    0.308
  569.000    4.737   55.971    0.563    0.260
  569.250    4.743   55.390    0.535    0.307
  569.500    4.747   55.415    0.510    0.339
  569.750    4.666   96.647    0.489    0.212
  570.000    4.670   94.249    0.465    0.132
