~VERSION INFORMATION
 VERS.                 2.0:   CWLS LOG ASCII STANDARD -VERSION 2.0
 WRAP.                  NO:   ONE LINE PER DEPTH STEP
~WELL INFORMATION BLOCK
#MNEM.UNIT           DATA                    DESCRIPTION OF MNEMONIC
#---------    -------------------            -------------------------------
# Generated from Intellog Unique Number	CS_71_72/WELL/911
WELL.         ESSO IPIATIK                   : Well_name    - WELL
LOC .         00/11-32-072-09W4/0            : Location     - LOCATION
UWI .         00/11-32-072-09W4/0            : Uwi          - UNIQUE WELL ID
ENTR.         SP                             : Entered      - ENTERED BY
SRVC.         SCHLUMBERGER                   : Scn          - SERVICE COMPANY
STRT.M        295                            : top_depth    - START DEPTH
STOP.M        490                            : bot_depth    - STOP DEPTH
STEP.M        0.25                           : increment    - STEP LENGTH
 NULL. -999.2500:NULL Value
~CURVE INFORMATION BLOCK
#MNEM UNIT       ERCB CURVE CODE    CURVE DESCRIPTION
#-----------   ------------------   ----------------------------------
DEPT.M        00 001 00 00         : DEPTH        - DEPTH
ILD .OHMM     00 120 00 00         : RESD         - DEEP RESISTIVITY (DIL)
DPHI.V/V      00 890 00 00         : PHID         - DENSITY POROSITY (LIMESTONE)
NPHI.V/V      00 330 00 00         : PHIN         - NEUTRON POROSITY (LIMESTONE)
GR  .API      00 310 00 00         : GR           - GAMMA RAY
~PARAMETER INFORMATION
#MNEM.UNIT           DATA             DESCRIPTION OF MNEMONIC
#---------         -----------     ------------------------------
GL  .M        659.68               : gl           - GROUND LEVEL ELEVATION
EREF.M        663.56               : kb           - ELEVATION OF DEPTH REFERENCE
DATM.M        659.68               : datum        - DATUM ELEVATION
TDD .M        493                  : tdd          - TOTAL DEPTH DRILLER
RUN .         ONE                  : Run          - RUN NUMBER
ENG .         BILL                 : Engineer     - RECORDING ENGINEER
WIT .         JIM                  : Witness      - WITNESSED BY
MUD .         GEL                  : Mud_type     - MUD TYPE
MATR.         LIMESTONE            : Logunit      - NEUTRON MATRIX
TMAX.C        18                   : BHT          - MAXIMUM RECORDED TEMPERATURE
BHTD.M        493                  : BHTDEP       - MAXIMUM RECORDED TEMPERATURE
MATR.         1                    : LOGUNIT      - NEUTRON MATRIX
RMT .C        25                   : MDTP         - TEMPERATURE OF MUD
NEUT.         1                    : NEUTRON      - NEUTRON TYPE
RESI.         0                    : RESIST       - RESISTIVITY TYPE
RMC .OHMM     0.25                 : RMC          - RESISTIVITY OF MUD CAKE
RMF .OHMM     0.25                 : RMF          - RESISTIVITY OF MUD FILTRATE
SUFT.C        15                   : SUFT         - SURFACE TEMPERATURE
~A  DEPTH     RESD     PHID     PHIN       GR
# ...
  338.500   11.915    0.221    0.515  100.679
  338.750   12.356    0.227    0.558  100.087
  339.000   12.583    0.233    0.575   99.492
  339.250   12.811    0.237    0.533  100.105
  339.500   12.806    0.232    0.505  100.717
  339.750   12.804    0.237    0.485  100.721
  340.000   12.799    0.240    0.487  100.127
  340.250   12.794    0.237    0.510  104.372
  340.500   12.790    0.233    0.512  107.404
  340.750   12.554    0.234    0.493  105.594
  341.000   12.321    0.232    0.466  101.975
  341.250   12.092    0.226    0.476  101.376
  341.500   11.868    0.224    0.495  101.386
  341.750   11.649    0.222    0.513  102.000
  342.000   11.432    0.223    0.528  105.035
  342.250   11.221    0.223    0.518  106.253
  342.500   11.216    0.215    0.490  106.259
  342.750   11.213    0.207    0.476  102.641
  343.000   11.417    0.220    0.461  101.436
  343.250   11.842    0.232    0.473   96.606
  343.500   12.508    0.231    0.498   92.383
  343.750   13.211    0.233    0.526   90.575
  344.000   13.453    0.241    0.547   87.564
  344.250   13.951    0.239    0.582   86.963
  344.500   14.205    0.233    0.597   90.606
  344.750   14.201    0.227    0.614   92.428
  345.000   13.685    0.217    0.570   93.642
  345.250   12.479    0.211    0.502   93.651
  345.500   11.591    0.216    0.467   93.055
  345.750   10.571    0.198    0.438   97.905
  346.000    9.640    0.186    0.430  101.542
  346.250    9.121    0.168    0.462  105.180
  346.500    8.629    0.143    0.485  107.000
  346.750    8.315    0.122    0.512  108.217
  347.000    9.627    0.087    0.389  104.597
  347.250   11.779    0.049    0.302   93.114
  347.500   14.150    0.093    0.278   81.629
  347.750   17.634    0.218    0.379   68.938
  348.000   19.683    0.264    0.482   73.788
  348.250   22.376    0.290    0.524   75.609
  348.500   23.206    0.291    0.543   76.825
  348.750   24.067    0.284    0.537   75.022
  349.000   24.506    0.291    0.518   72.610
  349.250   24.497    0.296    0.504   69.596
  349.500   22.752    0.289    0.507   68.996
  349.750   21.133    0.284    0.535   72.030
  350.000   19.273    0.276    0.509   78.090
  350.250   17.256    0.273    0.456   80.513
  350.500   15.737    0.264    0.430   85.967
  350.750   13.833    0.226    0.420   91.418
  351.000   12.849    0.194    0.470   96.267
  351.250   12.611    0.200    0.498   96.274
  351.500   14.074    0.224    0.488   90.840
  351.750   14.598    0.238    0.464   84.195
  352.000   15.704    0.247    0.445   81.783
  352.250   16.288    0.227    0.432   86.027
  352.500   16.892    0.214    0.419   88.455
  352.750   16.886    0.232    0.422   89.672
  353.000   16.880    0.238    0.459   89.075
  353.250   16.568    0.245    0.475   82.434
  353.500   15.108    0.223    0.469   83.044
  353.750   14.033    0.200    0.449   89.107
  354.000   13.524    0.195    0.456   91.532
  354.250   12.793    0.198    0.465   93.354
  354.500   12.558    0.202    0.485   95.176
  354.750   12.554    0.220    0.477   94.581
  355.000   12.549    0.239    0.473   92.773
  355.250   12.316    0.219    0.468   99.437
  355.500   12.088    0.191    0.470  103.072
  355.750   11.437    0.195    0.485  107.316
  356.000   10.819    0.198    0.493  105.509
  356.250   10.619    0.183    0.500  101.284
  356.500   10.422    0.180    0.523   95.851
  356.750   10.809    0.236    0.555   89.205
  357.000   11.418    0.262    0.582   78.930
  357.250   12.284    0.276    0.523   70.471
  357.500   12.740    0.284    0.529   69.872
  357.750   12.972    0.293    0.541   74.723
  358.000   13.209    0.299    0.530   78.363
  358.250   12.964    0.271    0.518   78.971
  358.500   13.200    0.241    0.443   78.375
  358.750   13.689    0.231    0.451   74.151
  359.000   14.727    0.247    0.499   71.743
  359.250   15.273    0.270    0.516   70.538
  359.500   15.552    0.291    0.544   72.969
  359.750   15.836    0.294    0.506   75.393
  360.000   16.123    0.298    0.509   79.034
  360.250   16.118    0.300    0.500   80.855
  360.500   16.113    0.301    0.501   85.099
  360.750   16.710    0.284    0.485   88.131
  361.000   17.330    0.278    0.468   87.534
  361.250   18.646    0.275    0.492   81.492
  361.500   19.696    0.288    0.511   70.013
  361.750   20.804    0.292    0.524   63.971
  362.000   21.974    0.294    0.494   57.324
  362.250   22.791    0.294    0.486   50.680
  362.500   23.203    0.295    0.497   51.294
  362.750   23.628    0.296    0.497   51.906
  363.000   24.056    0.310    0.465   51.915
  363.250   24.494    0.307    0.433   51.928
  363.500   24.486    0.302    0.421   52.540
  363.750   24.478    0.310    0.444   52.545
  364.000   24.024    0.314    0.481   54.368
  364.250   24.020    0.299    0.507   55.586
  364.500   23.570    0.290    0.493   53.175
  364.750   23.565    0.301    0.447   55.606
  365.000   23.557    0.308    0.430   56.219
  365.250   23.122    0.315    0.454   56.226
  365.500   23.110    0.320    0.471   55.629
  365.750   23.105    0.324    0.487   55.640
  366.000   23.095    0.323    0.482   57.463
  366.250   23.090    0.314    0.457   57.471
  366.500   23.085    0.308    0.452   56.269
  366.750   23.073    0.304    0.464   53.858
  367.000   23.496    0.308    0.473   52.657
  367.250   23.487    0.313    0.490   55.085
  367.500   23.479    0.310    0.505   58.118
  367.750   23.474    0.306    0.517   59.940
  368.000   23.466    0.301    0.526   60.554
  368.250   23.030    0.300    0.504   60.562
  368.500   23.020    0.306    0.474   63.598
  368.750   23.016    0.314    0.463   65.418
  369.000   22.588    0.318    0.464   67.849
  369.250   22.579    0.305    0.479   69.672
  369.500   22.572    0.304    0.504   70.285
  369.750   22.157    0.314    0.492   70.291
  370.000   22.149    0.304    0.506   70.303
  370.250   22.141    0.301    0.518   69.703
  370.500   21.728    0.293    0.519   66.686
  370.750   21.724    0.292    0.495   61.860
  371.000   21.320    0.301    0.474   61.261
  371.250   21.315    0.310    0.484   61.880
  371.500   21.305    0.313    0.512   63.096
  371.750   20.912    0.309    0.533   64.310
  372.000   20.902    0.305    0.559   65.531
  372.250   20.898    0.303    0.523   66.143
  372.500   20.894    0.305    0.511   64.939
  372.750   20.884    0.316    0.520   61.926
  373.000   20.500    0.318    0.537   60.724
  373.250   20.491    0.305    0.549   60.733
  373.500   20.863    0.300    0.555   61.344
  373.750   20.857    0.299    0.525   61.960
  374.000   21.632    0.291    0.518   61.968
  374.250   22.433    0.174    0.537   62.580
  374.500   22.843    0.152    0.461   63.805
  374.750   23.256    0.221    0.365   64.415
  375.000   23.252    0.274    0.336   65.025
  375.250   22.402    0.299    0.456   66.851
  375.500   21.990    0.306    0.485   67.464
  375.750   21.189    0.315    0.515   66.867
  376.000   20.416    0.318    0.523   65.665
  376.250   20.040    0.312    0.505   63.861
  376.500   18.957    0.295    0.484   65.081
  376.750   18.608    0.292    0.476   66.903
  377.000   17.930    0.298    0.482   68.118
  377.250   17.278    0.310    0.492   71.151
  377.500   16.344    0.312    0.496   72.369
  377.750   15.751    0.306    0.518   70.563
  378.000   14.899    0.295    0.537   71.782
  378.250   14.624    0.311    0.546   71.186
  378.500   14.354    0.319    0.558   72.404
  378.750   13.830    0.319    0.555   75.439
  379.000   13.576    0.300    0.567   77.868
  379.250   13.081    0.294    0.573   79.083
  379.500   12.606    0.288    0.546   79.090
  379.750   11.926    0.276    0.517   77.889
  380.000   11.493    0.279    0.495   79.109
  380.250   10.674    0.289    0.508   79.722
  380.500   10.477    0.278    0.541   79.124
  380.750    9.911    0.274    0.576   78.529
  381.000    9.551    0.274    0.598   80.960
  381.250    9.374    0.277    0.563   82.175
  381.500    9.371    0.283    0.521   82.788
  381.750    9.367    0.286    0.492   82.192
