~VERSION INFORMATION
 VERS.                 2.0:   CWLS LOG ASCII STANDARD -VERSION 2.0
 WRAP.                  NO:   ONE LINE PER DEPTH STEP
~WELL INFORMATION BLOCK
#MNEM.UNIT           DATA                    DESCRIPTION OF MNEMONIC
#---------    -------------------            -------------------------------
# Generated from Intellog Unique Number	CW_73_75/WELL/2741
WELL.         TRICENT ER AL MITSUE 10-17     : Well_name    - WELL
LOC .         00/10-17-073-04W5/0            : Location     - LOCATION
UWI .         00/10-17-073-04W5/0            : Uwi          - UNIQUE WELL ID
ENTR.         JAYE                           : Entered      - ENTERED BY
SRVC.         SCHLUMBERGER                   : Scn          - SERVICE COMPANY
DATE.         14 MAR 80                      : Date         - LOG DATE
STRT.M        365                            : top_depth    - START DEPTH
STOP.M        595                            : bot_depth    - STOP DEPTH
STEP.M        0.25                           : increment    - STEP LENGTH
 NULL. -999.2500:NULL Value
~CURVE INFORMATION BLOCK
#MNEM UNIT       ERCB CURVE CODE    CURVE DESCRIPTION
#-----------   ------------------   ----------------------------------
DEPT.M        00 001 00 00         : DEPTH        - DEPTH
DPHI.V/V      00 890 00 00         : PHID         - DENSITY POROSITY (SANDSTONE)
NPHI.V/V      00 330 00 00         : PHIN         - NEUTRON POROSITY (SANDSTONE)
GR  .API      00 310 00 00         : GR           - GAMMA RAY
CALI.MM       00 280 01 00         : CAL          - CALIPER
ILD .OHMM     00 120 00 00         : RESD         - DEEP RESISTIVITY (DIL)
~PARAMETER INFORMATION
#MNEM.UNIT           DATA             DESCRIPTION OF MNEMONIC
#---------         -----------     ------------------------------
GL  .M        580.4                : gl           - GROUND LEVEL ELEVATION
EREF.M        585                  : kb           - ELEVATION OF DEPTH REFERENCE
DATM.M        580.4                : datum        - DATUM ELEVATION
TDD .M        1650                 : tdd          - TOTAL DEPTH DRILLER
RUN .         ONE                  : Run          - RUN NUMBER
ENG .         HOOK                 : Engineer     - RECORDING ENGINEER
WIT .         ZBIOI                : Witness      - WITNESSED BY
BASE.         5720                 : Branch       - HOME BASE OF LOGGING UNIT
MUD .         GEL CHEM             : Mud_type     - MUD TYPE
MATR.         SANDSTONE            : Logunit      - NEUTRON MATRIX
TMAX.C        48                   : BHT          - MAXIMUM RECORDED TEMPERATURE
BHTD.M        1651                 : BHTDEP       - MAXIMUM RECORDED TEMPERATURE
RMT .C        20                   : MDTP         - TEMPERATURE OF MUD
MUDD.KG/M     1070                 : MWT          - MUD DENSITY
NEUT.         1                    : NEUTRON      - NEUTRON TYPE
RESI.         0                    : RESIST       - RESISTIVITY TYPE
RM  .OHMM     1.18                 : RM           - RESISTIVITY OF MUD
RMC .OHMM     0                    : RMC          - RESISTIVITY OF MUD CAKE
RMF .OHMM     0.616                : RMF          - RESISTIVITY OF MUD FILTRATE
SUFT.C        0                    : SUFT         - SURFACE TEMPERATURE
~A  DEPTH     PHID     PHIN       GR      CAL     RESD
# ...
  474.500    0.274    0.419   65.296  244.749    5.238
  474.750    0.273    0.408   64.412  244.517    5.134
  475.000    0.271    0.392   63.347  244.067    5.071
  475.250    0.265    0.370   62.091  244.350    5.209
  475.500    0.251    0.349   60.647  245.549    5.755
  475.750    0.222    0.322   58.835  249.944    7.021
  476.000    0.193    0.302   57.578  256.300    8.204
  476.250    0.178    0.283   56.882  257.609    9.410
  476.500    0.166    0.268   57.109  257.171   10.339
  476.750    0.154    0.276   57.956  255.381   11.086
  477.000    0.176    0.314   59.170  252.876   11.365
  477.250    0.218    0.389   60.018  250.167   11.437
  477.500    0.263    0.361   55.794  244.777   12.194
  477.750    0.227    0.321   52.317  236.193   13.003
  478.000    0.158    0.279   49.145  228.542   13.634
  478.250    0.120    0.259   47.950  223.767   13.848
  478.500    0.132    0.258   49.413  220.953   12.979
  478.750    0.123    0.262   51.252  220.924   11.458
  479.000    0.121    0.253   51.050  221.821    9.726
  479.250    0.119    0.237   50.655  223.535    8.287
  479.500    0.115    0.213   51.565  225.564    6.891
  479.750    0.105    0.237   53.523  227.599    5.719
  480.000    0.162    0.321   56.408  228.800    5.040
  480.250    0.215    0.393   59.355  231.033    4.671
  480.500    0.260    0.415   58.162  234.413    4.494
  480.750    0.278    0.419   57.095  237.771    4.414
  481.000    0.269    0.414   58.247  240.520    4.359
  481.250    0.262    0.408   58.722  242.038    4.353
  481.500    0.279    0.411   59.507  243.336    4.308
  481.750    0.292    0.420   61.344  245.058    4.294
  482.000    0.304    0.424   64.540  246.992    4.370
  482.250    0.308    0.414   65.506  248.609    4.505
  482.500    0.316    0.410   63.511  249.602    4.619
  482.750    0.315    0.410   61.702  251.114    4.736
  483.000    0.313    0.417   61.186  252.831    4.810
  483.250    0.295    0.422   62.586  254.657    4.904
  483.500    0.305    0.424   62.999  256.583    5.037
  483.750    0.316    0.430   62.860  258.712    5.154
  484.000    0.310    0.447   62.532  260.636    5.235
  484.250    0.301    0.435   62.639  262.773    5.288
  484.500    0.297    0.428   63.545  264.485    5.126
  484.750    0.319    0.428   64.696  264.660    4.904
  485.000    0.329    0.441   66.230  264.835    4.553
  485.250    0.336    0.429   64.905  269.651    4.204
  485.500    0.328    0.421   63.218  273.320    3.992
  485.750    0.315    0.406   63.697  275.253    3.965
  486.000    0.326    0.406   63.926  276.242    4.035
  486.250    0.332    0.425   64.835  277.140    4.176
  486.500    0.325    0.437   65.803  277.938    4.289
  486.750    0.326    0.445   65.905  278.519    4.316
  487.000    0.340    0.440   63.660  274.882    4.270
  487.250    0.339    0.431   64.012  276.601    4.170
  487.500    0.331    0.420   65.971  281.615    3.953
  487.750    0.333    0.420   70.587  283.235    3.768
  488.000    0.328    0.434   68.774  283.717    3.700
  488.250    0.334    0.454   64.800  284.303    3.689
  488.500    0.353    0.480   66.388  284.371    3.733
  488.750    0.351    0.487   65.505  282.588    3.936
  489.000    0.337    0.477   65.053  279.575    4.212
  489.250    0.330    0.463   64.481  277.184    4.408
  489.500    0.337    0.450   63.654  275.605    4.571
  489.750    0.333    0.441   64.808  274.224    4.847
  490.000    0.317    0.432   65.283  273.163    5.110
  490.250    0.296    0.427   65.762  271.993    5.259
  490.500    0.296    0.421   64.935  270.829    4.956
  490.750    0.297    0.414   65.165  269.566    4.500
  491.000    0.302    0.426   66.819  267.162    4.163
  491.250    0.303    0.436   68.281  265.079    3.975
  491.500    0.298    0.438   69.680  264.005    3.897
  491.750    0.292    0.433   69.168  263.148    4.132
  492.000    0.285    0.425   69.089  262.508    4.389
  492.250    0.282    0.416   69.314  262.265    4.886
  492.500    0.269    0.404   68.864  262.437    5.239
  492.750    0.252    0.381   67.916  262.505    5.514
  493.000    0.225    0.347   66.784  263.095    6.024
  493.250    0.201    0.323   65.780  263.682    6.484
  493.500    0.148    0.299   68.541  264.883    6.308
  493.750    0.134    0.291   70.994  267.119    5.924
  494.000    0.158    0.306   72.270  268.526    5.459
  494.250    0.194    0.330   72.500  269.217    5.069
  494.500    0.214    0.367   71.374  258.573    4.777
  494.750    0.237    0.423   71.041  249.890    4.596
  495.000    0.268    0.441   70.343  257.996    4.464
  495.250    0.261    0.452   68.404  267.233    4.458
  495.500    0.256    0.442   68.330  263.394    4.478
  495.750    0.255    0.432   69.542  260.988    4.582
  496.000    0.255    0.421   71.252  265.698    4.681
  496.250    0.243    0.411   73.831  274.420    4.754
  496.500    0.237    0.409   75.232  270.991    4.757
  496.750    0.234    0.419   74.783  266.945    4.787
  497.000    0.240    0.419   74.891  263.820    4.835
  497.250    0.269    0.428   76.474  261.106    4.883
  497.500    0.281    0.444   77.752  261.178    4.942
  497.750    0.279    0.462   79.031  262.079    4.963
  498.000    0.279    0.454   79.387  264.617    4.948
  498.250    0.250    0.444   78.374  268.295    4.914
  498.500    0.236    0.435   77.799  271.977    4.890
  498.750    0.226    0.425   78.029  274.932    4.865
  499.000    0.239    0.416   77.761  276.543    4.877
  499.250    0.224    0.409   77.868  277.236    4.908
  499.500    0.228    0.414   78.156  277.926    4.975
  499.750    0.250    0.420   78.135  279.745    5.072
  500.000    0.261    0.415   75.774  271.101    5.123
  500.250    0.256    0.408   75.064  268.885    5.091
  500.500    0.224    0.403   76.648  278.126    5.219
  500.750    0.185    0.403   78.847  285.301    5.330
  501.000    0.174    0.403   79.127  288.045    5.420
  501.250    0.171    0.400   76.622  289.647    5.545
  501.500    0.169    0.394   77.398  290.843    5.641
  501.750    0.169    0.383   78.608  291.711    5.794
  502.000    0.171    0.375   79.755  293.526    5.880
  502.250    0.176    0.367   79.479  293.584    6.016
  502.500    0.182    0.366   75.675  293.736    6.120
  502.750    0.191    0.381   75.089  294.519    6.119
  503.000    0.209    0.392   76.055  295.296    6.030
  503.250    0.222    0.395   78.191  296.075    5.953
  503.500    0.231    0.397   75.191  296.852    5.866
  503.750    0.236    0.402   75.165  296.697    5.910
  504.000    0.235    0.410   76.192  297.377    6.069
  504.250    0.229    0.418   76.715  298.051    6.279
  504.500    0.228    0.434   77.374  298.310    6.496
  504.750    0.245    0.472   78.085  296.301    6.509
  505.000    0.255    0.474   79.851  291.820    6.368
  505.250    0.255    0.469   81.366  286.200    6.158
  505.500    0.247    0.460   82.761  287.390    5.910
  505.750    0.230    0.453   83.723  287.143    5.715
  506.000    0.229    0.444   84.996  287.087    5.675
  506.250    0.215    0.431   84.781  288.182    5.674
  506.500    0.207    0.421   83.391  289.473    5.675
  506.750    0.199    0.410   84.104  290.352    5.700
  507.000    0.191    0.394   84.821  291.344    5.731
  507.250    0.177    0.407   85.848  291.815    5.789
  507.500    0.178    0.411   87.301  291.146    5.853
  507.750    0.194    0.406   89.315  290.263    5.943
  508.000    0.210    0.405   89.720  289.392    6.014
  508.250    0.216    0.413   90.250  288.311    6.036
  508.500    0.226    0.426   90.343  284.962    5.993
  508.750    0.228    0.430   89.449  284.506    5.948
  509.000    0.243    0.423   87.877  285.386    5.828
  509.250    0.243    0.423   87.228  285.652    5.617
  509.500    0.230    0.434   86.205  286.021    5.491
  509.750    0.216    0.436   84.943  287.105    5.330
  510.000    0.217    0.434   85.781  288.597    5.225
  510.250    0.220    0.467   86.431  291.442    5.205
  510.500    0.218    0.463   86.155  291.806    5.225
  510.750    0.225    0.451   84.329  290.111    5.336
