~VERSION INFORMATION
 VERS.                 2.0:   CWLS LOG ASCII STANDARD -VERSION 2.0
 WRAP.                  NO:   ONE LINE PER DEPTH STEP
~WELL INFORMATION BLOCK
#MNEM.UNIT           DATA                    DESCRIPTION OF MNEMONIC
#---------    -------------------            -------------------------------
# Generated from Intellog Unique Number	CW_82_90/WELL/1036
WELL.         PARA ET AL GRANOR  14-35       : Well_name    - WELL
LOC .         00/14-35-082-19W4/0            : Location     - LOCATION
UWI .         00/14-35-082-19W400            : Uwi          - UNIQUE WELL ID
ENTR.         JAYE                           : Entered      - ENTERED BY
SRVC.         COMPUTALOG                     : Scn          - SERVICE COMPANY
DATE.         26 MAR 80                      : Date         - LOG DATE
STRT.M        190                            : top_depth    - START DEPTH
STOP.M        340                            : bot_depth    - STOP DEPTH
STEP.M        0.25                           : increment    - STEP LENGTH
 NULL. -999.2500:NULL Value
~CURVE INFORMATION BLOCK
#MNEM UNIT       ERCB CURVE CODE    CURVE DESCRIPTION
#-----------   ------------------   ----------------------------------
DEPT.M        00 001 00 00         : DEPTH        - DEPTH
CALI.MM       00 280 01 00         : CAL          - CALIPER
GR  .API      00 310 00 00         : GR           - GAMMA RAY
NPHI.V/V      00 330 00 00         : PHIN         - NEUTRON POROSITY (SANDSTONE)
DPHI.V/V      00 890 00 00         : PHID         - DENSITY POROSITY (SANDSTONE)
ILD .OHMM     00 120 00 00         : RESD         - DEEP RESISTIVITY (DIL)
~PARAMETER INFORMATION
#MNEM.UNIT           DATA             DESCRIPTION OF MNEMONIC
#---------         -----------     ------------------------------
GL  .M        581.58               : gl           - GROUND LEVEL ELEVATION
EREF.M        584.85               : kb           - ELEVATION OF DEPTH REFERENCE
DATM.M        581.58               : datum        - DATUM ELEVATION
TDD .M        341.5                : tdd          - TOTAL DEPTH DRILLER
RUN .         ONE                  : Run          - RUN NUMBER
ENG .         JBSIOIOWSKI          : Engineer     - RECORDING ENGINEER
WIT .         IRWIN                : Witness      - WITNESSED BY
BASE.         EDMONTON             : Branch       - HOME BASE OF LOGGING UNIT
MUD .         GEL CHEM             : Mud_type     - MUD TYPE
MATR.         SANDSTONE            : Logunit      - NEUTRON MATRIX
TMAX.C        16                   : BHT          - MAXIMUM RECORDED TEMPERATURE
BHTD.M        341.5                : BHTDEP       - MAXIMUM RECORDED TEMPERATURE
RMT .C        13                   : MDTP         - TEMPERATURE OF MUD
MUDD.KG/M     1070                 : MWT          - MUD DENSITY
NEUT.         1                    : NEUTRON      - NEUTRON TYPE
RESI.         0                    : RESIST       - RESISTIVITY TYPE
RM  .OHMM     1.5                  : RM           - RESISTIVITY OF MUD
RMC .OHMM     0.25                 : RMC          - RESISTIVITY OF MUD CAKE
RMF .OHMM     1.4                  : RMF          - RESISTIVITY OF MUD FILTRATE
SUFT.C        4                    : SUFT         - SURFACE TEMPERATURE
~A  DEPTH      CAL       GR     PHIN     PHID     RESD
# ...
  226.500  151.326   52.320    0.139    0.078   19.872
  226.750  149.305   60.078    0.196    0.175   17.044
  227.000  146.979   66.590    0.445    0.259   14.924
  227.250  147.658   65.003    0.430    0.294   12.872
  227.500  147.405   68.088    0.409    0.293   10.813
  227.750  146.525   64.757    0.412    0.296   10.249
  228.000  146.056   58.936    0.416    0.310   10.398
  228.250  145.806   60.836    0.380    0.321   10.627
  228.500  145.759   52.147    0.462    0.317   10.841
  228.750  146.648   52.306    0.516    0.320   10.811
  229.000  147.528   58.444    0.457    0.320   10.782
  229.250  148.410   62.462    0.387    0.321   10.639
  229.500  148.675   63.805    0.379    0.329   10.546
  229.750  147.901   58.104    0.405    0.321   10.359
  230.000  148.791   54.588    0.403    0.322   10.107
  230.250  150.717   55.118    0.390    0.328   10.077
  230.500  151.392   57.145    0.390    0.318   10.104
  230.750  150.831   62.536    0.467    0.310    9.927
  231.000  146.936   61.383    0.449    0.311    9.862
  231.250  145.652   61.167    0.415    0.303   10.082
  231.500  147.260   63.629    0.413    0.294   10.151
  231.750  148.769   55.190    0.422    0.311   10.218
  232.000  150.273   61.265    0.416    0.313   10.405
  232.250  150.847   61.674    0.403    0.314   10.554
  232.500  152.566   56.909    0.480    0.326   10.625
  232.750  153.350   53.950    0.447    0.328   10.616
  233.000  153.089   58.468    0.396    0.321   10.548
  233.250  152.423   63.235    0.381    0.315   10.441
  233.500  151.763   66.259    0.454    0.316   10.413
  233.750  151.182   63.302    0.458    0.316   10.326
  234.000  148.851   65.144    0.446    0.321   10.261
  234.250  149.010   70.095    0.414    0.330   10.311
  234.500  149.480   63.711    0.399    0.331   10.420
  234.750  149.848   60.007    0.426    0.315   10.512
  235.000  149.705   64.902    0.418    0.315   10.504
  235.250  148.507   58.576    0.353    0.309   10.261
  235.500  148.150   60.854    0.354    0.294    9.928
  235.750  151.009   66.679    0.388    0.282    9.588
  236.000  151.481   70.950    0.374    0.266    9.176
  236.250  150.604   67.180    0.391    0.263    9.012
  236.500  149.207   62.416    0.388    0.274    8.955
  236.750  148.848   62.137    0.370    0.294    9.016
  237.000  149.218   59.559    0.366    0.305    9.042
  237.250  149.989   60.085    0.373    0.290    9.173
  237.500  150.777   62.739    0.421    0.284    9.340
  237.750  151.555   64.450    0.469    0.294    9.565
  238.000  151.302   63.174    0.453    0.292    9.924
  238.250  151.463   55.045    0.447    0.291   10.376
  238.500  151.211   52.586    0.445    0.281   11.436
  238.750  150.743   46.825    0.414    0.281   12.797
  239.000  149.967   39.947    0.410    0.292   14.104
  239.250  149.502   39.540    0.403    0.313   14.334
  239.500  148.834   39.823    0.374    0.307   14.243
  239.750  149.098   39.920    0.370    0.288   14.019
  240.000  148.435   42.940    0.391    0.289   13.954
  240.250  148.792   38.801    0.393    0.304   14.101
  240.500  147.705   32.104    0.382    0.320   14.305
  240.750  145.688   36.188    0.367    0.308   13.949
  241.000  145.232   36.967    0.392    0.301   14.046
  241.250  144.551   34.575    0.396    0.300   14.356
  241.500  144.086   34.790    0.374    0.303   14.586
  241.750  146.531   35.571    0.393    0.309   15.083
  242.000  149.199   35.229    0.424    0.310   15.182
  242.250  149.659   40.622    0.434    0.289   15.028
  242.500  148.884   38.658    0.452    0.280   14.486
  242.750  147.486   33.333    0.426    0.290   14.205
  243.000  145.469   35.860    0.381    0.317   14.193
  243.250  145.424   37.638    0.394    0.320   14.292
  243.500  147.862   45.456    0.412    0.311   14.498
  243.750  147.193   40.381    0.434    0.305   14.511
  244.000  144.956   39.542    0.466    0.307   14.338
  244.250  141.590   34.408    0.486    0.313   14.165
  244.500  146.226   33.750    0.444    0.306   14.022
  244.750  149.386   40.144    0.355    0.298   13.932
  245.000  147.365   44.968    0.329    0.296   13.765
  245.250  145.241   47.927    0.332    0.291   13.648
  245.500  145.191   51.325    0.376    0.282   13.459
  245.750  146.806   47.681    0.383    0.287   13.247
  246.000  148.104   47.466    0.397    0.300   13.040
  246.250  150.249   58.218    0.378    0.300   13.054
  246.500  151.329   48.153    0.408    0.291   13.266
  246.750  149.517   44.075    0.427    0.284   13.636
  247.000  147.912   44.421    0.420    0.276   13.833
  247.250  149.122   51.930    0.300    0.251   13.063
  247.500  151.245   62.740    0.322    0.234   12.218
  247.750  151.723   68.876    0.359    0.252   11.213
  248.000  151.150   63.491    0.384    0.245   10.216
  248.250  150.788   67.882    0.417    0.221    9.610
  248.500  149.711   71.592    0.444    0.220    9.232
  248.750  149.652   69.578    0.394    0.253    8.948
  249.000  150.131   74.832    0.400    0.261    8.545
  249.250  151.533   73.994    0.426    0.279    8.085
  249.500  152.320   67.551    0.408    0.290    7.379
  249.750  154.655   77.859    0.363    0.236    6.377
  250.000  160.426   84.620    0.394    0.213    5.326
  250.250  163.277   95.555    0.428    0.219    4.415
  250.500  165.828  106.614    0.423    0.217    4.023
  250.750  168.165  110.386    0.370    0.230    3.952
  251.000  170.924  112.663    0.430    0.231    4.085
  251.250  172.122  108.146    0.402    0.234    4.264
  251.500  170.001  103.070    0.385    0.249    4.358
  251.750  166.104  107.900    0.521    0.269    4.478
  252.000  168.555  108.492    0.546    0.269    4.692
  252.250  170.479   95.318    0.560    0.265    4.962
  252.500  171.056   93.794    0.522    0.292    5.274
  252.750  166.436   93.391    0.492    0.338    6.293
  253.000  154.653   90.433    0.412    0.319    7.148
  253.250  151.595   83.426    0.380    0.211    8.512
  253.500  149.885   70.688    0.396    0.238   10.447
  253.750  149.240   69.728    0.401    0.250   12.276
  254.000  149.166   71.502    0.378    0.261   13.032
  254.250  148.805   71.723    0.391    0.266   12.874
  254.500  150.211   82.221    0.304    0.262   11.466
  254.750  152.138   95.398    0.288    0.231   10.308
  255.000  153.656   98.732    0.323    0.193    9.198
  255.250  151.938  100.262    0.377    0.194    8.636
  255.500  154.484  101.975    0.349    0.202    8.373
  255.750  157.449   94.347    0.368    0.201    8.305
  256.000  158.229   88.651    0.305    0.213    8.360
  256.250  158.803   89.365    0.324    0.211    8.547
  256.500  158.344   91.703    0.351    0.199    8.619
  256.750  157.476   92.608    0.386    0.203    8.793
  257.000  156.172   94.508    0.419    0.212    8.920
  257.250  152.908   96.286    0.419    0.198    9.013
  257.500  154.621   97.317    0.411    0.197    9.057
  257.750  158.213   91.555    0.389    0.217    9.018
  258.000  159.721   90.965    0.382    0.220    8.941
  258.250  159.570  107.007    0.384    0.228    8.785
  258.500  159.836  110.779    0.385    0.253    8.630
  258.750  160.410  105.889    0.419    0.240    8.354
  259.000  162.429  105.050    0.476    0.212    8.266
  259.250  164.880  100.660    0.474    0.201    8.136
  259.500  165.765   95.340    0.445    0.211    7.932
  259.750  164.261   91.631    0.470    0.204    7.635
  260.000  160.576   85.994    0.469    0.221    7.643
  260.250  157.312   79.238    0.385    0.292    7.722
  260.500  213.538   75.656    0.378    0.439    7.999
  260.750  192.619   77.745    0.550    0.509    8.205
  261.000  169.419   79.522    0.595    0.480    8.892
  261.250  156.080   83.979    0.391    0.412    9.140
  261.500  152.193   91.300    0.313    0.219    9.081
  261.750  160.240   81.926    0.319    0.296    8.478
  262.000  169.227   76.725    0.367    0.383    8.408
  262.250  189.943   78.380    0.426    0.464    8.760
  262.500  160.928   82.647    0.430    0.251    8.883
  262.750  154.862   83.807    0.357    0.250    8.375
