~VERSION INFORMATION
 VERS.                 2.0:   CWLS LOG ASCII STANDARD -VERSION 2.0
 WRAP.                  NO:   ONE LINE PER DEPTH STEP
~WELL INFORMATION BLOCK
#MNEM.UNIT           DATA                    DESCRIPTION OF MNEMONIC
#---------    -------------------            -------------------------------
# Generated from Intellog Unique Number	CW_73_75/WELL/1040
WELL.         11-16-074-21W4                 : Well_name    - WELL
LOC .         00/11-16-074-21W4/0            : Location     - LOCATION
UWI .         00/11-16-074-21W4/0            : Uwi          - UNIQUE WELL ID
ENTR.         JAYE                           : Entered      - ENTERED BY
SRVC.         SCHLUMBERGER                   : Scn          - SERVICE COMPANY
DATE.         2 JAN 77                       : Date         - LOG DATE
STRT.M        387.096                        : top_depth    - START DEPTH
STOP.M        600.346                        : bot_depth    - STOP DEPTH
STEP.M        0.25                           : increment    - STEP LENGTH
 NULL. -999.2500:NULL Value
~CURVE INFORMATION BLOCK
#MNEM UNIT       ERCB CURVE CODE    CURVE DESCRIPTION
#-----------   ------------------   ----------------------------------
DEPT.M        00 001 00 00         : DEPTH        - DEPTH
DPHI.V/V      00 890 00 00         : PHID         - DENSITY POROSITY (SANDSTONE)
NPHI.V/V      00 330 00 00         : PHIN         - NEUTRON POROSITY (SANDSTONE)
GR  .API      00 310 00 00         : GR           - GAMMA RAY
CALI.MM       00 280 01 00         : CAL          - CALIPER
ILD .OHMM     00 120 00 00         : RESD         - DEEP RESISTIVITY (DIL)
~PARAMETER INFORMATION
#MNEM.UNIT           DATA             DESCRIPTION OF MNEMONIC
#---------         -----------     ------------------------------
GL  .M        685.495              : gl           - GROUND LEVEL ELEVATION
EREF.M        689.458              : kb           - ELEVATION OF DEPTH REFERENCE
DATM.M        685.495              : datum        - DATUM ELEVATION
TDD .M        664.464              : tdd          - TOTAL DEPTH DRILLER
RUN .         ONE                  : Run          - RUN NUMBER
ENG .         MCDONALD             : Engineer     - RECORDING ENGINEER
WIT .         SMAILES              : Witness      - WITNESSED BY
BASE.         EDMONTON             : Branch       - HOME BASE OF LOGGING UNIT
MUD .         GEL CHEM             : Mud_type     - MUD TYPE
MATR.         SANDSTONE            : Logunit      - NEUTRON MATRIX
TMAX.C        26.1111              : BHT          - MAXIMUM RECORDED TEMPERATURE
BHTD.M        663.245              : BHTDEP       - MAXIMUM RECORDED TEMPERATURE
RMT .C        10                   : MDTP         - TEMPERATURE OF MUD
MUDD.KG/M     0                    : MWT          - MUD DENSITY
NEUT.         1                    : NEUTRON      - NEUTRON TYPE
RESI.         0                    : RESIST       - RESISTIVITY TYPE
RM  .OHMM     4.63                 : RM           - RESISTIVITY OF MUD
RMC .OHMM     4.67                 : RMC          - RESISTIVITY OF MUD CAKE
RMF .OHMM     4.66                 : RMF          - RESISTIVITY OF MUD FILTRATE
SUFT.C        -17.7778             : SUFT         - SURFACE TEMPERATURE
~A  DEPTH     PHID     PHIN       GR      CAL     RESD
# ...
  423.596    0.349    0.456   88.721  201.560    5.190
  423.846    0.351    0.483   88.490  201.680    5.175
  424.096    0.359    0.482   88.442  202.110    5.151
  424.346    0.356    0.485   89.361  202.027    5.147
  424.596    0.344    0.491   91.008  202.251    5.123
  424.846    0.348    0.482   89.990  202.478    5.099
  425.096    0.342    0.480   87.762  202.807    5.095
  425.346    0.345    0.469   84.746  202.930    5.099
  425.596    0.355    0.460   82.456  203.047    5.076
  425.846    0.351    0.450   79.560  202.966    5.071
  426.096    0.354    0.447   78.603  203.091    5.142
  426.346    0.357    0.455   80.068  203.007    5.194
  426.596    0.354    0.447   82.018  203.029    5.237
  426.846    0.344    0.446   81.302  203.354    5.291
  427.096    0.328    0.464   82.767  203.679    5.355
  427.346    0.316    0.460   82.779  203.802    5.340
  427.596    0.326    0.442   85.092  203.721    5.296
  427.846    0.318    0.458   88.434  203.533    5.233
  428.096    0.310    0.470   88.022  203.554    5.151
  428.346    0.323    0.471   88.639  203.574    5.071
  428.596    0.327    0.442   93.010  203.593    4.992
  428.846    0.305    0.423   97.868  203.816    4.897
  429.096    0.291    0.443  103.207  205.991    4.802
  429.346    0.272    0.462  106.975  209.086    4.702
  429.596    0.276    0.465  107.954  210.235    4.603
  429.846    0.298    0.474  107.360  205.639    4.540
  430.096    0.298    0.483  105.919  208.837    4.469
  430.346    0.284    0.482  106.778  212.138    4.457
  430.596    0.309    0.481  106.548  210.619    4.502
  430.846    0.325    0.478  108.437  205.411    4.710
  431.096    0.307    0.484  113.596  209.121    4.974
  431.346    0.302    0.503  117.664  212.219    5.127
  431.596    0.272    0.509  117.253  214.185    5.218
  431.846    0.266    0.499  109.573  215.127    5.223
  432.096    0.256    0.499  108.495  216.481    5.160
  432.346    0.257    0.474  110.324  214.757    5.090
  432.596    0.215    0.460  111.788  217.546    5.057
  432.846    0.207    0.472  113.071  220.130    4.979
  433.096    0.246    0.491  111.629  221.892    4.901
  433.346    0.252    0.492  106.434  220.681    4.789
  433.596    0.285    0.488  103.417  213.524    4.689
  433.846    0.332    0.509  105.004  205.954    4.590
  434.096    0.347    0.534  106.650  209.461    4.519
  434.346    0.348    0.556   98.608  212.044    4.515
  434.596    0.350    0.560   93.229  209.500    4.535
  434.846    0.354    0.545   85.854  204.494    4.658
  435.096    0.351    0.470   78.840  201.848    4.856
  435.346    0.354    0.441   66.498  201.152    5.099
  435.596    0.352    0.427   59.183  201.070    5.218
  435.846    0.354    0.421   58.165  201.087    5.165
  436.096    0.365    0.421   57.207  201.724    5.094
  436.346    0.376    0.435   54.495  201.950    5.156
  436.596    0.383    0.432   54.687  202.069    5.305
  436.846    0.384    0.432   56.213  202.194    5.510
  437.096    0.376    0.445   58.405  202.212    5.817
  437.346    0.362    0.452   59.688  202.333    5.780
  437.596    0.362    0.449   59.700  202.250    5.764
  437.846    0.348    0.462   58.076  201.860    5.675
  438.096    0.344    0.450   54.515  201.369    5.556
  438.346    0.345    0.432   44.172  201.387    5.429
  438.596    0.357    0.409   41.155  201.406    5.305
  438.846    0.360    0.397   41.652  201.531    5.320
  439.096    0.375    0.392   43.056  201.653    5.374
  439.346    0.379    0.399   44.521  201.674    5.439
  439.596    0.371    0.415   46.229  201.796    5.444
  439.846    0.369    0.414   48.117  202.020    5.439
  440.096    0.366    0.404   50.309  202.346    5.424
  440.346    0.359    0.415   51.834  202.675    5.409
  440.596    0.360    0.436   52.089  202.796    5.404
  440.846    0.367    0.443   50.344  203.021    5.470
  441.096    0.369    0.422   48.660  203.042    5.525
  441.346    0.366    0.408   49.641  202.958    5.519
  441.596    0.361    0.408   50.378  203.081    5.484
  441.846    0.383    0.422   52.025  202.999    5.459
  442.096    0.375    0.435   54.701  203.120    5.424
  442.346    0.364    0.437   56.772  203.241    5.369
  442.596    0.359    0.433   58.964  203.465    5.334
  442.846    0.361    0.435   61.036  203.590    5.369
  443.096    0.361    0.436   62.440  203.506    5.364
  443.346    0.363    0.448   63.178  203.524    5.674
  443.596    0.373    0.446   63.431  203.547    6.415
  443.846    0.372    0.438   58.901  203.769    7.778
  444.096    0.316    0.432   55.158  203.894    9.857
  444.346    0.272    0.401   52.203  203.709   12.287
  444.596    0.156    0.331   48.581  203.623   16.308
  444.846    0.081    0.179   48.411  203.441   20.706
  445.096    0.054    0.167   49.452  203.355   24.287
  445.346    0.062    0.157   50.553  203.375   27.004
  445.596    0.051    0.144   54.440  203.089   29.529
  445.846    0.026    0.126   59.236  203.108   30.384
  446.096    0.040    0.118   62.579  203.126   29.313
  446.346    0.047    0.123   62.287  203.148   27.253
  446.596    0.065    0.125   50.733  203.371   24.331
  446.846    0.085    0.129   44.809  203.185   20.668
  447.096    0.091    0.143   43.247  203.001   14.844
  447.346    0.115    0.168   43.259  202.817   10.700
  447.596    0.153    0.223   45.329  203.245    8.397
  447.846    0.232    0.346   48.369  202.959    7.225
  448.096    0.335    0.441   50.197  202.054    6.414
  448.346    0.347    0.470   50.028  201.560    5.790
  448.596    0.346    0.462   49.796  201.480    5.334
  448.846    0.339    0.447   49.202  201.396    5.233
  449.096    0.346    0.441   48.851  201.314    5.208
  449.346    0.353    0.454   48.559  201.130    5.184
  449.596    0.358    0.469   49.662  201.146    5.160
  449.846    0.349    0.468   52.278  201.166    5.156
  450.096    0.349    0.469   53.015  201.084    5.198
  450.346    0.357    0.471   50.727  200.798    5.340
  450.596    0.363    0.464   51.525  200.817    5.454
  450.846    0.360    0.455   52.748  200.835    5.500
  451.096    0.350    0.457   53.485  200.858    5.504
  451.346    0.350    0.470   54.285  200.977    5.479
  451.596    0.356    0.466   55.144  200.896    5.484
  451.846    0.356    0.459   55.943  201.020    5.479
  452.096    0.353    0.464   56.620  201.347    5.474
  452.346    0.349    0.473   58.148  201.263    5.449
  452.596    0.345    0.467   59.309  201.281    5.454
  452.846    0.346    0.459   59.986  201.095    5.449
  453.096    0.355    0.454   60.058  201.115    5.464
  453.346    0.361    0.459   59.586  201.134    5.459
  453.596    0.363    0.466   58.810  201.258    5.384
  453.846    0.362    0.481   55.612  201.585    5.242
  454.096    0.350    0.469   49.628  201.502    5.160
  454.346    0.348    0.450   45.764  201.420    5.108
  454.596    0.350    0.443   45.413  201.233    5.076
  454.846    0.359    0.455   46.999  201.253    5.070
  455.096    0.362    0.450   47.193  201.376    5.066
  455.346    0.361    0.441   46.236  201.395    5.080
  455.596    0.359    0.444   46.731  201.520    5.076
  455.846    0.357    0.449   47.409  201.540    5.070
  456.096    0.363    0.448   49.358  201.457    5.076
  456.346    0.364    0.464   51.005  201.374    5.108
  456.596    0.359    0.473   50.231  201.392    5.179
  456.846    0.359    0.447   49.151  201.311    5.251
  457.096    0.370    0.431   48.982  201.330    5.335
  457.346    0.380    0.421   50.143  201.347    5.409
  457.596    0.364    0.419   49.004  201.059    5.464
  457.846    0.356    0.438   51.076  201.079    5.479
  458.096    0.359    0.457   52.722  201.102    5.474
  458.346    0.359    0.447   52.430  201.016    5.409
  458.596    0.354    0.439   53.774  201.243    5.394
  458.846    0.349    0.439   55.481  201.466    5.359
  459.096    0.345    0.434   57.068  201.485    5.364
  459.346    0.348    0.445   57.019  201.607    5.349
  459.596    0.351    0.442   56.849  201.731    5.344
  459.846    0.345    0.436   57.224  201.955    5.359
