~VERSION INFORMATION
 VERS.                 2.0:   CWLS LOG ASCII STANDARD -VERSION 2.0
 WRAP.                  NO:   ONE LINE PER DEPTH STEP
~WELL INFORMATION BLOCK
#MNEM.UNIT           DATA                    DESCRIPTION OF MNEMONIC
#---------    -------------------            -------------------------------
# Generated from Intellog Unique Number	CS_71_72/WELL/850
WELL.         BVX ET AL DIXON                : Well_name    - WELL
LOC .         00/10-03-072-15W4/0            : Location     - LOCATION
UWI .         00/10-03-072-15W4/0            : Uwi          - UNIQUE WELL ID
ENTR.         SP                             : Entered      - ENTERED BY
SRVC.         SCHLUMBERGER                   : Scn          - SERVICE COMPANY
STRT.M        290                            : top_depth    - START DEPTH
STOP.M        475                            : bot_depth    - STOP DEPTH
STEP.M        0.25                           : increment    - STEP LENGTH
 NULL. -999.2500:NULL Value
~CURVE INFORMATION BLOCK
#MNEM UNIT       ERCB CURVE CODE    CURVE DESCRIPTION
#-----------   ------------------   ----------------------------------
DEPT.M        00 001 00 00         : DEPTH        - DEPTH
ILD .OHMM     00 120 00 00         : RESD         - DEEP RESISTIVITY (DIL)
DPHI.V/V      00 890 00 00         : PHID         - DENSITY POROSITY (LIMESTONE)
NPHI.V/V      00 330 00 00         : PHIN         - NEUTRON POROSITY (LIMESTONE)
GR  .API      00 310 00 00         : GR           - GAMMA RAY
~PARAMETER INFORMATION
#MNEM.UNIT           DATA             DESCRIPTION OF MNEMONIC
#---------         -----------     ------------------------------
GL  .M        609.7                : gl           - GROUND LEVEL ELEVATION
EREF.M        613                  : kb           - ELEVATION OF DEPTH REFERENCE
DATM.M        609.7                : datum        - DATUM ELEVATION
TDD .M        476                  : tdd          - TOTAL DEPTH DRILLER
RUN .         ONE                  : Run          - RUN NUMBER
ENG .         BILL                 : Engineer     - RECORDING ENGINEER
WIT .         JIM                  : Witness      - WITNESSED BY
MUD .         GEL                  : Mud_type     - MUD TYPE
MATR.         LIMESTONE            : Logunit      - NEUTRON MATRIX
TMAX.C        23                   : BHT          - MAXIMUM RECORDED TEMPERATURE
BHTD.M        476                  : BHTDEP       - MAXIMUM RECORDED TEMPERATURE
MATR.         1                    : LOGUNIT      - NEUTRON MATRIX
RMT .C        25                   : MDTP         - TEMPERATURE OF MUD
NEUT.         1                    : NEUTRON      - NEUTRON TYPE
RESI.         0                    : RESIST       - RESISTIVITY TYPE
RMC .OHMM     0.25                 : RMC          - RESISTIVITY OF MUD CAKE
RMF .OHMM     0.25                 : RMF          - RESISTIVITY OF MUD FILTRATE
SUFT.C        15                   : SUFT         - SURFACE TEMPERATURE
~A  DEPTH     RESD     PHID     PHIN       GR
# ...
  377.000    5.757    0.227    0.444   93.589
  377.250    5.868    0.226    0.437   95.424
  377.500    5.869    0.227    0.454   99.080
  377.750    5.872    0.209    0.453  101.518
  378.000    5.660    0.204    0.461  102.739
  378.250    5.457    0.206    0.471  102.751
  378.500    5.164    0.221    0.450  100.942
  378.750    4.979    0.226    0.439  100.343
  379.000    4.890    0.219    0.440   99.752
  379.250    4.891    0.210    0.444  100.977
  379.500    4.984    0.192    0.449  102.200
  379.750    5.371    0.210    0.457  102.817
  380.000    5.372    0.212    0.452  104.041
  380.250    5.474    0.208    0.446  105.272
  380.500    5.477    0.208    0.444  105.280
  380.750    5.379    0.210    0.460  105.288
  381.000    5.380    0.219    0.456  104.086
  381.250    5.284    0.225    0.451  102.877
  381.500    5.286    0.231    0.444  101.068
  381.750    5.386    0.235    0.438   98.654
  382.000    5.593    0.223    0.436   97.447
  382.250    5.699    0.216    0.441   96.241
  382.500    5.917    0.219    0.457   97.467
  382.750    6.030    0.222    0.473  101.122
  383.000    6.032    0.232    0.486  102.346
  383.250    6.147    0.236    0.447   99.321
  383.500    6.150    0.234    0.423   95.691
  383.750    6.152    0.226    0.412   95.089
  384.000    6.155    0.225    0.418   87.818
  384.250    6.044    0.233    0.430   82.972
  384.500    5.936    0.249    0.422   79.944
  384.750    5.618    0.264    0.423   77.522
  385.000    5.516    0.279    0.459   75.709
  385.250    5.318    0.292    0.466   79.372
  385.500    5.128    0.302    0.465   79.986
  385.750    5.035    0.290    0.447   80.604
  386.000    4.945    0.291    0.434   79.398
  386.250    4.947    0.298    0.426   75.160
  386.500    4.949    0.295    0.428   72.740
  386.750    4.950    0.297    0.425   70.926
  387.000    4.953    0.304    0.418   69.722
  387.250    4.954    0.291    0.407   72.768
  387.500    5.048    0.237    0.379   73.993
  387.750    5.439    0.089    0.289   70.968
  388.000    5.969    0.066    0.209   67.337
  388.250    6.926    0.204    0.260   69.774
  388.500    7.189    0.262    0.378   75.864
  388.750    7.745    0.287    0.435   77.083
  389.000    8.041    0.246    0.401   70.420
  389.250    8.043    0.209    0.366   67.390
  389.500    8.351    0.045    0.336   64.362
  389.750    8.354    0.093    0.272   71.059
  390.000    8.053    0.182    0.201   74.100
  390.250    7.209    0.224    0.252   83.220
  390.500    6.453    0.241    0.296   88.089
  390.750    5.267    0.250    0.360   91.140
  391.000    4.984    0.250    0.420   93.577
  391.250    4.894    0.235    0.438   98.451
  391.500    4.989    0.241    0.451   99.065
  391.750    5.084    0.239    0.428   99.076
  392.000    5.182    0.240    0.421   96.052
  392.250    5.183    0.240    0.432   94.845
  392.500    5.184    0.224    0.434   96.069
  392.750    5.283    0.223    0.429   97.295
  393.000    5.485    0.217    0.438   87.591
  393.250    5.909    0.208    0.441   79.708
  393.500    6.134    0.056    0.350   74.856
  393.750    6.608    0.036    0.230   66.974
  394.000    6.735    0.159    0.271   62.125
  394.250    6.863    0.206    0.345   71.248
  394.500    6.259    0.228    0.380   74.899
  394.750    5.604    0.248    0.400   78.555
  395.000    5.302    0.263    0.421   81.608
  395.250    5.018    0.271    0.430   82.831
  395.500    4.749    0.276    0.434   83.445
  395.750    4.663    0.281    0.424   85.888
  396.000    4.665    0.282    0.418   87.110
  396.250    4.667    0.275    0.430   90.165
  396.500    4.583    0.273    0.447   91.386
  396.750    4.585    0.270    0.458   92.000
  397.000    4.586    0.284    0.445   92.618
  397.250    4.589    0.291    0.446   88.380
  397.500    4.591    0.296    0.430   85.966
  397.750    4.592    0.299    0.426   85.366
  398.000    4.510    0.279    0.423   85.373
  398.250    4.429    0.265    0.416   87.818
  398.500    4.431    0.268    0.413   89.649
  398.750    4.515    0.284    0.414   90.870
  399.000    4.687    0.283    0.422   90.884
  399.250    4.777    0.274    0.431   89.678
  399.500    4.869    0.277    0.444   87.264
  399.750    4.961    0.284    0.452   86.662
  400.000    4.963    0.289    0.444   92.142
  400.250    4.612    0.287    0.438   96.401
  400.500    4.446    0.280    0.436  101.878
  400.750    4.207    0.269    0.448  105.531
  401.000    3.980    0.258    0.478  109.795
  401.250    3.498    0.247    0.517  111.626
  401.500    2.802    0.238    0.538  111.028
  401.750    2.462    0.233    0.542  110.437
  402.000    2.288    0.244    0.532  109.841
  402.250    2.375    0.239    0.521  108.635
  402.500    2.558    0.243    0.526  106.820
  402.750    2.705    0.250    0.501  103.795
  403.000    3.139    0.246    0.483  100.169
  403.250    3.642    0.244    0.465   99.571
  403.500    4.147    0.229    0.451   98.367
  403.750    4.551    0.221    0.456   98.376
  404.000    4.813    0.232    0.463   98.382
  404.250    4.905    0.239    0.477  100.214
  404.500    4.817    0.246    0.470  103.266
  404.750    4.819    0.260    0.460  104.488
  405.000    4.733    0.253    0.452  105.713
  405.250    4.735    0.253    0.443   99.649
  405.500    4.736    0.246    0.439  101.485
  405.750    4.827    0.242    0.452  101.492
  406.000    4.919    0.234    0.461   99.079
  406.250    5.013    0.226    0.455   96.659
  406.500    5.109    0.208    0.445   95.451
  406.750    5.304    0.212    0.470   93.640
  407.000    5.405    0.243    0.481   94.867
  407.250    5.611    0.252    0.461   94.877
  407.500    5.825    0.238    0.469   91.852
  407.750    6.047    0.231    0.451   84.575
  408.000    6.278    0.194    0.405   83.976
  408.250    6.398    0.157    0.340   89.454
  408.500    6.054    0.265    0.366   93.107
  408.750    5.321    0.283    0.429   91.299
  409.000    4.763    0.291    0.431   82.199
  409.250    4.507    0.300    0.423   76.742
  409.500    4.265    0.315    0.412   72.502
  409.750    4.037    0.325    0.420   70.084
  410.000    4.039    0.317    0.425   68.271
  410.250    4.040    0.314    0.426   70.106
  410.500    4.041    0.308    0.428   71.939
  410.750    4.119    0.297    0.431   68.916
  411.000    4.120    0.310    0.441   67.100
  411.250    4.199    0.327    0.448   67.111
  411.500    4.201    0.335    0.431   71.981
  411.750    4.050    0.337    0.429   75.638
  412.000    4.051    0.310    0.420   77.467
  412.250    4.053    0.269    0.413   79.906
  412.500    4.131    0.249    0.424   83.561
  412.750    4.209    0.239    0.425   86.609
  413.000    4.535    0.232    0.427   89.054
  413.250    4.707    0.221    0.433   89.668
  413.500    4.887    0.208    0.444   90.285
  413.750    4.980    0.206    0.459   90.901
  414.000    4.982    0.218    0.467   91.522
  414.250    4.985    0.227    0.462   88.494
  414.500    4.896    0.235    0.462   82.432
  414.750    4.807    0.292    0.462   75.767
  415.000    4.721    0.321    0.454   73.952
  415.250    4.636    0.300    0.449   76.395
  415.500    4.552    0.287    0.450   78.225
  415.750    4.389    0.299    0.451   79.450
  416.000    4.311    0.303    0.439   80.677
  416.250    4.233    0.299    0.436   81.292
  416.500    4.157    0.294    0.442   81.308
  416.750    4.158    0.292    0.448   81.314
  417.000    4.084    0.299    0.458   82.541
  417.250    4.085    0.304    0.448   84.373
  417.500    4.087    0.310    0.444   86.203
  417.750    4.089    0.300    0.451   83.181
  418.000    4.090    0.292    0.453   78.939
  418.250    4.168    0.281    0.456   79.555
  418.500    4.409    0.269    0.452   80.781
  418.750    4.492    0.264    0.447   79.579
  419.000    4.752    0.257    0.436   77.158
  419.250    4.842    0.249    0.422   81.426
  419.500    4.843    0.254    0.416   83.865
  419.750    4.757    0.263    0.412   86.302
  420.000    4.671    0.273    0.403   89.957
  420.250    4.504    0.263    0.395   93.004
