~VERSION INFORMATION
 VERS.                 2.0:   CWLS LOG ASCII STANDARD -VERSION 2.0
 WRAP.                  NO:   ONE LINE PER DEPTH STEP
~WELL INFORMATION BLOCK
#MNEM.UNIT           DATA                    DESCRIPTION OF MNEMONIC
#---------    -------------------            -------------------------------
# Generated from Intellog Unique Number	CS_73_76/WELL/3267
WELL.         11-27-076-13W4                 : Well_name    - WELL
LOC .         00/11-27-076-13W4/0            : Location     - LOCATION
UWI .         00/11-27-076-13W4/0            : Uwi          - UNIQUE WELL ID
ENTR.         SP                             : Entered      - ENTERED BY
SRVC.         SCHLUMBERGER                   : Scn          - SERVICE COMPANY
STRT.M        310.896                        : top_depth    - START DEPTH
STOP.M        548.396                        : bot_depth    - STOP DEPTH
STEP.M        0.25                           : increment    - STEP LENGTH
 NULL. -999.2500:NULL Value
~CURVE INFORMATION BLOCK
#MNEM UNIT       ERCB CURVE CODE    CURVE DESCRIPTION
#-----------   ------------------   ----------------------------------
DEPT.M        00 001 00 00         : DEPTH        - DEPTH
GR  .API      00 310 00 00         : GR           - GAMMA RAY
DPHI.V/V      00 890 00 00         : PHID         - DENSITY POROSITY (SANDSTONE)
NPHI.V/V      00 330 00 00         : PHIN         - NEUTRON POROSITY (SANDSTONE)
ILD .OHMM     00 120 00 00         : RESD         - DEEP RESISTIVITY (DIL)
~PARAMETER INFORMATION
#MNEM.UNIT           DATA             DESCRIPTION OF MNEMONIC
#---------         -----------     ------------------------------
GL  .M        699.516              : gl           - GROUND LEVEL ELEVATION
EREF.M        702.564              : kb           - ELEVATION OF DEPTH REFERENCE
DATM.M        699.516              : datum        - DATUM ELEVATION
TDD .M        559.308              : tdd          - TOTAL DEPTH DRILLER
RUN .         ONE                  : Run          - RUN NUMBER
ENG .         BILL                 : Engineer     - RECORDING ENGINEER
WIT .         JIM                  : Witness      - WITNESSED BY
MUD .         GEL                  : Mud_type     - MUD TYPE
MATR.         SANDSTONE            : Logunit      - NEUTRON MATRIX
TMAX.C        32.2222              : BHT          - MAXIMUM RECORDED TEMPERATURE
BHTD.M        559.308              : BHTDEP       - MAXIMUM RECORDED TEMPERATURE
MATR.         1                    : LOGUNIT      - NEUTRON MATRIX
RMT .C        25                   : MDTP         - TEMPERATURE OF MUD
NEUT.         1                    : NEUTRON      - NEUTRON TYPE
RESI.         0                    : RESIST       - RESISTIVITY TYPE
RMC .OHMM     0.25                 : RMC          - RESISTIVITY OF MUD CAKE
RMF .OHMM     0.25                 : RMF          - RESISTIVITY OF MUD FILTRATE
SUFT.C        15                   : SUFT         - SURFACE TEMPERATURE
~A  DEPTH       GR     PHID     PHIN     RESD
# ...
  397.896   60.717    0.305    0.561    7.591
  398.146   60.336    0.288    0.543    7.254
  398.396   60.019    0.279    0.531    6.608
  398.646   61.950    0.238    0.515    6.236
  398.896   63.999    0.222    0.536    5.981
  399.146   65.966    0.285    0.573    4.242
  399.396   66.513    0.323    0.593    5.584
  399.646   66.312    0.329    0.543    6.869
  399.896   65.901    0.321    0.498    8.558
  400.146   64.916    0.311    0.509    9.831
  400.396   63.949    0.304    0.526   10.984
  400.646   62.950    0.300    0.537   11.256
  400.896   61.568    0.295    0.545   11.857
  401.146   61.850    0.313    0.553   11.897
  401.396   62.256    0.321    0.542   11.527
  401.646   63.100    0.325    0.541   11.176
  401.896   60.985    0.332    0.527   10.829
  402.146   61.450    0.322    0.521    9.833
  402.396   63.128    0.313    0.529    9.406
  402.646   64.037    0.301    0.541    8.387
  402.896   66.138    0.289    0.535    7.560
  403.146   69.323    0.275    0.522    6.805
  403.396   71.172    0.264    0.526    6.052
  403.646   72.782    0.255    0.540    5.310
  403.896   75.469    0.245    0.551    4.752
  404.146   78.526    0.255    0.566    4.205
  404.396   81.207    0.250    0.568    3.949
  404.646   83.817    0.237    0.604    3.718
  404.896   83.296    0.227    0.611    3.611
  405.146   82.299    0.219    0.620    3.503
  405.396   83.673    0.225    0.629    3.399
  405.646   85.703    0.232    0.619    3.407
  405.896   85.901    0.236    0.593    3.330
  406.146   86.538    0.240    0.571    3.336
  406.396   87.552    0.238    0.586    3.334
  406.646   86.526    0.234    0.606    3.330
  406.896   84.677    0.242    0.623    3.391
  407.146   85.509    0.248    0.606    3.422
  407.396   83.109    0.250    0.619    3.538
  407.646   79.223    0.247    0.618    3.764
  407.896   74.275    0.254    0.627    4.048
  408.146   70.766    0.283    0.575    4.683
  408.396   66.158    0.312    0.551    5.208
  408.646   64.456    0.328    0.536    6.044
  408.896   66.863    0.343    0.556    6.814
  409.146   69.977    0.336    0.569    7.471
  409.396   73.305    0.332    0.570    7.659
  409.646   76.189    0.323    0.526    6.711
  409.896   81.556    0.306    0.522    5.545
  410.146   87.609    0.294    0.563    4.462
  410.396   90.833    0.277    0.613    3.810
  410.646   94.134    0.264    0.656    3.031
  410.896   92.752    0.265    0.665    2.589
  411.146   91.635    0.265    0.681    2.294
  411.396   93.312    0.281    0.692    2.146
  411.646   93.533    0.291    0.716    1.976
  411.896   93.531    0.300    0.729    1.894
  412.146   93.525    0.283    0.712    1.829
  412.396   93.512    0.283    0.710    1.772
  412.646   93.216    0.276    0.719    1.769
  412.896   91.361    0.273    0.718    1.810
  413.146   89.511    0.266    0.708    1.931
  413.396   84.908    0.262    0.713    2.157
  413.646   80.908    0.257    0.674    2.608
  413.896   76.487    0.268    0.590    3.305
  414.146   72.566    0.279    0.540    4.045
  414.396   70.093    0.285    0.516    4.843
  414.646   69.416    0.289    0.521    5.893
  414.896   70.472    0.306    0.530    6.756
  415.146   70.794    0.310    0.530    7.143
  415.396   68.682    0.313    0.502    7.268
  415.646   69.552    0.317    0.511    7.235
  415.896   71.938    0.327    0.532    7.002
  416.146   73.930    0.300    0.547    6.936
  416.396   73.968    0.281    0.553    6.739
  416.646   72.527    0.278    0.551    6.638
  416.896   72.861    0.278    0.556    6.483
  417.146   73.183    0.260    0.575    6.479
  417.396   74.246    0.250    0.589    6.365
  417.646   74.275    0.257    0.603    6.310
  417.896   74.241    0.268    0.552    6.375
  418.146   73.302    0.278    0.560    6.368
  418.396   75.632    0.281    0.571    6.407
  418.646   75.478    0.273    0.575    6.481
  418.896   73.765    0.270    0.527    6.597
  419.146   73.445    0.283    0.552    6.734
  419.396   71.385    0.286    0.569    6.713
  419.646   69.741    0.283    0.583    6.908
  419.896   69.951    0.281    0.582    7.096
  420.146   73.558    0.292    0.564    7.208
  420.396   74.414    0.305    0.531    7.267
  420.646   73.003    0.298    0.543    7.492
  420.896   74.189    0.290    0.564    7.588
  421.146   74.861    0.294    0.568    7.506
  421.396   76.620    0.283    0.556    7.339
  421.646   78.671    0.274    0.537    7.097
  421.896   79.938    0.275    0.545    6.632
  422.146   80.743    0.267    0.548    6.344
  422.396   80.786    0.260    0.527    5.963
  422.646   79.976    0.261    0.502    5.754
  422.896   78.972    0.254    0.485    5.573
  423.146   78.954    0.252    0.492    5.566
  423.396   79.012    0.260    0.519    5.559
  423.646   79.021    0.262    0.543    5.649
  423.896   78.839    0.244    0.571    5.698
  424.146   80.210    0.230    0.556    5.883
  424.396   78.956    0.223    0.544    5.973
  424.646   76.442    0.234    0.523    6.101
  424.896   74.699    0.244    0.506    6.086
  425.146   72.998    0.247    0.522    6.084
  425.396   73.981    0.243    0.521    6.081
  425.646   75.889    0.249    0.526    6.084
  425.896   75.258    0.261    0.543    5.904
  426.146   74.503    0.273    0.570    5.725
  426.396   74.069    0.281    0.580    5.641
  426.646   74.544    0.291    0.557    5.631
  426.896   76.589    0.287    0.543    5.750
  427.146   78.203    0.273    0.534    5.831
  427.396   77.579    0.276    0.540    5.879
  427.646   76.975    0.283    0.533    6.067
  427.896   75.510    0.289    0.528    6.075
  428.146   75.202    0.276    0.546    5.946
  428.396   75.775    0.240    0.552    5.845
  428.646   76.739    0.247    0.561    5.616
  428.896   77.684    0.251    0.569    5.109
  429.146   79.236    0.246    0.554    4.614
  429.396   80.277    0.242    0.586    4.035
  429.646   80.487    0.250    0.601    3.364
  429.896   81.015    0.257    0.610    2.933
  430.146   80.934    0.255    0.619    2.766
  430.396   79.261    0.262    0.596    2.744
  430.646   79.153    0.271    0.571    2.778
  430.896   81.440    0.266    0.569    2.863
  431.146   82.272    0.259    0.567    2.951
  431.396   81.539    0.252    0.581    3.120
  431.646   79.616    0.245    0.600    3.260
  431.896   79.262    0.238    0.578    3.467
  432.146   79.415    0.235    0.525    3.758
  432.396   81.748    0.241    0.510    3.984
  432.646   82.145    0.247    0.512    4.233
  432.896   82.231    0.246    0.530    4.327
  433.146   81.486    0.253    0.555    4.415
  433.396   81.517    0.251    0.545    4.400
  433.646   80.726    0.247    0.516    4.518
  433.896   79.078    0.246    0.496    4.752
  434.146   76.091    0.253    0.479    5.035
  434.396   72.020    0.266    0.466    5.466
  434.646   67.337    0.275    0.466    5.792
  434.896   64.073    0.271    0.463    6.088
  435.146   60.080    0.290    0.465    6.271
  435.396   56.693    0.303    0.475    6.350
  435.646   54.971    0.320    0.480    6.348
  435.896   53.949    0.327    0.466    6.346
  436.146   52.441    0.333    0.445    6.328
  436.396   51.543    0.309    0.455    6.704
  436.646   53.675    0.295    0.444    6.956
  436.896   54.144    0.272    0.415    7.369
  437.146   54.343    0.242    0.408    7.826
  437.396   54.708    0.288    0.436    7.895
  437.646   55.717    0.321    0.458    7.836
  437.896   56.836    0.329    0.480    7.267
  438.146   58.205    0.318    0.469    6.951
  438.396   59.523    0.317    0.464    6.546
  438.646   59.372    0.311    0.471    6.185
  438.896   57.779    0.312    0.481    5.795
  439.146   57.011    0.302    0.477    5.720
  439.396   57.071    0.294    0.486    5.663
  439.646   58.183    0.304    0.503    5.570
  439.896   57.534    0.312    0.502    5.554
  440.146   57.606    0.318    0.492    5.550
  440.396   57.154    0.331    0.479    5.548
  440.646   57.057    0.327    0.493    5.546
  440.896   56.390    0.319    0.503    5.544
  441.146   55.997    0.324    0.503    5.543
