~VERSION INFORMATION
 VERS.                 2.0:   CWLS LOG ASCII STANDARD -VERSION 2.0
 WRAP.                  NO:   ONE LINE PER DEPTH STEP
~WELL INFORMATION BLOCK
#MNEM.UNIT           DATA                    DESCRIPTION OF MNEMONIC
#---------    -------------------            -------------------------------
# Generated from Intellog Unique Number	CW_76_78/WELL/2576
WELL.         10-19-078-24W4                 : Well_name    - WELL
LOC .         00/10-19-078-24W4/0            : Location     - LOCATION
UWI .         00/10-19-078-24W4/0            : Uwi          - UNIQUE WELL ID
ENTR.         MAX                            : Entered      - ENTERED BY
SRVC.         SCHLUMBERGER                   : Scn          - SERVICE COMPANY
STRT.M        274.32                         : top_depth    - START DEPTH
STOP.M        518.07                         : bot_depth    - STOP DEPTH
STEP.M        0.25                           : increment    - STEP LENGTH
 NULL. -999.2500:NULL Value
~CURVE INFORMATION BLOCK
#MNEM UNIT       ERCB CURVE CODE    CURVE DESCRIPTION
#-----------   ------------------   ----------------------------------
DEPT.M        00 001 00 00         : DEPTH        - DEPTH
ILD .OHMM     00 120 00 00         : RESD         - DEEP RESISTIVITY (DIL)
NPHI.V/V      00 330 00 00         : PHIN         - NEUTRON POROSITY (SANDSTONE)
DPHI.V/V      00 890 00 00         : PHID         - DENSITY POROSITY (SANDSTONE)
CALI.MM       00 280 01 00         : CAL          - CALIPER
GR  .API      00 310 00 00         : GR           - GAMMA RAY
~PARAMETER INFORMATION
#MNEM.UNIT           DATA             DESCRIPTION OF MNEMONIC
#---------         -----------     ------------------------------
GL  .M        592.531              : gl           - GROUND LEVEL ELEVATION
EREF.M        596.494              : kb           - ELEVATION OF DEPTH REFERENCE
DATM.M        592.531              : datum        - DATUM ELEVATION
TDD .M        537.667              : tdd          - TOTAL DEPTH DRILLER
RUN .         ONE                  : Run          - RUN NUMBER
ENG .         BILL                 : Engineer     - RECORDING ENGINEER
WIT .         JIM                  : Witness      - WITNESSED BY
MUD .         GEL                  : Mud_type     - MUD TYPE
MATR.         SANDSTONE            : Logunit      - NEUTRON MATRIX
TMAX.C        25.5556              : BHT          - MAXIMUM RECORDED TEMPERATURE
BHTD.M        537.667              : BHTDEP       - MAXIMUM RECORDED TEMPERATURE
RMT .C        14.4444              : MDTP         - TEMPERATURE OF MUD
MUDD.KG/M     9800                 : MWT          - MUD DENSITY
NEUT.         1                    : NEUTRON      - NEUTRON TYPE
RESI.         0                    : RESIST       - RESISTIVITY TYPE
RM  .OHMM     6.42                 : RM           - RESISTIVITY OF MUD
RMC .OHMM     6.05                 : RMC          - RESISTIVITY OF MUD CAKE
RMF .OHMM     7.72                 : RMF          - RESISTIVITY OF MUD FILTRATE
SUFT.C        -6.66667             : SUFT         - SURFACE TEMPERATURE
~A  DEPTH     RESD     PHIN     PHID      CAL       GR
# ...
  347.320   14.920    0.338    0.197  205.793   39.211
  347.570   18.484    0.323    0.155  203.864   36.910
  347.820   22.899    0.300    0.125  201.461   34.317
  348.070   25.946    0.294    0.134  201.513   33.474
  348.320   28.878    0.330    0.145  203.057   34.089
  348.570   31.856    0.344    0.167  203.124   37.346
  348.820   35.141    0.369    0.207  199.220   40.598
  349.070   37.072    0.384    0.233  195.310   38.887
  349.320   35.136    0.409    0.278  194.881   36.573
  349.570   24.582    0.457    0.316  194.955   33.399
  349.820   19.663    0.472    0.332  194.518   35.185
  350.070   17.823    0.474    0.335  194.067   37.568
  350.320   16.892    0.441    0.338  193.646   37.599
  350.570   16.741    0.425    0.321  195.693   37.053
  350.820   17.348    0.412    0.290  197.238   36.791
  351.070   17.818    0.400    0.275  199.271   37.122
  351.320   18.464    0.403    0.270  200.320   39.502
  351.570   18.964    0.407    0.270  200.882   39.829
  351.820   19.652    0.404    0.272  201.436   40.156
  352.070   20.366    0.406    0.272  203.484   40.483
  352.320   22.266    0.404    0.267  203.040   40.523
  352.570   23.489    0.406    0.263  202.109   40.269
  352.820   24.125    0.392    0.258  203.173   40.269
  353.070   24.558    0.384    0.247  203.232   40.055
  353.320   25.223    0.388    0.233  202.300   40.086
  353.570   26.138    0.396    0.226  201.864   39.828
  353.820   27.329    0.397    0.225  201.923   39.863
  354.070   28.070    0.402    0.250  201.982   39.902
  354.320   28.068    0.407    0.253  202.048   40.513
  354.570   28.066    0.394    0.252  202.610   42.307
  354.820   28.063    0.389    0.234  202.662   42.936
  355.070   27.813    0.382    0.227  202.233   43.551
  355.320   28.060    0.379    0.228  201.804   45.053
  355.570   28.819    0.384    0.224  201.367   47.716
  355.820   29.337    0.403    0.228  201.419   48.637
  356.070   29.598    0.430    0.239  199.009   48.667
  356.320   29.596    0.449    0.268  195.609   49.580
  356.570   28.302    0.449    0.287  195.660   50.199
  356.820   25.652    0.425    0.293  195.719   50.828
  357.070   23.460    0.413    0.291  196.281   52.033
  357.320   21.841    0.405    0.280  195.357   52.945
  357.570   21.841    0.413    0.271  195.408   53.857
  357.820   20.884    0.413    0.263  195.475   55.359
  358.070   19.443    0.408    0.254  195.541   57.149
  358.320   18.928    0.424    0.257  195.593   58.947
  358.570   18.592    0.459    0.257  195.659   59.558
  358.820   18.262    0.486    0.260  229.397   59.886
  359.070   17.778    0.481    0.274  225.996   60.514
  359.320   17.153    0.464    0.290  222.588   60.544
  359.570   16.848    0.446    0.264  214.730   60.872
  359.820   16.998    0.431    0.242  207.855   58.872
  360.070   16.996    0.451    0.229  205.933   58.606
  360.320   17.148    0.450    0.230  207.478   58.056
  360.570   17.456    0.456    0.228  209.030   57.213
  360.820   17.929    0.482    0.238  213.044   56.667
  361.070   18.746    0.470    0.256  217.575   56.414
  361.320   19.253    0.447    0.237  208.217   56.737
  361.570   19.952    0.424    0.222  204.321   58.239
  361.820   20.129    0.391    0.214  203.382   60.029
  362.070   20.128    0.358    0.187  202.465   62.115
  362.320   19.770    0.408    0.170  201.533   63.913
  362.570   18.738    0.428    0.234  200.602   63.940
  362.820   17.136    0.428    0.230  201.163   63.101
  363.070   15.954    0.442    0.224  202.708   64.311
  363.320   14.332    0.419    0.236  204.741   65.515
  363.570   13.224    0.407    0.233  206.781   64.961
  363.820   12.646    0.390    0.229  207.350   66.166
  364.070   12.093    0.441    0.234  206.411   66.497
  364.320   11.878    0.472    0.245  203.011   67.117
  364.570   11.878    0.483    0.251  201.584   68.907
  364.820   11.771    0.460    0.247  202.633   68.955
  365.070   11.256    0.441    0.234  203.683   68.688
  365.320   10.958    0.419    0.224  204.237   68.728
  365.570   10.763    0.397    0.211  204.791   71.111
  365.820   10.667    0.446    0.214  205.353   72.604
  366.070   10.667    0.476    0.238  204.932   73.516
  366.320   10.571    0.474    0.242  204.480   74.725
  366.570   10.476    0.479    0.233  203.556   75.633
  366.820   10.290    0.486    0.227  203.135   75.672
  367.070   10.198    0.481    0.236  203.186   75.122
  367.320    9.928    0.467    0.238  203.733   73.402
  367.570    9.751    0.455    0.236  203.814   72.564
  367.820    9.493    0.458    0.228  204.361   74.354
  368.070    9.408    0.468    0.218  204.916   75.851
  368.320    9.324    0.461    0.221  205.470   75.593
  368.570    9.323    0.457    0.212  206.527   74.463
  368.820    9.322    0.461    0.225  207.088   73.039
  369.070    9.322    0.471    0.240  207.643   73.362
  369.320    9.238    0.463    0.237  207.702   73.987
  369.570    9.238    0.455    0.228  207.273   73.144
  369.820    9.319    0.462    0.227  207.317   74.641
  370.070    9.403    0.471    0.223  205.897   77.308
  370.320    9.402    0.491    0.222  203.000   82.032
  370.570    9.401    0.511    0.220  204.544   82.651
  370.820    9.400    0.515    0.214  205.091   82.974
  371.070    9.316    0.518    0.205  205.150   83.599
  371.320    9.151    0.503    0.204  205.217   81.590
  371.570    8.988    0.489    0.209  206.259   79.866
  371.820    8.908    0.489    0.206  206.820   78.438
  372.070    8.750    0.495    0.205  209.371   76.731
  372.320    8.594    0.503    0.217  210.405   75.295
  372.570    8.517    0.516    0.218  207.515   73.575
  372.820    8.441    0.511    0.220  209.555   74.199
  373.070    8.440    0.506    0.224  211.580   75.989
  373.320    8.515    0.510    0.228  211.151   74.561
  373.570    8.668    0.514    0.230  211.218   70.798
  373.820    8.745    0.498    0.244  211.772   67.908
  374.070    9.144    0.476    0.249  210.338   65.891
  374.320    9.908    0.455    0.246  205.947   65.053
  374.570   10.736    0.446    0.235  205.022   65.097
  374.820   11.844    0.432    0.211  206.072   66.000
  375.070   13.182    0.418    0.186  207.129   68.672
  375.320   14.284    0.493    0.183  207.691   75.438
  375.570   13.299    0.492    0.209  207.750   79.568
  375.820   11.946    0.479    0.228  208.289   83.990
  376.070   11.023    0.479    0.233  209.849   84.321
  376.320   10.355    0.480    0.231  210.891   86.696
  376.570    9.640    0.487    0.227  212.946   86.731
  376.820    8.895    0.526    0.217  214.986   79.746
  377.070    8.431    0.526    0.214  215.547   77.441
  377.320    8.134    0.521    0.211  214.608   73.093
  377.570    7.919    0.504    0.222  212.694   69.910
  377.820    8.061    0.488    0.252  210.779   67.020
  378.070    8.657    0.484    0.230  207.866   63.253
  378.320    9.635    0.470    0.238  205.449   61.825
  378.570   11.518    0.480    0.252  204.007   61.280
  378.820   11.518    0.464    0.238  203.578   60.730
  379.070   11.620    0.438    0.214  203.142   59.018
  379.320   13.050    0.418    0.204  203.208   59.341
  379.570   14.786    0.422    0.188  203.260   59.372
  379.820   16.310    0.426    0.178  203.829   57.948
  380.070   16.752    0.446    0.177  204.871   56.813
  380.320   17.206    0.474    0.173  205.928   56.556
  380.570   17.671    0.461    0.174  206.985   58.647
  380.820   17.829    0.516    0.186  207.037   61.314
  381.070   17.987    0.513    0.232  207.598   63.684
  381.320   17.986    0.489    0.275  207.665   66.360
  381.570   17.200    0.471    0.277  207.724   67.561
  381.820   15.729    0.462    0.272  207.775   69.350
  382.070   14.644    0.466    0.272  207.775   70.856
  382.320   13.756    0.477    0.254  207.428   70.599
  382.570   12.807    0.504    0.250  206.969   72.384
  382.820   11.817    0.509    0.248  207.035   76.810
  383.070   11.200    0.524    0.240  207.094   79.482
  383.320   10.521    0.599    0.227  207.153   79.224
  383.570   10.427    0.619    0.217  207.708   78.098
