~VERSION INFORMATION
 VERS.                 2.0:   CWLS LOG ASCII STANDARD -VERSION 2.0
 WRAP.                  NO:   ONE LINE PER DEPTH STEP
~WELL INFORMATION BLOCK
#MNEM.UNIT           DATA                    DESCRIPTION OF MNEMONIC
#---------    -------------------            -------------------------------
# Generated from Intellog Unique Number	CW_73_75/WELL/1044
WELL.         PARAMOUNT ER AL RO 11-20       : Well_name    - WELL
LOC .         00/11-20-075-22W4/0            : Location     - LOCATION
UWI .         00/11-20-075-22W4/0            : Uwi          - UNIQUE WELL ID
ENTR.         JAYE                           : Entered      - ENTERED BY
SRVC.         WESTERN ATLAS                  : Scn          - SERVICE COMPANY
DATE.         22 FEB 77                      : Date         - LOG DATE
STRT.M        359.664                        : top_depth    - START DEPTH
STOP.M        612.664                        : bot_depth    - STOP DEPTH
STEP.M        0.25                           : increment    - STEP LENGTH
 NULL. -999.2500:NULL Value
~CURVE INFORMATION BLOCK
#MNEM UNIT       ERCB CURVE CODE    CURVE DESCRIPTION
#-----------   ------------------   ----------------------------------
DEPT.M        00 001 00 00         : DEPTH        - DEPTH
ILD .OHMM     00 120 00 00         : RESD         - DEEP RESISTIVITY (DIL)
NPHI.V/V      00 330 00 00         : PHIN         - NEUTRON POROSITY (SANDSTONE)
DPHI.V/V      00 890 00 00         : PHID         - DENSITY POROSITY (SANDSTONE)
GR  .API      00 310 00 00         : GR           - GAMMA RAY
CALI.MM       00 280 01 00         : CAL          - CALIPER
~PARAMETER INFORMATION
#MNEM.UNIT           DATA             DESCRIPTION OF MNEMONIC
#---------         -----------     ------------------------------
GL  .M        651.51               : gl           - GROUND LEVEL ELEVATION
EREF.M        654.558              : kb           - ELEVATION OF DEPTH REFERENCE
DATM.M        651.51               : datum        - DATUM ELEVATION
TDD .M        624.23               : tdd          - TOTAL DEPTH DRILLER
RUN .         ONE                  : Run          - RUN NUMBER
ENG .         KING                 : Engineer     - RECORDING ENGINEER
WIT .         COMMELLY             : Witness      - WITNESSED BY
BASE.         MEDICINE HAT         : Branch       - HOME BASE OF LOGGING UNIT
MUD .         GEL CHEM             : Mud_type     - MUD TYPE
MATR.         SANDSTONE            : Logunit      - NEUTRON MATRIX
TMAX.C        20.5556              : BHT          - MAXIMUM RECORDED TEMPERATURE
BHTD.M        624.84               : BHTDEP       - MAXIMUM RECORDED TEMPERATURE
RMT .C        15                   : MDTP         - TEMPERATURE OF MUD
MUDD.KG/M     1176                 : MWT          - MUD DENSITY
NEUT.         1                    : NEUTRON      - NEUTRON TYPE
RESI.         0                    : RESIST       - RESISTIVITY TYPE
RM  .OHMM     3.4                  : RM           - RESISTIVITY OF MUD
RMC .OHMM     0                    : RMC          - RESISTIVITY OF MUD CAKE
RMF .OHMM     2.4                  : RMF          - RESISTIVITY OF MUD FILTRATE
SUFT.C        -17.7778             : SUFT         - SURFACE TEMPERATURE
~A  DEPTH     RESD     PHIN     PHID       GR      CAL
  359.664    2.469    0.578    0.213  132.706  172.124
  359.914    2.536    0.595    0.210  128.859  173.163
  360.164    2.591    0.601    0.207  135.788  176.625
  360.414    2.624    0.597    0.205  147.217  175.976
  360.664    2.639    0.589    0.212  147.262  173.531
  360.914    2.665    0.552    0.205  149.102  172.568
  361.164    2.663    0.549    0.202  145.848  171.391
  361.414    2.656    0.555    0.206  147.394  168.840
  361.664    2.613    0.512    0.208  144.146  167.562
  361.914    2.589    0.539    0.210  141.497  167.332
  362.164    2.605    0.563    0.215  135.549  166.999
  362.414    2.630    0.573    0.223  134.695  166.352
  362.664    2.645    0.557    0.221  129.950  165.598
  362.914    2.654    0.534    0.214  121.309  164.419
  363.164    2.693    0.511    0.205  115.666  164.088
  363.414    2.758    0.508    0.198  110.622  164.177
  363.664    2.790    0.467    0.147  115.156  164.054
  363.914    2.806    0.455    0.191  122.993  163.721
  364.164    2.781    0.510    0.240  121.242  163.178
  364.414    2.702    0.543    0.215  121.580  163.264
  364.664    2.587    0.544    0.204  124.318  163.566
  364.914    2.456    0.538    0.217  119.274  164.288
  365.164    2.351    0.535    0.227  119.916  166.483
  365.414    2.293    0.552    0.238  121.762  166.782
  365.664    2.318    0.568    0.253  117.012  165.289
  365.914    2.423    0.583    0.265  111.070  163.163
  366.164    2.724    0.569    0.289   96.442  161.776
  366.414    3.315    0.493    0.273   89.601  161.128
  366.664    4.420    0.430    0.298   85.150  160.477
  366.914    5.411    0.415    0.309   84.901  159.722
  367.164    6.499    0.432    0.311   89.141  159.388
  367.414    6.824    0.441    0.305   89.778  159.372
  367.664    6.239    0.440    0.293   87.428  159.462
  367.914    5.840    0.449    0.282   86.580  159.654
  368.164    5.482    0.469    0.266   85.726  159.533
  368.414    5.353    0.478    0.251   83.370  159.410
  368.664    5.539    0.475    0.241   80.726  159.818
  368.914    5.888    0.465    0.229   80.166  160.116
  369.164    6.448    0.450    0.214   80.211  160.205
  369.414    6.748    0.418    0.246   84.146  159.867
  369.664    6.731    0.425    0.298   87.488  159.429
  369.914    6.415    0.450    0.292   88.730  159.204
  370.164    6.073    0.476    0.280   92.072  159.083
  370.414    5.635    0.470    0.265   96.002  158.645
  370.664    5.333    0.495    0.254  103.236  158.839
  370.914    5.025    0.505    0.240  112.864  159.245
  371.164    4.684    0.493    0.241  119.194  159.859
  371.414    4.318    0.459    0.242  125.529  160.897
  371.664    3.863    0.459    0.233  137.546  164.045
  371.914    3.538    0.494    0.212  140.589  168.350
  372.164    3.757    0.506    0.212  134.941  169.703
  372.414    4.155    0.504    0.225  122.114  167.368
  372.664    4.593    0.486    0.238  100.297  165.031
  372.914    4.918    0.452    0.257   85.675  163.012
  373.164    5.218    0.426    0.279   80.625  160.990
  373.414    5.120    0.409    0.301   86.362  160.235
  373.664    4.803    0.439    0.313   99.282  159.796
  373.914    4.795    0.514    0.295  114.598  159.570
  374.164    5.013    0.480    0.262  106.555  159.238
  374.414    5.305    0.486    0.225  100.917  159.537
  374.664    5.557    0.499    0.205  103.650  160.257
  374.914    5.761    0.475    0.191  104.897  160.661
  375.164    5.898    0.431    0.206   96.854  160.857
  375.414    5.987    0.444    0.203   84.925  160.841
  375.664    5.922    0.441    0.221   73.590  160.400
  375.914    5.922    0.405    0.299   69.144  159.960
  376.164    6.002    0.418    0.296   73.385  159.419
  376.414    6.067    0.414    0.293   77.913  158.876
  376.664    6.084    0.405    0.292   85.446  158.438
  376.914    6.050    0.420    0.298   94.775  158.209
  377.164    5.962    0.436    0.278  109.497  158.192
  377.414    5.969    0.470    0.264  103.843  158.174
  377.664    6.196    0.474    0.223  102.091  158.155
  377.914    6.537    0.434    0.205  102.745  157.823
  378.164    6.674    0.393    0.201   97.097  157.385
  378.414    6.617    0.418    0.189   98.034  157.054
  378.664    6.366    0.442    0.209  108.260  157.037
  378.914    6.008    0.433    0.233  115.494  157.337
  379.164    5.544    0.436    0.217  120.327  157.214
  379.414    5.293    0.454    0.210  122.766  156.881
  379.664    5.301    0.479    0.225  111.436  156.126
  379.914    5.569    0.482    0.231  104.590  155.056
  380.164    5.861    0.465    0.238   97.750  154.406
  380.414    6.071    0.443    0.242   88.815  155.021
  380.664    6.202    0.408    0.244   89.159  157.325
  380.914    6.225    0.418    0.250   90.710  160.886
  381.164    6.233    0.435    0.258   92.551  162.142
  381.414    6.233    0.434    0.261   95.278  162.652
  381.664    6.249    0.424    0.259  102.811  162.423
  381.914    6.289    0.418    0.249  113.636  162.197
  382.164    6.362    0.466    0.229  122.959  161.969
  382.414    6.428    0.481    0.210  129.600  164.694
  382.664    6.491    0.476    0.218  127.554  164.572
  382.914    6.654    0.446    0.221  126.096  163.183
  383.164    6.840    0.441    0.229  126.434  164.430
  383.414    6.994    0.443    0.245  121.091  164.942
  383.664    7.107    0.434    0.217  122.332  163.556
  383.914    7.238    0.401    0.204  112.194  162.063
  384.164    7.261    0.384    0.198  100.864  161.519
  384.414    7.131    0.360    0.211   94.024  160.447
  384.664    6.888    0.359    0.227   87.478  159.904
  384.914    6.684    0.366    0.243   75.244  159.570
  385.164    6.546    0.323    0.259   60.621  158.816
  385.414    6.456    0.307    0.284   48.089  159.010
  385.664    6.350    0.308    0.295   46.343  160.786
  385.914    6.229    0.308    0.293   44.591  161.401
  386.164    6.131    0.274    0.290   44.630  160.646
  386.414    6.041    0.281    0.292   45.871  160.208
  386.664    5.959    0.298    0.301   48.615  159.872
  386.914    5.935    0.315    0.306   52.251  159.856
  387.164    5.919    0.352    0.303   55.887  160.262
  387.414    5.926    0.410    0.294   57.727  160.879
  387.664    5.950    0.408    0.289   50.288  161.494
  387.914    5.942    0.359    0.296   47.040  161.688
  388.164    5.934    0.305    0.299   47.084  162.409
  388.414    5.917    0.331    0.291   42.639  163.447
  388.664    5.876    0.323    0.289   42.096  163.324
  388.914    5.851    0.303    0.289   46.319  162.571
  389.164    5.802    0.240    0.293   54.750  161.919
  389.414    5.721    0.279    0.296   61.379  161.587
  389.664    5.632    0.334    0.295   69.810  161.466
  389.914    5.534    0.356    0.272   84.826  162.291
  390.164    5.509    0.377    0.250  111.815  163.961
  390.414    5.460    0.409    0.200  121.742  164.789
  390.664    5.428    0.454    0.203  128.976  163.929
  390.914    5.338    0.491    0.205  131.420  162.751
  391.164    5.102    0.500    0.179  129.369  161.681
  391.414    4.590    0.472    0.188  131.509  161.030
  391.664    3.908    0.489    0.192  141.131  161.332
  391.914    3.404    0.524    0.187  147.162  164.265
  392.164    3.088    0.573    0.110  140.920  165.621
  392.414    2.924    0.543    0.123  134.679  166.339
  392.664    2.778    0.541    0.128  131.137  166.957
  392.914    2.592    0.556    0.120  156.025  166.836
  393.164    2.477    0.537    0.095  157.571  167.030
  393.414    2.371    0.510    0.142  158.214  171.440
  393.664    2.378    0.533    0.185  162.454  172.899
  393.914    2.508    0.550    0.187  158.602  170.351
  394.164    2.801    0.591    0.191  157.150  168.544
  394.414    3.149    0.590    0.215  153.901  168.527
  394.664    3.563    0.579    0.215  149.151  169.144
  394.914    4.091    0.558    0.209  144.705  169.653
  395.164    4.513    0.537    0.216  146.246  170.270
  395.414    4.903    0.503    0.219  148.391  170.252
  395.664    5.162    0.485    0.211  142.743  170.551
  395.914    5.389    0.515    0.205  132.311  169.059
