~VERSION INFORMATION
 VERS.                 2.0:   CWLS LOG ASCII STANDARD -VERSION 2.0
 WRAP.                  NO:   ONE LINE PER DEPTH STEP
~WELL INFORMATION BLOCK
#MNEM.UNIT           DATA                    DESCRIPTION OF MNEMONIC
#---------    -------------------            -------------------------------
# Generated from Intellog Unique Number	CW_79_81/WELL/3696
WELL.         EAGLE RESOURCES LTD.           : Well_name    - WELL
LOC .         00/15-23-079-22W4/0            : Location     - LOCATION
UWI .         00/15-23-079-22W4/0            : Uwi          - UNIQUE WELL ID
ENTR.         JOETTE                         : Entered      - ENTERED BY
SRVC.         COMPUTALOG                     : Scn          - SERVICE COMPANY
DATE.         08-26-92                       : Date         - LOG DATE
STRT.M        175                            : top_depth    - START DEPTH
STOP.M        450                            : bot_depth    - STOP DEPTH
STEP.M        0.25                           : increment    - STEP LENGTH
 NULL. -999.2500:NULL Value
~CURVE INFORMATION BLOCK
#MNEM UNIT       ERCB CURVE CODE    CURVE DESCRIPTION
#-----------   ------------------   ----------------------------------
DEPT.M        00 001 00 00         : DEPTH        - DEPTH
NPHI.V/V      00 330 00 00         : PHIN         - NEUTRON POROSITY (SANDSTONE)
GR  .API      00 310 00 00         : GR           - GAMMA RAY
DPHI.V/V      00 890 00 00         : PHID         - DENSITY POROSITY (SANDSTONE)
ILD .OHMM     00 120 00 00         : RESD         - DEEP RESISTIVITY (DIL)
~PARAMETER INFORMATION
#MNEM.UNIT           DATA             DESCRIPTION OF MNEMONIC
#---------         -----------     ------------------------------
GL  .M        575.8                : gl           - GROUND LEVEL ELEVATION
EREF.M        579.42               : kb           - ELEVATION OF DEPTH REFERENCE
DATM.M        579.42               : datum        - DATUM ELEVATION
TDD .M        449                  : tdd          - TOTAL DEPTH DRILLER
RUN .         ONE                  : Run          - RUN NUMBER
ENG .         BILL                 : Engineer     - RECORDING ENGINEER
WIT .         JIM                  : Witness      - WITNESSED BY
MUD .         GEL                  : Mud_type     - MUD TYPE
MATR.         SANDSTONE            : Logunit      - NEUTRON MATRIX
TMAX.C        22                   : BHT          - MAXIMUM RECORDED TEMPERATURE
BHTD.M        449                  : BHTDEP       - MAXIMUM RECORDED TEMPERATURE
MATR.         1                    : LOGUNIT      - NEUTRON MATRIX
RMT .C        20                   : MDTP         - TEMPERATURE OF MUD
NEUT.         1                    : NEUTRON      - NEUTRON TYPE
RESI.         0                    : RESIST       - RESISTIVITY TYPE
RMC .OHMM     3.1                  : RMC          - RESISTIVITY OF MUD CAKE
RMF .OHMM     4.5                  : RMF          - RESISTIVITY OF MUD FILTRATE
SUFT.C        15                   : SUFT         - SURFACE TEMPERATURE
~A  DEPTH     PHIN       GR     PHID     RESD
# ...
  392.500    0.318   89.892    0.101   21.274
  392.750    0.328   91.740    0.095   24.259
  393.000    0.348   92.378    0.080   26.652
  393.250    0.355   91.812    0.144   28.750
  393.500    0.362   94.872    0.182   28.780
  393.750    0.370   97.317    0.190   28.287
  394.000    0.380   99.779    0.184   27.788
  394.250    0.383   97.995    0.174   27.810
  394.500    0.379   96.202    0.157   26.836
  394.750    0.371   90.785    0.081   26.356
  395.000    0.380   84.763    0.129   25.897
  395.250    0.383   81.162    0.156   24.984
  395.500    0.387   88.459    0.184   24.091
  395.750    0.391   94.554    0.180   22.387
  396.000    0.394   97.605    0.181   20.044
  396.250    0.394  102.481    0.188   16.971
  396.500    0.363  106.145    0.205   16.369
  396.750    0.328  103.150    0.234   17.983
  397.000    0.313   79.570    0.265   20.507
  397.250    0.291   73.547    0.279   26.152
  397.500    0.287   67.524    0.291   39.421
  397.750    0.290   60.897    0.304   50.261
  398.000    0.293   57.304    0.314   64.081
  398.250    0.299   56.117    0.327   88.037
  398.500    0.305   53.130    0.339  130.258
  398.750    0.317   48.915    0.281  148.533
  399.000    0.332   43.490    0.281  215.716
  399.250    0.340   38.081    0.275  236.997
  399.500    0.348   35.691    0.272  319.593
  399.750    0.339   34.512    0.275  481.746
  400.000    0.332   34.536    0.282  925.109
  400.250    0.338   33.971    0.278 1075.000
  400.500    0.335   34.003    0.275  944.480
  400.750    0.338   36.465    0.278  664.121
  401.000    0.346   39.524    0.274  594.288
  401.250    0.360   41.978    0.271  484.816
  401.500    0.370   43.826    0.269  347.214
  401.750    0.381   45.069    0.268  310.869
  402.000    0.383   45.706    0.271  268.162
  402.250    0.383   46.344    0.273  231.322
  402.500    0.387   48.192    0.284  203.290
  402.750    0.393   49.427    0.281  182.010
  403.000    0.398   51.889    0.276  169.136
  403.250    0.395   53.124    0.270  154.275
  403.500    0.388   53.156    0.263  138.163
  403.750    0.385   55.012    0.257  125.956
  404.000    0.378   56.860    0.248  106.650
  404.250    0.367   59.314    0.241   82.281
  404.500    0.377   61.768    0.181   65.887
  404.750    0.385   65.432    0.121   50.832
  405.000    0.391   75.757    0.098   37.089
  405.250    0.396   79.430    0.111   26.555
  405.500    0.400   90.368    0.135   21.264
  405.750    0.393   93.419    0.161   16.103
  406.000    0.370  100.111    0.180   13.137
  406.250    0.362  104.381    0.206   12.670
  406.500    0.342  105.632    0.221   12.922
  406.750    0.319  102.023    0.220   13.682
  407.000    0.309   96.001    0.176   14.758
  407.250    0.296   80.291    0.134   15.907
  407.500    0.291   62.151    0.121   21.050
  407.750    0.334   62.183    0.136   40.422
  408.000    0.365   69.489    0.147   42.788
  408.250    0.386   85.262    0.159   28.980
  408.500    0.385   98.614    0.162   19.997
  408.750    0.385  108.947    0.162   18.235
  409.000    0.389  109.584    0.165   14.605
  409.250    0.375  103.562    0.181   14.087
  409.500    0.346   89.055    0.232   14.367
  409.750    0.339   83.032    0.299   15.497
  410.000    0.313   77.623    0.301   16.093
  410.250    0.283   72.198    0.294   17.355
  410.500    0.245   52.856    0.284   20.167
  410.750    0.261   51.677    0.273   23.868
  411.000    0.288   53.525    0.265   40.982
  411.250    0.303   55.987    0.255   52.251
  411.500    0.314   56.617    0.244   61.857
  411.750    0.327   57.270    0.217   67.960
  412.000    0.325   57.294    0.206   71.937
  412.250    0.320   57.318    0.179   68.122
  412.500    0.321   57.963    0.168   62.120
  412.750    0.328   59.214    0.168   55.617
  413.000    0.343   61.046    0.168   47.092
  413.250    0.355   64.711    0.167   39.864
  413.500    0.354   70.200    0.160   30.188
  413.750    0.351   76.287    0.157   26.530
  414.000    0.351   86.006    0.160   22.885
  414.250    0.355   90.881    0.155   17.988
  414.500    0.361   92.124    0.147   14.138
  414.750    0.403   88.531    0.155   11.971
  415.000    0.408   86.739    0.159   10.518
  415.250    0.421   86.166    0.158    9.243
  415.500    0.417   89.225    0.163    8.592
  415.750    0.401   97.128    0.172    8.444
  416.000    0.387  102.011    0.180    8.771
  416.250    0.372   90.540    0.187    9.111
  416.500    0.364   79.068    0.187   10.590
  416.750    0.355   74.854    0.176   12.076
  417.000    0.358   45.824    0.149   13.770
  417.250    0.374   36.161    0.142   15.125
  417.500    0.479   32.560    0.234   16.311
  417.750    0.480   30.171    0.377   17.920
  418.000    0.386   38.081    0.317   19.325
  418.250    0.327   47.800    0.278   21.231
  418.500    0.297   52.071    0.264   23.326
  418.750    0.298   40.599    0.269   26.598
  419.000    0.346   29.733    0.275   33.921
  419.250    0.382   29.159    0.282   44.888
  419.500    0.462   34.043    0.466   58.305
  419.750    0.485   35.891    0.419   54.181
  420.000    0.501   39.556    0.328   35.356
  420.250    0.498   45.635    0.252   24.855
  420.500    0.470   88.056    0.216   20.271
  420.750    0.464   98.381    0.240   14.790
  421.000    0.440  103.870    0.253   11.843
  421.250    0.434  101.496    0.266   10.408
  421.500    0.423  100.309    0.270   10.422
  421.750    0.414   98.532    0.261   10.826
  422.000    0.411   96.135    0.263   11.248
  422.250    0.405   92.518    0.273   12.357
  422.500    0.396   73.781    0.293   14.356
  422.750    0.381   81.684    0.297   20.470
  423.000    0.352   80.505    0.303   22.496
  423.250    0.362   70.244    0.303   23.806
  423.500    0.375   61.194    0.298   26.154
  423.750    0.379   54.566    0.296   29.824
  424.000    0.386   48.544    0.296   35.298
  424.250    0.391   44.338    0.330   52.226
  424.500    0.397   36.499    0.329   81.730
  424.750    0.395   37.742    0.318   93.221
  425.000    0.394   50.504    0.307   81.903
  425.250    0.395   51.731    0.298   73.330
  425.500    0.392   57.825    0.300   63.273
  425.750    0.385   61.490    0.304   58.781
  426.000    0.387   65.163    0.303   53.617
  426.250    0.393   59.738    0.295   50.760
  426.500    0.387   56.129    0.284   50.813
  426.750    0.374   52.536    0.276   51.836
  427.000    0.346   51.963    0.268   53.858
  427.250    0.331   47.749    0.264   54.913
  427.500    0.328   36.277    0.270   58.142
  427.750    0.357   38.125    0.253   60.395
  428.000    0.363   44.212    0.281   59.360
  428.250    0.359   53.334    0.284   56.182
  428.500    0.353   66.685    0.281   53.217
  428.750    0.360   58.847    0.270   53.245
  429.000    0.380   58.281    0.260   50.408
  429.250    0.385   60.121    0.254   46.842
  429.500    0.441   63.181    0.343   41.188
  429.750    0.447   75.927    0.297   39.704
  430.000    0.420   78.994    0.266   33.618
  430.250    0.412   88.722    0.229   29.544
  430.500    0.385   91.773    0.227   25.009
  430.750    0.362   94.234    0.222   20.026
  431.000    0.336   96.075    0.149   17.275
  431.250    0.321   99.134    0.135   16.053
  431.500    0.317   84.635    0.136   15.774
  431.750    0.315   85.281    0.136   15.791
  432.000    0.311   87.726    0.132   15.812
  432.250    0.305   90.180    0.131   15.833
  432.500    0.295   92.028    0.138   16.143
  432.750    0.288   95.693    0.150   16.160
  433.000    0.292   99.358    0.162   16.181
  433.250    0.301  104.257    0.169   16.190
  433.500    0.312  105.492    0.167   15.619
  433.750    0.341  106.727    0.162   15.065
  434.000    0.359  111.005    0.156   14.530
  434.250    0.369  115.267    0.154   13.759
  434.500    0.378  120.143    0.153   13.267
  434.750    0.381  126.835    0.148   12.793
  435.000    0.387  138.984    0.147   12.111
  435.250    0.392  142.043    0.147   11.257
  435.500    0.396  139.056    0.147   11.062
  435.750    0.385  137.869    0.152   10.669
