~VERSION INFORMATION
 VERS.                 2.0:   CWLS LOG ASCII STANDARD -VERSION 2.0
 WRAP.                  NO:   ONE LINE PER DEPTH STEP
~WELL INFORMATION BLOCK
#MNEM.UNIT           DATA                    DESCRIPTION OF MNEMONIC
#---------    -------------------            -------------------------------
# Generated from Intellog Unique Number	CS_67_68/WELL/822
WELL.         ESSO RESOURCES CANADA LTD      : Well_name    - WELL
LOC .         00/11-19-068-06W4/0            : Location     - LOCATION
UWI .         00/11-19-068-06W4/0            : Uwi          - UNIQUE WELL ID
ENTR.         SP                             : Entered      - ENTERED BY
SRVC.         SCHLUMBERGER                   : Scn          - SERVICE COMPANY
STRT.M        330                            : top_depth    - START DEPTH
STOP.M        550                            : bot_depth    - STOP DEPTH
STEP.M        0.25                           : increment    - STEP LENGTH
 NULL. -999.2500:NULL Value
~CURVE INFORMATION BLOCK
#MNEM UNIT       ERCB CURVE CODE    CURVE DESCRIPTION
#-----------   ------------------   ----------------------------------
DEPT.M        00 001 00 00         : DEPTH        - DEPTH
ILD .OHMM     00 120 00 00         : RESD         - DEEP RESISTIVITY (DIL)
DPHI.V/V      00 890 00 00         : PHID         - DENSITY POROSITY (LIMESTONE)
NPHI.V/V      00 330 00 00         : PHIN         - NEUTRON POROSITY (LIMESTONE)
GR  .API      00 310 00 00         : GR           - GAMMA RAY
~PARAMETER INFORMATION
#MNEM.UNIT           DATA             DESCRIPTION OF MNEMONIC
#---------         -----------     ------------------------------
GL  .M        668.73               : gl           - GROUND LEVEL ELEVATION
EREF.M        672                  : kb           - ELEVATION OF DEPTH REFERENCE
DATM.M        672.6                : datum        - DATUM ELEVATION
TDD .M        557                  : tdd          - TOTAL DEPTH DRILLER
RUN .         ONE                  : Run          - RUN NUMBER
ENG .         BILL                 : Engineer     - RECORDING ENGINEER
WIT .         JIM                  : Witness      - WITNESSED BY
MUD .         GEL                  : Mud_type     - MUD TYPE
MATR.         LIMESTONE            : Logunit      - NEUTRON MATRIX
TMAX.C        28                   : BHT          - MAXIMUM RECORDED TEMPERATURE
BHTD.M        557                  : BHTDEP       - MAXIMUM RECORDED TEMPERATURE
MATR.         1                    : LOGUNIT      - NEUTRON MATRIX
RMT .C        25                   : MDTP         - TEMPERATURE OF MUD
NEUT.         1                    : NEUTRON      - NEUTRON TYPE
RESI.         0                    : RESIST       - RESISTIVITY TYPE
RMC .OHMM     0.25                 : RMC          - RESISTIVITY OF MUD CAKE
RMF .OHMM     0.25                 : RMF          - RESISTIVITY OF MUD FILTRATE
SUFT.C        15                   : SUFT         - SURFACE TEMPERATURE
~A  DEPTH     RESD     PHID     PHIN       GR
  330.000    2.621    0.293    0.525   91.601
  330.250    2.712    0.277    0.528   90.632
  330.500    2.672    0.263    0.505   89.660
  330.750    2.628    0.250    0.503   88.562
  331.000    2.638    0.251    0.526   87.907
  331.250    2.705    0.269    0.553   90.621
  331.500    2.809    0.284    0.553   91.403
  331.750    2.924    0.276    0.526   88.007
  332.000    3.014    0.269    0.501   86.035
  332.250    3.078    0.272    0.490   87.126
  332.500    3.131    0.277    0.499   87.906
  332.750    3.192    0.281    0.508   88.997
  333.000    3.115    0.270    0.495   95.206
  333.250    3.046    0.262    0.512   95.113
  333.500    3.012    0.257    0.529   95.706
  333.750    2.934    0.255    0.542   97.112
  334.000    2.880    0.262    0.560   98.641
  334.250    2.826    0.277    0.569  100.040
  334.500    2.806    0.291    0.557  100.818
  334.750    2.812    0.288    0.533   98.977
  335.000    2.871    0.276    0.524   98.885
  335.250    2.971    0.271    0.537  100.163
  335.500    3.098    0.270    0.556   95.763
  335.750    3.212    0.274    0.567   90.117
  336.000    3.274    0.283    0.551   88.966
  336.250    3.274    0.285    0.493   90.990
  336.500    3.190    0.282    0.486   93.708
  336.750    2.986    0.282    0.500   94.234
  337.000    2.801    0.271    0.513   92.206
  337.250    2.607    0.268    0.518   90.489
  337.500    2.507    0.283    0.526   90.707
  337.750    2.541    0.293    0.538   84.313
  338.000    2.684    0.281    0.548   70.560
  338.250    3.001    0.268    0.404   61.480
  338.500    3.538    0.276    0.373   55.768
  338.750    4.187    0.289    0.400   50.058
  339.000    4.673    0.298    0.429   47.220
  339.250    5.147    0.302    0.444   52.123
  339.500    5.306    0.307    0.431   60.447
  339.750    5.277    0.296    0.411   69.779
  340.000    5.140    0.275    0.395   75.670
  340.250    5.074    0.260    0.383   81.817
  340.500    5.143    0.249    0.393   85.776
  340.750    5.252    0.256    0.402   84.184
  341.000    5.353    0.256    0.409   69.802
  341.250    5.294    0.265    0.432   59.164
  341.500    5.041    0.282    0.416   54.017
  341.750    4.966    0.290    0.382   53.425
  342.000    4.921    0.283    0.381   53.586
  342.250    4.866    0.280    0.405   53.176
  342.500    4.749    0.306    0.421   48.903
  342.750    4.618    0.310    0.420   43.441
  343.000    4.532    0.303    0.378   39.730
  343.250    4.525    0.303    0.360   50.302
  343.500    4.612    0.284    0.364   69.799
  343.750    4.808    0.267    0.380   76.319
  344.000    5.090    0.254    0.390   83.151
  344.250    5.227    0.235    0.405   90.730
  344.500    5.359    0.212    0.425   93.445
  344.750    5.390    0.217    0.446   89.107
  345.000    5.473    0.223    0.425   83.840
  345.250    5.558    0.213    0.418   84.120
  345.500    5.601    0.223    0.425   88.516
  345.750    5.613    0.239    0.423   91.728
  346.000    5.488    0.257    0.429   90.636
  346.250    5.366    0.272    0.448   87.238
  346.500    5.247    0.284    0.466   83.586
  346.750    5.219    0.294    0.460   81.495
  347.000    5.220    0.302    0.459   82.842
  347.250    5.271    0.282    0.439   86.484
  347.500    5.342    0.275    0.431   92.697
  347.750    5.424    0.284    0.437   95.345
  348.000    5.540    0.280    0.408   93.255
  348.250    5.593    0.257    0.397   87.856
  348.500    5.637    0.237    0.387   84.020
  348.750    5.670    0.236    0.415   81.245
  349.000    5.650    0.235    0.430   79.089
  349.250    5.587    0.232    0.448   80.059
  349.500    5.536    0.243    0.464   82.395
  349.750    5.464    0.243    0.452   85.992
  350.000    5.394    0.239    0.423   87.885
  350.250    5.354    0.248    0.401   90.226
  350.500    5.335    0.259    0.401   92.628
  350.750    5.326    0.270    0.415   95.214
  351.000    5.327    0.281    0.429   86.886
  351.250    5.278    0.282    0.439   73.131
  351.500    5.093    0.300    0.459   63.117
  351.750    4.814    0.309    0.439   55.596
  352.000    4.645    0.317    0.428   49.950
  352.250    4.499    0.322    0.414   50.166
  352.500    4.449    0.329    0.416   56.065
  352.750    4.400    0.341    0.440   59.215
  353.000    4.359    0.346    0.452   61.998
  353.250    4.361    0.338    0.462   63.773
  353.500    4.411    0.337    0.471   66.107
  353.750    4.445    0.339    0.465   71.316
  354.000    4.505    0.324    0.454   76.215
  354.250    4.645    0.307    0.452   79.054
  354.500    4.889    0.291    0.471   81.897
  354.750    4.993    0.287    0.478   83.668
  355.000    5.098    0.279    0.459   85.133
  355.250    5.306    0.256    0.446   85.541
  355.500    5.449    0.231    0.427   82.388
  355.750    5.607    0.244    0.424   77.615
  356.000    5.759    0.156    0.428   80.765
  356.250    5.771    0.158    0.436   89.283
  356.500    5.675    0.213    0.455   93.494
  356.750    5.333    0.295    0.468   90.405
  357.000    5.078    0.330    0.485   75.024
  357.250    4.854    0.345    0.462   62.017
  357.500    4.684    0.346    0.456   46.697
  357.750    4.554    0.347    0.453   45.543
  358.000    4.411    0.339    0.440   51.377
  358.250    4.404    0.333    0.431   55.407
  358.500    4.446    0.328    0.427   57.303
  358.750    4.506    0.325    0.433   57.836
  359.000    4.602    0.323    0.438   59.738
  359.250    4.655    0.327    0.424   64.386
  359.500    4.692    0.328    0.424   69.663
  359.750    4.737    0.327    0.430   72.620
  360.000    4.801    0.321    0.427   72.025
  360.250    4.913    0.315    0.412   70.001
  360.500    4.951    0.308    0.403   68.221
  360.750    4.896    0.304    0.393   59.515
  361.000    4.742    0.306    0.389   53.993
  361.250    4.620    0.319    0.400   61.765
  361.500    4.577    0.324    0.421   66.286
  361.750    4.561    0.329    0.443   69.248
  362.000    4.579    0.307    0.421   70.277
  362.250    4.615    0.294    0.411   67.873
  362.500    4.642    0.289    0.401   66.283
  362.750    4.696    0.296    0.415   67.875
  363.000    4.706    0.298    0.419   65.162
  363.250    4.689    0.297    0.410   60.512
  363.500    4.672    0.307    0.414   57.425
  363.750    4.620    0.313    0.421   57.203
  364.000    4.587    0.317    0.419   60.171
  364.250    4.605    0.307    0.431   63.631
  364.500    4.703    0.306    0.444   66.592
  364.750    4.812    0.300    0.444   68.246
  365.000    4.960    0.296    0.437   70.835
  365.250    5.104    0.281    0.424   75.422
  365.500    5.252    0.271    0.414   79.197
  365.750    5.233    0.262    0.407   81.786
  366.000    5.146    0.259    0.418   83.872
  366.250    5.079    0.266    0.448   82.035
  366.500    5.052    0.291    0.460   77.391
  366.750    5.034    0.323    0.478   74.172
  367.000    5.035    0.339    0.459   71.455
  367.250    5.045    0.336    0.452   69.614
  367.500    5.047    0.330    0.459   72.830
  367.750    5.038    0.320    0.463   76.543
  368.000    5.058    0.314    0.458   79.003
  368.250    5.088    0.308    0.474   75.106
  368.500    5.108    0.304    0.479   73.637
  368.750    5.138    0.315    0.474   74.983
  369.000    5.188    0.309    0.479   72.644
  369.250    5.229    0.288    0.464   71.050
  369.500    5.340    0.275    0.462   71.827
  369.750    5.391    0.288    0.479   77.348
  370.000    5.382    0.301    0.491   79.999
  370.250    5.313    0.306    0.500   76.039
  370.500    5.254    0.301    0.478   81.131
  370.750    5.226    0.297    0.464   84.460
  371.000    5.276    0.301    0.453   87.485
  371.250    5.368    0.301    0.490   89.077
  371.500    5.440    0.283    0.512   89.981
  371.750    5.535    0.274    0.514   91.134
  372.000    5.588    0.271    0.522   92.101
  372.250    5.611    0.272    0.539   91.572
  372.500    5.591    0.278    0.547   90.607
  372.750    5.571    0.270    0.528   89.764
  373.000    5.572    0.266    0.512   89.353
  373.250    5.552    0.264    0.489   90.944
