~VERSION INFORMATION
 VERS.                 2.0:   CWLS LOG ASCII STANDARD -VERSION 2.0
 WRAP.                  NO:   ONE LINE PER DEPTH STEP
~WELL INFORMATION BLOCK
#MNEM.UNIT           DATA                    DESCRIPTION OF MNEMONIC
#---------    -------------------            -------------------------------
# Generated from Intellog Unique Number	CW_82_90/WELL/3445
WELL.         DOME MINK                      : Well_name    - WELL
LOC .         00/10-35-088-22W4/0            : Location     - LOCATION
UWI .         00/10-35-088-22W4/0            : Uwi          - UNIQUE WELL ID
ENTR.         MAX                            : Entered      - ENTERED BY
SRVC.         WESTERN ATLAS                  : Scn          - SERVICE COMPANY
STRT.M        50                             : top_depth    - START DEPTH
STOP.M        252                            : bot_depth    - STOP DEPTH
STEP.M        0.25                           : increment    - STEP LENGTH
 NULL. -999.2500:NULL Value
~CURVE INFORMATION BLOCK
#MNEM UNIT       ERCB CURVE CODE    CURVE DESCRIPTION
#-----------   ------------------   ----------------------------------
DEPT.M        00 001 00 00         : DEPTH        - DEPTH
ILD .OHMM     00 120 00 00         : RESD         - DEEP RESISTIVITY (DIL)
NPHI.V/V      00 330 00 00         : PHIN         - NEUTRON POROSITY (SANDSTONE)
DPHI.V/V      00 890 00 00         : PHID         - DENSITY POROSITY (SANDSTONE)
CALI.MM       00 280 01 00         : CAL          - CALIPER
GR  .API      00 310 00 00         : GR           - GAMMA RAY
~PARAMETER INFORMATION
#MNEM.UNIT           DATA             DESCRIPTION OF MNEMONIC
#---------         -----------     ------------------------------
GL  .M        516.7                : gl           - GROUND LEVEL ELEVATION
EREF.M        520                  : kb           - ELEVATION OF DEPTH REFERENCE
DATM.M        516.7                : datum        - DATUM ELEVATION
TDD .M        252                  : tdd          - TOTAL DEPTH DRILLER
RUN .         ONE                  : Run          - RUN NUMBER
ENG .         BILL                 : Engineer     - RECORDING ENGINEER
WIT .         JIM                  : Witness      - WITNESSED BY
MUD .         GEL                  : Mud_type     - MUD TYPE
MATR.         SANDSTONE            : Logunit      - NEUTRON MATRIX
TMAX.C        20                   : BHT          - MAXIMUM RECORDED TEMPERATURE
BHTD.M        252                  : BHTDEP       - MAXIMUM RECORDED TEMPERATURE
MATR.         1                    : LOGUNIT      - NEUTRON MATRIX
RMT .C        18                   : MDTP         - TEMPERATURE OF MUD
NEUT.         1                    : NEUTRON      - NEUTRON TYPE
RESI.         0                    : RESIST       - RESISTIVITY TYPE
RMC .OHMM     5.4                  : RMC          - RESISTIVITY OF MUD CAKE
RMF .OHMM     4.5                  : RMF          - RESISTIVITY OF MUD FILTRATE
SUFT.C        -15                  : SUFT         - SURFACE TEMPERATURE
~A  DEPTH     RESD     PHIN     PHID      CAL       GR
# ...
  232.500   24.959    0.364    0.238  229.715   78.278
  232.750   21.544    0.365    0.246  229.718   83.602
  233.000   17.922    0.350    0.250  229.722   90.108
  233.250   14.908    0.344    0.248  229.233   98.093
  233.500   13.855    0.337    0.232  229.237  100.165
  233.750   14.386    0.335    0.211  228.749   95.436
  234.000   15.077    0.335    0.195  228.751   93.074
  234.250   14.948    0.342    0.194  228.755   93.372
  234.500   13.265    0.391    0.226  228.760   92.192
  234.750   11.664    0.411    0.243  229.749   94.855
  235.000   10.447    0.425    0.249  230.245   97.813
  235.250    9.017    0.431    0.247  230.249  100.772
  235.500    8.381    0.406    0.237  230.253  102.252
  235.750    8.463    0.383    0.205  230.256  104.029
  236.000    9.120    0.341    0.176  230.261  103.735
  236.250    9.824    0.334    0.158  230.264  101.668
  236.500   11.292    0.341    0.195  230.761   97.531
  236.750   13.592    0.372    0.242  230.765   87.482
  237.000   14.509    0.384    0.259  230.768   89.258
  237.250   15.777    0.357    0.255  231.265   93.695
  237.500   15.499    0.351    0.241  231.761   95.176
  237.750   14.273    0.366    0.231  231.766   92.221
  238.000   13.022    0.396    0.218  231.769   94.589
  238.250   12.910    0.391    0.164  231.774   96.956
  238.500   13.281    0.383    0.127  231.284   98.732
  238.750   13.791    0.378    0.138  231.287   97.847
  239.000   14.453    0.371    0.154  230.799   93.711
  239.250   14.868    0.365    0.167  229.817   88.983
  239.500   14.879    0.357    0.192  228.836   88.985
  239.750   13.699    0.357    0.219  227.362   93.126
  240.000   12.969    0.375    0.245  227.365   95.494
  240.250   12.394    0.393    0.264  227.369   96.974
  240.500   11.840    0.395    0.275  228.358   99.637
  240.750   11.525    0.382    0.274  228.362  102.005
  241.000   11.113    0.354    0.246  228.366  104.077
  241.250   10.918    0.318    0.183  227.877  106.148
  241.500   10.724    0.308    0.168  226.896  106.446
  241.750   10.732    0.332    0.204  226.407  103.196
  242.000   10.838    0.346    0.223  225.917  100.538
  242.250   11.358    0.359    0.236  225.429   99.949
  242.500   11.903    0.373    0.233  225.925  102.021
  242.750   12.588    0.383    0.215  225.929  107.640
  243.000   13.688    0.372    0.164  225.934  110.303
  243.250   15.447    0.332    0.142  226.430  110.010
  243.500   16.954    0.318    0.173  226.433  107.351
  243.750   17.279    0.327    0.211  226.437  102.919
  244.000   16.359    0.339    0.227  226.934  102.035
  244.250   15.063    0.347    0.222  227.430  103.515
  244.500   14.525    0.354    0.214  227.434  107.656
  244.750   14.536    0.353    0.205  226.945  110.319
  245.000   14.682    0.345    0.195  226.949  111.504
  245.250   14.964    0.335    0.176  226.460  112.098
  245.500   15.681    0.318    0.136  225.478  112.395
  245.750   16.284    0.308    0.092  224.004  112.102
  246.000   16.443    0.306    0.089  222.037  111.217
  246.250   16.916    0.317    0.132  219.085  110.629
  246.500   17.567    0.326    0.172  216.132  110.631
  246.750   17.417    0.345    0.223  212.194  110.929
  247.000   16.950    0.353    0.251  209.241  111.818
  247.250   16.500    0.365    0.287  202.347  111.820
  247.500   16.357    0.380    0.321  196.438  109.162
  247.750   15.921    0.387    0.313  194.964  107.981
  248.000   15.495    0.396    0.299  194.475  107.688
  248.250   14.535    0.394    0.294  194.479  109.169
  248.500   14.413    0.380    0.290  194.976  110.354
  248.750   14.963    0.374    0.290  195.964  110.947
  249.000   16.573    0.386    0.295  196.954  111.541
  249.250   18.189    0.395    0.308  197.943  113.021
  249.500   19.238    0.398    0.297  199.426  113.023
  249.750   19.253    0.397    0.289  200.907  113.026
  250.000   18.565    0.390    0.295  202.882  113.619
  250.250   17.903    0.388    0.298  204.364  114.804
  250.500   17.106    0.392    0.297  205.354  114.806
  250.750   16.651    0.395    0.292  205.357  114.513
  251.000   16.510    0.395    0.288  206.839  113.924
  251.250   16.518    0.395    0.284  208.814  113.631
  251.500   16.682    0.393    0.282  210.296  113.928
  251.750   17.006    0.390    0.279  210.792  114.522
  252.000   17.659    0.386    0.277  212.769  115.411
