~VERSION INFORMATION
 VERS.                 2.0:   CWLS LOG ASCII STANDARD -VERSION 2.0
 WRAP.                  NO:   ONE LINE PER DEPTH STEP
~WELL INFORMATION BLOCK
#MNEM.UNIT           DATA                    DESCRIPTION OF MNEMONIC
#---------    -------------------            -------------------------------
# Generated from Intellog Unique Number	CS_73_76/WELL/2207
WELL.         HOUSTON OILS LIMITED           : Well_name    - WELL
LOC .         00/11-36-074-15W4/0            : Location     - LOCATION
UWI .         00/11-36-074-15W4/0            : Uwi          - UNIQUE WELL ID
ENTR.         SP                             : Entered      - ENTERED BY
SRVC.         SCHLUMBERGER                   : Scn          - SERVICE COMPANY
STRT.M        390.144                        : top_depth    - START DEPTH
STOP.M        606.394                        : bot_depth    - STOP DEPTH
STEP.M        0.25                           : increment    - STEP LENGTH
 NULL. -999.2500:NULL Value
~CURVE INFORMATION BLOCK
#MNEM UNIT       ERCB CURVE CODE    CURVE DESCRIPTION
#-----------   ------------------   ----------------------------------
DEPT.M        00 001 00 00         : DEPTH        - DEPTH
GR  .API      00 310 00 00         : GR           - GAMMA RAY
DPHI.V/V      00 890 00 00         : PHID         - DENSITY POROSITY (SANDSTONE)
NPHI.V/V      00 330 00 00         : PHIN         - NEUTRON POROSITY (SANDSTONE)
ILD .OHMM     00 120 00 00         : RESD         - DEEP RESISTIVITY (DIL)
~PARAMETER INFORMATION
#MNEM.UNIT           DATA             DESCRIPTION OF MNEMONIC
#---------         -----------     ------------------------------
GL  .M        748.589              : gl           - GROUND LEVEL ELEVATION
EREF.M        751.637              : kb           - ELEVATION OF DEPTH REFERENCE
DATM.M        748.589              : datum        - DATUM ELEVATION
TDD .M        608.99               : tdd          - TOTAL DEPTH DRILLER
RUN .         ONE                  : Run          - RUN NUMBER
ENG .         BILL                 : Engineer     - RECORDING ENGINEER
WIT .         JIM                  : Witness      - WITNESSED BY
MUD .         GEL                  : Mud_type     - MUD TYPE
MATR.         SANDSTONE            : Logunit      - NEUTRON MATRIX
TMAX.C        6.66667              : BHT          - MAXIMUM RECORDED TEMPERATURE
BHTD.M        608.99               : BHTDEP       - MAXIMUM RECORDED TEMPERATURE
MATR.         1                    : LOGUNIT      - NEUTRON MATRIX
RMT .C        25                   : MDTP         - TEMPERATURE OF MUD
NEUT.         1                    : NEUTRON      - NEUTRON TYPE
RESI.         0                    : RESIST       - RESISTIVITY TYPE
RMC .OHMM     0.25                 : RMC          - RESISTIVITY OF MUD CAKE
RMF .OHMM     0.25                 : RMF          - RESISTIVITY OF MUD FILTRATE
SUFT.C        15                   : SUFT         - SURFACE TEMPERATURE
~A  DEPTH       GR     PHID     PHIN     RESD
# ...
  564.144   88.552    0.101    0.449    5.203
  564.394   90.333    0.071    0.469    5.029
  564.644   95.115    0.167    0.495    4.719
  564.894   96.469    0.179    0.494    4.663
  565.144   95.741    0.173    0.481    4.622
  565.394   95.252    0.177    0.482    4.779
  565.644   94.288    0.154    0.519    5.120
  565.894   93.365    0.157    0.535    5.456
  566.144   88.227    0.111    0.499    5.528
  566.394   82.955    0.072    0.404    5.493
  566.644   82.999    0.054    0.360    5.434
  566.894   87.197    0.120    0.462    5.342
  567.144   92.733    0.149    0.468    5.226
  567.394   95.878    0.151    0.476    5.236
  567.644   97.120    0.151    0.487    5.142
  567.894   93.340    0.153    0.481    5.031
  568.144   89.444    0.144    0.456    5.045
  568.394   89.087    0.145    0.443    4.996
  568.644   90.643    0.151    0.447    5.049
  568.894   90.716    0.137    0.451    5.200
  569.144   88.227    0.134    0.453    5.410
  569.394   85.022    0.125    0.455    5.625
  569.644   85.607    0.115    0.458    5.691
  569.894   88.827    0.121    0.437    5.698
  570.144   87.957    0.096    0.417    5.816
  570.394   87.662    0.121    0.429    5.869
  570.644   91.547    0.165    0.441    6.204
  570.894   90.621    0.148    0.455    6.717
  571.144   85.784    0.130    0.459    6.966
  571.394   82.035    0.105    0.410    7.520
  571.644   78.682    0.086    0.373    7.616
  571.894   83.884    0.078    0.387    7.550
  572.144   89.156    0.114    0.423    7.297
  572.394   94.642    0.134    0.452    6.998
  572.644   97.861    0.118    0.470    6.384
  572.894   98.789    0.111    0.460    5.971
  573.144   94.836    0.099    0.457    5.787
  573.394   96.712    0.085    0.487    6.128
  573.644   98.356    0.178    0.501    6.572
  573.894   93.698    0.199    0.437    7.118
  574.144   94.523    0.199    0.402    7.325
  574.394  105.989    0.183    0.417    7.315
  574.644  111.669    0.172    0.432    7.003
  574.894  117.556    0.163    0.448    6.891
  575.144  115.559    0.158    0.461    7.500
  575.394  109.955    0.174    0.447    8.532
  575.644   99.688    0.180    0.404   10.144
  575.894   85.341    0.192    0.367   12.034
  576.144   79.606    0.171    0.353   13.100
  576.394   77.795    0.132    0.364   13.589
  576.644   81.417    0.156    0.382   13.404
  576.894   86.171    0.183    0.393   12.998
  577.144   90.766    0.204    0.402   12.601
  577.394   93.409    0.192    0.407   12.630
  577.644   92.488    0.214    0.399   12.395
  577.894   93.171    0.206    0.389   12.578
  578.144   90.547    0.193    0.381   12.972
  578.394   87.837    0.187    0.375   13.071
  578.644   83.418    0.183    0.369   13.296
  578.894   78.066    0.183    0.362   12.920
  579.144   85.634    0.169    0.359   12.245
  579.394   95.006    0.162    0.368   11.332
  579.644   99.904    0.179    0.372   10.746
  579.894  104.634    0.175    0.376   10.231
  580.144  108.313    0.159    0.381    9.937
  580.394  108.400    0.150    0.383    9.675
  580.644  106.418    0.139    0.373    9.675
  580.894  103.926    0.139    0.367   10.287
  581.144  100.497    0.164    0.368   11.040
  581.394   94.944    0.180    0.365   13.064
  581.644   88.082    0.203    0.350   15.210
  581.894   82.174    0.229    0.341   18.976
  582.144   79.214    0.241    0.343   21.592
  582.394   77.281    0.235    0.352   25.084
  582.644   74.548    0.265    0.363   30.486
  582.894   67.474    0.260    0.372   36.544
  583.144   62.121    0.255    0.388   38.454
  583.394   60.610    0.272    0.403   34.693
  583.644   62.372    0.260    0.361   30.570
  583.894   67.450    0.248    0.363   27.089
  584.144   73.472    0.235    0.369   22.974
  584.394   77.779    0.197    0.366   17.585
  584.644   81.035    0.174    0.380   13.759
  584.894   85.585    0.169    0.524   11.619
  585.144   91.678    0.148    0.548    9.320
  585.394  100.847    0.133    0.520    7.870
  585.644  105.398    0.158    0.429    6.632
  585.894  100.529    0.162    0.411    6.229
  586.144   95.655    0.171    0.418    7.056
  586.394   92.351    0.184    0.416    8.494
  586.644   90.618    0.206    0.412    9.776
  586.894   85.814    0.204    0.403   10.467
  587.144   85.725    0.177    0.391   10.671
  587.394   90.429    0.139    0.378   10.627
  587.644   96.065    0.139    0.368   10.278
  587.894   97.206    0.125    0.381   10.182
  588.144   94.544    0.113    0.384    9.859
  588.394   95.530    0.109    0.394    9.574
  588.644   98.943    0.169    0.398    9.026
  588.894  100.036    0.167    0.391    8.496
  589.144   99.754    0.164    0.395    8.116
  589.394  102.712    0.149    0.408    7.704
  589.644  106.038    0.132    0.417    7.489
  589.894  103.619    0.130    0.411    7.275
  590.144  101.494    0.121    0.385    7.139
  590.394  100.171    0.119    0.379    7.352
  590.644   99.434    0.129    0.382    7.200
  590.894  102.685    0.135    0.376    7.222
  591.144  108.274    0.147    0.383    7.448
  591.394  110.951    0.154    0.396    7.648
  591.644  107.457    0.167    0.405    8.236
  591.894  104.773    0.179    0.399    8.556
  592.144  102.231    0.163    0.396    9.393
  592.394  100.674    0.174    0.391    9.822
  592.644   94.634    0.175    0.382   10.265
  592.894   88.190    0.191    0.381   10.404
  593.144   81.198    0.209    0.402   10.534
  593.394   78.528    0.243    0.438   10.724
  593.644   77.051    0.253    0.479   10.959
  593.894   74.144    0.242    0.433   10.552
  594.144   71.709    0.225    0.405   10.143
  594.394   72.349    0.207    0.379    9.533
  594.644   73.846    0.201    0.386    8.825
  594.894   74.810    0.077    0.369    8.279
  595.144   77.230    0.063    0.352    7.958
  595.394   80.486    0.070    0.365    7.704
  595.644   84.824    0.143    0.379    7.646
  595.894   90.267    0.147    0.374    7.255
  596.144   97.351    0.120    0.360    6.929
  596.394  101.409    0.139    0.354    6.411
  596.644  106.195    0.127    0.369    6.049
  596.894  108.495    0.133    0.400    5.674
  597.144  111.694    0.160    0.398    5.593
  597.394  117.297    0.169    0.377    5.964
  597.644  119.007    0.141    0.359    6.429
  597.894  113.093    0.126    0.345    6.762
  598.144  113.951    0.125    0.353    7.091
  598.394  115.166    0.136    0.369    6.527
  598.644  116.508    0.139    0.374    5.889
  598.894  113.954    0.117    0.378    5.496
  599.144  106.040    0.093    0.390    5.537
  599.394   99.237    0.083    0.377    5.892
  599.644   94.469    0.125    0.357    6.449
  599.894   96.691    0.163    0.341    7.078
  600.144  100.745    0.155    0.327    7.861
  600.394  105.410    0.149    0.323    7.957
  600.644  109.184    0.153    0.339    7.887
  600.894  114.316    0.129    0.380    7.879
  601.144  116.204    0.131    0.405    8.300
  601.394  117.192    0.140    0.426    9.224
  601.644  114.831    0.153    0.438   10.982
  601.894  112.132    0.177    0.430   11.380
  602.144  104.420    0.204    0.415   10.525
  602.394   95.403    0.202    0.400    9.888
  602.644   83.481    0.257    0.386    9.556
  602.894   80.326    0.271    0.371   10.124
  603.144   77.292    0.237    0.360   11.479
  603.394   75.887    0.221    0.353   13.804
  603.644   73.832    0.214    0.349   21.687
  603.894   72.754    0.171    0.344   25.055
  604.144   72.397    0.154    0.339   27.373
  604.394   71.398    0.122    0.334   27.287
  604.644   69.788    0.109    0.330   25.905
  604.894   69.580    0.122    0.326   23.813
  605.144   67.780    0.120    0.323   22.228
  605.394   64.930    0.110    0.319   22.186
  605.644   63.661    0.112    0.316   22.174
  605.894   61.658    0.088    0.310   22.163
  606.144   60.548    0.088    0.312   22.152
  606.394   59.563    0.101    0.311   22.140
