~VERSION INFORMATION
 VERS.                 2.0:   CWLS LOG ASCII STANDARD -VERSION 2.0
 WRAP.                  NO:   ONE LINE PER DEPTH STEP
~WELL INFORMATION BLOCK
#MNEM.UNIT           DATA                    DESCRIPTION OF MNEMONIC
#---------    -------------------            -------------------------------
# Generated from Intellog Unique Number	CS_77_79/WELL/3302
WELL.         MEGA ENGINEERING LTD.          : Well_name    - WELL
LOC .         00/11-15-077-11W4/0            : Location     - LOCATION
UWI .         00/11-15-077-11W4/0            : Uwi          - UNIQUE WELL ID
ENTR.         JOETTE                         : Entered      - ENTERED BY
SRVC.         SCHLUMBERGER                   : Scn          - SERVICE COMPANY
DATE.         08-26-92                       : Date         - LOG DATE
STRT.M        275                            : top_depth    - START DEPTH
STOP.M        510                            : bot_depth    - STOP DEPTH
STEP.M        0.25                           : increment    - STEP LENGTH
 NULL. -999.2500:NULL Value
~CURVE INFORMATION BLOCK
#MNEM UNIT       ERCB CURVE CODE    CURVE DESCRIPTION
#-----------   ------------------   ----------------------------------
DEPT.M        00 001 00 00         : DEPTH        - DEPTH
GR  .API      00 310 00 00         : GR           - GAMMA RAY
NPHI.V/V      00 330 00 00         : PHIN         - NEUTRON POROSITY (SANDSTONE)
DPHI.V/V      00 890 00 00         : PHID         - DENSITY POROSITY (SANDSTONE)
ILD .OHMM     00 120 00 00         : RESD         - DEEP RESISTIVITY (DIL)
~PARAMETER INFORMATION
#MNEM.UNIT           DATA             DESCRIPTION OF MNEMONIC
#---------         -----------     ------------------------------
GL  .M        679.49               : gl           - GROUND LEVEL ELEVATION
EREF.M        688.29               : kb           - ELEVATION OF DEPTH REFERENCE
DATM.M        688.29               : datum        - DATUM ELEVATION
TDD .M        521.4                : tdd          - TOTAL DEPTH DRILLER
RUN .         ONE                  : Run          - RUN NUMBER
ENG .         BILL                 : Engineer     - RECORDING ENGINEER
WIT .         JIM                  : Witness      - WITNESSED BY
MUD .         GEL                  : Mud_type     - MUD TYPE
MATR.         SANDSTONE            : Logunit      - NEUTRON MATRIX
TMAX.C        27                   : BHT          - MAXIMUM RECORDED TEMPERATURE
BHTD.M        521.4                : BHTDEP       - MAXIMUM RECORDED TEMPERATURE
MATR.         1                    : LOGUNIT      - NEUTRON MATRIX
RMT .C        12                   : MDTP         - TEMPERATURE OF MUD
NEUT.         1                    : NEUTRON      - NEUTRON TYPE
RESI.         0                    : RESIST       - RESISTIVITY TYPE
RMC .OHMM     2.4                  : RMC          - RESISTIVITY OF MUD CAKE
RMF .OHMM     3.5                  : RMF          - RESISTIVITY OF MUD FILTRATE
SUFT.C        5                    : SUFT         - SURFACE TEMPERATURE
~A  DEPTH       GR     PHIN     PHID     RESD
# ...
  362.000   83.249    0.434    0.238    3.481
  362.250   89.153    0.538    0.228    3.611
  362.500   95.645    0.464    0.221    3.611
  362.750  105.670    0.440    0.230    3.544
  363.000  102.758    0.403    0.236    3.544
  363.250  117.479    0.447    0.240    3.610
  363.500   99.865    0.441    0.241    3.815
  363.750   94.601    0.462    0.245    4.261
  364.000  103.451    0.429    0.251    4.673
  364.250  102.889    0.416    0.259    5.219
  364.500   94.686    0.436    0.283    5.515
  364.750   88.828    0.421    0.288    5.618
  365.000   80.625    0.410    0.294    5.122
  365.250   93.583    0.383    0.291    4.584
  365.500   97.730    0.413    0.289    3.606
  365.750   98.939    0.464    0.250    3.168
  366.000  105.424    0.436    0.233    3.168
  366.250  107.214    0.440    0.238    3.226
  366.500  115.469    0.455    0.237    3.286
  366.750  112.563    0.454    0.231    3.347
  367.000  112.582    0.441    0.229    3.346
  367.250  107.319    0.430    0.228    3.346
  367.500  111.459    0.437    0.232    3.346
  367.750  115.019    0.432    0.235    3.284
  368.000  112.687    0.421    0.243    3.050
  368.250  113.896    0.436    0.252    2.939
  368.500  113.334    0.471    0.270    2.631
  368.750  119.820    0.516    0.277    2.582
  369.000  110.441    0.498    0.279    2.535
  369.250   99.887    0.584    0.285    2.534
  369.500  105.791    0.568    0.293    2.629
  369.750  111.108    0.562    0.297    2.937
  370.000  115.836    0.575    0.289    3.162
  370.250  112.924    0.608    0.275    3.598
  370.500  118.834    0.544    0.265    5.015
  370.750  114.740    0.502    0.253    5.300
  371.000  119.468    0.475    0.246    6.030
  371.250   95.395    0.458    0.240    6.613
  371.500   87.192    0.435    0.260    7.664
  371.750   77.814    0.427    0.278    8.250
  372.000   69.017    0.428    0.303    8.403
  372.250   79.042    0.392    0.279    8.402
  372.500   81.419    0.381    0.270    8.248
  372.750   83.209    0.399    0.257    8.246
  373.000   77.364    0.397    0.250    8.095
  373.250   82.086    0.382    0.257    8.094
  373.500   86.815    0.391    0.272    8.093
  373.750   90.368    0.385    0.267    8.092
  374.000   83.340    0.383    0.269    8.090
  374.250   85.130    0.389    0.283    8.090
  374.500   89.277    0.390    0.290    8.240
  374.750   92.236    0.389    0.260    8.238
  375.000   89.911    0.375    0.253    8.238
  375.250   82.303    0.408    0.256    8.237
  375.500   87.612    0.443    0.256    8.236
  375.750   91.172    0.432    0.249    8.235
  376.000   90.016    0.417    0.242    8.083
  376.250   97.683    0.413    0.250    7.789
  376.500   86.542    0.433    0.262    7.369
  376.750   92.453    0.427    0.265    7.101
  377.000   86.594    0.410    0.259    6.842
  377.250   81.918    0.397    0.257    6.716
  377.500   84.883    0.424    0.259    6.716
  377.750   83.734    0.399    0.269    6.592
  378.000   89.638    0.391    0.267    6.591
  378.250   93.779    0.391    0.241    6.591
  378.500   88.522    0.406    0.235    6.590
  378.750   92.656    0.421    0.235    6.712
  379.000  103.269    0.427    0.240    6.711
  379.250   98.593    0.416    0.238    6.710
  379.500   94.505    0.406    0.229    6.709
  379.750  100.997    0.396    0.233    6.347
  380.000  102.198    0.401    0.242    6.230
  380.250   91.638    0.420    0.250    6.115
  380.500   88.725    0.432    0.239    6.229
  380.750   95.811    0.423    0.228    6.344
  381.000  111.708    0.413    0.234    6.343
  381.250  110.559    0.408    0.243    6.226
  381.500   99.417    0.398    0.252    5.677
  381.750  103.564    0.410    0.257    5.081
  382.000   95.362    0.402    0.270    4.383
  382.250   99.496    0.403    0.267    3.781
  382.500  103.636    0.415    0.265    2.813
  382.750  101.906    0.432    0.274    2.565
  383.000  100.162    0.564    0.279    2.427
  383.250  104.310    0.538    0.285    2.254
  383.500  104.329    0.469    0.292    2.253
  383.750  103.768    0.509    0.295    2.426
  384.000   94.396    0.511    0.298    2.611
  384.250   96.767    0.507    0.307    2.971
  384.500   92.685    0.508    0.275    3.381
  384.750   94.468    0.406    0.248    4.889
  385.000   86.265    0.395    0.247    5.167
  385.250   86.879    0.386    0.253    5.772
  385.500   78.089    0.380    0.275    6.568
  385.750   83.993    0.374    0.284    7.473
  386.000   76.972    0.363    0.290    8.347
  386.250   80.519    0.338    0.329    8.660
  386.500   86.429    0.334    0.336    8.820
  386.750   89.976    0.329    0.349    8.819
  387.000   84.124    0.325    0.353    8.656
  387.250   76.509    0.332    0.349    8.656
  387.500   70.070    0.338    0.338    8.655
  387.750   64.799    0.308    0.320    8.654
  388.000   71.298    0.271    0.331    8.653
  388.250   73.675    0.254    0.429    8.338
  388.500   62.527    0.283    0.435    8.337
  388.750   62.566    0.340    0.377    7.887
  389.000   58.465    0.379    0.360    7.191
  389.250   51.438    0.387    0.360    6.929
  389.500   66.165    0.385    0.363    6.677
  389.750   65.016    0.369    0.360    6.677
  390.000   69.745    0.379    0.356    6.800
  390.250   65.656    0.381    0.349    6.799
  390.500   62.750    0.370    0.351    6.798
  390.750   59.837    0.363    0.357    6.798
  391.000   60.458    0.376    0.364    6.797
  391.250   59.296    0.368    0.359    6.796
  391.500   57.565    0.368    0.348    6.795
  391.750   62.294    0.385    0.344    6.794
  392.000   59.381    0.381    0.352    6.793
  392.250   61.758    0.387    0.359    6.792
  392.500   61.785    0.417    0.363    6.792
  392.750   60.635    0.393    0.365    6.791
  393.000   59.493    0.389    0.359    6.790
  393.250   58.918    0.381    0.354    6.789
  393.500   62.477    0.371    0.352    6.789
  393.750   65.436    0.375    0.353    6.788
  394.000   62.523    0.387    0.353    6.787
  394.250   59.029    0.395    0.349    6.912
  394.500   57.286    0.393    0.352    6.912
  394.750   59.075    0.397    0.360    6.911
  395.000   62.041    0.400    0.359    6.910
  395.250   57.371    0.395    0.356    6.909
  395.500   59.154    0.396    0.354    7.302
  395.750   62.707    0.391    0.340    7.576
  396.000   52.741    0.384    0.337    8.462
  396.250   55.713    0.378    0.348    9.110
  396.500   54.557    0.350    0.278    9.989
  396.750   46.361    0.199    0.153   12.013
  397.000   41.678    0.162    0.078   12.932
  397.250   37.603    0.102    0.005   13.667
  397.500   39.974    0.164    0.081   13.665
  397.750   54.688    0.197    0.258   12.691
  398.000   63.531    0.244    0.317   10.947
  398.250   57.092    0.292    0.357    9.981
  398.500   58.294    0.408    0.359    8.452
  398.750   58.908    0.388    0.350    7.849
  399.000   63.048    0.385    0.336    7.426
  399.250   66.608    0.388    0.323    6.770
  399.500   63.689    0.374    0.323    6.287
  399.750   60.188    0.374    0.352    6.286
  400.000   62.566    0.382    0.359    6.286
  400.250   64.943    0.396    0.354    6.285
  400.500   60.267    0.395    0.359    6.284
  400.750   63.232    0.383    0.360    6.283
  401.000   67.961    0.408    0.353    6.168
  401.250   69.163    0.408    0.346    5.944
  401.500   62.135    0.382    0.347    5.728
  401.750   60.986    0.373    0.348    5.727
  402.000   55.722    0.383    0.350    5.832
  402.250   59.282    0.402    0.344    5.832
  402.500   64.004    0.398    0.333    5.831
  402.750   62.861    0.391    0.333    5.831
  403.000   55.239    0.386    0.332    5.723
  403.250   54.097    0.390    0.333    5.723
  403.500   52.941    0.390    0.338    5.617
  403.750   52.379    0.380    0.349    5.616
  404.000   54.757    0.386    0.352    5.616
  404.250   57.134    0.410    0.358    5.615
  404.500   58.342    0.416    0.358    5.615
  404.750   64.834    0.392    0.356    5.614
  405.000   57.807    0.388    0.347    5.718
  405.250   60.185    0.388    0.330    5.717
