~VERSION INFORMATION
 VERS.                 2.0:   CWLS LOG ASCII STANDARD -VERSION 2.0
 WRAP.                  NO:   ONE LINE PER DEPTH STEP
~WELL INFORMATION BLOCK
#MNEM.UNIT           DATA                    DESCRIPTION OF MNEMONIC
#---------    -------------------            -------------------------------
# Generated from Intellog Unique Number	CX_WELLS/WELL/2878
WELL.         PACIFIC STONY RAPIDS           : Well_name    - WELL
LOC .         00/11-12-081-18W4/0            : Location     - LOCATION
UWI .         00/11-12-081-18W4/0            : Uwi          - UNIQUE WELL ID
ENTR.         T                              : Entered      - ENTERED BY
SRVC.         SCHLUMBERGER                   : Scn          - SERVICE COMPANY
STRT.F        400                            : top_depth    - START DEPTH
STOP.F        1049.61                        : bot_depth    - STOP DEPTH
STEP.F        0.82                           : increment    - STEP LENGTH
 NULL. -999.2500:NULL Value
~CURVE INFORMATION BLOCK
#MNEM UNIT       ERCB CURVE CODE    CURVE DESCRIPTION
#-----------   ------------------   ----------------------------------
DEPT.F        00 001 00 00         : DEPTH        - DEPTH
GR  .API      00 310 00 00         : GR           - GAMMA RAY
NPHI.V/V      00 330 00 00         : PHIN         - NEUTRON POROSITY (SANDSTONE)
ILD .OHMM     00 120 00 00         : RESD         - DEEP RESISTIVITY (OTHER)
~PARAMETER INFORMATION
#MNEM.UNIT           DATA             DESCRIPTION OF MNEMONIC
#---------         -----------     ------------------------------
GL  .F        1794                 : gl           - GROUND LEVEL ELEVATION
EREF.F        1804                 : kb           - ELEVATION OF DEPTH REFERENCE
DATM.F        1804                 : datum        - DATUM ELEVATION
TDD .F        1059                 : tdd          - TOTAL DEPTH DRILLER
RUN .         ONE                  : Run          - RUN NUMBER
ENG .         BILL                 : Engineer     - RECORDING ENGINEER
WIT .         JIM                  : Witness      - WITNESSED BY
MUD .         GEL                  : Mud_type     - MUD TYPE
MATR.         SANDSTONE            : Logunit      - NEUTRON MATRIX
TMAX.F        62                   : BHT          - MAXIMUM RECORDED TEMPERATURE
BHTD.F        1059                 : BHTDEP       - MAXIMUM RECORDED TEMPERATURE
MATR.         1                    : LOGUNIT      - NEUTRON MATRIX
RMT .F        64.4                 : MDTP         - TEMPERATURE OF MUD
NEUT.         1                    : NEUTRON      - NEUTRON TYPE
RESI.         8.4                  : RESIST       - RESISTIVITY TYPE
RMC .OHMM     8.4                  : RMC          - RESISTIVITY OF MUD CAKE
RMF .OHMM     5.75                 : RMF          - RESISTIVITY OF MUD FILTRATE
SUFT.F        39.2                 : SUFT         - SURFACE TEMPERATURE
~A  DEPTH       GR     PHIN     RESD
# ...
  933.957   59.137    0.308    3.850
  934.777   56.635    0.297    3.770
  935.597   54.762    0.299    3.771
  936.417   54.145    0.300    3.774
  937.238   54.156    0.299    3.775
  938.058   53.539    0.298    3.777
  938.878   52.925    0.287    3.779
  939.698   52.303    0.276    3.863
  940.518   51.686    0.244    3.947
  941.339   51.698    0.238    3.949
  942.159   51.712    0.231    4.034
  942.979   52.349    0.240    4.036
  943.799   54.876    0.250    4.119
  944.619   57.404    0.242    4.122
  945.440   58.669    0.221    4.206
  946.260   61.200    0.220    4.208
  947.080   61.837    0.247    4.210
  947.900   63.733    0.273    4.294
  948.720   65.001    0.279    4.296
  949.541   64.384    0.280    4.298
  950.361   61.880    0.282    4.301
  951.181   57.493    0.286    4.302
  952.001   57.507    0.289    4.222
  952.822   59.404    0.286    4.224
  953.642   60.672    0.286    4.144
  954.462   60.055    0.289    4.065
  955.282   60.069    0.288    3.984
  956.102   59.453    0.257    3.903
  956.923   57.579    0.237    3.823
  957.743   55.077    0.217    3.743
  958.563   53.832    0.209    3.745
  959.383   53.213    0.218    3.746
  960.203   53.227    0.244    3.666
  961.024   53.870    0.255    3.668
  961.844   55.135    0.257    3.670
  962.664   57.034    0.271    3.672
  963.484   57.668    0.295    3.756
  964.304   57.685    0.297    3.759
  965.125   57.691    0.295    3.678
  965.945   56.446    0.293    3.599
  966.765   53.319    0.291    3.518
  967.585   52.077    0.283    3.437
  968.406   55.230    0.281    3.276
  969.226   59.014    0.276    3.195
  970.046   60.904    0.276    2.950
  970.866   63.429    0.276    2.871
  971.686   65.334    0.277    2.789
  972.507   65.971    0.276    2.628
  973.327   67.236    0.272    2.629
  974.147   67.876    0.268    2.549
  974.967   67.887    0.261    2.552
  975.787   68.530    0.261    2.553
  976.608   69.792    0.260    2.555
  977.428   73.579    0.259    2.640
  978.248   76.101    0.262    2.641
  979.068   79.885    0.267    2.726
  979.888   83.664    0.268    2.728
  980.709   82.424    0.267    2.812
  981.529   81.179    0.265    2.896
  982.349   79.928    0.263    2.980
  983.169   78.058    0.262    3.146
  983.990   75.559    0.257    3.313
  984.810   73.680    0.253    3.479
  985.630   70.553    0.248    3.811
  986.450   67.420    0.247    3.977
  987.270   62.405    0.248    4.143
  988.091   64.301    0.251    4.474
  988.911   68.088    0.261    4.641
  989.731   69.985    0.267    4.889
  990.551   70.624    0.267    5.138
  991.371   68.751    0.264    5.387
  992.192   66.878    0.264    5.554
  993.012   64.373    0.257    5.637
  993.832   62.500    0.244    5.722
  994.652   61.255    0.239    5.723
  995.472   62.526    0.241    5.808
  996.293   65.676    0.242    5.811
  997.113   70.713    0.241    5.811
  997.933   71.981    0.242    5.731
  998.753   70.108    0.242    5.570
  999.573   68.235    0.242    5.489
 1000.390   70.134    0.239    5.408
 1001.210   70.774    0.236    5.164
 1002.030   69.531    0.232    4.919
 1002.850   68.915    0.224    4.511
 1003.670   68.926    0.219    4.265
 1004.490   70.197    0.221    3.775
 1005.310   71.462    0.226    3.530
 1006.140   72.728    0.229    3.285
 1006.960   77.137    0.237    2.876
 1007.780   80.918    0.244    2.713
 1008.600   83.449    0.253    2.551
 1009.420   83.454    0.267    2.552
 1010.240   81.584    0.291    2.555
 1011.060   78.454    0.298    2.722
 1011.880   70.926    0.305    3.052
 1012.700   57.743    0.310    3.383
 1013.520   43.304    0.311    3.714
 1014.340   36.404    0.311    3.881
 1015.160   32.648    0.310    3.882
 1015.980   34.545    0.309    3.884
 1016.800   38.323    0.304    3.804
 1017.620   42.733    0.302    3.724
 1018.440   47.142    0.294    3.561
 1019.260   52.180    0.284    3.317
 1020.080   57.218    0.283    3.236
 1020.900   62.884    0.280    2.991
 1021.720   67.294    0.278    2.747
 1022.540   69.196    0.277    2.667
 1023.360   69.207    0.272    2.586
 1024.180   69.216    0.269    2.506
 1025.000   69.231    0.266    2.426
 1025.820   69.239    0.262    2.346
 1026.640   67.994    0.254    2.348
 1027.460   67.377    0.242    2.186
 1028.280   66.760    0.227    2.187
 1029.100   67.403    0.216    2.190
 1029.920   69.925    0.230    2.192
 1030.740   74.337    0.243    2.275
 1031.560   77.487    0.257    2.442
 1032.380   81.269    0.269    2.526
 1033.200   83.171    0.276    2.858
 1034.020   81.923    0.275    2.941
 1034.840   80.049    0.269    3.273
 1035.660   78.804    0.253    3.521
 1036.480   76.302    0.234    3.852
 1037.300   71.288    0.207    4.183
 1038.120   68.158    0.194    4.184
 1038.940   66.912    0.210    4.105
 1039.760   68.809    0.229    4.024
 1040.580   72.590    0.238    3.861
 1041.400   76.374    0.263    3.699
 1042.220   74.501    0.265    3.455
 1043.040   71.371    0.272    3.129
 1043.860   66.981    0.278    2.966
 1044.690   62.595    0.285    2.804
 1045.510   61.350    0.286    2.723
 1046.330   61.992    0.287    2.643
 1047.150   62.632    0.287    2.644
 1047.970   63.900    0.285    2.811
 1048.790   65.168    0.281    3.142
 1049.610   64.552    0.277    3.472
