~VERSION INFORMATION
 VERS.                 2.0:   CWLS LOG ASCII STANDARD -VERSION 2.0
 WRAP.                  NO:   ONE LINE PER DEPTH STEP
~WELL INFORMATION BLOCK
#MNEM.UNIT           DATA                    DESCRIPTION OF MNEMONIC
#---------    -------------------            -------------------------------
# Generated from Intellog Unique Number	CS_73_76/WELL/3252
WELL.         10-32-076-12W4                 : Well_name    - WELL
LOC .         00/10-32-076-12W4/0            : Location     - LOCATION
UWI .         00/10-32-076-12W4/0            : Uwi          - UNIQUE WELL ID
ENTR.         SP                             : Entered      - ENTERED BY
SRVC.         SCHLUMBERGER                   : Scn          - SERVICE COMPANY
STRT.M        295.656                        : top_depth    - START DEPTH
STOP.M        533.156                        : bot_depth    - STOP DEPTH
STEP.M        0.25                           : increment    - STEP LENGTH
 NULL. -999.2500:NULL Value
~CURVE INFORMATION BLOCK
#MNEM UNIT       ERCB CURVE CODE    CURVE DESCRIPTION
#-----------   ------------------   ----------------------------------
DEPT.M        00 001 00 00         : DEPTH        - DEPTH
GR  .API      00 310 00 00         : GR           - GAMMA RAY
DPHI.V/V      00 890 00 00         : PHID         - DENSITY POROSITY (SANDSTONE)
NPHI.V/V      00 330 00 00         : PHIN         - NEUTRON POROSITY (SANDSTONE)
ILD .OHMM     00 120 00 00         : RESD         - DEEP RESISTIVITY (DIL)
~PARAMETER INFORMATION
#MNEM.UNIT           DATA             DESCRIPTION OF MNEMONIC
#---------         -----------     ------------------------------
GL  .M        686.653              : gl           - GROUND LEVEL ELEVATION
EREF.M        689.762              : kb           - ELEVATION OF DEPTH REFERENCE
DATM.M        686.653              : datum        - DATUM ELEVATION
TDD .M        544.068              : tdd          - TOTAL DEPTH DRILLER
RUN .         ONE                  : Run          - RUN NUMBER
ENG .         BILL                 : Engineer     - RECORDING ENGINEER
WIT .         JIM                  : Witness      - WITNESSED BY
MUD .         GEL                  : Mud_type     - MUD TYPE
MATR.         SANDSTONE            : Logunit      - NEUTRON MATRIX
TMAX.C        25.5556              : BHT          - MAXIMUM RECORDED TEMPERATURE
BHTD.M        544.068              : BHTDEP       - MAXIMUM RECORDED TEMPERATURE
MATR.         1                    : LOGUNIT      - NEUTRON MATRIX
RMT .C        25                   : MDTP         - TEMPERATURE OF MUD
NEUT.         1                    : NEUTRON      - NEUTRON TYPE
RESI.         0                    : RESIST       - RESISTIVITY TYPE
RMC .OHMM     0.25                 : RMC          - RESISTIVITY OF MUD CAKE
RMF .OHMM     0.25                 : RMF          - RESISTIVITY OF MUD FILTRATE
SUFT.C        15                   : SUFT         - SURFACE TEMPERATURE
~A  DEPTH       GR     PHID     PHIN     RESD
# ...
  382.656   78.915    0.256    0.432    6.389
  382.906   78.825    0.238    0.466    5.905
  383.156   82.761    0.214    0.471    5.753
  383.406   86.835    0.210    0.456    5.895
  383.656   90.321    0.210    0.448    6.478
  383.906   95.474    0.225    0.438    6.926
  384.156  102.042    0.243    0.435    7.024
  384.406  105.283    0.237    0.447    7.149
  384.656  106.839    0.218    0.460    6.913
  384.906  104.615    0.229    0.476    6.608
  385.156   97.835    0.236    0.467    6.009
  385.406   94.080    0.225    0.461    5.669
  385.656   92.942    0.214    0.478    5.263
  385.906   94.284    0.202    0.473    4.996
  386.156   95.649    0.233    0.459    4.770
  386.406   98.086    0.240    0.450    4.584
  386.656   98.969    0.241    0.467    4.494
  386.906   96.625    0.239    0.477    4.490
  387.156   94.187    0.239    0.477    4.308
  387.406   92.784    0.242    0.493    4.417
  387.656   91.401    0.247    0.516    4.604
  387.906   88.052    0.255    0.503    5.085
  388.156   84.321    0.266    0.510    6.032
  388.406   81.436    0.281    0.487    6.722
  388.656   77.886    0.299    0.447    8.023
  388.906   76.940    0.287    0.443    8.747
  389.156   79.146    0.304    0.438    9.231
  389.406   80.652    0.305    0.435    9.268
  389.656   81.641    0.308    0.427    8.487
  389.906   83.811    0.307    0.423    6.457
  390.156   86.169    0.303    0.452    4.636
  390.406   90.628    0.287    0.481    3.991
  390.656   95.675    0.272    0.500    3.481
  390.906  100.040    0.260    0.513    3.101
  391.156  103.724    0.260    0.518    2.981
  391.406  106.832    0.264    0.517    2.806
  391.656  109.292    0.259    0.537    2.680
  391.906  106.037    0.256    0.552    2.546
  392.156  103.828    0.278    0.557    2.416
  392.406  105.959    0.283    0.542    2.388
  392.656  107.547    0.283    0.535    2.336
  392.906  106.717    0.284    0.537    2.340
  393.156  105.713    0.280    0.537    2.406
  393.406  104.629    0.279    0.550    2.600
  393.656  104.965    0.287    0.559    2.827
  393.906  102.094    0.289    0.541    3.364
  394.156   96.267    0.283    0.496    4.031
  394.406   93.553    0.292    0.456    4.623
  394.656   85.144    0.308    0.432    5.914
  394.906   80.043    0.319    0.440    6.889
  395.156   78.084    0.315    0.447    7.656
  395.406   80.058    0.305    0.426    8.078
  395.656   80.445    0.290    0.420    8.308
  395.906   77.524    0.272    0.426    8.297
  396.156   75.038    0.265    0.435    8.300
  396.406   80.109    0.269    0.443    8.303
  396.656   81.445    0.276    0.448    8.580
  396.906   81.819    0.271    0.448    8.984
  397.156   78.757    0.266    0.446   10.164
  397.406   75.651    0.265    0.442   12.945
  397.656   69.541    0.248    0.431   15.840
  397.906   65.058    0.216    0.381   18.690
  398.156   63.249    0.001    0.241   19.262
  398.406   68.460    0.079    0.200   17.130
  398.656   75.148    0.124    0.226   13.096
  398.906   79.438    0.168    0.248   10.735
  399.156   80.577    0.196    0.292    8.846
  399.406   83.019    0.234    0.354    7.924
  399.656   87.741    0.263    0.410    7.636
  399.906   90.311    0.263    0.446    7.554
  400.156   90.873    0.256    0.462    7.553
  400.406   91.746    0.250    0.467    7.562
  400.656   92.103    0.248    0.451    7.416
  400.906   91.403    0.254    0.438    7.326
  401.156   90.062    0.240    0.444    7.239
  401.406   87.941    0.236    0.446    6.768
  401.656   86.653    0.244    0.457    6.705
  401.906   89.396    0.254    0.468    6.499
  402.156   90.589    0.264    0.473    6.498
  402.406   91.948    0.256    0.468    6.695
  402.656   88.231    0.240    0.457    6.756
  402.906   84.760    0.260    0.450    6.888
  403.156   84.737    0.266    0.447    6.923
  403.406   84.776    0.257    0.442    7.005
  403.656   82.479    0.245    0.435    7.144
  403.906   80.554    0.227    0.433    7.113
  404.156   82.145    0.217    0.436    6.877
  404.406   84.479    0.182    0.428    6.747
  404.656   86.481    0.175    0.440    6.501
  404.906   84.837    0.200    0.459    6.395
  405.156   83.922    0.250    0.449    6.373
  405.406   82.231    0.263    0.441    6.513
  405.656   83.242    0.256    0.431    6.812
  405.906   85.534    0.243    0.426    6.997
  406.156   87.238    0.242    0.418    7.136
  406.406   88.878    0.259    0.422    7.046
  406.656   88.465    0.276    0.441    6.831
  406.906   87.200    0.245    0.453    6.621
  407.156   86.898    0.250    0.450    6.684
  407.406   87.148    0.254    0.445    6.878
  407.656   87.716    0.269    0.449    6.868
  407.906   88.654    0.269    0.438    6.875
  408.156   91.275    0.258    0.432    6.704
  408.406   91.520    0.262    0.451    5.815
  408.656   94.633    0.254    0.469    4.963
  408.906   96.427    0.244    0.494    4.196
  409.156   96.544    0.256    0.497    3.504
  409.406   95.493    0.281    0.505    3.120
  409.656   94.492    0.284    0.510    2.970
  409.906   94.223    0.297    0.497    2.911
  410.156   95.417    0.245    0.488    2.908
  410.406   96.931    0.254    0.495    3.018
  410.656   95.666    0.276    0.503    3.107
  410.906   92.645    0.293    0.488    3.282
  411.156   89.104    0.291    0.464    3.554
  411.406   88.277    0.275    0.452    3.697
  411.656   89.024    0.279    0.445    4.032
  411.906   89.439    0.267    0.435    4.335
  412.156   90.505    0.258    0.426    4.775
  412.406   90.821    0.266    0.419    5.106
  412.656   90.567    0.255    0.420    5.433
  412.906   86.700    0.255    0.427    5.656
  413.156   82.936    0.265    0.432    5.906
  413.406   79.931    0.272    0.428    6.274
  413.656   75.745    0.283    0.421    6.642
  413.906   70.336    0.257    0.413    6.960
  414.156   65.637    0.258    0.404    7.100
  414.406   61.573    0.281    0.399    7.430
  414.656   58.582    0.298    0.396    7.520
  414.906   56.961    0.266    0.393    7.749
  415.156   55.304    0.169    0.271    7.819
  415.406   54.004    0.175    0.250    7.966
  415.656   56.417    0.272    0.360    7.967
  415.906   57.282    0.300    0.409    7.805
  416.156   57.970    0.317    0.412    7.493
  416.406   57.168    0.330    0.409    7.090
  416.656   57.849    0.327    0.413    7.118
  416.906   57.789    0.320    0.406    6.985
  417.156   58.507    0.320    0.410    6.846
  417.406   59.016    0.326    0.402    6.738
  417.656   59.009    0.332    0.401    6.667
  417.906   59.735    0.334    0.404    6.606
  418.156   59.702    0.328    0.407    6.501
  418.406   59.942    0.329    0.410    6.492
  418.656   61.023    0.334    0.414    6.354
  418.906   63.869    0.341    0.419    6.371
  419.156   64.441    0.341    0.428    6.225
  419.406   60.350    0.338    0.424    6.241
  419.656   57.592    0.336    0.415    6.111
  419.906   57.271    0.329    0.415    6.097
  420.156   57.242    0.322    0.415    6.008
  420.406   59.139    0.331    0.407    6.006
  420.656   61.641    0.342    0.409    5.993
  420.906   62.224    0.338    0.401    5.897
  421.156   60.537    0.338    0.400    5.951
  421.406   59.600    0.335    0.411    6.016
  421.656   59.040    0.332    0.415    6.115
  421.906   59.059    0.324    0.408    6.239
  422.156   59.061    0.318    0.414    6.354
  422.406   59.368    0.327    0.425    6.360
  422.656   61.141    0.336    0.408    6.199
  422.906   62.069    0.340    0.401    5.913
  423.156   62.696    0.338    0.411    5.562
  423.406   63.413    0.327    0.421    5.460
  423.656   62.779    0.330    0.432    5.473
  423.906   62.914    0.334    0.442    5.512
  424.156   60.749    0.328    0.415    5.678
  424.406   60.901    0.335    0.395    5.844
  424.656   60.878    0.337    0.398    6.001
  424.906   60.868    0.335    0.413    6.125
  425.156   61.347    0.332    0.426    6.320
  425.406   61.679    0.328    0.412    6.313
  425.656   62.091    0.326    0.405    6.115
  425.906   62.771    0.332    0.412    5.922
