~VERSION INFORMATION
 VERS.                 2.0:   CWLS LOG ASCII STANDARD -VERSION 2.0
 WRAP.                  NO:   ONE LINE PER DEPTH STEP
~WELL INFORMATION BLOCK
#MNEM.UNIT           DATA                    DESCRIPTION OF MNEMONIC
#---------    -------------------            -------------------------------
# Generated from Intellog Unique Number	CN_91_93/WELL/1076
WELL.         PETRO CANADA                   : Well_name    - WELL
LOC .         00/10-01-091-18W4/0            : Location     - LOCATION
UWI .         00/10-01-091-18W400            : Uwi          - UNIQUE WELL ID
ENTR.         JOETTE                         : Entered      - ENTERED BY
SRVC.         SCHLUMBERGER                   : Scn          - SERVICE COMPANY
DATE.         02/04/92                       : Date         - LOG DATE
STRT.F        196.85                         : top_depth    - START DEPTH
STOP.F        780.84                         : bot_depth    - STOP DEPTH
STEP.F        0.821                          : increment    - STEP LENGTH
 NULL. -999.2500:NULL Value
~CURVE INFORMATION BLOCK
#MNEM UNIT       ERCB CURVE CODE    CURVE DESCRIPTION
#-----------   ------------------   ----------------------------------
DEPT.F        00 001 00 00         : DEPTH        - DEPTH
ILD .OHMM     00 120 00 00         : RESD         - DEEP RESISTIVITY (DIL)
DPHI.V/V      00 890 00 00         : PHID         - DENSITY POROSITY (SANDSTONE)
NPHI.V/V      00 330 00 00         : PHIN         - NEUTRON POROSITY (SANDSTONE)
CALI.IN       00 280 01 00         : CAL          - CALIPER
GR  .API      00 310 00 00         : GR           - GAMMA RAY
~PARAMETER INFORMATION
#MNEM.UNIT           DATA             DESCRIPTION OF MNEMONIC
#---------         -----------     ------------------------------
GL  .F        1663.06              : gl           - GROUND LEVEL ELEVATION
EREF.F        1673.88              : kb           - ELEVATION OF DEPTH REFERENCE
DATM.F        1673.88              : datum        - DATUM ELEVATION
TDD .F        807.087              : tdd          - TOTAL DEPTH DRILLER
RUN .         ONE                  : Run          - RUN NUMBER
ENG .         BILL                 : Engineer     - RECORDING ENGINEER
WIT .         JIM                  : Witness      - WITNESSED BY
MUD .         GEL                  : Mud_type     - MUD TYPE
MATR.         SANDSTONE            : Logunit      - NEUTRON MATRIX
TMAX.F        77                   : BHT          - MAXIMUM RECORDED TEMPERATURE
BHTD.F        807.087              : BHTDEP       - MAXIMUM RECORDED TEMPERATURE
RMT .F        53.6                 : MDTP         - TEMPERATURE OF MUD
MUDD.LB/G     9.58333              : MWT          - MUD DENSITY
NEUT.         1                    : NEUTRON      - NEUTRON TYPE
RESI.         0                    : RESIST       - RESISTIVITY TYPE
RM  .OHMM     2.6                  : RM           - RESISTIVITY OF MUD
RMC .OHMM     2.6                  : RMC          - RESISTIVITY OF MUD CAKE
RMF .OHMM     2.6                  : RMF          - RESISTIVITY OF MUD FILTRATE
SUFT.F        39.2                 : SUFT         - SURFACE TEMPERATURE
~A  DEPTH     RESD     PHID     PHIN      CAL       GR
  196.850   24.658    0.264    0.358    6.845   44.581
  197.671   23.101    0.265    0.376    6.846   44.581
  198.491   22.052    0.271    0.416    6.846   45.187
  199.311   23.327    0.282    0.413    6.826   48.483
  200.131   28.126    0.295    0.416    6.827   54.171
  200.951   30.033    0.308    0.428    6.847   54.774
  201.772   30.892    0.320    0.458    6.847   52.684
  202.592   30.611    0.358    0.500    6.867   50.295
  203.412   28.947    0.268    0.533    7.260   50.599
  204.232   30.909    0.216    0.474    7.888   63.768
  205.052   29.781    0.195    0.334    8.085   65.567
  205.873   33.950    0.197    0.315    8.439   64.076
  206.693   34.275    0.205    0.316    8.596   65.577
  207.513   31.224    0.241    0.346    8.793   61.691
  208.333   28.180    0.479    0.534   11.424   53.617
  209.154   26.648    0.650    0.582   13.289   38.663
  209.974   26.159    0.637    0.591   14.506   31.487
  210.794   25.204    0.600    0.566   14.860   31.192
  211.614   23.614    0.488    0.546   14.899   32.393
  212.434   22.329    0.488    0.442   14.959   32.098
  213.255   19.779    0.503    0.435   15.057   30.906
  214.075   18.358    0.477    0.502   15.097   30.013
  214.895   17.854    0.441    0.546   15.117   29.119
  215.715   17.857    0.470    0.547   15.117   28.525
  216.535   18.028    0.502    0.525   14.941   30.923
  217.356   17.698    0.559    0.486   14.607   38.108
  218.176   17.701    0.577    0.398   12.841   48.286
  218.996   18.039    0.523    0.388   11.408   50.983
  219.816   18.211    0.457    0.404   10.210   53.980
  220.636   18.046    0.415    0.437    9.367   56.976
  221.457   17.714    0.318    0.433    9.151   57.279
  222.277   18.052    0.286    0.402    9.014   56.985
  223.097   19.275    0.269    0.378    8.798   59.681
  223.917   21.568    0.273    0.369    8.622   63.575
  224.738   21.773    0.259    0.389    8.406   68.067
  225.558   20.784    0.231    0.396    8.151   67.474
  226.378   20.213    0.195    0.315    7.818   71.367
  227.198   20.029    0.188    0.299    7.484   73.766
  228.018   19.846    0.196    0.315    7.249   71.077
  228.839   19.850    0.207    0.330    7.151   70.483
  229.659   19.669    0.216    0.322    7.053   68.992
  230.479   19.309    0.210    0.321    6.995   66.603
  231.299   18.778    0.207    0.325    6.956   67.206
  232.119   18.263    0.210    0.326    6.956   68.706
  232.940   17.596    0.214    0.322    6.956   66.915
  233.760   17.113    0.227    0.321    6.996   64.827
  234.580   16.799    0.242    0.339    7.016   64.232
  235.400   16.646    0.259    0.374    7.075   63.039
  236.220   15.741    0.240    0.415    7.213   60.051
  237.041   14.475    0.218    0.444    7.468   61.851
  237.861   14.889    0.208    0.388    8.136   65.746
  238.681   16.198    0.200    0.347    7.429   66.946
  239.501   17.788    0.197    0.308    7.076   70.243
  240.322   17.791    0.205    0.317    7.096   69.947
  241.142   16.359    0.205    0.328    7.136   66.661
  241.962   15.470    0.211    0.327    7.254   69.957
  242.782   13.832    0.227    0.333    7.411   73.252
  243.602   12.367    0.253    0.339    7.667   76.249
  244.423   10.852    0.270    0.346    7.333   75.355
  245.243    9.979    0.314    0.336    7.078   73.864
  246.063    9.262    0.259    0.323    7.138   73.569
  246.883    8.677    0.242    0.334    7.373   73.274
  247.703    7.614    0.266    0.334    7.060   74.475
  248.524    6.259    0.334    0.339    6.844   73.881
  249.344    8.601    0.371    0.371    6.903   68.201
  250.164   12.619    0.462    0.411    8.886   64.615
  250.984   15.502    0.603    0.570   11.772   60.431
  251.804   26.909    0.638    0.597   12.460   56.846
  252.625   31.844    0.580    0.592   10.772   58.346
  253.445   34.004    0.500    0.548    9.359   64.633
  254.265   35.638    0.314    0.480    7.808   73.912
  255.085   36.656    0.284    0.445    7.435   81.098
  255.906   37.705    0.300    0.443    7.514   82.598
  256.726   37.016    0.318    0.425    7.456   88.287
  257.546   36.335    0.325    0.432    7.358   92.180
  258.366   35.009    0.321    0.448    7.201   96.673
  259.186   36.351    0.316    0.457    7.064   94.882
  260.007   37.390    0.317    0.501    6.966   86.210
  260.827   37.052    0.315    0.465    6.966   79.632
  261.647   36.371    0.314    0.440    6.908   62.583
  262.467   36.719    0.323    0.394    6.770   41.046
  263.287   38.125    0.339    0.366    6.869   31.177
  264.108   39.584    0.336    0.355    6.948   28.489
  264.928   39.223    0.337    0.335    6.987   33.281
  265.748   37.792    0.352    0.364    7.086   38.970
  266.568   35.739    0.377    0.398    7.263   39.573
  267.388   34.432    0.363    0.403    7.420   37.184
  268.209   34.762    0.360    0.391    7.126   33.000
  269.029   37.468    0.357    0.386    7.028   29.713
  269.849   37.829    0.355    0.392    7.225   27.922
  270.669   37.134    0.355    0.378    7.519   28.526
  271.490   36.452    0.353    0.357    7.912   31.521
  272.310   35.784    0.333    0.372    8.109   35.116
  273.130   34.802    0.327    0.383    8.011   35.419
  273.950   35.136    0.329    0.375    7.894   34.227
  274.770   35.804    0.335    0.367    7.717   30.941
  275.591   35.811    0.342    0.363    7.443   30.048
  276.411   33.238    0.327    0.361    7.227   31.248
  277.231   29.997    0.321    0.334    7.443   36.938
  278.051   26.324    0.312    0.324    7.915   45.619
  278.871   22.461    0.388    0.391    8.386   49.513
  279.692   18.291    0.413    0.460    9.172   48.919
  280.512   14.619    0.422    0.480    9.113   49.521
  281.332    8.746    0.405    0.474    8.740   52.817
  282.152    7.603    0.382    0.463    8.368   54.916
  282.972    6.673    0.369    0.456    7.642   54.023
  283.793    6.429    0.354    0.465    7.544   52.831
  284.613    6.490    0.371    0.449    7.505   51.339
  285.433    6.614    0.373    0.440    7.525   49.548
  286.253    6.740    0.368    0.436    7.564   49.852
  287.073    6.805    0.363    0.449    7.506   51.951
  287.894    6.805    0.367    0.451    7.349   54.349
  288.714    6.936    0.370    0.452    7.251   56.747
  289.534    7.002    0.365    0.430    7.192   61.538
  290.354    7.003    0.346    0.439    7.153   69.321
  291.175    6.811    0.260    0.490    7.114   84.285
  291.995    6.624    0.215    0.493    7.056   98.053
  292.815    6.503    0.220    0.475    7.056  100.151
  293.635    6.627    0.245    0.469    7.056  102.848
  294.455    6.880    0.257    0.479    6.998  106.442
  295.276    6.881    0.263    0.532    6.900  111.534
  296.096    6.884    0.271    0.539    6.802  115.727
  296.916    6.884    0.268    0.549    6.900  114.834
  297.736    6.822    0.263    0.545    7.038  113.043
  298.556    6.696    0.266    0.530    7.156  111.551
  299.377    6.574    0.268    0.513    7.255  111.257
  300.197    6.393    0.268    0.473    7.294  110.663
  301.017    6.276    0.268    0.507    7.314  108.872
  301.837    6.047    0.270    0.517    7.315  111.570
  302.657    5.881    0.274    0.514    7.295  111.574
  303.478    5.881    0.278    0.518    7.295  109.784
  304.298    5.828    0.278    0.505    7.217  108.890
  305.118    5.775    0.278    0.486    7.080  109.493
  305.938    5.885    0.280    0.492    7.002  109.198
  306.759    5.885    0.322    0.504    6.943  108.304
  307.579    5.888    0.297    0.495    6.943  113.096
  308.399    5.944    0.278    0.502    6.905  113.101
  309.219    5.945    0.288    0.522    6.885  108.318
  310.039    6.002    0.290    0.543    6.885  108.622
  310.860    6.290    0.278    0.538    6.886  110.721
  311.680    6.592    0.276    0.528    6.886  111.324
  312.500    6.974    0.280    0.518    6.886  110.131
  313.320    7.308    0.284    0.517    6.886  110.734
  314.140    7.877    0.284    0.524    6.887  111.337
  314.961    8.333    0.282    0.520    6.887  107.751
  315.781    8.652    0.282    0.517    6.888  102.968
