~VERSION INFORMATION
 VERS.                 2.0:   CWLS LOG ASCII STANDARD -VERSION 2.0
 WRAP.                  NO:   ONE LINE PER DEPTH STEP
~WELL INFORMATION BLOCK
#MNEM.UNIT           DATA                    DESCRIPTION OF MNEMONIC
#---------    -------------------            -------------------------------
# Generated from Intellog Unique Number	CW_76_78/WELL/1032
WELL.         CHIEFCO MCMULLEN               : Well_name    - WELL
LOC .         00/11-34-077-25W4/0            : Location     - LOCATION
UWI .         00/11-34-077-25W4/0            : Uwi          - UNIQUE WELL ID
ENTR.         JAYE                           : Entered      - ENTERED BY
SRVC.         WESTERN ATLAS                  : Scn          - SERVICE COMPANY
DATE.         27 FEB 75                      : Date         - LOG DATE
STRT.M        423.672                        : top_depth    - START DEPTH
STOP.M        603.422                        : bot_depth    - STOP DEPTH
STEP.M        0.25                           : increment    - STEP LENGTH
 NULL. -999.2500:NULL Value
~CURVE INFORMATION BLOCK
#MNEM UNIT       ERCB CURVE CODE    CURVE DESCRIPTION
#-----------   ------------------   ----------------------------------
DEPT.M        00 001 00 00         : DEPTH        - DEPTH
DPHI.V/V      00 890 00 00         : PHID         - DENSITY POROSITY (SANDSTONE)
NPHI.V/V      00 330 00 00         : PHIN         - NEUTRON POROSITY (SANDSTONE)
GR  .API      00 310 00 00         : GR           - GAMMA RAY
CALI.MM       00 280 01 00         : CAL          - CALIPER
ILD .OHMM     00 120 00 00         : RESD         - DEEP RESISTIVITY (DIL)
~PARAMETER INFORMATION
#MNEM.UNIT           DATA             DESCRIPTION OF MNEMONIC
#---------         -----------     ------------------------------
GL  .M        638.251              : gl           - GROUND LEVEL ELEVATION
EREF.M        641.604              : kb           - ELEVATION OF DEPTH REFERENCE
DATM.M        638.251              : datum        - DATUM ELEVATION
TDD .M        608.076              : tdd          - TOTAL DEPTH DRILLER
RUN .         ONE                  : Run          - RUN NUMBER
ENG .         CLARK                : Engineer     - RECORDING ENGINEER
WIT .         GARDENER             : Witness      - WITNESSED BY
BASE.         V.V.                 : Branch       - HOME BASE OF LOGGING UNIT
MUD .         GEL CHEM             : Mud_type     - MUD TYPE
MATR.         SANDSTONE            : Logunit      - NEUTRON MATRIX
TMAX.C        26.1111              : BHT          - MAXIMUM RECORDED TEMPERATURE
BHTD.M        608.076              : BHTDEP       - MAXIMUM RECORDED TEMPERATURE
RMT .C        18.3333              : MDTP         - TEMPERATURE OF MUD
MUDD.KG/M     1140                 : MWT          - MUD DENSITY
NEUT.         1                    : NEUTRON      - NEUTRON TYPE
RESI.         0                    : RESIST       - RESISTIVITY TYPE
RM  .OHMM     4.6                  : RM           - RESISTIVITY OF MUD
RMC .OHMM     0                    : RMC          - RESISTIVITY OF MUD CAKE
RMF .OHMM     3.3                  : RMF          - RESISTIVITY OF MUD FILTRATE
SUFT.C        4.5                  : SUFT         - SURFACE TEMPERATURE
~A  DEPTH     PHID     PHIN       GR      CAL     RESD
# ...
  460.172    0.238    0.431   77.548  189.255    9.279
  460.422    0.234    0.425   76.929  190.778    9.315
  460.672    0.226    0.415   76.246  193.639    9.369
  460.922    0.214    0.408   75.565  195.055    9.511
  461.172    0.209    0.408   75.248  194.828    9.743
  461.422    0.206    0.408   74.747  192.130   10.092
  461.672    0.197    0.380   74.494  188.914   10.864
  461.922    0.131    0.313   74.602  187.966   11.977
  462.172    0.103    0.337   74.833  187.738   13.205
  462.422    0.106    0.405   75.245  188.135   14.399
  462.672    0.212    0.434   76.078  188.520   15.302
  462.922    0.245    0.445   76.435  188.706   15.879
  463.172    0.258    0.448   77.088  188.480   15.709
  463.422    0.252    0.435   77.500  188.248   14.575
  463.672    0.240    0.424   77.793  188.227   13.622
  463.922    0.233    0.427   78.206  188.206   12.801
  464.172    0.234    0.429   78.253  188.701   12.230
  464.422    0.230    0.423   78.363  190.326   11.771
  464.672    0.224    0.417   77.986  192.462   11.753
  464.922    0.214    0.409   77.241  193.265   11.821
  465.172    0.200    0.397   76.682  193.241   12.021
  465.422    0.184    0.386   75.817  192.396   12.361
  465.672    0.169    0.372   75.380  190.628   12.873
  465.922    0.156    0.358   75.184  188.441   13.707
  466.172    0.136    0.345   75.292  187.909   14.674
  466.422    0.121    0.357   75.768  188.605   15.481
  466.672    0.138    0.397   76.910  191.776   16.064
  466.922    0.194    0.415   78.112  195.456   16.098
  467.172    0.206    0.419   79.071  197.184   15.637
  467.422    0.215    0.420   79.786  197.781   14.668
  467.672    0.221    0.424   80.261  197.451   13.912
  467.922    0.229    0.427   80.856  195.781   13.219
  468.172    0.234    0.429   81.329  191.848   12.769
  468.422    0.237    0.430   82.046  189.153   12.289
  468.672    0.231    0.426   83.307  188.408   11.677
  468.922    0.217    0.417   84.026  189.212   11.301
  469.172    0.209    0.410   84.738  192.173   11.078
  469.422    0.209    0.411   84.909  193.178   10.840
  469.672    0.222    0.421   84.533  192.231   10.724
  469.922    0.231    0.427   83.184  190.254   10.669
  470.172    0.235    0.428   81.832  189.410   10.652
  470.422    0.233    0.426   81.454  189.179   10.674
  470.672    0.231    0.424   81.805  189.468   10.677
  470.922    0.228    0.421   82.400  191.608   10.680
  471.172    0.226    0.419   83.237  194.570   10.586
  471.422    0.235    0.422   84.502  197.221   10.473
  471.672    0.254    0.442   85.154  198.847   10.266
  471.922    0.257    0.446   85.144  198.414   10.213
  472.172    0.259    0.442   84.281  196.747   10.272
  472.422    0.259    0.435   82.507  194.976   10.446
  472.672    0.257    0.399   79.575  192.998   10.701
  472.922    0.247    0.356   77.376  191.845   11.228
  473.172    0.224    0.332   72.986  191.412   12.220
  473.422    0.070    0.307   69.631  191.387   13.824
  473.672    0.028    0.252   66.943  191.674   15.580
  473.922   -0.001    0.322   68.389  191.652   18.050
  474.172    0.059    0.466   73.359  191.734   18.593
  474.422    0.271    0.454   77.905  192.122   17.928
  474.672    0.257    0.431   81.418  192.000   16.910
  474.922    0.244    0.435   82.925  191.670   15.095
  475.172    0.246    0.440   83.275  191.236   13.953
  475.422    0.246    0.435   83.566  190.696   12.525
  475.672    0.239    0.427   83.428  190.674   11.451
  475.922    0.230    0.421   82.871  190.139   11.246
  476.172    0.221    0.418   81.764  190.117   11.310
  476.422    0.220    0.419   81.021  190.398   11.482
  476.672    0.214    0.411   80.097  190.378   11.655
  476.922    0.204    0.401   79.417  189.331   11.918
  477.172    0.193    0.398   78.613  189.413   12.142
  477.422    0.248    0.419   77.751  189.183   12.415
  477.672    0.265    0.449   76.886  189.369   12.836
  477.922    0.263    0.444   76.385  188.831   13.370
  478.172    0.257    0.445   75.341  188.600   13.848
  478.422    0.249    0.434   74.048  188.784   14.582
  478.672    0.231    0.359   72.699  188.769   15.355
  478.922    0.173    0.351   71.289  188.747   16.652
  479.172    0.137    0.364   70.365  188.930   18.596
  479.422    0.147    0.340   68.954  189.316   20.882
  479.672    0.118    0.234   67.301  189.809   22.896
  479.922    0.114    0.281   64.734  189.789   25.288
  480.172    0.051    0.294   64.418  190.274   27.626
  480.422    0.071    0.256   64.832  190.250   27.939
  480.672    0.101    0.200   66.337  190.131   27.040
  480.922    0.098    0.197   69.365  189.699   24.360
  481.172    0.048    0.209   72.693  189.675   22.230
  481.422    0.022    0.392   75.838  189.246   20.891
  481.672    0.098    0.411   76.984  188.500   19.489
  481.922    0.186    0.404   78.612  188.479   18.281
  482.172    0.155    0.373   79.997  188.461   16.991
  482.422    0.131    0.323   81.621  188.434   15.002
  482.672    0.114    0.344   82.218  188.417   14.021
  482.922    0.215    0.411   82.328  188.395   13.570
  483.172    0.212    0.403   80.552  188.579   13.400
  483.422    0.208    0.383   77.805  188.760   13.330
  483.672    0.235    0.377   76.758  189.049   13.432
  483.922    0.264    0.446   75.955  189.234   13.635
  484.172    0.220    0.419   75.577  189.412   13.764
  484.422    0.128    0.382   75.079  189.805   13.743
  484.672    0.062    0.281   74.580  189.372   13.621
  484.922    0.107    0.311   78.090  190.066   13.353
  485.172    0.227    0.430   81.301  190.153   13.210
  485.422    0.177    0.385   82.988  190.129   13.022
  485.672    0.121    0.353   83.337  190.211   12.882
  485.922    0.145    0.407   83.631  190.288   12.698
  486.172    0.208    0.411   83.673  190.165   12.471
  486.422    0.220    0.422   83.660  189.937   12.225
  486.672    0.228    0.422   83.837  189.915   11.918
  486.922    0.224    0.417   84.183  189.898   11.683
  487.172    0.216    0.409   84.356  189.875   11.537
  487.422    0.204    0.400   84.707  190.159   11.456
  487.672    0.197    0.399   85.061  190.139   11.355
  487.922    0.205    0.404   85.958  190.119   11.317
  488.172    0.215    0.411   86.554  190.504   11.278
  488.422    0.218    0.416   87.269  190.688   11.240
  488.672    0.211    0.411   87.015  190.773   11.264
  488.922    0.197    0.397   85.845  190.854   11.308
  489.172    0.178    0.387   84.312  190.830   11.374
  489.422    0.125    0.345   83.572  190.603   11.588
  489.672    0.141    0.361   83.862  190.684   11.806
  489.922    0.177    0.370   84.944  191.076   11.896
  490.172    0.205    0.420   86.512  191.054   11.813
  490.422    0.213    0.392   87.288  191.030   11.730
  490.672    0.187    0.382   87.336  191.008   11.605
  490.922    0.178    0.382   86.655  191.501   11.502
  491.172    0.185    0.386   85.607  191.889   11.442
  491.422    0.194    0.392   85.109  192.179   11.424
  491.672    0.196    0.385   84.425  192.361   11.407
  491.922    0.185    0.373   84.171  192.441   11.472
  492.172    0.164    0.368   84.645  192.422   11.603
  492.422    0.155    0.362   85.666  192.395   11.974
  492.672    0.157    0.376   85.896  192.069   12.380
  492.922    0.183    0.381   85.638  191.945   12.636
  493.172    0.184    0.372   85.624  191.714   12.756
  493.422    0.167    0.364   86.340  191.489   12.759
  493.672    0.159    0.382   87.606  191.467   12.531
  493.922    0.180    0.390   90.573  192.680   11.951
  494.172    0.204    0.399   94.449  193.481   11.544
  494.422    0.210    0.405   92.795  193.459   11.172
  494.672    0.206    0.398   89.862  192.512   10.576
  494.922    0.195    0.377   87.480  191.254   10.254
  495.172    0.166    0.296   85.280  190.303   10.352
  495.422    0.053    0.268   83.383  189.561   10.527
  495.672    0.044    0.393   85.921  188.923   10.805
  495.922    0.095    0.413   87.794  188.384   11.048
  496.172    0.216    0.413   85.835  188.365   11.235
  496.422    0.219    0.416   84.243  189.371   11.447
