~VERSION INFORMATION
 VERS.                 2.0:   CWLS LOG ASCII STANDARD -VERSION 2.0
 WRAP.                  NO:   ONE LINE PER DEPTH STEP
~WELL INFORMATION BLOCK
#MNEM.UNIT           DATA                    DESCRIPTION OF MNEMONIC
#---------    -------------------            -------------------------------
# Generated from Intellog Unique Number	CS_71_72/WELL/907
WELL.         KISSINGER PETROLEUM LIMITE     : Well_name    - WELL
LOC .         00/11-29-071-11W4/0            : Location     - LOCATION
UWI .         00/11-29-071-11W4/0            : Uwi          - UNIQUE WELL ID
ENTR.         SP                             : Entered      - ENTERED BY
SRVC.         SCHLUMBERGER                   : Scn          - SERVICE COMPANY
STRT.M        250                            : top_depth    - START DEPTH
STOP.M        470                            : bot_depth    - STOP DEPTH
STEP.M        0.25                           : increment    - STEP LENGTH
 NULL. -999.2500:NULL Value
~CURVE INFORMATION BLOCK
#MNEM UNIT       ERCB CURVE CODE    CURVE DESCRIPTION
#-----------   ------------------   ----------------------------------
DEPT.M        00 001 00 00         : DEPTH        - DEPTH
ILD .OHMM     00 120 00 00         : RESD         - DEEP RESISTIVITY (DIL)
DPHI.V/V      00 890 00 00         : PHID         - DENSITY POROSITY (LIMESTONE)
NPHI.V/V      00 330 00 00         : PHIN         - NEUTRON POROSITY (LIMESTONE)
GR  .API      00 310 00 00         : GR           - GAMMA RAY
~PARAMETER INFORMATION
#MNEM.UNIT           DATA             DESCRIPTION OF MNEMONIC
#---------         -----------     ------------------------------
GL  .M        590.76               : gl           - GROUND LEVEL ELEVATION
EREF.M        594.59               : kb           - ELEVATION OF DEPTH REFERENCE
DATM.M        590.76               : datum        - DATUM ELEVATION
TDD .M        479                  : tdd          - TOTAL DEPTH DRILLER
RUN .         ONE                  : Run          - RUN NUMBER
ENG .         BILL                 : Engineer     - RECORDING ENGINEER
WIT .         JIM                  : Witness      - WITNESSED BY
MUD .         GEL                  : Mud_type     - MUD TYPE
MATR.         LIMESTONE            : Logunit      - NEUTRON MATRIX
TMAX.C        28                   : BHT          - MAXIMUM RECORDED TEMPERATURE
BHTD.M        479                  : BHTDEP       - MAXIMUM RECORDED TEMPERATURE
MATR.         1                    : LOGUNIT      - NEUTRON MATRIX
RMT .C        25                   : MDTP         - TEMPERATURE OF MUD
NEUT.         1                    : NEUTRON      - NEUTRON TYPE
RESI.         0                    : RESIST       - RESISTIVITY TYPE
RMC .OHMM     0.25                 : RMC          - RESISTIVITY OF MUD CAKE
RMF .OHMM     0.25                 : RMF          - RESISTIVITY OF MUD FILTRATE
SUFT.C        15                   : SUFT         - SURFACE TEMPERATURE
~A  DEPTH     RESD     PHID     PHIN       GR
# ...
  424.000    4.709    0.235    0.322   87.459
  424.250    4.952    0.225    0.328   86.461
  424.500    5.325    0.238    0.333   84.428
  424.750    5.682    0.243    0.346   83.244
  425.000    5.809    0.240    0.370   84.442
  425.250    5.708    0.239    0.391   86.803
  425.500    5.533    0.229    0.375   90.262
  425.750    5.375    0.214    0.349   94.695
  426.000    5.233    0.202    0.340   98.455
  426.250    5.164    0.206    0.340   99.658
  426.500    5.063    0.216    0.353   99.331
  426.750    4.888    0.226    0.372   94.607
  427.000    4.787    0.231    0.385   86.095
  427.250    4.743    0.236    0.379   91.872
  427.500    4.732    0.221    0.381   99.487
  427.750    7.297    0.205    0.376  107.830
  428.000    7.776    0.206    0.330  113.609
  428.250    8.150    0.213    0.298  113.400
  428.500    8.637    0.222    0.291  109.225
  428.750    9.059    0.243    0.297  103.282
  429.000    9.326    0.258    0.301   80.116
  429.250    9.372    0.269    0.327   68.552
  429.500    9.296    0.251    0.349   67.368
  429.750    8.777    0.235    0.367   70.276
  430.000    8.382    0.226    0.346   74.222
  430.250    8.018    0.232    0.342   77.255
  430.500    7.754    0.237    0.356   81.566
  430.750    7.456    0.227    0.341   84.111
  431.000    7.445    0.212    0.324   85.127
  431.250    7.785    0.197    0.325   83.578
  431.500    8.142    0.204    0.329   83.919
  431.750    8.728    0.210    0.305   83.714
  432.000    9.347    0.213    0.295   82.106
  432.250    9.908    0.222    0.290   79.152
  432.500   10.142    0.237    0.305   78.519
  432.750    9.877    0.245    0.319   79.657
  433.000    9.465    0.239    0.306   83.177
  433.250    8.857    0.230    0.298   85.596
  433.500    8.551    0.216    0.308   80.079
  433.750    8.417    0.201    0.312   77.062
  434.000    8.423    0.211    0.303   76.429
  434.250    8.591    0.263    0.294   74.208
  434.500    8.997    0.283    0.284   66.002
  434.750    9.819    0.293    0.302   58.898
  435.000   10.242    0.283    0.310   55.945
  435.250   10.574    0.262    0.318   57.936
  435.500   10.710    0.247    0.331   59.502
  435.750   10.617    0.247    0.345   62.348
  436.000    9.576    0.232    0.356   67.762
  436.250    7.642    0.201    0.361   78.061
  436.500    5.783    0.178    0.353   88.724
  436.750    4.880    0.165    0.371  101.526
  437.000    4.419    0.131    0.391  110.420
  437.250    4.048    0.087    0.407  116.321
  437.500    3.849    0.065    0.434  114.098
  437.750    3.976    0.105    0.452  111.146
  438.000    4.202    0.163    0.442  111.124
  438.250    4.542    0.204    0.435  107.804
  438.500    4.752    0.222    0.245   91.902
  438.750    4.888    0.245    0.209   81.256
  439.000    4.689    0.300    0.200   67.675
  439.250    4.113    0.335    0.249   56.602
  439.500    3.669    0.325    0.301   45.892
  439.750    3.256    0.309    0.337   50.266
  440.000    3.221    0.308    0.369   55.553
  440.250    3.864    0.311    0.391   58.829
  440.500    4.670    0.294    0.401   61.007
  440.750    5.428    0.284    0.348   62.692
  441.000    5.997    0.279    0.323   63.833
  441.250    6.191    0.274    0.345   65.949
  441.500    6.155    0.266    0.354   69.529
  441.750    5.751    0.261    0.346   73.291
  442.000    5.028    0.261    0.344   75.041
  442.250    4.477    0.260    0.338   70.011
  442.500    4.033    0.255    0.332   72.369
  442.750    3.882    0.248    0.341   75.460
  443.000    3.879    0.237    0.364   77.759
  443.250    4.056    0.216    0.387   81.031
  443.500    4.380    0.201    0.420   85.895
  443.750    4.761    0.193    0.377   89.112
  444.000    5.036    0.196    0.333   89.090
  444.250    5.279    0.200    0.331   89.861
  444.500    5.521    0.195    0.321   92.343
  444.750    5.672    0.179    0.311   98.118
  445.000    5.711    0.172    0.320  103.592
  445.250    5.732    0.169    0.322  107.479
  445.500    5.721    0.183    0.324  108.861
  445.750    5.857    0.197    0.322  105.971
  446.000    6.059    0.216    0.306   83.292
  446.250    6.423    0.234    0.294   71.117
  446.500    6.854    0.255    0.280   65.049
  446.750    7.489    0.184    0.270   64.356
  447.000    8.590    0.174    0.278   65.309
  447.250    9.961    0.208    0.280   63.028
  447.500   10.980    0.234    0.292   56.532
  447.750   11.746    0.255    0.304   49.181
  448.000   12.233    0.274    0.299   40.915
  448.250   12.402    0.281    0.277   33.137
  448.500   12.064    0.152    0.257   36.901
  448.750   10.589    0.127    0.266   48.053
  449.000    8.361    0.148    0.298   63.542
  449.250    6.869    0.194    0.328   82.817
  449.500    6.310    0.207    0.351   88.169
  449.750    5.964    0.176    0.362   92.909
  450.000    6.010    0.160    0.332   83.114
  450.250    6.546    0.163    0.285   75.338
  450.500    7.262    0.207    0.285   65.606
  450.750    7.718    0.222    0.297   61.614
  451.000    8.222    0.232    0.312   61.165
  451.250    8.603    0.246    0.325   46.120
  451.500    8.551    0.282    0.334   36.387
  451.750    7.395    0.308    0.335   28.365
  452.000    6.427    0.284    0.336   32.067
  452.250    5.418    0.269    0.342   48.409
  452.500    4.621    0.260    0.339   56.878
  452.750    4.226    0.274    0.327   61.129
  453.000    4.067    0.274    0.318   67.764
  453.250    4.080    0.181    0.312   77.572
  453.500    4.224    0.156    0.326   97.886
  453.750    4.459    0.145    0.352  117.649
  454.000    5.642    0.168    0.367  124.039
  454.250    7.201    0.262    0.379  101.176
  454.500    7.934    0.301    0.388   88.392
  454.750    8.683    0.341    0.382   72.980
  455.000    9.228    0.321    0.362   60.989
  455.250    9.200    0.310    0.354   68.050
  455.500    8.142    0.297    0.353   81.157
  455.750    7.354    0.279    0.356   84.310
  456.000    6.566    0.261    0.348   85.753
  456.250    5.777    0.238    0.334   88.599
  456.500    5.267    0.210    0.323   91.449
  456.750    4.921    0.186    0.306   94.050
  457.000    4.926    0.178    0.286   93.113
  457.250    4.915    0.200    0.313   87.717
  457.500    4.650    0.226    0.325   82.930
  457.750    4.180    0.207    0.305   83.642
  458.000    3.711    0.190    0.310   79.712
  458.250    3.258    0.213    0.323   52.393
  458.500    2.675    0.245    0.327   34.050
  458.750    2.221    0.268    0.323   27.554
  459.000    1.916    0.295    0.324   25.269
  459.250    1.782    0.286    0.326   24.210
  459.500    1.697    0.283    0.319   23.636
  459.750    1.660    0.287    0.309   25.325
  460.000    1.667    0.297    0.302   29.395
  460.250    1.737    0.304    0.304   33.523
  460.500    1.913    0.308    0.310   37.471
  460.750    2.123    0.308    0.315   42.514
  461.000    2.520    0.288    0.319   47.254
  461.250    2.993    0.269    0.321   50.902
  461.500    3.873    0.247    0.318   57.411
  461.750    4.958    0.207    0.313   63.679
  462.000    7.089    0.161    0.300   66.956
  462.250   16.393    0.011    0.273   65.285
  462.500   19.179   -0.006    0.199   30.454
  462.750   21.155   -0.013    0.147   22.003
  463.000   28.235   -0.015    0.121   18.379
  463.250   29.508   -0.014    0.130   21.471
  463.500   30.061   -0.014    0.149   30.730
  463.750   21.323   -0.012    0.162   33.945
  464.000   17.869   -0.011    0.170   34.527
  464.250   12.451   -0.003    0.184   35.549
  464.500   11.328    0.005    0.240   86.457
  464.750    9.901    0.014    0.275   94.555
  465.000    8.639    0.026    0.295   98.195
  465.250    8.268    0.036    0.296   93.350
  465.500    8.167   -0.008    0.282   75.374
  465.750    8.098   -0.006    0.215   71.503
  466.000    8.029   -0.002    0.216   75.878
  466.250    7.887    0.030    0.265   91.429
  466.500    7.386    0.043    0.292  107.099
  466.750    6.745    0.046    0.316  111.043
  467.000    6.038    0.051    0.332  112.247
  467.250    5.544    0.058    0.336  112.102
