~VERSION INFORMATION
 VERS.                 2.0:   CWLS LOG ASCII STANDARD -VERSION 2.0
 WRAP.                  NO:   ONE LINE PER DEPTH STEP
~WELL INFORMATION BLOCK
#MNEM.UNIT           DATA                    DESCRIPTION OF MNEMONIC
#---------    -------------------            -------------------------------
# Generated from Intellog Unique Number	CC_80_83/WELL/2415
NULL.         -999.25                        : NULL_VALUE
WELL.         BAYSEL PHILLIPS                : Well_name    - WELL              
LOC .         11-29-081-08W4                 : Location     - LOCATION          
UWI .         00/11-29-081-08W4/0            : Uwi          - UNIQUE WELL ID    
ENTR.         DW                             : Entered      - ENTERED BY        
SRVC.         SCHLUMBERGER                   : Scn          - SERVICE COMPANY   
DATE.         03 MAR 76                      : Date         - LOG DATE
STRT.M        265.176                        : top_depth    - START DEPTH       
STOP.M        490.735                        : bot_depth    - STOP DEPTH        
STEP.M        0.305                          : increment    - STEP LENGTH       
~CURVE INFORMATION BLOCK
#MNEM UNIT       ERCB CURVE CODE    CURVE DESCRIPTION
#-----------   ------------------   ----------------------------------
DEPT.M        00 001 00 00         : DEPTH        - DEPTH                       
DPHI.V/V      00 890 00 00         : PHID         - DENSITY POROSITY (LIMESTONE)
GR  .API      00 310 00 00         : GR           - GAMMA RAY                   
ILD .OHMM     00 120 00 00         : RESD         - DEEP RESISTIVITY (DIL)      
~PARAMETER INFORMATION       
#MNEM.UNIT           DATA             DESCRIPTION OF MNEMONIC
#---------         -----------     ------------------------------
GL  .M        708.965              : gl           - GROUND LEVEL ELEVATION      
EREF.M        712.622              : kb           - ELEVATION OF DEPTH REFERENCE
DATM.M        712.622              : datum        - DATUM ELEVATION             
TDD .M        496.824              : tdd          - TOTAL DEPTH DRILLER         
RUN .         ONE                  : Run          - RUN NUMBER                  
ENG .         BILL                 : Engineer     - RECORDING ENGINEER          
WIT .         JIM                  : Witness      - WITNESSED BY                
MUD .         GEL                  : Mud_type     - MUD TYPE                    
MATR.         LIMESTONE            : Logunit      - NEUTRON MATRIX              
TMAX.C        23.8889              : BHT          - MAXIMUM RECORDED TEMPERATURE
BHTD.M        496.824              : BHTDEP       - MAXIMUM RECORDED TEMPERATURE
MATR.         1                    : LOGUNIT      - NEUTRON MATRIX              
RMT .C        25                   : MDTP         - TEMPERATURE OF MUD          
NEUT.         1                    : NEUTRON      - NEUTRON TYPE                
RESI.         0                    : RESIST       - RESISTIVITY TYPE            
RMC .OHMM     0.25                 : RMC          - RESISTIVITY OF MUD CAKE     
RMF .OHMM     0.25                 : RMF          - RESISTIVITY OF MUD FILTRATE 
SUFT.C        4                    : SUFT         - SURFACE TEMPERATURE         
~A  DEPTH     PHID       GR     RESD
  265.176    0.289   81.628    2.907
  265.481    0.285   83.206    2.902
  265.786    0.274   85.590    2.844
  266.090    0.265   80.229    2.789
  266.395    0.264   78.529    2.784
  266.700    0.258   83.774    2.782
  267.005    0.244   84.124    2.830
  267.310    0.184   82.844    2.880
  267.614    0.170   82.368    2.986
  267.919    0.211   79.054    3.095
  268.224    0.243   83.077    3.210
  268.529    0.251   89.953    3.455
  268.834    0.247   91.113    3.719
  269.139    0.211   86.570    3.854
  269.443    0.231   86.095    3.921
  269.748    0.239   85.226    3.918
  270.053    0.238   84.759    3.911
  270.358    0.245   85.912    3.908
  270.663    0.249   84.233    3.901
  270.967    0.250   78.868    3.897
  271.272    0.243   77.175    3.892
  271.577    0.217   75.068    3.888
  271.882    0.206   77.871    3.955
  272.187    0.145   74.142    4.100
  272.491    0.188   60.610    4.252
  272.796    0.237   59.321    4.752
  273.101    0.236   84.160    5.115
  273.406    0.252   86.137    4.920
  273.711    0.264   86.897    4.311
  274.015    0.296   79.903    3.637
  274.320    0.322   61.480    3.701
  274.625    0.356   53.663    4.804
  274.930    0.360   54.411   12.008
  275.235    0.338   61.704   17.115
  275.540    0.285   71.855   16.774
  275.844    0.279   72.611   13.635
  276.149    0.299   68.053   10.478
  276.454    0.271   74.125    7.062
  276.759    0.260   82.226    5.958
  277.064    0.271   78.081    5.732
  277.368    0.291   73.125    6.057
  277.673    0.309   72.250    7.571
  277.978    0.330   70.153   10.593
  278.283    0.331   65.604   13.749
  278.588    0.322   62.279   15.654
  278.892    0.225   67.935   16.533
  279.197    0.217   74.813   15.324
  279.502    0.219   83.320   11.131
  279.807    0.250   91.019    8.554
  280.112    0.271   90.142    7.353
  280.416    0.278   87.632    7.624
  280.721    0.273   90.430    8.362
  281.026    0.258   96.489    9.701
  281.331    0.244   92.764   11.465
  281.636    0.279   91.868   11.030
  281.941    0.291   93.455   10.413
  282.245    0.299   88.097   10.589
  282.550    0.303   73.335   10.984
  282.855    0.306   67.566   11.606
  283.160    0.310   65.058   13.715
  283.465    0.343   61.733   15.617
  283.769    0.362   60.855   19.166
  284.074    0.352   61.208   23.075
  284.379    0.328   64.408   23.483
  284.684    0.326   66.389   21.763
  284.989    0.310   69.601   19.417
  285.293    0.307   68.723   19.393
  285.598    0.331   65.801   20.105
  285.903    0.330   61.253   21.651
  286.208    0.280   57.117   25.110
  286.513    0.300   55.418   27.031
  286.817    0.344   58.212   26.497
  287.122    0.327   62.240   25.489
  287.427    0.318   66.266   23.179
  287.732    0.325   67.024   21.082
  288.037    0.320   61.250   18.818
  288.342    0.323   62.815   18.791
  288.646    0.321   65.204   19.480
  288.951    0.350   65.558   21.767
  289.256    0.370   54.889   24.782
  289.561    0.352   52.790   27.701
  289.866    0.352   59.662   30.374
  290.170    0.350   61.238   30.335
  290.475    0.333   60.771   28.635
  290.780    0.333   62.753   27.555
  291.085    0.322   60.245   26.011
  291.390    0.307   63.852   24.556
  291.694    0.314   63.385   22.756
  291.999    0.325   67.823   21.899
  292.304    0.328   74.295   21.464
  292.609    0.342   73.826   21.831
  292.914    0.342   67.233   22.219
  293.218    0.333   65.136   22.189
  293.523    0.337   67.526   22.164
  293.828    0.333   79.303   20.923
  294.133    0.301   80.057   19.759
  294.438    0.312   84.082   18.656
  294.743    0.294   90.145   17.288
  295.047    0.273   89.270   16.018
  295.352    0.288   88.385   15.998
  295.657    0.315   80.988   16.276
  295.962    0.274   78.070   15.369
  296.267    0.187   85.356   12.967
  296.571    0.296  102.034    9.965
  296.876    0.371  106.854    7.516
  297.181    0.436  107.607    5.995
  297.486    0.448  107.557    5.060
  297.791    0.266  105.868    4.269
  298.095    0.303   92.756    4.030
  298.400    0.335   78.406    4.102
  298.705    0.370   62.842    4.414
  299.010    0.386   56.249    5.219
  299.315    0.389   50.477    9.667
  299.619    0.351   51.642   16.615
  299.924    0.351   50.757   25.522
  300.229    0.346   54.381   25.485
  300.534    0.341   55.136   24.986
  300.839    0.334   51.398   23.145
  301.144    0.350   49.304   22.692
  301.448    0.366   43.118   22.240
  301.753    0.362   41.421   22.618
  302.058    0.358   45.039   23.032
  302.363    0.356   51.106   24.320
  302.668    0.355   51.852   24.749
  302.972    0.342   52.618   25.186
  303.277    0.336   55.823   25.156
  303.582    0.360   57.396   25.126
  303.887    0.349   59.374   25.095
  304.192    0.325   62.995   24.130
  304.496    0.275   64.156   23.659
  304.801    0.283   66.957   21.924
  305.106    0.296   73.425   18.500
  305.411    0.303   79.082   16.513
  305.716    0.316   74.942   16.493
  306.020    0.313   68.343   18.086
  306.325    0.301   76.864   18.751
  306.630    0.235   88.642   16.427
  306.935    0.219  100.416   10.666
  307.240    0.215   97.903    8.197
  307.545    0.204   99.886    6.066
  307.849    0.205   98.197    6.289
  308.154    0.266   91.196    7.161
  308.459    0.316   85.426    9.123
  308.764    0.335   76.386   14.015
  309.069    0.344   80.403   19.239
  309.373    0.348   76.674   20.704
  309.678    0.341   71.311   20.297
  309.983    0.329   78.593   18.460
  310.288    0.313   86.698   16.479
  310.593    0.258   91.944   13.645
  310.897    0.258   93.511   11.953
  311.202    0.268   89.779   11.713
  311.507    0.279   85.238   12.147
  311.812    0.276   87.621   13.322
  312.117    0.265   90.427   14.341
  312.421    0.280   81.385   15.147
  312.726    0.292   80.104   14.301
  313.031    0.269   92.691   12.765
  313.336    0.239   91.412   10.377
  313.641    0.272   80.332    9.798
  313.946    0.302   64.761   10.543
  314.250    0.309   58.169   11.783
  314.555    0.294   65.460   14.734
  314.860    0.318   64.583   17.745
  315.165    0.317   71.872   17.387
  315.470    0.309   79.974   16.416
  315.774    0.289   81.134   15.504
  316.079    0.283   83.120   14.632
  316.384    0.260   79.791   13.815
  316.689    0.285   78.513   13.291
  316.994    0.283   82.125   13.032
  317.298    0.266   85.331   12.536
  317.603    0.259   89.765   12.060
  317.908    0.253   95.419   10.968
  318.213    0.242  101.881    9.608
  318.518    0.223  103.866    7.809
  318.822    0.225  101.361    7.101
  319.127    0.234   99.251    7.089
  319.432    0.261   97.162    7.084
  319.737    0.277   89.756    7.624
  320.042    0.294   76.221    9.713
  320.347    0.297   76.567   12.606
  320.651    0.270   79.776   14.086
  320.956    0.245   87.474   14.065
  321.261    0.255   95.172   13.036
  321.566    0.235   99.595   10.794
  321.871    0.236   99.538    9.820
  322.175    0.230   96.622    9.094
  322.480    0.233   96.971    8.919
  322.785    0.247   94.874    8.903
  323.090    0.267   91.544    9.229
  323.395    0.274   93.938    9.397
  323.699    0.281   90.204   10.114
  324.004    0.286   83.207   10.884
  324.309    0.301   81.516   12.396
  324.614    0.302   90.431   14.380
  324.919    0.298   88.331   16.068
  325.223    0.297   67.866   16.343
  325.528    0.309   61.274   15.437
  325.833    0.298   70.196   13.522
  326.138    0.265   86.871   10.390
  326.443    0.260   92.526    8.445
  326.748    0.270   98.589    7.127
  327.052    0.269  104.648    6.362
  327.357    0.258  104.997    5.676
  327.662    0.260  102.896    5.462
  327.967    0.255   98.758    5.353
  328.272    0.248   95.838    5.448
  328.576    0.246   92.518    5.753
  328.881    0.251   96.946    5.856
  329.186    0.255  100.562    5.633
  329.491    0.257  101.726    5.218
  329.796    0.275  104.115    5.116
  330.100    0.272  103.242    4.920
  330.405    0.263   95.019    4.915
  330.710    0.264   91.280    4.817
  331.015    0.254   96.518    4.548
