~VERSION INFORMATION
 VERS.                 2.0:   CWLS LOG ASCII STANDARD -VERSION 2.0
 WRAP.                  NO:   ONE LINE PER DEPTH STEP
~WELL INFORMATION BLOCK
#MNEM.UNIT           DATA                    DESCRIPTION OF MNEMONIC
#---------    -------------------            -------------------------------
# Generated from Intellog Unique Number	CX_WELLS/WELL/2321
WELL.         11-35-088-17W4                 : Well_name    - WELL
LOC .         00/11-35-088-17W4/0            : Location     - LOCATION
UWI .         00/11-35-088-17W400            : Uwi          - UNIQUE WELL ID
ENTR.         DW                             : Entered      - ENTERED BY
SRVC.         SCHLUMBERGER                   : Scn          - SERVICE COMPANY
STRT.M        96                             : top_depth    - START DEPTH
STOP.M        230                            : bot_depth    - STOP DEPTH
STEP.M        0.25                           : increment    - STEP LENGTH
 NULL. -999.2500:NULL Value
~CURVE INFORMATION BLOCK
#MNEM UNIT       ERCB CURVE CODE    CURVE DESCRIPTION
#-----------   ------------------   ----------------------------------
DEPT.M        00 001 00 00         : DEPTH        - DEPTH
GR  .API      00 310 00 00         : GR           - GAMMA RAY
NPHI.V/V      00 330 00 00         : PHIN         - NEUTRON POROSITY (SANDSTONE)
DPHI.V/V      00 890 00 00         : PHID         - DENSITY POROSITY (SANDSTONE)
ILD .OHMM     00 120 00 00         : RESD         - DEEP RESISTIVITY (DIL)
~PARAMETER INFORMATION
#MNEM.UNIT           DATA             DESCRIPTION OF MNEMONIC
#---------         -----------     ------------------------------
GL  .M        499.57               : gl           - GROUND LEVEL ELEVATION
EREF.M        502.47               : kb           - ELEVATION OF DEPTH REFERENCE
DATM.M        502.47               : datum        - DATUM ELEVATION
TDD .M        235                  : tdd          - TOTAL DEPTH DRILLER
RUN .         ONE                  : Run          - RUN NUMBER
ENG .         BILL                 : Engineer     - RECORDING ENGINEER
WIT .         JIM                  : Witness      - WITNESSED BY
MUD .         GEL                  : Mud_type     - MUD TYPE
MATR.         SANDSTONE            : Logunit      - NEUTRON MATRIX
TMAX.C        25                   : BHT          - MAXIMUM RECORDED TEMPERATURE
BHTD.M        235                  : BHTDEP       - MAXIMUM RECORDED TEMPERATURE
MATR.         1                    : LOGUNIT      - NEUTRON MATRIX
RMT .C        25                   : MDTP         - TEMPERATURE OF MUD
NEUT.         1                    : NEUTRON      - NEUTRON TYPE
RESI.         0                    : RESIST       - RESISTIVITY TYPE
RMC .OHMM     0.25                 : RMC          - RESISTIVITY OF MUD CAKE
RMF .OHMM     0.25                 : RMF          - RESISTIVITY OF MUD FILTRATE
SUFT.C        15                   : SUFT         - SURFACE TEMPERATURE
~A  DEPTH       GR     PHIN     PHID     RESD
# ...
  139.500   70.265    0.445    0.210   10.767
  139.750   69.085    0.446    0.213   10.027
  140.000   74.064    0.454    0.211    9.512
  140.250   78.415    0.463    0.208    9.897
  140.500   85.225    0.464    0.211    9.925
  140.750   91.421    0.465    0.217    9.777
  141.000   90.253    0.465    0.227    9.797
  141.250   87.832    0.464    0.224    9.824
  141.500   86.037    0.462    0.218   10.222
  141.750   85.484    0.458    0.217   10.637
  142.000   86.763    0.453    0.220   11.076
  142.250   91.127    0.447    0.220   11.534
  142.500   91.791    0.440    0.220   11.765
  142.750   90.611    0.434    0.223   12.259
  143.000   89.431    0.429    0.222   12.748
  143.250   87.034    0.420    0.219   13.022
  143.500   84.613    0.413    0.223   13.302
  143.750   80.962    0.405    0.227   13.588
  144.000   78.553    0.402    0.213   13.880
  144.250   75.529    0.401    0.198   14.178
  144.500   73.735    0.402    0.190   14.483
  144.750   71.326    0.404    0.209   14.794
  145.000   68.916    0.409    0.238   14.855
  145.250   68.990    0.415    0.262   14.886
  145.500   69.642    0.423    0.303   14.927
  145.750   69.704    0.433    0.315   14.969
  146.000   69.741    0.440    0.302   15.301
  146.250   68.561    0.436    0.290   15.332
  146.500   67.996    0.433    0.268   15.385
  146.750   68.045    0.428    0.255   15.439
  147.000   68.106    0.424    0.277   15.749
  147.250   68.770    0.429    0.289   15.792
  147.500   68.807    0.435    0.293   15.836
  147.750   69.471    0.441    0.294   15.588
  148.000   71.377    0.441    0.296   15.355
  148.250   73.258    0.440    0.285   14.838
  148.500   76.392    0.444    0.267   14.329
  148.750   78.900    0.446    0.246   13.846
  149.000   75.274    0.438    0.228   13.630
  149.250   71.623    0.401    0.211   14.183
  149.500   67.985    0.382    0.183   15.034
  149.750   63.720    0.352    0.161   16.234
  150.000   60.696    0.357    0.219   16.892
  150.250   60.143    0.368    0.232   16.024
  150.500   62.651    0.382    0.261   14.380
  150.750   67.015    0.414    0.267   13.155
  151.000   71.354    0.425    0.252   12.479
  151.250   74.476    0.434    0.240   12.284
  151.500   76.382    0.440    0.224   12.092
  151.750   77.660    0.441    0.219   11.677
  152.000   80.181    0.439    0.215   10.486
  152.250   81.459    0.446    0.217   10.322
  152.500   80.267    0.451    0.219   11.574
  152.750   77.243    0.434    0.201   12.260
  153.000   72.400    0.401    0.143   13.747
  153.250   69.352    0.352    0.088   15.111
  153.500   65.124    0.353    0.121   15.435
  153.750   64.534    0.381    0.159   12.160
  154.000   66.439    0.399    0.139    9.948
  154.250   70.164    0.432    0.159    7.144
  154.500   76.986    0.490    0.188    4.948
  154.750   83.194    0.524    0.214    3.425
  155.000   88.148    0.544    0.241    2.414
  155.250   94.343    0.554    0.235    2.758
  155.500  105.468    0.543    0.224    3.207
  155.750  103.673    0.500    0.204    4.018
  156.000   99.433    0.467    0.206    5.417
  156.250   95.180    0.462    0.208    6.914
  156.500   93.373    0.462    0.199    8.045
  156.750   89.759    0.461    0.189    8.843
  157.000   88.567    0.463    0.176    9.923
  157.250   88.616    0.466    0.153   10.518
  157.500   88.653    0.461    0.138   10.547
  157.750   89.317    0.456    0.143   10.375
  158.000   91.850    0.453    0.204   10.404
  158.250   93.104    0.451    0.216   10.433
  158.500   95.009    0.449    0.224   10.284
  158.750   97.517    0.450    0.223   10.109
  159.000  100.025    0.450    0.219    9.958
  159.250  100.689    0.447    0.211   10.172
  159.500  100.123    0.432    0.209   10.984
  159.750   95.256    0.410    0.221   11.643
  160.000   93.461    0.399    0.230   12.581
  160.250   92.281    0.423    0.230   12.860
  160.500   91.716    0.428    0.228   12.878
  160.750   89.934    0.430    0.221   12.914
  161.000   87.525    0.425    0.210   13.698
  161.250   84.501    0.414    0.181   15.338
  161.500   82.079    0.395    0.113   17.520
  161.750   78.441    0.347    0.103   17.580
  162.000   75.417    0.357    0.144   16.977
  162.250   75.467    0.383    0.187   15.245
  162.500   79.831    0.429    0.213   14.452
  162.750   81.109    0.437    0.223   13.211
  163.000   78.712    0.422    0.234   12.294
  163.250   75.689    0.410    0.233   12.558
  163.500   72.653    0.399    0.215   13.321
  163.750   72.100    0.386    0.195   13.607
  164.000   73.366    0.379    0.169   13.899
  164.250   77.115    0.389    0.184   13.947
  164.500   79.611    0.407    0.232   13.729
  164.750   83.348    0.436    0.209   13.768
  165.000   85.880    0.445    0.204   13.543
  165.250   84.700    0.446    0.218   13.581
  165.500   82.906    0.442    0.239   13.627
  165.750   82.340    0.441    0.250   13.656
  166.000   82.390    0.443    0.245   13.693
  166.250   82.439    0.441    0.234   13.731
  166.500   81.247    0.442    0.241   13.769
  166.750   80.681    0.442    0.247   13.817
  167.000   78.285    0.442    0.243   13.855
  167.250   76.478    0.435    0.231   14.153
  167.500   74.683    0.416    0.191   14.447
  167.750   72.286    0.388    0.119   15.902
  168.000   71.094    0.341    0.069   16.856
  168.250   69.300    0.323    0.068   17.868
  168.500   65.661    0.332    0.081   16.950
  168.750   67.554    0.362    0.101   14.658
  169.000   74.992    0.455    0.155   13.640
  169.250   80.585    0.467    0.170   12.477
  169.500   83.080    0.453    0.192   12.057
  169.750   84.973    0.435    0.208   11.651
  170.000   85.637    0.418    0.191   11.469
  170.250   86.301    0.409    0.154   11.493
  170.500   84.507    0.402    0.135   11.525
  170.750   83.327    0.397    0.125   11.565
  171.000   81.557    0.392    0.131   11.597
  171.250   81.606    0.401    0.136   11.854
  171.500   82.885    0.422    0.191   11.870
  171.750   84.790    0.436    0.222   11.701
  172.000   85.430    0.445    0.213   11.510
  172.250   87.323    0.445    0.204   10.926
  172.500   88.614    0.448    0.210   10.748
  172.750   88.650    0.459    0.215   10.573
  173.000   90.556    0.458    0.207   10.224
  173.250   93.076    0.452    0.192   10.057
  173.500   94.342    0.448    0.181   10.092
  173.750   95.633    0.450    0.176   10.120
  174.000   94.453    0.462    0.178   10.155
  174.250   92.659    0.462    0.172   10.183
  174.500   90.250    0.456    0.174   10.211
  174.750   85.984    0.446    0.180   10.045
  175.000   89.107    0.442    0.218   10.072
  175.250   93.458    0.443    0.214   10.100
  175.500   95.978    0.444    0.210   10.135
  175.750   94.799    0.446    0.204   10.163
  176.000   91.775    0.444    0.200   10.382
  176.250   88.763    0.439    0.197   10.605
  176.500   88.186    0.431    0.194   11.043
  176.750   87.645    0.420    0.200   11.066
  177.000   87.670    0.424    0.204   11.514
  177.250   87.731    0.432    0.201   11.762
  177.500   90.866    0.438    0.191   12.015
  177.750   92.132    0.446    0.183   12.736
  178.000   93.411    0.446    0.189   13.252
  178.250   90.989    0.446    0.209   13.800
  178.500   87.363    0.444    0.217   14.359
  178.750   87.413    0.444    0.220   14.399
  179.000   90.547    0.443    0.215   14.429
  179.250   93.055    0.419    0.211   14.479
  179.500   94.936    0.410    0.211   14.519
  179.750   98.071    0.404    0.208   14.559
  180.000   96.891    0.393    0.203   14.872
  180.250   94.469    0.379    0.190   15.191
  180.500   90.843    0.365    0.178   15.518
  180.750   89.663    0.368    0.161   15.851
  181.000   89.713    0.400    0.162   15.047
  181.250   96.523    0.415    0.171   13.755
  181.500  102.718    0.430    0.182   13.274
  181.750  105.853    0.435    0.188   12.836
  182.000  107.119    0.438    0.192   12.871
  182.250  107.783    0.438    0.189   13.148
  182.500  105.374    0.435    0.184   13.202
  182.750  103.580    0.430    0.170   13.220
