~VERSION INFORMATION
 VERS.                 2.0:   CWLS LOG ASCII STANDARD -VERSION 2.0
 WRAP.                  NO:   ONE LINE PER DEPTH STEP
~WELL INFORMATION BLOCK
#MNEM.UNIT           DATA                    DESCRIPTION OF MNEMONIC
#---------    -------------------            -------------------------------
# Generated from Intellog Unique Number	CS_73_76/WELL/812
WELL.         ARGO PETROLEUM CORPORATION     : Well_name    - WELL
LOC .         00/10-06-073-10W4/0            : Location     - LOCATION
UWI .         00/10-06-073-10W4/0            : Uwi          - UNIQUE WELL ID
ENTR.         SP                             : Entered      - ENTERED BY
SRVC.         SCHLUMBERGER                   : Scn          - SERVICE COMPANY
STRT.M        310.896                        : top_depth    - START DEPTH
STOP.M        527.646                        : bot_depth    - STOP DEPTH
STEP.M        0.25                           : increment    - STEP LENGTH
 NULL. -999.2500:NULL Value
~CURVE INFORMATION BLOCK
#MNEM UNIT       ERCB CURVE CODE    CURVE DESCRIPTION
#-----------   ------------------   ----------------------------------
DEPT.M        00 001 00 00         : DEPTH        - DEPTH
GR  .API      00 310 00 00         : GR           - GAMMA RAY
DPHI.V/V      00 890 00 00         : PHID         - DENSITY POROSITY (SANDSTONE)
NPHI.V/V      00 330 00 00         : PHIN         - NEUTRON POROSITY (SANDSTONE)
ILD .OHMM     00 120 00 00         : RESD         - DEEP RESISTIVITY (DIL)
~PARAMETER INFORMATION
#MNEM.UNIT           DATA             DESCRIPTION OF MNEMONIC
#---------         -----------     ------------------------------
GL  .M        661.721              : gl           - GROUND LEVEL ELEVATION
EREF.M        665.074              : kb           - ELEVATION OF DEPTH REFERENCE
DATM.M        661.721              : datum        - DATUM ELEVATION
TDD .M        530.657              : tdd          - TOTAL DEPTH DRILLER
RUN .         ONE                  : Run          - RUN NUMBER
ENG .         BILL                 : Engineer     - RECORDING ENGINEER
WIT .         JIM                  : Witness      - WITNESSED BY
MUD .         GEL                  : Mud_type     - MUD TYPE
MATR.         SANDSTONE            : Logunit      - NEUTRON MATRIX
TMAX.C        12.2222              : BHT          - MAXIMUM RECORDED TEMPERATURE
BHTD.M        530.657              : BHTDEP       - MAXIMUM RECORDED TEMPERATURE
MATR.         1                    : LOGUNIT      - NEUTRON MATRIX
RMT .C        25                   : MDTP         - TEMPERATURE OF MUD
NEUT.         1                    : NEUTRON      - NEUTRON TYPE
RESI.         0                    : RESIST       - RESISTIVITY TYPE
RMC .OHMM     0.25                 : RMC          - RESISTIVITY OF MUD CAKE
RMF .OHMM     0.25                 : RMF          - RESISTIVITY OF MUD FILTRATE
SUFT.C        15                   : SUFT         - SURFACE TEMPERATURE
~A  DEPTH       GR     PHID     PHIN     RESD
# ...
  441.396   93.072    0.243    0.536    3.389
  441.646   92.953    0.270    0.530    3.057
  441.896   93.029    0.272    0.507    3.359
  442.146   92.323    0.281    0.493    3.871
  442.396   92.308    0.279    0.483    4.290
  442.646   92.529    0.276    0.473    4.658
  442.896   91.115    0.279    0.462    4.935
  443.146   92.584    0.275    0.457    5.009
  443.396   93.814    0.225    0.460    4.972
  443.646   94.865    0.220    0.456    4.915
  443.896   93.831    0.228    0.465    4.675
  444.146   92.840    0.222    0.477    4.545
  444.396   91.878    0.224    0.485    4.408
  444.646   90.301    0.231    0.440    4.402
  444.896   87.709    0.224    0.390    4.667
  445.146   81.922    0.180    0.368    5.172
  445.396   77.716    0.135    0.425    5.666
  445.646   80.103    0.137    0.456    5.916
  445.896   83.573    0.238    0.486    6.032
  446.146   86.641    0.240    0.500    5.753
  446.396   88.956    0.260    0.507    5.369
  446.646   89.754    0.262    0.505    5.153
  446.896   88.900    0.258    0.496    5.003
  447.146   84.590    0.252    0.489    5.004
  447.396   84.966    0.245    0.482    5.269
  447.646   86.758    0.234    0.486    5.286
  447.896   89.410    0.225    0.492    5.281
  448.146   90.807    0.232    0.497    5.391
  448.396   91.064    0.233    0.502    5.383
  448.646   88.541    0.216    0.487    5.382
  448.896   87.983    0.198    0.477    5.381
  449.146   91.446    0.209    0.465    5.379
  449.396   91.956    0.215    0.457    5.460
  449.646   91.669    0.223    0.449    5.479
  449.896   94.561    0.227    0.445    5.482
  450.146   96.120    0.232    0.440    5.586
  450.396   96.706    0.231    0.444    5.573
  450.646   94.549    0.231    0.460    5.680
  450.896   92.783    0.231    0.484    5.690
  451.146   93.508    0.224    0.498    5.567
  451.396   96.784    0.224    0.493    5.585
  451.646   98.002    0.225    0.482    5.465
  451.896   96.594    0.239    0.476    5.466
  452.146   93.564    0.239    0.482    5.289
  452.396   90.578    0.248    0.486    5.237
  452.646   89.020    0.253    0.494    5.178
  452.896   88.753    0.259    0.479    5.093
  453.146   91.494    0.260    0.461    4.986
  453.396   92.786    0.249    0.454    4.996
  453.646   93.420    0.244    0.463    5.006
  453.896   92.008    0.253    0.471    4.901
  454.146   88.565    0.258    0.473    4.823
  454.396   88.186    0.226    0.475    4.639
  454.646   89.319    0.216    0.490    4.373
  454.896   92.037    0.227    0.500    4.249
  455.146   93.981    0.229    0.501    4.121
  455.396   95.819    0.239    0.487    3.996
  455.646   93.620    0.244    0.496    3.721
  455.896   94.672    0.255    0.517    3.267
  456.146   95.318    0.264    0.541    2.822
  456.396   95.059    0.266    0.568    2.583
  456.646   92.378    0.263    0.564    2.184
  456.896   91.079    0.251    0.545    2.004
  457.146   91.774    0.264    0.531    1.946
  457.396   93.970    0.254    0.542    1.893
  457.646   96.526    0.247    0.551    1.893
  457.896   97.844    0.249    0.564    1.951
  458.146   99.982    0.252    0.576    2.017
  458.396  102.575    0.252    0.594    2.180
  458.646  103.252    0.260    0.593    2.330
  458.896  100.666    0.258    0.554    2.555
  459.146   96.013    0.257    0.499    2.867
  459.396   93.276    0.237    0.479    3.482
  459.646   92.378    0.224    0.472    3.795
  459.896   91.806    0.226    0.468    4.038
  460.146   90.988    0.233    0.462    4.193
  460.396   90.003    0.235    0.463    4.461
  460.646   88.682    0.220    0.469    4.787
  460.896   86.549    0.222    0.454    5.108
  461.146   84.006    0.199    0.433    5.171
  461.396   83.225    0.139    0.432    5.086
  461.646   83.242    0.200    0.462    4.884
  461.896   81.729    0.221    0.489    4.795
  462.146   79.598    0.236    0.495    4.895
  462.396   75.122    0.230    0.463    4.987
  462.646   71.432    0.196    0.428    5.054
  462.896   68.965    0.168    0.405    5.110
  463.146   68.019    0.146    0.447    5.077
  463.396   71.486    0.232    0.461    4.773
  463.646   71.665    0.293    0.461    4.323
  463.896   73.252    0.297    0.458    4.014
  464.146   79.070    0.280    0.456    3.783
  464.396   86.607    0.218    0.481    3.568
  464.646   91.841    0.205    0.506    3.478
  464.896   98.226    0.202    0.519    3.229
  465.146  100.574    0.220    0.521    3.140
  465.396  101.469    0.234    0.523    2.902
  465.646  102.677    0.222    0.539    2.747
  465.896  103.038    0.216    0.545    2.724
  466.146  103.636    0.229    0.539    2.672
  466.396  104.348    0.229    0.519    2.675
  466.646  104.273    0.215    0.508    2.676
  466.896  103.693    0.235    0.505    2.699
  467.146  100.771    0.235    0.506    2.776
  467.396   98.813    0.207    0.490    2.818
  467.646   98.494    0.203    0.488    2.933
  467.896   98.187    0.213    0.478    3.054
  468.146   96.198    0.215    0.475    3.198
  468.396   93.379    0.225    0.506    3.240
  468.646   91.438    0.230    0.524    2.975
  468.896   90.302    0.232    0.535    2.763
  469.146   93.248    0.237    0.540    2.668
  469.396   97.021    0.236    0.540    2.722
  469.646  100.779    0.228    0.535    2.745
  469.896  102.972    0.234    0.521    2.899
  470.146   96.962    0.236    0.498    3.190
  470.396   91.030    0.236    0.465    3.723
  470.646   87.622    0.222    0.437    4.602
  470.896   86.151    0.190    0.430    5.232
  471.146   83.219    0.149    0.418    6.564
  471.396   78.566    0.132    0.393    7.491
  471.646   74.039    0.093    0.308    8.070
  471.896   71.797    0.027    0.311    8.454
  472.146   74.564    0.224    0.347    8.423
  472.396   74.667    0.236    0.387    7.202
  472.646   74.486    0.253    0.414    6.881
  472.896   75.098    0.263    0.418    6.909
  473.146   76.106    0.268    0.429    6.908
  473.396   77.102    0.265    0.438    6.900
  473.646   78.669    0.245    0.428    6.371
  473.896   80.688    0.245    0.424    5.541
  474.146   82.689    0.234    0.444    5.717
  474.396   84.612    0.226    0.458    6.822
  474.646   76.903    0.259    0.452    8.667
  474.896   73.227    0.287    0.420   10.222
  475.146   72.356    0.303    0.401   12.507
  475.396   74.174    0.301    0.392   16.016
  475.646   75.837    0.289    0.392   16.903
  475.896   70.719    0.278    0.405   17.964
  476.146   66.565    0.278    0.412   19.121
  476.396   63.166    0.292    0.412   20.973
  476.646   59.180    0.300    0.397   22.529
  476.896   56.317    0.300    0.399   24.160
  477.146   59.122    0.296    0.410   26.048
  477.396   59.511    0.285    0.416   27.142
  477.646   58.267    0.294    0.402   21.317
  477.896   64.458    0.298    0.392   17.561
  478.146   68.625    0.286    0.385   14.480
  478.396   73.026    0.275    0.384   11.245
  478.646   75.681    0.274    0.385    9.422
  478.896   79.200    0.277    0.390    8.454
  479.146   83.852    0.276    0.392    7.711
  479.396   88.091    0.276    0.394    7.105
  479.646   91.113    0.272    0.388    6.867
  479.896   95.405    0.260    0.397    6.662
  480.146   94.638    0.250    0.399    6.468
  480.396   97.065    0.235    0.400    6.290
  480.646   98.977    0.214    0.401    6.197
  480.896  100.450    0.213    0.401    6.179
  481.146   93.368    0.226    0.412    6.171
  481.396   89.504    0.237    0.418    6.058
  481.646   89.892    0.242    0.419    6.055
  481.896   98.808    0.245    0.424    6.178
  482.146  106.879    0.247    0.422    6.240
  482.396  114.492    0.244    0.417    6.430
  482.646  118.923    0.234    0.414    6.757
  482.896  124.900    0.221    0.409    7.178
  483.146   91.262    0.215    0.400    7.734
  483.396   78.155    0.228    0.380    8.473
  483.646   71.762    0.241    0.388    9.786
  483.896   69.654    0.255    0.396   10.525
  484.146   73.479    0.279    0.390   10.680
  484.396   76.088    0.266    0.380   10.549
  484.646   78.720    0.258    0.376    9.898
