~VERSION INFORMATION
 VERS.                 2.0:   CWLS LOG ASCII STANDARD -VERSION 2.0
 WRAP.                  NO:   ONE LINE PER DEPTH STEP
~WELL INFORMATION BLOCK
#MNEM.UNIT           DATA                    DESCRIPTION OF MNEMONIC
#---------    -------------------            -------------------------------
# Generated from Intellog Unique Number	CS_71_72/WELL/910
WELL.         PEX PHILLIPS AEC KIRBY         : Well_name    - WELL
LOC .         00/11-31-072-07W4/0            : Location     - LOCATION
UWI .         00/11-31-072-07W4/0            : Uwi          - UNIQUE WELL ID
ENTR.         SP                             : Entered      - ENTERED BY
SRVC.         SCHLUMBERGER                   : Scn          - SERVICE COMPANY
STRT.M        310                            : top_depth    - START DEPTH
STOP.M        530                            : bot_depth    - STOP DEPTH
STEP.M        0.25                           : increment    - STEP LENGTH
 NULL. -999.2500:NULL Value
~CURVE INFORMATION BLOCK
#MNEM UNIT       ERCB CURVE CODE    CURVE DESCRIPTION
#-----------   ------------------   ----------------------------------
DEPT.M        00 001 00 00         : DEPTH        - DEPTH
ILD .OHMM     00 120 00 00         : RESD         - DEEP RESISTIVITY (DIL)
DPHI.V/V      00 890 00 00         : PHID         - DENSITY POROSITY (LIMESTONE)
NPHI.V/V      00 330 00 00         : PHIN         - NEUTRON POROSITY (LIMESTONE)
GR  .API      00 310 00 00         : GR           - GAMMA RAY
~PARAMETER INFORMATION
#MNEM.UNIT           DATA             DESCRIPTION OF MNEMONIC
#---------         -----------     ------------------------------
GL  .M        682.8                : gl           - GROUND LEVEL ELEVATION
EREF.M        685.88               : kb           - ELEVATION OF DEPTH REFERENCE
DATM.M        682.8                : datum        - DATUM ELEVATION
TDD .M        536                  : tdd          - TOTAL DEPTH DRILLER
RUN .         ONE                  : Run          - RUN NUMBER
ENG .         BILL                 : Engineer     - RECORDING ENGINEER
WIT .         JIM                  : Witness      - WITNESSED BY
MUD .         GEL                  : Mud_type     - MUD TYPE
MATR.         LIMESTONE            : Logunit      - NEUTRON MATRIX
TMAX.C        26                   : BHT          - MAXIMUM RECORDED TEMPERATURE
BHTD.M        536                  : BHTDEP       - MAXIMUM RECORDED TEMPERATURE
MATR.         1                    : LOGUNIT      - NEUTRON MATRIX
RMT .C        25                   : MDTP         - TEMPERATURE OF MUD
NEUT.         1                    : NEUTRON      - NEUTRON TYPE
RESI.         0                    : RESIST       - RESISTIVITY TYPE
RMC .OHMM     0.25                 : RMC          - RESISTIVITY OF MUD CAKE
RMF .OHMM     0.25                 : RMF          - RESISTIVITY OF MUD FILTRATE
SUFT.C        15                   : SUFT         - SURFACE TEMPERATURE
~A  DEPTH     RESD     PHID     PHIN       GR
# ...
  440.500    6.064    0.275    0.380   88.458
  440.750    6.299    0.279    0.375   87.863
  441.000    6.421    0.266    0.367   87.868
  441.250    6.423    0.256    0.365   88.496
  441.500    6.549    0.243    0.361   89.117
  441.750    6.550    0.231    0.376   90.353
  442.000    6.552    0.221    0.397   90.362
  442.250    6.679    0.212    0.413   89.761
  442.500    6.810    0.202    0.394   90.388
  442.750    6.812    0.197    0.386   91.623
  443.000    6.944    0.205    0.392   92.858
  443.250    6.947    0.208    0.393   93.479
  443.500    6.821    0.206    0.393   94.715
  443.750    6.695    0.208    0.382   96.563
  444.000    6.699    0.215    0.375   99.029
  444.250    6.701    0.216    0.373  100.263
  444.500    6.705    0.222    0.372  100.269
  444.750    6.707    0.214    0.370   96.609
  445.000    6.709    0.205    0.371   93.558
  445.250    6.711    0.201    0.377   91.737
  445.500    6.714    0.230    0.384   91.744
  445.750    6.846    0.246    0.389   93.591
  446.000    6.848    0.252    0.390   93.603
  446.250    6.850    0.239    0.380   92.392
  446.500    6.984    0.223    0.374   91.787
  446.750    6.986    0.199    0.372   91.799
  447.000    7.120    0.183    0.382   94.258
  447.250    7.259    0.201    0.382   96.105
  447.500    7.398    0.209    0.378   94.279
  447.750    7.402    0.221    0.368   92.454
  448.000    7.404    0.243    0.364   93.077
  448.250    7.135    0.231    0.362   94.925
  448.500    6.378    0.199    0.359   97.999
  448.750    5.492    0.189    0.374   96.178
  449.000    4.640    0.180    0.400   94.964
  449.250    3.995    0.191    0.416   94.971
  449.500    3.377    0.199    0.406   96.206
  449.750    3.133    0.203    0.411   97.445
  450.000    2.801    0.235    0.422   97.453
  450.250    2.699    0.262    0.428   93.789
  450.500    2.601    0.287    0.433   91.968
  450.750    2.602    0.281    0.434   94.425
  451.000    2.603    0.275    0.428   93.212
  451.250    2.604    0.271    0.425   90.162
  451.500    2.704    0.294    0.434   87.111
  451.750    2.757    0.305    0.439   85.897
  452.000    2.918    0.289    0.443   91.418
  452.250    2.974    0.282    0.445   95.103
  452.500    3.147    0.266    0.439   97.563
  452.750    3.524    0.269    0.434   98.804
  453.000    3.730    0.276    0.429   96.974
  453.250    4.022    0.276    0.424   90.250
  453.500    4.177    0.271    0.417   85.363
  453.750    4.505    0.253    0.402   85.377
  454.000    4.679    0.247    0.390   85.386
  454.250    4.859    0.257    0.385   83.559
  454.500    5.046    0.247    0.377   82.350
  454.750    5.341    0.241    0.374   81.749
  455.000    5.652    0.255    0.382   81.147
  455.250    6.329    0.241    0.394   80.543
  455.500    6.697    0.261    0.401   78.717
  455.750    7.786    0.295    0.397   75.055
  456.000    8.396    0.305    0.393   68.334
  456.250    8.884    0.326    0.385   66.507
  456.500    9.947    0.324    0.387   67.129
  456.750   10.929    0.324    0.380   67.753
  457.000   12.010    0.327    0.375   67.151
  457.250   12.709    0.314    0.367   64.713
  457.500   13.201    0.307    0.381   65.950
  457.750   13.455    0.303    0.397   65.349
  458.000   13.977    0.319    0.409   67.812
  458.250   14.245    0.324    0.408   68.433
  458.500   14.522    0.323    0.398   66.605
  458.750   14.528    0.314    0.393   65.396
  459.000   14.533    0.307    0.388   66.629
  459.250   14.541    0.307    0.384   68.476
  459.500   14.275    0.312    0.381   66.650
  459.750   14.280    0.314    0.378   66.052
  460.000   14.021    0.314    0.378   66.674
  460.250   13.767    0.307    0.394   66.684
  460.500   13.770    0.301    0.399   66.090
  460.750   13.779    0.339    0.396   66.094
  461.000   13.786    0.345    0.393   64.269
  461.250   13.534    0.339    0.388   62.443
  461.500   13.538    0.336    0.386   64.293
  461.750   13.543    0.331    0.399   66.138
  462.000   13.549    0.325    0.407   67.374
  462.250   13.555    0.328    0.413   69.224
  462.500   13.562    0.335    0.410   68.007
  462.750   13.567    0.329    0.402   64.346
  463.000   13.829    0.316    0.407   67.420
  463.250   13.834    0.336    0.400   69.879
  463.500   13.840    0.343    0.396   69.277
  463.750   13.845    0.335    0.394   66.229
  464.000   13.850    0.326    0.392   64.402
  464.250   13.854    0.338    0.391   63.802
  464.500   13.604    0.353    0.398   66.262
  464.750   12.864    0.341    0.403   67.499
  465.000   12.166    0.325    0.402   67.508
  465.250   11.723    0.317    0.398   67.519
  465.500   11.726    0.308    0.391   65.080
  465.750   11.515    0.312    0.386   66.321
  466.000   11.519    0.321    0.379   67.552
  466.250   11.523    0.335    0.375   68.788
  466.500   11.745    0.321    0.374   68.803
  466.750   12.200    0.310    0.370   68.812
  467.000   12.672    0.314    0.369   66.988
  467.250   12.916    0.317    0.376   66.383
  467.500   13.165    0.317    0.381   65.169
  467.750   13.174    0.327    0.380   64.571
  468.000   13.177    0.337    0.368   66.418
  468.250   12.230    0.160    0.356   65.203
  468.500   10.933    0.113    0.334   62.154
  468.750    9.958    0.099    0.331   61.552
  469.000    8.902    0.294    0.344   64.626
  469.250    8.418    0.296    0.365   66.472
  469.500    7.525    0.290    0.386   65.873
  469.750    6.854    0.270    0.377   65.269
  470.000    6.361    0.267    0.385   67.732
  470.250    5.903    0.277    0.392   69.578
  470.500    5.689    0.285    0.394   68.977
  470.750    5.585    0.297    0.394   66.539
  471.000    5.589    0.311    0.392   67.162
  471.250    5.697    0.297    0.386   69.012
  471.500    5.699    0.289    0.383   67.800
  471.750    5.596    0.294    0.382   69.645
  472.000    5.492    0.279    0.382   70.882
  472.250    5.813    0.265    0.387   71.503
  472.500    6.268    0.251    0.388   72.126
  472.750    6.760    0.239    0.395   72.752
  473.000    7.568    0.228    0.393   70.312
  473.250    8.964    0.264    0.378   64.203
  473.500    9.665    0.284    0.367   61.765
  473.750   11.235    0.292    0.360   68.509
  474.000   12.114    0.298    0.351   82.607
  474.250   12.820    0.303    0.342   85.063
  474.500   11.462    0.310    0.335   79.563
  474.750   10.838    0.293    0.333   79.573
  475.000   10.058    0.263    0.334   86.319
  475.250    9.512    0.240    0.333   96.128
  475.500    9.516    0.222    0.331  102.876
  475.750   10.653    0.212    0.331  105.332
  476.000   12.384    0.261    0.342  107.791
  476.250   14.668    0.269    0.343  100.456
  476.500   16.421    0.272    0.341   87.612
  476.750   18.733    0.282    0.334   75.376
  477.000   19.455    0.287    0.323   63.756
  477.250   18.748    0.269    0.340   68.667
  477.500   16.144    0.255    0.345   74.192
  477.750   14.704    0.248    0.351   77.263
  478.000   13.393    0.239    0.359   78.496
  478.250   12.199    0.230    0.367   80.961
  478.500   11.754    0.229    0.369   81.580
  478.750   10.510    0.243    0.364   84.038
  479.000   10.125    0.252    0.362   85.886
  479.250    9.940    0.261    0.358   87.740
  479.500    9.401    0.244    0.352   87.746
  479.750    9.057    0.235    0.347   88.367
  480.000    8.727    0.235    0.353   93.278
  480.250    8.409    0.233    0.353   93.902
  480.500    8.103    0.224    0.349   93.300
  480.750    8.260    0.225    0.348   97.600
  481.000    8.742    0.236    0.343   99.444
  481.250    9.607    0.231    0.339  100.678
  481.500   10.166    0.222    0.329  102.530
  481.750   11.598    0.218    0.323   92.744
  482.000   12.506    0.224    0.316   82.347
  482.250   13.740    0.239    0.322   66.440
  482.500   14.541    0.251    0.324   57.265
  482.750   15.103    0.258    0.324   51.766
  483.000   13.251    0.261    0.327   49.941
  483.250   11.197    0.273    0.331   59.137
  483.500    9.640    0.284    0.326   68.944
  483.750    8.301    0.263    0.321   75.690
