~Version Information Block
VERS .                 2.00:  CWLS LOG ASCII STANDARD - VERSION 2.00
WRAP.                  NO:
~Well Information Block
#MNEM.UNIT        Data Type   Information
#---------- ----------------  -----------
STRT.M           130.2000:
STOP.M           354.0000:
STEP.M             0.3000:
NULL.           -999.2500:
COMP.  :COMPANY
WELL.  :WELL
FLD.   :FIELD
LOC.   :LOCATION
CTRY.  :COUNTRY
PROV.  :PROVINCE
SRVC.  :SERVICE COMPANY
DATE.  :LOG DATE
UWI.   00/10-08-083-05W4/0:UNIQUE WELL ID
~Parameter Information Block
#MNEM.UNIT            Value   Description
#---------- ----------------  -----------
PROJECT.             SURMOUNT:  
SET  .                  RAW:  
~Curve Information Block
#MNEM.UNIT          API CODE    Curve Description
#-----------    ------------    -------------------------------------
DEPT.M                      :   DEPTH
DPHI .V/V                   :   DPHI
DT   .us/m                  :   DT
GR   .API                   :   GR
ILD  .Ohmm                  :   ILD
NPHI .V/V                   :   NPHI
PHID .                      :   Created by graphical digitiser entry.
RHOB .gm/c3                 :   RHOB
~A  Depth           DPHI          DT          GR         ILD        NPHI        PHID        RHOB
# ...
329.4000       -999.2500   -999.2500     35.1610     60.2461      0.1447      0.0287   2602.6716
329.7000       -999.2500   -999.2500     35.6595     62.1543      0.1447      0.0167   2622.5266
330.0000       -999.2500   -999.2500     36.1770     63.8950      0.1520      0.0199   2617.2297
330.3000       -999.2500   -999.2500     35.7739     66.4222      0.1528      0.0243   2609.8643
330.6000       -999.2500   -999.2500     33.4670     69.3352      0.1350      0.0178   2620.6021
330.9000       -999.2500   -999.2500     30.7304     72.9503      0.1317      0.0131   2628.3093
331.2000       -999.2500   -999.2500     30.1816     77.0956      0.1397      0.0174   2621.3142
331.5000       -999.2500   -999.2500     31.1648     81.3306      0.1464      0.0232   2611.7690
331.8000       -999.2500   -999.2500     32.6383     84.1299      0.1461      0.0224   2613.0940
332.1000       -999.2500   -999.2500     31.7792     85.9144      0.1389      0.0092   2634.8245
332.4000       -999.2500   -999.2500     29.1912     87.5504      0.1319      0.0011   2648.2158
332.7000       -999.2500   -999.2500     29.7367     87.5543      0.1317      0.0000   2649.9917
333.0000       -999.2500   -999.2500     33.8029     82.3254      0.1341      0.0000   2649.9917
333.3000       -999.2500   -999.2500     40.1987     48.6232      0.1385      0.0000   2649.9917
333.6000       -999.2500   -999.2500     47.0198     25.9659      0.1587      0.0048   2642.0452
333.9000       -999.2500   -999.2500     54.2859     19.5907      0.1736      0.0154   2624.5090
334.2000       -999.2500   -999.2500     67.0011     16.7938      0.2145      0.0198   2617.4041
334.5000       -999.2500   -999.2500     84.3666     16.2556      0.2706      0.0345   2593.1484
334.8000       -999.2500   -999.2500     99.5591     16.6683      0.3061      0.0523   2563.6868
335.1000       -999.2500   -999.2500    101.2827     17.6025      0.3255      0.0678   2538.1289
335.4000       -999.2500   -999.2500     95.1766     18.7832      0.2580      0.0766   2523.6260
335.7000       -999.2500   -999.2500     85.9409     20.0408      0.2311      0.0668   2539.7231
336.0000       -999.2500   -999.2500     82.9085     20.5190      0.2325      0.0385   2586.4197
336.3000       -999.2500   -999.2500     89.0289     19.8570      0.2688      0.0291   2601.9417
336.6000       -999.2500   -999.2500     94.7147     18.4456      0.3021      0.0535   2561.7246
336.9000       -999.2500   -999.2500     96.7464     17.0632      0.2862      0.0752   2525.9807
337.2000       -999.2500   -999.2500     99.6306     15.9577      0.3024      0.0932   2496.2493
337.5000       -999.2500   -999.2500    104.5343     15.1105      0.3178      0.1050   2476.7297
337.8000       -999.2500   -999.2500    107.6246     14.5025      0.3126      0.1035   2479.2947
338.1000       -999.2500   -999.2500    109.8342     14.1087      0.3149      0.0929   2496.7903
338.4000       -999.2500   -999.2500    110.6748     13.9682      0.3013      0.0723   2530.6396
338.7000       -999.2500   -999.2500    106.3630     13.9740      0.2873      0.0572   2555.6887
339.0000       -999.2500   -999.2500    100.8089     14.0712      0.2957      0.0577   2554.8545
339.3000       -999.2500   -999.2500    102.5242     14.2004      0.3233      0.0764   2523.9878
339.6000       -999.2500   -999.2500    101.8661     14.8420      0.3455      0.1059   2475.3049
339.9000       -999.2500   -999.2500     92.6635     16.3662      0.3247      0.0953   2492.7412
340.2000       -999.2500   -999.2500     82.2351     18.9276      0.2281      0.0821   2514.5347
340.5000       -999.2500   -999.2500     75.6504     21.7881      0.2388      0.0768   2523.2136
340.8000       -999.2500   -999.2500     72.6300     25.0067      0.2533      0.0572   2555.6548
341.1000       -999.2500   -999.2500     75.3513     29.5407      0.2643      0.0358   2590.9419
341.4000       -999.2500   -999.2500     79.6053     36.3993      0.2213      0.0435   2578.2312
341.7000       -999.2500   -999.2500     77.1258     45.0526      0.2091      0.0599   2551.2241
342.0000       -999.2500   -999.2500     66.0656     53.7537      0.1489      0.0599   2551.2134
342.3000       -999.2500   -999.2500     52.9862     60.8749      0.1416      0.0413   2581.8530
342.6000       -999.2500   -999.2500     40.2978     60.7304      0.1370      0.0173   2621.5283
342.9000       -999.2500   -999.2500     34.0627     54.9212      0.1381      0.0031   2644.8853
343.2000       -999.2500   -999.2500     35.7256     47.8682      0.1523      0.0000   2649.9917
343.5000       -999.2500   -999.2500     42.0462     43.4942      0.1664      0.0000   2649.9917
343.8000       -999.2500   -999.2500     48.9049     41.8623      0.1899      0.0000   2649.9917
344.1000       -999.2500   -999.2500     54.5123     41.9794      0.1904      0.0100   2633.5405
344.4000       -999.2500   -999.2500     57.4165     43.4100      0.1673      0.0150   2625.2703
344.7000       -999.2500   -999.2500     59.1538     46.1231      0.1733      0.0240   2610.3457
345.0000       -999.2500   -999.2500     62.7127     49.7445      0.1741      0.0186   2619.3567
345.3000       -999.2500   -999.2500     67.3247     53.6666      0.1686      0.0068   2638.7610
345.6000       -999.2500   -999.2500     73.4696     45.4775      0.1697      0.0179   2620.3904
345.9000       -999.2500   -999.2500     77.8310     32.9538      0.1778      0.0307   2599.3347
346.2000       -999.2500   -999.2500     80.4310     25.2404      0.2384      0.0335   2594.7026
346.5000       -999.2500   -999.2500     86.2237     21.1017      0.3027      0.0436   2578.0410
346.8000       -999.2500   -999.2500    114.9992     19.1244      0.3275      0.0412   2582.0613
347.1000       -999.2500   -999.2500    135.6038     18.6065      0.2557      0.0471   2572.2939
347.4000       -999.2500   -999.2500    130.6452     18.6137      0.2479      0.0620   2547.6313
347.7000       -999.2500   -999.2500    117.0566     19.3181      0.2838      0.0746   2526.9700
348.0000       -999.2500   -999.2500    120.3940     20.5441      0.2575      0.0771   2522.7791
348.3000       -999.2500   -999.2500     96.6330     21.9595      0.2099      0.0775   2522.0991
348.6000       -999.2500   -999.2500     73.5943     23.4248      0.2387      0.0463   2573.6313
348.9000       -999.2500   -999.2500     68.0401     23.4686      0.2674      0.0309   2599.0559
349.2000       -999.2500   -999.2500     67.3416     21.9664      0.2540      0.0401   2583.8210
349.5000       -999.2500   -999.2500     67.1408     19.1250      0.2537      0.0556   2558.3201
349.8000       -999.2500   -999.2500    110.2105     16.7785      0.2757      0.0614   2548.6301
350.1000       -999.2500   -999.2500    133.1587     15.7880      0.2841      0.0494   2568.5635
350.4000       -999.2500   -999.2500    130.2282     15.7124      0.2955      0.0461   2573.9536
350.7000       -999.2500   -999.2500    106.0549     16.5570      0.1532      0.0772   2522.5383
351.0000       -999.2500   -999.2500     89.4733     17.9840      0.1391      0.0819   2514.7927
351.3000       -999.2500   -999.2500     68.9941     19.3075      0.1376      0.0916   2498.7986
351.6000       -999.2500   -999.2500     50.4649     20.2997      0.1376      0.1002   2484.6350
351.9000       -999.2500   -999.2500     50.3912     21.2091      0.1370      0.0858   2508.4854
352.2000       -999.2500   -999.2500     59.5590     22.1319      0.1394      0.0806   2517.0747
352.5000       -999.2500   -999.2500     72.7106     22.5798   -999.2500      0.0924   2497.5122
352.8000       -999.2500   -999.2500     88.0705     22.7923   -999.2500      0.0843   2510.9619
353.1000       -999.2500   -999.2500    109.1710     23.0509   -999.2500      0.0356   2591.1951
353.4000       -999.2500   -999.2500    139.0335     23.2832   -999.2500      0.0049   2641.9089
353.7000       -999.2500   -999.2500    150.0000     23.4313   -999.2500      0.0032   2644.7014
354.0000       -999.2500   -999.2500    150.0000     23.3260   -999.2500      0.0016   2647.3467
