~VERSION INFORMATION
 VERS.                 2.0:   CWLS LOG ASCII STANDARD -VERSION 2.0
 WRAP.                  NO:   ONE LINE PER DEPTH STEP
~WELL INFORMATION BLOCK
#MNEM.UNIT           DATA                    DESCRIPTION OF MNEMONIC
#---------    -------------------            -------------------------------
# Generated from Intellog Unique Number	CN_91_93/WELL/3265
WELL.         PARAMOUNT RESOURCES LTD.       : Well_name    - WELL
LOC .         00/14-03-093-19W4/0            : Location     - LOCATION
UWI .         00/14-03-093-19W4/0            : Uwi          - UNIQUE WELL ID
ENTR.         JOETTE                         : Entered      - ENTERED BY
SRVC.         COMPUTALOG                     : Scn          - SERVICE COMPANY
DATE.         04/29/92                       : Date         - LOG DATE
STRT.M        95                             : top_depth    - START DEPTH
STOP.M        260                            : bot_depth    - STOP DEPTH
STEP.M        0.25                           : increment    - STEP LENGTH
 NULL. -999.2500:NULL Value
~CURVE INFORMATION BLOCK
#MNEM UNIT       ERCB CURVE CODE    CURVE DESCRIPTION
#-----------   ------------------   ----------------------------------
DEPT.M        00 001 00 00         : DEPTH        - DEPTH
CALI.MM       00 280 01 00         : CAL          - CALIPER
GR  .API      00 310 00 00         : GR           - GAMMA RAY
NPHI.V/V      00 330 00 00         : PHIN         - NEUTRON POROSITY (SANDSTONE)
DPHI.V/V      00 890 00 00         : PHID         - DENSITY POROSITY (SANDSTONE)
ILD .OHMM     00 120 00 00         : RESD         - DEEP RESISTIVITY (DIL)
~PARAMETER INFORMATION
#MNEM.UNIT           DATA             DESCRIPTION OF MNEMONIC
#---------         -----------     ------------------------------
GL  .M        519.8                : gl           - GROUND LEVEL ELEVATION
EREF.M        523.2                : kb           - ELEVATION OF DEPTH REFERENCE
DATM.M        523.2                : datum        - DATUM ELEVATION
TDD .M        260.5                : tdd          - TOTAL DEPTH DRILLER
RUN .         ONE                  : Run          - RUN NUMBER
ENG .         BILL                 : Engineer     - RECORDING ENGINEER
WIT .         JIM                  : Witness      - WITNESSED BY
MUD .         GEL                  : Mud_type     - MUD TYPE
MATR.         SANDSTONE            : Logunit      - NEUTRON MATRIX
TMAX.C        18                   : BHT          - MAXIMUM RECORDED TEMPERATURE
BHTD.M        260.5                : BHTDEP       - MAXIMUM RECORDED TEMPERATURE
RMT .C        18.9                 : MDTP         - TEMPERATURE OF MUD
MUDD.KG/M     1080                 : MWT          - MUD DENSITY
NEUT.         1                    : NEUTRON      - NEUTRON TYPE
RESI.         0                    : RESIST       - RESISTIVITY TYPE
RM  .OHMM     2.5                  : RM           - RESISTIVITY OF MUD
RMC .OHMM     2.5                  : RMC          - RESISTIVITY OF MUD CAKE
RMF .OHMM     2.5                  : RMF          - RESISTIVITY OF MUD FILTRATE
SUFT.C        4                    : SUFT         - SURFACE TEMPERATURE
~A  DEPTH      CAL       GR     PHIN     PHID     RESD
# ...
  204.500  159.209  114.854    0.417    0.176   10.469
  204.750  159.266  114.888    0.416    0.180   10.581
  205.000  159.825  111.608    0.416    0.185   10.895
  205.250  159.882  108.935    0.428    0.181   11.220
  205.500  159.932  107.466    0.435    0.165   11.220
  205.750  159.989  110.213    0.421    0.154   11.463
  206.000  160.046  106.627    0.401    0.169   11.908
  206.250  159.120   98.822    0.397    0.122   12.149
  206.500  158.675   97.952    0.395    0.096   11.940
  206.750  157.219  110.948    0.399    0.090   11.412
  207.000  156.271  117.616    0.407    0.110   11.412
  207.250  156.321  113.427    0.413    0.154   10.925
  207.500  160.905  110.452    0.417    0.177   10.533
  207.750  162.971  108.679    0.417    0.168   10.352
  208.000  162.533  105.097    0.414    0.140   10.365
  208.250  162.583  103.319    0.417    0.107   10.365
  208.500  161.141  105.772    0.422    0.130   10.491
  208.750  163.207  110.628    0.423    0.166   10.902
  209.000  166.772  114.881    0.409    0.164   11.330
  209.250  163.816  116.727    0.400    0.172   11.779
  209.500  165.380  119.469    0.379    0.182   12.012
  209.750  160.414  117.997    0.366    0.173   12.368
  210.000  162.997  106.882    0.369    0.152   12.385
  210.250  159.029  102.697    0.380    0.098   12.288
  210.500  157.587  109.361    0.377    0.057   11.964
  210.750  160.657  116.928    0.368    0.078   11.431
  211.000  165.227  124.801    0.359    0.117   10.721
  211.250  169.316  128.150    0.369    0.138    9.694
  211.500  168.361  127.582    0.384    0.150    9.259
  211.750  164.896  123.402    0.388    0.144    8.524
  212.000  162.449  123.432    0.417    0.146    8.072
  212.250  167.542  124.068    0.422    0.160    7.932
  212.500  167.585  120.185    0.414    0.164    8.322
  212.750  166.638   93.698    0.373    0.167   12.793
  213.000  161.171   67.513    0.237    0.245   25.300
  213.250  151.183   33.794    0.187    0.284   36.796
  213.500  153.249   26.592    0.165    0.339   46.072
  213.750  156.829   23.617    0.142    0.368   56.639
  214.000  156.377   23.656    0.133    0.367   62.250
  214.250  155.946   25.197    0.162    0.368   44.146
  214.500  156.003   28.546    0.178    0.381   34.683
  214.750  155.558   30.086    0.196    0.361   25.063
  215.000  155.608   29.819    0.222    0.341   23.722
  215.250  156.174   29.858    0.280    0.323   19.348
  215.500  155.722   30.198    0.308    0.318   17.325
  215.750  155.284   30.525    0.324    0.318   16.102
  216.000  154.839   30.860    0.325    0.320   15.383
  216.250  154.896   30.598    0.328    0.316   15.990
  216.500  155.462   30.029    0.333    0.318   15.990
  216.750  155.526   30.662    0.340    0.317   16.642
  217.000  155.583   35.220    0.345    0.312   20.647
  217.250  155.633   39.774    0.366    0.304   22.909
  217.500  154.177   43.127    0.372    0.297   28.684
  217.750  150.223   44.070    0.369    0.300   30.657
  218.000  153.796   41.685    0.367    0.304   38.397
  218.250  153.853   36.898    0.373    0.309   43.404
  218.500  153.415   31.814    0.373    0.314   47.705
  218.750  153.479   29.735    0.361    0.320   49.127
  219.000  153.027   31.275    0.340    0.321   48.280
  219.250  153.091   29.515    0.336    0.319   47.007
  219.500  152.631   28.938    0.341    0.314   46.204
  219.750  152.200   28.675    0.342    0.313   45.400
  220.000  152.243   29.609    0.339    0.313   45.450
  220.250  152.817   31.158    0.333    0.317   45.940
  220.500  153.369   31.485    0.331    0.319   47.302
  220.750  153.928   31.524    0.345    0.312   58.695
  221.000  153.992   31.855    0.386    0.302   70.167
  221.250  154.042   36.413    0.420    0.300   85.433
  221.500  154.107   40.068    0.433    0.299  117.457
  221.750  156.675   40.102    0.439    0.301  140.413
  222.000  154.214   40.442    0.428    0.302  145.976
  222.250  155.784   40.472    0.413    0.303  154.518
  222.500  156.853   40.812    0.398    0.308  168.251
  222.750  156.408   41.444    0.399    0.311  176.499
  223.000  156.458   42.684    0.411    0.309  183.520
  223.250  156.013   45.736    0.434    0.306  187.207
  223.500  156.084   46.368    0.433    0.310  190.909
  223.750  156.127   46.407    0.429    0.315  194.806
  224.000  156.191   45.236    0.422    0.313  196.846
  224.250  156.248   41.051    0.414    0.302  198.970
  224.500  155.803   41.090    0.408    0.305  199.188
  224.750  153.851   42.032    0.417    0.312  201.305
  225.000  152.401   40.556    0.419    0.322  197.896
  225.250  153.477   41.188    0.410    0.314  197.896
  225.500  155.027   44.236    0.418    0.303  196.613
  225.750  156.590   46.091    0.421    0.300  194.911
  226.000  157.150   45.824    0.416    0.302  189.773
  226.250  157.150   45.553    0.410    0.300  186.530
  226.500  157.307   45.587    0.413    0.297  185.060
  226.750  157.328   45.621    0.416    0.294  183.601
  227.000  157.406   46.559    0.414    0.292  183.831
  227.250  157.406   48.698    0.402    0.295  182.297
  227.500  157.506   51.148    0.390    0.290  166.306
  227.750  156.559   49.675    0.391    0.284  150.286
  228.000  156.559   51.526    0.391    0.282  138.365
  228.250  156.680   51.255    0.382    0.281  139.836
  228.500  156.228   47.673    0.388    0.279  149.429
  228.750  156.228   43.489    0.389    0.276  161.225
  229.000  156.371   40.806    0.365    0.274  164.464
  229.250  156.908   36.631    0.353    0.276  160.179
  229.500  157.475   39.373    0.357    0.279  154.486
  229.750  157.475   43.019    0.365    0.277  142.210
  230.000  157.589   49.385    0.375    0.270  129.735
  230.250  158.141   46.707    0.370    0.260  122.813
  230.500  158.212   40.112    0.368    0.253  136.266
  230.750  158.270   34.417    0.364    0.254  142.924
  231.000  158.312   35.966    0.355    0.274  143.125
  231.250  158.312   41.420    0.359    0.284  135.530
  231.500  158.441   48.385    0.382    0.284  130.713
  231.750  158.498   51.742    0.392    0.282  129.683
  232.000  158.590   49.663    0.385    0.287  128.640
  232.250  158.612   46.387    0.374    0.298  128.781
  232.500  158.662   45.513    0.369    0.302  131.390
  232.750  158.726   47.665    0.371    0.300  134.030
  233.000  158.790   48.900    0.379    0.297  136.873
  233.250  158.833   48.332    0.391    0.299  139.492
  233.500  159.392   46.253    0.394    0.297  146.331
  233.750  159.456   48.710    0.387    0.291  135.985
  234.000  159.456   50.243    0.373    0.289   98.253
  234.250  160.073   46.661    0.358    0.286   77.191
  234.500  160.137   40.669    0.353    0.280   49.862
  234.750  160.187   41.004    0.350    0.272   32.510
  235.000  160.761   47.371    0.352    0.262   23.709
  235.250  160.803   60.667    0.360    0.237   18.977
  235.500  161.370   74.567    0.372    0.202   16.369
  235.750  162.438   83.641    0.385    0.176   15.072
  236.000  163.500   94.222    0.389    0.157   15.235
  236.250  163.048   99.379    0.384    0.159   18.726
  236.500  157.602   82.539    0.390    0.195   23.017
  236.750  155.636   72.323    0.389    0.226   24.600
  237.000  154.186   65.130    0.383    0.256   30.807
  237.250  154.752   63.959    0.372    0.244   33.233
  237.500  157.313   65.194    0.387    0.234   38.275
  237.750  158.870   68.547    0.394    0.230   42.066
  238.000  159.939   72.202    0.392    0.233   40.201
  238.250  159.996   75.245    0.397    0.240   39.508
  238.500  160.060   71.663    0.400    0.243   39.508
  238.750  160.160   67.780    0.395    0.247   39.997
  239.000  159.679   63.902    0.390    0.252   41.555
  239.250  159.220   60.621    0.392    0.258   44.427
  239.500  159.319   59.747    0.391    0.265   47.482
  239.750  158.831   62.493    0.381    0.264   51.230
  240.000  157.884   65.244    0.382    0.264   54.236
  240.250  157.984   63.169    0.382    0.275   57.419
  240.500  157.517   58.382    0.372    0.283   59.186
  240.750  157.517   54.495    0.367    0.280   62.039
