~VERSION INFORMATION
 VERS.                 2.0:   CWLS LOG ASCII STANDARD -VERSION 2.0
 WRAP.                  NO:   ONE LINE PER DEPTH STEP
~WELL INFORMATION BLOCK
#MNEM.UNIT           DATA                    DESCRIPTION OF MNEMONIC
#---------    -------------------            -------------------------------
# Generated from Intellog Unique Number	CS_71_72/WELL/853
WELL.         HOL BVX UNIGAS NIXON           : Well_name    - WELL
LOC .         00/10-10-071-15W4/0            : Location     - LOCATION
UWI .         00/10-10-071-15W4/0            : Uwi          - UNIQUE WELL ID
ENTR.         SP                             : Entered      - ENTERED BY
SRVC.         SCHLUMBERGER                   : Scn          - SERVICE COMPANY
STRT.M        313.944                        : top_depth    - START DEPTH
STOP.M        517.944                        : bot_depth    - STOP DEPTH
STEP.M        0.25                           : increment    - STEP LENGTH
 NULL. -999.2500:NULL Value
~CURVE INFORMATION BLOCK
#MNEM UNIT       ERCB CURVE CODE    CURVE DESCRIPTION
#-----------   ------------------   ----------------------------------
DEPT.M        00 001 00 00         : DEPTH        - DEPTH
GR  .API      00 310 00 00         : GR           - GAMMA RAY
DPHI.V/V      00 890 00 00         : PHID         - DENSITY POROSITY (SANDSTONE)
NPHI.V/V      00 330 00 00         : PHIN         - NEUTRON POROSITY (SANDSTONE)
ILD .OHMM     00 120 00 00         : RESD         - DEEP RESISTIVITY (DIL)
~PARAMETER INFORMATION
#MNEM.UNIT           DATA             DESCRIPTION OF MNEMONIC
#---------         -----------     ------------------------------
GL  .M        620.573              : gl           - GROUND LEVEL ELEVATION
EREF.M        623.011              : kb           - ELEVATION OF DEPTH REFERENCE
DATM.M        620.573              : datum        - DATUM ELEVATION
TDD .M        523.646              : tdd          - TOTAL DEPTH DRILLER
RUN .         ONE                  : Run          - RUN NUMBER
ENG .         BILL                 : Engineer     - RECORDING ENGINEER
WIT .         JIM                  : Witness      - WITNESSED BY
MUD .         GEL                  : Mud_type     - MUD TYPE
MATR.         SANDSTONE            : Logunit      - NEUTRON MATRIX
TMAX.C        21.6667              : BHT          - MAXIMUM RECORDED TEMPERATURE
BHTD.M        523.646              : BHTDEP       - MAXIMUM RECORDED TEMPERATURE
MATR.         1                    : LOGUNIT      - NEUTRON MATRIX
RMT .C        25                   : MDTP         - TEMPERATURE OF MUD
NEUT.         1                    : NEUTRON      - NEUTRON TYPE
RESI.         0                    : RESIST       - RESISTIVITY TYPE
RMC .OHMM     0.25                 : RMC          - RESISTIVITY OF MUD CAKE
RMF .OHMM     0.25                 : RMF          - RESISTIVITY OF MUD FILTRATE
SUFT.C        15                   : SUFT         - SURFACE TEMPERATURE
~A  DEPTH       GR     PHID     PHIN     RESD
# ...
  357.444   72.071    0.248    0.457    4.545
  357.694   70.536    0.230    0.439    4.869
  357.944   68.413    0.209    0.420    5.095
  358.194   64.410    0.190    0.387    5.214
  358.444   61.421    0.165    0.355    5.246
  358.694   64.671    0.152    0.422    5.100
  358.944   77.715    0.183    0.496    4.705
  359.194   82.484    0.206    0.523    4.398
  359.444   84.855    0.221    0.538    4.239
  359.694   82.920    0.211    0.550    4.402
  359.944   78.701    0.201    0.541    4.497
  360.194   77.611    0.195    0.514    4.591
  360.444   80.217    0.193    0.491    4.666
  360.694   83.891    0.193    0.519    4.574
  360.944   88.102    0.215    0.589    4.371
  361.194   89.073    0.238    0.611    4.180
  361.444   90.088    0.243    0.627    4.061
  361.694   91.615    0.246    0.621    4.067
  361.944   90.644    0.249    0.603    4.179
  362.194   86.080    0.258    0.598    4.277
  362.444   82.241    0.267    0.603    4.347
  362.694   85.310    0.272    0.583    4.403
  362.944   87.280    0.275    0.587    4.409
  363.194   87.427    0.274    0.578    4.372
  363.444   85.439    0.274    0.532    4.258
  363.694   84.512    0.265    0.515    4.156
  363.944   86.940    0.256    0.510    4.121
  364.194   89.063    0.248    0.511    4.259
  364.444   89.402    0.245    0.522    4.393
  364.694   87.513    0.243    0.533    4.427
  364.944   83.654    0.264    0.516    4.440
  365.194   79.968    0.255    0.523    4.463
  365.444   76.720    0.256    0.515    4.521
  365.694   78.020    0.259    0.507    4.601
  365.944   79.434    0.238    0.498    4.612
  366.194   83.202    0.221    0.488    4.574
  366.444   86.142    0.223    0.520    4.418
  366.694   89.714    0.236    0.561    4.113
  366.944   91.339    0.243    0.608    3.885
  367.194   91.637    0.250    0.624    3.782
  367.444   90.566    0.250    0.643    3.880
  367.694   91.006    0.258    0.665    3.996
  367.944   91.703    0.252    0.647    4.138
  368.194   92.538    0.249    0.602    4.599
  368.444   92.791    0.240    0.573    4.788
  368.694   92.129    0.236    0.554    5.115
  368.944   89.688    0.236    0.544    5.293
  369.194   87.483    0.230    0.544    5.448
  369.444   86.801    0.233    0.571    5.528
  369.694   90.215    0.237    0.585    5.601
  369.944   91.688    0.246    0.512    5.657
  370.194   89.626    0.245    0.470    5.663
  370.444   86.604    0.255    0.454    5.523
  370.694   84.490    0.263    0.501    5.304
  370.944   76.700    0.279    0.549    4.925
  371.194   65.770    0.289    0.570    4.471
  371.444   59.155    0.305    0.567    3.918
  371.694   54.130    0.324    0.557    3.612
  371.944   51.453    0.326    0.550    3.463
  372.194   52.047    0.327    0.543    3.401
  372.444   53.572    0.326    0.535    3.422
  372.694   55.033    0.316    0.539    3.524
  372.944   56.819    0.308    0.567    3.767
  373.194   59.697    0.303    0.582    4.009
  373.444   61.938    0.300    0.568    4.283
  373.694   64.355    0.292    0.564    4.450
  373.944   65.829    0.284    0.551    4.755
  374.194   66.590    0.280    0.541    4.964
  374.444   64.709    0.276    0.527    5.044
  374.694   62.313    0.272    0.508    5.053
  374.944   62.001    0.270    0.495    5.012
  375.194   62.592    0.274    0.492    4.924
  375.444   62.895    0.286    0.486    4.746
  375.694   61.638    0.288    0.491    4.561
  375.944   59.442    0.289    0.498    4.283
  376.194   57.941    0.292    0.506    3.880
  376.444   57.167    0.298    0.530    3.626
  376.694   57.089    0.306    0.550    3.441
  376.944   57.432    0.316    0.571    3.291
  377.194   58.508    0.323    0.550    3.221
  377.444   59.828    0.326    0.528    3.178
  377.694   60.309    0.330    0.524    3.133
  377.944   57.667    0.334    0.521    3.090
  378.194   53.945    0.340    0.513    3.046
  378.444   51.762    0.346    0.508    3.004
  378.694   51.654    0.349    0.521    2.964
  378.944   50.706    0.349    0.520    2.939
  379.194   49.690    0.343    0.525    2.915
  379.444   52.172    0.336    0.531    2.926
  379.694   55.129    0.331    0.525    2.990
  379.944   57.737    0.331    0.529    3.130
  380.194   59.082    0.328    0.545    3.311
  380.444   61.151    0.323    0.557    3.493
  380.694   63.407    0.318    0.587    3.579
  380.944   64.789    0.315    0.597    3.768
  381.194   65.501    0.314    0.540    3.978
  381.444   69.136    0.304    0.476    4.180
  381.694   74.995    0.285    0.463    4.378
  381.944   78.587    0.266    0.477    4.504
  382.194   79.987    0.252    0.465    4.628
  382.444   83.438    0.236    0.471    4.702
  382.694   87.344    0.224    0.528    4.740
  382.944   90.416    0.214    0.587    4.728
  383.194   91.842    0.208    0.609    4.657
  383.444   91.984    0.213    0.586    4.655
  383.694   90.457    0.228    0.558    4.861
  383.944   87.869    0.243    0.539    4.991
  384.194   85.754    0.252    0.532    5.081
  384.444   85.871    0.250    0.545    5.096
  384.694   86.172    0.252    0.550    5.083
  384.944   85.959    0.258    0.566    5.042
  385.194   84.878    0.260    0.586    4.957
  385.444   82.307    0.259    0.561    4.862
  385.694   79.034    0.260    0.512    4.734
  385.944   72.468    0.271    0.480    4.625
  386.194   67.917    0.280    0.493    4.455
  386.444   64.275    0.287    0.513    4.356
  386.694   65.009    0.290    0.486    4.312
  386.944   65.677    0.286    0.472    4.377
  387.194   66.010    0.284    0.511    4.464
  387.444   65.615    0.290    0.509    4.519
  387.694   64.877    0.284    0.519    4.695
  387.944   64.193    0.278    0.540    4.819
  388.194   64.623    0.281    0.537    4.895
  388.444   66.029    0.289    0.529    4.875
  388.694   68.057    0.297    0.525    4.768
  388.944   70.280    0.295    0.521    4.603
  389.194   72.951    0.291    0.530    4.444
  389.444   72.731    0.284    0.556    4.298
  389.694   69.116    0.282    0.589    4.192
  389.944   66.666    0.299    0.572    4.102
  390.194   64.194    0.292    0.554    4.000
  390.444   61.903    0.288    0.541    3.881
  390.694   61.068    0.299    0.524    3.743
  390.944   61.378    0.302    0.508    3.647
  391.194   62.474    0.305    0.504    3.568
  391.444   64.744    0.307    0.531    3.541
  391.694   67.358    0.304    0.545    3.497
  391.944   70.507    0.296    0.533    3.447
  392.194   72.170    0.286    0.539    3.418
  392.444   72.934    0.284    0.563    3.406
  392.694   70.399    0.289    0.582    3.397
  392.944   67.647    0.282    0.577    3.388
  393.194   65.597    0.278    0.565    3.408
  393.444   63.297    0.285    0.563    3.440
  393.694   59.858    0.303    0.555    3.538
  393.944   56.912    0.314    0.544    3.636
  394.194   59.488    0.316    0.536    3.725
  394.444   65.855    0.326    0.547    3.761
  394.694   72.093    0.341    0.567    3.763
  394.944   76.959    0.350    0.584    3.735
  395.194   79.497    0.361    0.597    3.636
  395.444   80.135    0.380    0.605    3.525
  395.694   78.683    0.409    0.630    3.287
  395.944   77.531    0.427    0.631    3.042
  396.194   75.538    0.411    0.655    3.009
  396.444   74.636    0.393    0.682    3.030
  396.694   73.478    0.375    0.683    3.094
  396.944   73.764    0.356    0.659    3.248
  397.194   76.574    0.321    0.559    3.354
  397.444   76.362    0.295    0.559    3.535
  397.694   76.841    0.288    0.544    3.654
  397.944   79.284    0.289    0.526    3.724
  398.194   80.124    0.295    0.521    3.724
  398.444   75.713    0.296    0.519    3.682
  398.694   70.093    0.297    0.546    3.612
  398.944   67.983    0.303    0.579    3.523
  399.194   70.673    0.310    0.596    3.498
  399.444   69.394    0.309    0.593    3.544
  399.694   63.990    0.315    0.576    3.681
  399.944   59.530    0.313    0.528    3.838
  400.194   61.516    0.311    0.517    3.920
  400.444   63.022    0.315    0.529    3.920
  400.694   63.565    0.320    0.556    3.893
