~VERSION INFORMATION
 VERS.                 2.0:   CWLS LOG ASCII STANDARD -VERSION 2.0
 WRAP.                  NO:   ONE LINE PER DEPTH STEP
~WELL INFORMATION BLOCK
#MNEM.UNIT           DATA                    DESCRIPTION OF MNEMONIC
#---------    -------------------            -------------------------------
# Generated from Intellog Unique Number	CW_79_81/WELL/2483
WELL.         TEXEX WABASCA                  : Well_name    - WELL
LOC .         00/11-10-081-25W4/0            : Location     - LOCATION
UWI .         00/11-10-081-25W4/0            : Uwi          - UNIQUE WELL ID
ENTR.         MAX                            : Entered      - ENTERED BY
SRVC.         WESTERN ATLAS                  : Scn          - SERVICE COMPANY
STRT.M        213.36                         : top_depth    - START DEPTH
STOP.M        469.11                         : bot_depth    - STOP DEPTH
STEP.M        0.25                           : increment    - STEP LENGTH
 NULL. -999.2500:NULL Value
~CURVE INFORMATION BLOCK
#MNEM UNIT       ERCB CURVE CODE    CURVE DESCRIPTION
#-----------   ------------------   ----------------------------------
DEPT.M        00 001 00 00         : DEPTH        - DEPTH
ILD .OHMM     00 120 00 00         : RESD         - DEEP RESISTIVITY (DIL)
NPHI.V/V      00 330 00 00         : PHIN         - NEUTRON POROSITY (SANDSTONE)
DPHI.V/V      00 890 00 00         : PHID         - DENSITY POROSITY (SANDSTONE)
GR  .API      00 310 00 00         : GR           - GAMMA RAY
CALI.MM       00 280 01 00         : CAL          - CALIPER
~PARAMETER INFORMATION
#MNEM.UNIT           DATA             DESCRIPTION OF MNEMONIC
#---------         -----------     ------------------------------
GL  .M        595.884              : gl           - GROUND LEVEL ELEVATION
EREF.M        599.542              : kb           - ELEVATION OF DEPTH REFERENCE
DATM.M        595.884              : datum        - DATUM ELEVATION
TDD .M        466.039              : tdd          - TOTAL DEPTH DRILLER
RUN .         ONE                  : Run          - RUN NUMBER
ENG .         BILL                 : Engineer     - RECORDING ENGINEER
WIT .         JIM                  : Witness      - WITNESSED BY
MUD .         GEL                  : Mud_type     - MUD TYPE
MATR.         SANDSTONE            : Logunit      - NEUTRON MATRIX
TMAX.C        27.2222              : BHT          - MAXIMUM RECORDED TEMPERATURE
BHTD.M        466.039              : BHTDEP       - MAXIMUM RECORDED TEMPERATURE
MATR.         1                    : LOGUNIT      - NEUTRON MATRIX
RMT .C        12.2222              : MDTP         - TEMPERATURE OF MUD
NEUT.         1                    : NEUTRON      - NEUTRON TYPE
RESI.         0                    : RESIST       - RESISTIVITY TYPE
RMC .OHMM     10                   : RMC          - RESISTIVITY OF MUD CAKE
RMF .OHMM     10                   : RMF          - RESISTIVITY OF MUD FILTRATE
SUFT.C        -20.5556             : SUFT         - SURFACE TEMPERATURE
~A  DEPTH     RESD     PHIN     PHID       GR      CAL
# ...
  249.860    2.503    0.412    0.307   58.137  217.661
  250.110    2.735    0.401    0.307   58.239  217.238
  250.360    3.232    0.390    0.307   58.459  217.015
  250.610    4.125    0.378    0.312   58.530  215.970
  250.860    5.393    0.369    0.346   57.780  208.877
  251.110    6.252    0.362    0.404   54.465  196.079
  251.360    8.935    0.356    0.413   48.853  194.054
  251.610   13.554    0.350    0.370   42.827  195.624
  251.860   17.558    0.342    0.299   37.978  197.297
  252.110   19.143    0.333    0.255   35.651  199.262
  252.360   18.434    0.328    0.299   35.885  199.239
  252.610   18.030    0.326    0.327   37.516  198.413
  252.860   17.927    0.327    0.339   37.914  198.188
  253.110   17.984    0.331    0.343   37.547  198.164
  253.360   18.073    0.336    0.344   36.885  198.140
  253.610   18.116    0.341    0.343   36.397  198.108
  253.860   18.383    0.346    0.340   36.382  198.087
  254.110   19.044    0.347    0.337   36.128  198.062
  254.360   19.732    0.350    0.332   36.055  198.336
  254.610   20.659    0.355    0.330   36.276  198.511
  254.860   21.802    0.364    0.331   36.438  198.585
  255.110   22.990    0.380    0.334   35.664  198.868
  255.360   24.223    0.386    0.338   35.405  198.429
  255.610   25.097    0.382    0.340   36.096  198.002
  255.860   26.554    0.374    0.341   36.433  198.178
  256.110   28.317    0.366    0.343   36.300  198.752
  256.360   30.206    0.360    0.347   35.757  199.325
  256.610   32.739    0.361    0.350   35.033  199.209
  256.860   35.559    0.368    0.349   35.017  198.767
  257.110   37.105    0.374    0.347   35.707  199.144
  257.360   37.906    0.373    0.348   35.340  199.816
  257.610   37.890    0.369    0.348   34.618  201.186
  257.860   37.400    0.367    0.345   34.189  202.957
  258.110   36.998    0.366    0.338   34.646  204.044
  258.360   36.434    0.362    0.335   34.630  203.602
  258.610   35.383    0.358    0.336   34.849  203.577
  258.860   34.364    0.355    0.338   35.248  203.550
  259.110   33.374    0.356    0.337   35.705  202.526
  259.360   32.416    0.358    0.332   36.102  201.104
  259.610   31.146    0.359    0.328   36.466  201.475
  259.860   29.548    0.358    0.323   37.188  201.446
  260.110   27.872    0.359    0.321   38.353  201.423
  260.360   26.884    0.365    0.326   39.870  201.994
  260.610   26.014    0.371    0.337   41.386  219.524
  260.860   25.224    0.373    0.347   42.373  238.065
  261.110   24.778    0.370    0.347   42.071  208.635
  261.360   24.399    0.367    0.350   41.807  205.283
  261.610   24.038    0.366    0.354   40.616  204.457
  261.860   23.684    0.367    0.354   38.715  204.233
  262.110   23.337    0.368    0.352   36.696  204.009
  262.360   22.995    0.371    0.350   35.032  203.583
  262.610   22.620    0.376    0.352   34.074  203.154
  262.860   22.441    0.381    0.355   34.055  203.130
  263.110   22.593    0.385    0.350   36.163  203.100
  263.360   22.747    0.386    0.341   37.033  203.074
  263.610   22.983    0.387    0.330   37.608  201.253
  263.860   23.348    0.386    0.322   38.065  198.435
  264.110   23.950    0.381    0.324   37.762  198.008
  264.360   24.485    0.377    0.341   37.501  197.985
  264.610   25.007    0.382    0.343   37.719  197.959
  264.860   25.542    0.388    0.342   37.410  197.932
  265.110   25.995    0.389    0.344   36.923  197.907
  265.360   26.266    0.384    0.347   36.553  197.883
  265.610   26.253    0.374    0.344   36.438  197.934
  265.860   26.240    0.366    0.341   35.934  198.323
  266.110   26.607    0.353    0.343   35.920  198.300
  266.360   27.270    0.332    0.349   36.965  198.274
  266.610   28.152    0.315    0.354   38.010  198.448
  266.860   28.864    0.302    0.354   38.997  198.624
  267.110   28.558    0.283    0.348   40.717  198.109
  267.360   28.120    0.265    0.348   39.967  197.667
  267.610   27.907    0.242    0.356   38.301  197.644
  267.860   28.145    0.232    0.355   38.935  197.917
  268.110   28.844    0.222    0.335   39.745  198.290
  268.360   29.839    0.209    0.302   39.553  198.764
  268.610   30.879    0.194    0.265   38.069  204.353
  268.860   31.805    0.180    0.215   37.808  228.441
  269.110   33.662    0.165    0.199   37.795  207.265
  269.360   35.447    0.146    0.190   36.012  200.752
  269.610   36.351    0.125    0.169   33.993  200.527
  269.860   36.072    0.102    0.120   32.505  201.800
  270.110   34.979    0.083    0.024   31.497  203.368
  270.360   34.704    0.104    0.031   31.234  203.339
  270.610   34.441    0.132    0.049   32.635  202.917
  270.860   35.482    0.133    0.110   34.036  202.791
  271.110   37.926    0.101    0.159   33.784  202.764
  271.360   42.311    0.056    0.143   32.175  202.441
  271.610   51.733    0.045    0.019   31.454  201.132
  271.860   62.083    0.048    0.019   31.440  200.691
  272.110   65.700    0.055    0.023   32.839  200.663
  272.360   55.873    0.080    0.026   36.006  200.340
  272.610   44.300    0.158    0.029   37.286  199.715
  272.860   32.329    0.264    0.054   37.447  198.988
  273.110   20.617    0.320    0.163   41.771  198.395
  273.360   19.416    0.345    0.289   42.243  197.537
  273.610   17.787    0.342    0.306   40.345  197.116
  273.860   16.485    0.334    0.317   37.916  196.991
  274.110   15.739    0.328    0.322   35.425  196.962
  274.360   15.453    0.326    0.325   33.523  196.832
  274.610   15.335    0.327    0.323   33.036  196.239
  274.860   15.328    0.328    0.320   33.022  195.382
  275.110   14.993    0.328    0.317   33.242  194.563
  275.360   14.746    0.330    0.316   34.169  194.039
  275.610   14.635    0.334    0.312   35.450  193.415
  275.860   14.629    0.341    0.310   36.674  192.793
  276.110   14.555    0.351    0.318   37.410  192.762
  276.360   14.226    0.355    0.321   37.641  192.733
  276.610   14.016    0.355    0.326   37.154  192.312
  276.860   13.885    0.352    0.330   36.845  192.183
  277.110   13.730    0.346    0.335   37.184  192.158
  277.360   13.552    0.339    0.336   37.995  192.336
  277.610   13.386    0.331    0.331   38.593  193.104
  277.860   13.084    0.332    0.328   39.315  193.075
  278.110   12.524    0.332    0.326   40.243  194.646
  278.360   11.725    0.330    0.323   41.701  194.721
  278.610   10.155    0.329    0.319   42.747  194.697
  278.860    8.355    0.328    0.313   43.263  195.073
  279.110    6.884    0.329    0.304   44.591  195.524
  279.360    6.531    0.330    0.299   47.765  195.914
  279.610    7.060    0.334    0.302   47.281  195.886
  279.860    8.313    0.342    0.311   40.962  196.158
  280.110    9.688    0.353    0.318   37.646  196.332
  280.360   10.251    0.362    0.319   39.222  196.508
  280.610    8.803    0.365    0.314   40.865  197.360
  280.860    6.061    0.364    0.311   42.077  197.752
  281.110    4.675    0.362    0.305   44.419  197.727
  281.360    3.931    0.359    0.300   47.468  198.296
  281.610    3.539    0.355    0.290   49.927  198.671
  281.860    3.409    0.349    0.273   51.208  198.848
  282.110    3.713    0.341    0.257   50.592  199.945
  282.360    4.741    0.335    0.276   46.402  201.579
  282.610    4.983    0.337    0.279   45.915  203.155
  282.860    5.795    0.336    0.281   45.077  203.830
  283.110    6.429    0.332    0.289   46.476  203.604
  283.360    6.426    0.328    0.301   49.172  202.780
  283.610    6.516    0.330    0.300   48.044  201.621
  283.860    7.024    0.333    0.291   44.834  199.932
  284.110    8.085    0.334    0.291   45.290  197.108
  284.360    9.227    0.334    0.297   44.334  196.387
  284.610   10.430    0.334    0.302   41.964  195.565
  284.860   11.650    0.337    0.304   39.709  198.432
  285.110   12.892    0.343    0.303   39.407  212.608
  285.360   13.380    0.345    0.302   33.256  201.770
  285.610   12.994    0.345    0.295   35.125  201.343
  285.860   12.828    0.347    0.293   35.934  201.218
  286.110   12.499    0.349    0.293   36.155  200.994
