~VERSION INFORMATION
 VERS.                 2.0:   CWLS LOG ASCII STANDARD -VERSION 2.0
 WRAP.                  NO:   ONE LINE PER DEPTH STEP
~WELL INFORMATION BLOCK
#MNEM.UNIT           DATA                    DESCRIPTION OF MNEMONIC
#---------    -------------------            -------------------------------
# Generated from Intellog Unique Number	CS_73_76/WELL/2208
WELL.         DOME PETROLEUM LIMITED         : Well_name    - WELL
LOC .         00/12-08-074-10W4/0            : Location     - LOCATION
UWI .         00/12-08-074-10W4/0            : Uwi          - UNIQUE WELL ID
ENTR.         SP                             : Entered      - ENTERED BY
SRVC.         SCHLUMBERGER                   : Scn          - SERVICE COMPANY
STRT.M        285                            : top_depth    - START DEPTH
STOP.M        515                            : bot_depth    - STOP DEPTH
STEP.M        0.25                           : increment    - STEP LENGTH
 NULL. -999.2500:NULL Value
~CURVE INFORMATION BLOCK
#MNEM UNIT       ERCB CURVE CODE    CURVE DESCRIPTION
#-----------   ------------------   ----------------------------------
DEPT.M        00 001 00 00         : DEPTH        - DEPTH
ILD .OHMM     00 120 00 00         : RESD         - DEEP RESISTIVITY (DIL)
DPHI.V/V      00 890 00 00         : PHID         - DENSITY POROSITY (LIMESTONE)
NPHI.V/V      00 330 00 00         : PHIN         - NEUTRON POROSITY (LIMESTONE)
GR  .API      00 310 00 00         : GR           - GAMMA RAY
~PARAMETER INFORMATION
#MNEM.UNIT           DATA             DESCRIPTION OF MNEMONIC
#---------         -----------     ------------------------------
GL  .M        658.95               : gl           - GROUND LEVEL ELEVATION
EREF.M        663                  : kb           - ELEVATION OF DEPTH REFERENCE
DATM.M        658.95               : datum        - DATUM ELEVATION
TDD .M        527                  : tdd          - TOTAL DEPTH DRILLER
RUN .         ONE                  : Run          - RUN NUMBER
ENG .         BILL                 : Engineer     - RECORDING ENGINEER
WIT .         JIM                  : Witness      - WITNESSED BY
MUD .         GEL                  : Mud_type     - MUD TYPE
MATR.         LIMESTONE            : Logunit      - NEUTRON MATRIX
TMAX.C        23                   : BHT          - MAXIMUM RECORDED TEMPERATURE
BHTD.M        527                  : BHTDEP       - MAXIMUM RECORDED TEMPERATURE
MATR.         1                    : LOGUNIT      - NEUTRON MATRIX
RMT .C        25                   : MDTP         - TEMPERATURE OF MUD
NEUT.         1                    : NEUTRON      - NEUTRON TYPE
RESI.         0                    : RESIST       - RESISTIVITY TYPE
RMC .OHMM     0.25                 : RMC          - RESISTIVITY OF MUD CAKE
RMF .OHMM     0.25                 : RMF          - RESISTIVITY OF MUD FILTRATE
SUFT.C        15                   : SUFT         - SURFACE TEMPERATURE
~A  DEPTH     RESD     PHID     PHIN       GR
# ...
  328.500   11.929    0.241    0.404   98.834
  328.750   11.058    0.248    0.407  101.285
  329.000   10.251    0.243    0.412   98.819
  329.250    9.502    0.258    0.402   95.123
  329.500    9.323    0.265    0.387   82.818
  329.750    9.500    0.265    0.375   71.131
  330.000    9.681    0.275    0.355   63.133
  330.250   11.262    0.285    0.347   56.364
  330.500   12.379    0.290    0.352   56.969
  330.750   13.865    0.285    0.355   57.576
  331.000   14.673    0.276    0.366   56.340
  331.250   15.238    0.270    0.370   55.103
  331.500   15.528    0.269    0.364   57.554
  331.750   15.822    0.279    0.352   58.776
  332.000   16.122    0.288    0.345   54.465
  332.250   16.429    0.283    0.349   53.227
  332.500   16.427    0.270    0.355   51.370
  332.750   16.426    0.286    0.357   50.136
  333.000   16.738    0.300    0.350   47.672
  333.250   16.736    0.309    0.344   45.818
  333.500   16.734    0.318    0.347   51.958
  333.750   16.732    0.328    0.357   67.932
  334.000   16.730    0.295    0.368   79.605
  334.250   16.729    0.280    0.380   83.283
  334.500   16.726    0.267    0.376   77.740
  334.750   16.724    0.238    0.368   75.892
  335.000   17.043    0.160    0.262   70.353
  335.250   17.041    0.084    0.231   64.812
  335.500   17.364    0.163    0.221   80.171
  335.750   17.363    0.231    0.290   89.385
  336.000   17.360    0.267    0.331   91.836
  336.250   16.401    0.269    0.368   88.753
  336.500   13.571    0.260    0.406   87.518
  336.750   12.113    0.252    0.428   87.506
  337.000   11.443    0.260    0.417   86.885
  337.250    9.834    0.267    0.411   85.650
  337.500    9.834    0.272    0.412   80.724
  337.750    9.832    0.268    0.412   79.484
  338.000    9.831    0.267    0.420   80.094
  338.250   10.018    0.271    0.405   83.161
  338.500   10.207    0.267    0.399   84.382
  338.750   10.207    0.265    0.412   84.988
  339.000   10.206    0.265    0.412   85.596
  339.250    9.461    0.257    0.408   91.121
  339.500    9.283    0.260    0.401   93.571
  339.750    8.937    0.267    0.394   91.719
  340.000    8.936    0.262    0.396   92.325
  340.250    8.934    0.257    0.408   95.389
  340.500    8.934    0.256    0.408   96.614
  340.750    9.103    0.252    0.385   95.989
  341.000    9.453    0.255    0.381   92.294
  341.250    9.817    0.262    0.389   89.213
  341.500   10.004    0.244    0.400   89.820
  341.750   10.194    0.228    0.416   88.583
  342.000   10.193    0.214    0.431   85.500
  342.250   10.000    0.211    0.426   85.490
  342.500    9.628    0.216    0.424   86.098
  342.750    9.095    0.220    0.415   86.708
  343.000    8.924    0.229    0.421   87.314
  343.250    8.923    0.254    0.415   87.306
  343.500    9.623    0.274    0.399   82.380
  343.750   10.379    0.281    0.404   81.758
  344.000   10.778    0.283    0.414   82.978
  344.250   11.624    0.276    0.414   84.813
  344.500   11.845    0.264    0.415   86.652
  344.750   11.844    0.256    0.421   84.798
  345.000   10.373    0.253    0.429   83.563
  345.250    9.436    0.247    0.424   86.626
  345.500    9.085    0.242    0.430   87.236
  345.750    8.746    0.245    0.447   87.842
  346.000    8.581    0.251    0.440   84.147
  346.250    8.580    0.271    0.406   81.676
  346.500    8.743    0.287    0.403   81.671
  346.750    8.742    0.297    0.415   81.664
  347.000    8.741    0.314    0.425   78.582
  347.250    8.740    0.334    0.412   74.886
  347.500    8.576    0.356    0.385   70.576
  347.750    8.414    0.326    0.374   69.335
  348.000    8.413    0.294    0.379   71.788
  348.250    8.737    0.258    0.385   77.308
  348.500    9.072    0.243    0.383   79.761
  348.750    9.421    0.248    0.379   80.987
  349.000    9.420    0.241    0.381   80.974
  349.250    9.599    0.238    0.384   80.352
  349.500    9.598    0.246    0.380   80.964
  349.750    9.597    0.255    0.382   81.569
  350.000    9.780    0.274    0.391   80.947
  350.250   10.350    0.287    0.401   78.480
  350.500   11.162    0.310    0.385   72.941
  350.750   12.503    0.332    0.368   63.710
  351.000   13.232    0.337    0.358   58.786
  351.250   14.004    0.348    0.347   53.860
  351.500   15.391    0.349    0.343   51.393
  351.750   15.983    0.339    0.336   54.458
  352.000   16.287    0.334    0.339   56.908
  352.250   16.597    0.334    0.353   57.515
  352.500   16.595    0.331    0.355   58.125
  352.750   16.593    0.326    0.353   59.960
  353.000   16.280    0.318    0.365   59.952
  353.250   16.279    0.309    0.358   58.099
  353.500   15.671    0.302    0.346   56.249
  353.750   15.670    0.320    0.344   55.626
  354.000   15.374    0.323    0.347   56.230
  354.250   15.373    0.317    0.367   56.224
  354.500   15.083    0.316    0.372   55.603
  354.750   15.081    0.327    0.352   54.365
  355.000   15.080    0.332    0.342   53.743
  355.250   15.079    0.331    0.333   57.420
  355.500   14.794    0.324    0.364   61.714
  355.750   14.243    0.312    0.374   66.008
  356.000   13.203    0.301    0.383   69.690
  356.250   12.239    0.292    0.386   73.372
  356.500   11.563    0.271    0.394   76.439
  356.750   10.517    0.261    0.401   79.504
  357.000    9.936    0.263    0.415   81.342
  357.250    9.210    0.261    0.409   81.949
  357.500    8.701    0.255    0.412   80.096
  357.750    8.537    0.247    0.426   78.246
  358.000    8.065    0.240    0.432   79.467
  358.250    8.064    0.231    0.436   83.144
  358.500    7.912    0.225    0.436   84.984
  358.750    7.763    0.238    0.435   85.590
  359.000    7.762    0.239    0.422   84.352
  359.250    8.060    0.238    0.414   84.960
  359.500    8.213    0.247    0.415   85.567
  359.750    8.370    0.254    0.415   83.715
  360.000    8.691    0.241    0.397   80.014
  360.250    9.026    0.223    0.398   78.164
  360.500    9.734    0.201    0.415   76.314
  360.750   10.109    0.199    0.424   72.000
  361.000   10.902    0.218    0.430   70.152
  361.250   11.322    0.227    0.418   70.759
  361.500   12.211    0.230    0.404   75.055
  361.750   12.443    0.204    0.394   79.347
  362.000   11.106    0.197    0.390   79.954
  362.250    9.913    0.192    0.378   80.561
  362.500    8.848    0.192    0.372   81.170
  362.750    8.202    0.201    0.366   83.003
  363.000    7.603    0.211    0.376   84.225
  363.250    7.183    0.213    0.384   86.063
  363.500    6.915    0.213    0.393   86.671
  363.750    6.533    0.221    0.389   84.817
  364.000    6.056    0.234    0.399   82.965
  364.250    5.830    0.248    0.404   79.883
  364.500    5.613    0.267    0.407   76.803
  364.750    5.612    0.280    0.413   73.106
  365.000    5.719    0.265    0.415   71.870
  365.250    5.939    0.266    0.410   70.633
  365.500    6.285    0.279    0.418   67.552
  365.750    6.527    0.285    0.414   66.312
  366.000    7.174    0.291    0.403   67.535
  366.250    7.450    0.293    0.391   70.600
  366.500    7.736    0.282    0.375   73.664
  366.750    8.187    0.276    0.370   74.887
  367.000    8.343    0.269    0.383   75.494
  367.250    8.032    0.261    0.390   75.486
  367.500    7.588    0.257    0.398   74.862
  367.750    7.305    0.254    0.413   74.857
  368.000    7.168    0.259    0.419   74.849
  368.250    7.167    0.271    0.428   74.228
  368.500    7.032    0.281    0.417   71.145
  368.750    6.899    0.284    0.408   69.908
  369.000    6.642    0.286    0.402   74.203
  369.250    6.157    0.279    0.406   76.038
  369.500    5.708    0.270    0.421   76.032
  369.750    5.392    0.267    0.434   72.950
  370.000    5.391    0.269    0.434   67.409
  370.250    5.815    0.299    0.418   63.714
  370.500    6.513    0.322    0.403   60.017
  370.750    7.435    0.338    0.395   59.396
  371.000    7.869    0.353    0.400   61.232
  371.250    8.813    0.357    0.394   63.679
  371.500    9.153    0.353    0.392   63.061
  371.750    9.505    0.350    0.401   61.207
