~VERSION INFORMATION
 VERS.                 2.0:   CWLS LOG ASCII STANDARD -VERSION 2.0
 WRAP.                  NO:   ONE LINE PER DEPTH STEP
~WELL INFORMATION BLOCK
#MNEM.UNIT           DATA                    DESCRIPTION OF MNEMONIC
#---------    -------------------            -------------------------------
# Generated from Intellog Unique Number	CS_69_70/WELL/896
WELL.         JOFFRE OIL LTD.                : Well_name    - WELL
LOC .         00/11-26-070-18W4/0            : Location     - LOCATION
UWI .         00/11-26-070-18W4/0            : Uwi          - UNIQUE WELL ID
ENTR.         SP                             : Entered      - ENTERED BY
SRVC.         SCHLUMBERGER                   : Scn          - SERVICE COMPANY
STRT.M        290                            : top_depth    - START DEPTH
STOP.M        485                            : bot_depth    - STOP DEPTH
STEP.M        0.25                           : increment    - STEP LENGTH
 NULL. -999.2500:NULL Value
~CURVE INFORMATION BLOCK
#MNEM UNIT       ERCB CURVE CODE    CURVE DESCRIPTION
#-----------   ------------------   ----------------------------------
DEPT.M        00 001 00 00         : DEPTH        - DEPTH
DPHI.V/V      00 890 00 00         : PHID         - DENSITY POROSITY (LIMESTONE)
NPHI.V/V      00 330 00 00         : PHIN         - NEUTRON POROSITY (LIMESTONE)
GR  .API      00 310 00 00         : GR           - GAMMA RAY
ILD .OHMM     00 120 00 00         : RESD         - DEEP RESISTIVITY (DIL)
~PARAMETER INFORMATION
#MNEM.UNIT           DATA             DESCRIPTION OF MNEMONIC
#---------         -----------     ------------------------------
GL  .M        565.34               : gl           - GROUND LEVEL ELEVATION
EREF.M        568.32               : kb           - ELEVATION OF DEPTH REFERENCE
DATM.M        565.34               : datum        - DATUM ELEVATION
TDD .M        586                  : tdd          - TOTAL DEPTH DRILLER
RUN .         ONE                  : Run          - RUN NUMBER
ENG .         BILL                 : Engineer     - RECORDING ENGINEER
WIT .         JIM                  : Witness      - WITNESSED BY
MUD .         GEL                  : Mud_type     - MUD TYPE
MATR.         LIMESTONE            : Logunit      - NEUTRON MATRIX
TMAX.C        6.9                  : BHT          - MAXIMUM RECORDED TEMPERATURE
BHTD.M        586                  : BHTDEP       - MAXIMUM RECORDED TEMPERATURE
MATR.         1                    : LOGUNIT      - NEUTRON MATRIX
RMT .C        25                   : MDTP         - TEMPERATURE OF MUD
NEUT.         1                    : NEUTRON      - NEUTRON TYPE
RESI.         0                    : RESIST       - RESISTIVITY TYPE
RMC .OHMM     0.25                 : RMC          - RESISTIVITY OF MUD CAKE
RMF .OHMM     0.25                 : RMF          - RESISTIVITY OF MUD FILTRATE
SUFT.C        15                   : SUFT         - SURFACE TEMPERATURE
~A  DEPTH     PHID     PHIN       GR     RESD
# ...
  420.500    0.231    0.420   76.028    3.967
  420.750    0.221    0.427   78.644    3.756
  421.000    0.227    0.421   81.138    3.607
  421.250    0.222    0.426   83.876    3.440
  421.500    0.242    0.423   86.248    3.281
  421.750    0.247    0.421   89.289    3.211
  422.000    0.241    0.425   93.969    3.149
  422.250    0.230    0.457   99.437    3.128
  422.500    0.217    0.486  100.899    3.096
  422.750    0.235    0.507   99.509    3.093
  423.000    0.237    0.496   97.086    3.084
  423.250    0.235    0.472   95.755    3.092
  423.500    0.238    0.477   98.007    3.102
  423.750    0.212    0.491  100.077    3.087
  424.000    0.201    0.499  101.478    3.068
  424.250    0.200    0.490  102.576    3.069
  424.500    0.225    0.482  103.553    3.072
  424.750    0.227    0.485  104.530    3.086
  425.000    0.220    0.478  104.960    3.135
  425.250    0.222    0.489  104.600    3.215
  425.500    0.210    0.498  104.302    3.501
  425.750    0.210    0.495  105.158    3.615
  426.000    0.201    0.475  102.552    3.848
  426.250    0.189    0.451  100.675    3.923
  426.500    0.186    0.440  102.199    3.993
  426.750    0.182    0.433  103.296    4.097
  427.000    0.187    0.427  104.090    4.129
  427.250    0.194    0.451  102.639    4.204
  427.500    0.186    0.463  101.006    4.230
  427.750    0.185    0.443  101.131    4.281
  428.000    0.196    0.420  102.776    4.349
  428.250    0.200    0.426  103.145    4.563
  428.500    0.200    0.440   95.077    4.740
  428.750    0.204    0.448   88.829    4.878
  429.000    0.211    0.435   83.553    4.956
  429.250    0.151    0.414   77.549    4.980
  429.500    0.144    0.407   74.033    4.973
  429.750    0.153    0.401   78.591    4.977
  430.000    0.185    0.401   83.150    5.029
  430.250    0.231    0.401   87.101    5.176
  430.500    0.219    0.407   92.147    5.337
  430.750    0.200    0.416   94.579    5.608
  431.000    0.190    0.407   96.040    5.762
  431.250    0.198    0.414   95.985    5.808
  431.500    0.197    0.402   90.041    5.771
  431.750    0.185    0.390   86.950    5.482
  432.000    0.171    0.385   87.077    5.306
  432.250    0.163    0.384   91.453    5.232
  432.500    0.159    0.389   91.822    5.160
  432.750    0.183    0.404   89.278    5.109
  433.000    0.198    0.424   88.009    5.111
  433.250    0.192    0.422   86.800    5.106
  433.500    0.190    0.434   85.045    5.100
  433.750    0.194    0.430   84.139    5.096
  434.000    0.188    0.424   85.966    5.093
  434.250    0.182    0.417   88.461    5.088
  434.500    0.175    0.411   90.650    5.084
  434.750    0.178    0.408   91.749    5.086
  435.000    0.188    0.409   92.847    5.080
  435.250    0.194    0.417   95.584    5.095
  435.500    0.192    0.425   93.707    5.128
  435.750    0.183    0.424   89.584    5.133
  436.000    0.173    0.418   89.711    5.119
  436.250    0.160    0.406   94.634    5.086
  436.500    0.160    0.390   98.950    5.034
  436.750    0.180    0.381  101.383    4.981
  437.000    0.177    0.379  103.695    4.931
  437.250    0.168    0.384  100.118    4.888
  437.500    0.191    0.403  100.003    4.858
  437.750    0.183    0.422  100.493    4.898
  438.000    0.202    0.415   95.157    4.966
  438.250    0.201    0.402   92.855    5.237
  438.500    0.195    0.397   88.914    5.563
  438.750    0.177    0.373   84.245    5.866
  439.000    0.155    0.337   80.547    6.106
  439.250    0.113    0.308   82.920    6.215
  439.500    0.127    0.320   84.747    6.140
  439.750    0.120    0.346   85.844    5.547
  440.000    0.156    0.376   90.342    4.946
  440.250    0.181    0.398   92.532    4.560
  440.500    0.185    0.403   91.082    4.128
  440.750    0.183    0.413   90.784    3.442
  441.000    0.184    0.411   91.640    3.030
  441.250    0.193    0.404   93.588    2.747
  441.500    0.206    0.397   95.048    2.468
  441.750    0.200    0.402   97.967    2.267
  442.000    0.184    0.438  101.311    2.240
  442.250    0.169    0.479  104.352    2.380
  442.500    0.178    0.501  106.664    2.609
  442.750    0.194    0.519   98.656    2.986
  443.000    0.200    0.484   89.617    3.549
  443.250    0.172    0.456   86.100    4.061
  443.500    0.115    0.435   80.339    4.934
  443.750    0.146    0.417   73.909    6.016
  444.000    0.125    0.385   62.623    6.659
  444.250    0.097    0.331   64.329    6.727
  444.500    0.100    0.311   70.344    6.261
  444.750    0.112    0.336   77.513    5.490
  445.000    0.143    0.373   81.220    4.860
  445.250    0.162    0.394   87.599    4.643
  445.500    0.178    0.404   89.548    4.708
  445.750    0.181    0.415   89.371    4.891
  446.000    0.169    0.415   84.519    5.283
  446.250    0.173    0.403   77.544    5.645
  446.500    0.161    0.388   77.671    5.843
  446.750    0.168    0.378   81.196    6.025
  447.000    0.172    0.373   84.844    6.041
  447.250    0.163    0.373   86.792    5.869
  447.500    0.160    0.363   90.076    5.473
  447.750    0.157    0.355   93.540    5.065
  448.000    0.179    0.385   97.553    4.732
  448.250    0.162    0.419  100.715    4.446
  448.500    0.181    0.424  102.602    4.255
  448.750    0.173    0.425  100.301    4.188
  449.000    0.170    0.424   97.817    4.184
  449.250    0.173    0.416   95.030    4.165
  449.500    0.155    0.411   94.002    4.155
  449.750    0.142    0.420   96.802    4.111
  450.000    0.149    0.425   98.202    4.062
  450.250    0.157    0.433   99.057    4.019
  450.500    0.154    0.441   96.634    3.948
  450.750    0.166    0.446   98.583    3.843
  451.000    0.152    0.436  100.226    3.754
  451.250    0.139    0.435  103.267    3.688
  451.500    0.151    0.441  102.726    3.644
  451.750    0.178    0.435   98.361    3.620
  452.000    0.169    0.434   98.548    3.623
  452.250    0.161    0.443   97.703    3.708
  452.500    0.168    0.436   95.766    3.796
  452.750    0.157    0.428   96.075    3.806
  453.000    0.143    0.419   97.294    3.774
  453.250    0.157    0.424   98.635    3.702
  453.500    0.174    0.433  100.706    3.656
  453.750    0.164    0.438  102.168    3.572
  454.000    0.168    0.448  103.083    3.535
  454.250    0.174    0.461  103.634    3.558
  454.500    0.188    0.467  104.064    3.608
  454.750    0.180    0.455  102.552    3.679
  455.000    0.160    0.444  100.432    3.766
  455.250    0.145    0.437  101.591    3.840
  455.500    0.146    0.431  104.085    3.931
  455.750    0.151    0.434  104.151    3.964
  456.000    0.159    0.446  102.153    3.953
  456.250    0.144    0.443  105.801    3.911
  456.500    0.159    0.431  111.391    3.835
  456.750    0.170    0.428  120.441    3.638
  457.000    0.184    0.435  128.460    3.533
  457.250    0.207    0.447  132.047    3.563
  457.500    0.212    0.451  127.925    3.667
  457.750    0.198    0.433  117.367    3.824
  458.000    0.188    0.416  111.119    3.958
  458.250    0.182    0.407  111.976    4.036
  458.500    0.177    0.401  115.927    3.943
  458.750    0.174    0.399  120.424    3.816
  459.000    0.184    0.418  124.073    3.619
  459.250    0.198    0.449  126.264    3.362
  459.500    0.190    0.467  127.361    3.170
  459.750    0.193    0.481  127.547    3.173
  460.000    0.179    0.458  125.853    3.353
  460.250    0.143    0.432  124.340    3.523
  460.500    0.158    0.417  122.403    3.673
  460.750    0.182    0.423  120.347    3.938
  461.000    0.179    0.432  120.107    4.938
  461.250    0.172    0.420  120.172    5.159
  461.500    0.166    0.409  120.299    5.261
  461.750    0.164    0.403  117.026    5.265
  462.000    0.173    0.399  112.782    5.399
  462.250    0.203    0.422  104.045    5.704
  462.500    0.227    0.480   82.864    6.209
  462.750    0.250    0.507   73.763    6.585
  463.000    0.279    0.535   78.261    6.726
  463.250    0.500    0.565   94.718    6.847
  463.500    0.571    0.593  118.945    6.751
  463.750    0.241    0.628  140.683    6.558
