~VERSION INFORMATION
 VERS.                 2.0:   CWLS LOG ASCII STANDARD -VERSION 2.0
 WRAP.                  NO:   ONE LINE PER DEPTH STEP
~WELL INFORMATION BLOCK
#MNEM.UNIT           DATA                    DESCRIPTION OF MNEMONIC
#---------    -------------------            -------------------------------
# Generated from Intellog Unique Number	CS_71_72/WELL/3326
WELL.         ALBERTA ENERGY CO.LTD.         : Well_name    - WELL
LOC .         00/10-32-072-03W4/0            : Location     - LOCATION
UWI .         00/10-33-067-11W4/0            : Uwi          - UNIQUE WELL ID
ENTR.         JOETTE                         : Entered      - ENTERED BY
SRVC.         SCHLUMBERGER                   : Scn          - SERVICE COMPANY
DATE.         05/13/92                       : Date         - LOG DATE
STRT.M        325                            : top_depth    - START DEPTH
STOP.M        560                            : bot_depth    - STOP DEPTH
STEP.M        0.25                           : increment    - STEP LENGTH
 NULL. -999.2500:NULL Value
~CURVE INFORMATION BLOCK
#MNEM UNIT       ERCB CURVE CODE    CURVE DESCRIPTION
#-----------   ------------------   ----------------------------------
DEPT.M        00 001 00 00         : DEPTH        - DEPTH
CALI.MM       00 280 01 00         : CAL          - CALIPER
GR  .API      00 310 00 00         : GR           - GAMMA RAY
NPHI.V/V      00 330 00 00         : PHIN         - NEUTRON POROSITY (SANDSTONE)
DPHI.V/V      00 890 00 00         : PHID         - DENSITY POROSITY (SANDSTONE)
ILD .OHMM     00 120 00 00         : RESD         - DEEP RESISTIVITY (DIL)
~PARAMETER INFORMATION
#MNEM.UNIT           DATA             DESCRIPTION OF MNEMONIC
#---------         -----------     ------------------------------
GL  .M        695.31               : gl           - GROUND LEVEL ELEVATION
EREF.M        698.91               : kb           - ELEVATION OF DEPTH REFERENCE
DATM.M        698.91               : datum        - DATUM ELEVATION
TDD .M        566                  : tdd          - TOTAL DEPTH DRILLER
RUN .         ONE                  : Run          - RUN NUMBER
ENG .         BILL                 : Engineer     - RECORDING ENGINEER
WIT .         JIM                  : Witness      - WITNESSED BY
MUD .         GEL                  : Mud_type     - MUD TYPE
MATR.         SANDSTONE            : Logunit      - NEUTRON MATRIX
TMAX.C        32                   : BHT          - MAXIMUM RECORDED TEMPERATURE
BHTD.M        566                  : BHTDEP       - MAXIMUM RECORDED TEMPERATURE
MATR.         1                    : LOGUNIT      - NEUTRON MATRIX
RMT .C        12                   : MDTP         - TEMPERATURE OF MUD
NEUT.         1                    : NEUTRON      - NEUTRON TYPE
RESI.         0                    : RESIST       - RESISTIVITY TYPE
RMC .OHMM     2.5                  : RMC          - RESISTIVITY OF MUD CAKE
RMF .OHMM     2.3                  : RMF          - RESISTIVITY OF MUD FILTRATE
SUFT.C        4                    : SUFT         - SURFACE TEMPERATURE
~A  DEPTH      CAL       GR     PHIN     PHID     RESD
# ...
  434.500  151.640   82.589    0.543    0.248    3.855
  434.750  151.729   84.443    0.616    0.247    4.236
  435.000  151.000   91.115    0.626    0.247    4.742
  435.250  150.252   94.157    0.612    0.247    5.316
  435.500  149.523   95.438    0.543    0.235    5.420
  435.750  148.811   92.475    0.517    0.225    5.637
  436.000  148.882   86.511    0.505    0.227    5.748
  436.250  148.953   85.977    0.537    0.232    5.756
  436.500  150.643   87.231    0.547    0.237    5.763
  436.750  152.315   86.097    0.542    0.237    5.769
  437.000  153.987   85.550    0.538    0.223    5.671
  437.250  155.660   85.603    0.518    0.225    5.678
  437.500  156.531   85.643    0.498    0.233    5.580
  437.750  155.819   87.498    0.497    0.237    5.486
  438.000  154.254   90.566    0.504    0.234    5.491
  438.250  151.976   90.633    0.524    0.232    5.395
  438.500  150.428   89.459    0.519    0.234    5.207
  438.750  149.681   88.311    0.517    0.237    5.114
  439.000  148.952   88.965    0.525    0.242    4.093
  439.250  149.040   90.833    0.535    0.243    3.466
  439.500  149.076   93.288    0.542    0.243    3.469
  439.750  149.147   99.345    0.550    0.238    3.607
  440.000  149.218  103.615    0.564    0.225    3.678
  440.250  149.324  103.068    0.582    0.214    3.896
  440.500  149.395  102.521    0.591    0.207    3.976
  440.750  149.449  103.188    0.578    0.209    3.980
  441.000  149.520  103.815    0.563    0.209    3.914
  441.250  148.808  103.268    0.554    0.207    3.917
  441.500  147.296  100.932    0.577    0.205    3.850
  441.750  147.349  103.374    0.593    0.205    3.784
  442.000  146.602  105.842    0.603    0.210    3.719
  442.250  146.708  102.280    0.615    0.212    3.654
  442.500  147.562   99.344    0.616    0.212    3.659
  442.750  148.451   99.998    0.599    0.213    3.662
  443.000  149.305  100.652    0.582    0.217    3.808
  443.250  150.159  101.305    0.567    0.221    3.958
  443.500  152.667  101.359    0.556    0.233    4.191
  443.750  155.140  101.425    0.565    0.248    4.437
  444.000  156.012  100.865    0.580    0.265    5.357
  444.250  154.499   96.115    0.558    0.266    5.673
  444.500  153.734   92.579    0.523    0.255    5.786
  444.750  153.005   90.243    0.515    0.246    5.902
  445.000  153.876   89.670    0.529    0.234    5.910
  445.250  154.766   87.334    0.537    0.227    5.811
  445.500  154.819   84.986    0.531    0.231    5.815
  445.750  154.908   85.026    0.523    0.234    5.507
  446.000  154.178   85.079    0.515    0.229    5.212
  446.250  153.449   85.733    0.515    0.225    4.844
  446.500  152.701   85.786    0.527    0.227    4.502
  446.750  151.207   88.241    0.542    0.236    4.859
  447.000  150.459   91.910    0.547    0.239    5.049
  447.250  149.730   90.162    0.535    0.240    5.447
  447.500  149.801   89.015    0.531    0.243    5.768
  447.750  149.854   89.655    0.539    0.246    6.108
  448.000  149.925   89.708    0.532    0.247    6.719
  448.250  150.032   88.561    0.522    0.247    6.850
  448.500  150.103   85.011    0.535    0.243    7.395
  448.750  150.156   81.462    0.537    0.240    7.399
  449.000  150.245   79.727    0.538    0.239    7.411
  449.250  150.298   79.781    0.542    0.242    7.017
  449.500  151.223   81.022    0.547    0.239    6.522
  449.750  151.241   79.887    0.522    0.232    6.287
  450.000  151.312   75.724    0.506    0.244    5.842
  450.250  151.383   69.173    0.516    0.269    5.742
  450.500  151.472   73.429    0.532    0.279    6.082
  450.750  151.560   75.911    0.521    0.282    6.439
  451.000  151.596   74.763    0.503    0.286    6.947
  451.250  151.685   72.415    0.503    0.292    7.361
  451.500  151.773   69.466    0.501    0.294    7.653
  451.750  151.827   67.130    0.498    0.300    7.802
  452.000  151.916   65.956    0.487    0.304    7.668
  452.250  151.204   66.623    0.486    0.305    7.127
  452.500  151.239   70.279    0.517    0.300    6.748
  452.750  151.328   73.935    0.529    0.290    6.389
  453.000  151.417   78.191    0.516    0.268    6.278
  453.250  151.452   80.633    0.498    0.245    6.168
  453.500  151.523   83.115    0.497    0.237    5.950
  453.750  151.594   84.969    0.499    0.242    5.847
  454.000  151.665   87.424    0.487    0.246    6.309
  454.250  151.736   88.065    0.461    0.243    6.085
  454.500  151.808   86.330    0.462    0.245    5.056
  454.750  151.078   82.167    0.500    0.261    3.295
  455.000  151.167   79.218    0.531    0.271    2.541
  455.250  151.238   84.675    0.568    0.266    2.232
  455.500  150.490   92.534    0.613    0.269    2.035
  455.750  150.561   90.199    0.642    0.274    1.928
  456.000  150.633   91.440    0.651    0.273    1.966
  456.250  150.721   94.522    0.539    0.249    2.122
  456.500  149.992   95.176    0.551    0.245    2.332
  456.750  150.063   95.242    0.579    0.240    2.425
  457.000  150.134   95.869    0.587    0.232    2.521
  457.250  150.223   97.137    0.597    0.231    2.618
  457.500  150.294   97.777    0.599    0.236    2.774
  457.750  150.382   98.444    0.604    0.238    2.882
  458.000  150.418   99.111    0.606    0.241    3.168
  458.250  151.290   99.738    0.587    0.245    3.482
  458.500  151.361   97.990    0.570    0.248    3.902
  458.750  151.432   95.642    0.550    0.257    4.210
  459.000  151.503   91.492    0.562    0.266    4.544
  459.250  150.809   83.740    0.574    0.260    4.720
  459.500  150.862   80.190    0.578    0.260    5.289
  459.750  150.132   82.058    0.570    0.270    5.599
  460.000  150.203   80.897    0.558    0.288    6.041
  460.250  149.492   73.745    0.540    0.312    6.518
  460.500  149.563   66.593    0.509    0.336    7.036
  460.750  149.634   61.256    0.504    0.344    7.311
  461.000  149.687   62.510    0.498    0.342    7.456
  461.250  149.758   64.952    0.474    0.341    7.752
  461.500  149.829   64.405    0.471    0.340    7.759
  461.750  149.918   62.056    0.475    0.342    7.774
  462.000  149.989   60.908    0.478    0.343    7.638
  462.250  150.060   61.562    0.500    0.345    7.647
  462.500  150.131   61.615    0.508    0.344    7.657
  462.750  151.002   61.682    0.501    0.337    7.809
  463.000  151.056   61.735    0.507    0.324    8.116
  463.250  151.927   61.789    0.502    0.309    9.439
  463.500  151.998   61.228    0.481    0.295   10.577
  463.750  152.069   59.480    0.430    0.278   10.784
  464.000  152.158   58.333    0.391    0.241   10.797
  464.250  152.229   55.984    0.401    0.223    9.666
  464.500  151.517   58.439    0.476    0.168    7.882
  464.750  151.588   62.709    0.505    0.267    7.058
  465.000  151.659   64.563    0.521    0.309    6.934
  465.250  151.713   64.029    0.518    0.324    6.945
  465.500  151.784   60.467    0.518    0.320    6.952
  465.750  151.855   62.321    0.517    0.323    6.832
  466.000  151.944   65.390    0.509    0.330    6.843
  466.250  151.214   63.028    0.497    0.320    6.852
  466.500  151.285   60.680    0.501    0.310    6.858
  466.750  151.356   60.133    0.513    0.307    6.867
  467.000  151.409   63.188    0.522    0.331    6.878
  467.250  151.498   63.842    0.518    0.328    7.019
  467.500  151.569   62.694    0.524    0.323    7.023
  467.750  151.640   68.765    0.533    0.318    7.035
  468.000  151.711   68.231    0.525    0.318    7.176
  468.250  151.782   68.285    0.503    0.319    7.183
  468.500  151.853   70.753    0.498    0.326    7.614
  468.750  151.942   70.780    0.478    0.324    7.765
  469.000  152.013   68.445    0.427    0.285    8.073
  469.250  152.102   63.681    0.422    0.247    8.081
  469.500  152.137   57.129    0.408    0.212    8.243
  469.750  152.208   52.379    0.397    0.191    7.519
  470.000  153.116   59.638    0.440    0.312    6.987
  470.250  153.187   67.497    0.467    0.299    6.492
  470.500  154.040   71.753    0.466    0.255    6.380
  470.750  155.730   82.627    0.465    0.242    6.270
