~VERSION INFORMATION
 VERS.                 2.0:   CWLS LOG ASCII STANDARD -VERSION 2.0
 WRAP.                  NO:   ONE LINE PER DEPTH STEP
~WELL INFORMATION BLOCK
#MNEM.UNIT           DATA                    DESCRIPTION OF MNEMONIC
#---------    -------------------            -------------------------------
# Generated from Intellog Unique Number	CS_71_72/WELL/871
WELL.         PACIFIC PHILLIPS AEC WIAU      : Well_name    - WELL
LOC .         00/10-25-072-09W4/0            : Location     - LOCATION
UWI .         00/10-25-072-09W4/0            : Uwi          - UNIQUE WELL ID
ENTR.         SP                             : Entered      - ENTERED BY
SRVC.         SCHLUMBERGER                   : Scn          - SERVICE COMPANY
STRT.M        315                            : top_depth    - START DEPTH
STOP.M        520                            : bot_depth    - STOP DEPTH
STEP.M        0.25                           : increment    - STEP LENGTH
 NULL. -999.2500:NULL Value
~CURVE INFORMATION BLOCK
#MNEM UNIT       ERCB CURVE CODE    CURVE DESCRIPTION
#-----------   ------------------   ----------------------------------
DEPT.M        00 001 00 00         : DEPTH        - DEPTH
GR  .API      00 310 00 00         : GR           - GAMMA RAY
NPHI.V/V      00 330 00 00         : PHIN         - NEUTRON POROSITY (LIMESTONE)
DPHI.V/V      00 890 00 00         : PHID         - DENSITY POROSITY (LIMESTONE)
ILD .OHMM     00 120 00 00         : RESD         - DEEP RESISTIVITY (DIL)
~PARAMETER INFORMATION
#MNEM.UNIT           DATA             DESCRIPTION OF MNEMONIC
#---------         -----------     ------------------------------
GL  .M        682.3                : gl           - GROUND LEVEL ELEVATION
EREF.M        685.3                : kb           - ELEVATION OF DEPTH REFERENCE
DATM.M        682.3                : datum        - DATUM ELEVATION
TDD .M        530                  : tdd          - TOTAL DEPTH DRILLER
RUN .         ONE                  : Run          - RUN NUMBER
ENG .         BILL                 : Engineer     - RECORDING ENGINEER
WIT .         JIM                  : Witness      - WITNESSED BY
MUD .         GEL                  : Mud_type     - MUD TYPE
MATR.         LIMESTONE            : Logunit      - NEUTRON MATRIX
TMAX.C        16                   : BHT          - MAXIMUM RECORDED TEMPERATURE
BHTD.M        530                  : BHTDEP       - MAXIMUM RECORDED TEMPERATURE
MATR.         1                    : LOGUNIT      - NEUTRON MATRIX
RMT .C        25                   : MDTP         - TEMPERATURE OF MUD
NEUT.         1                    : NEUTRON      - NEUTRON TYPE
RESI.         0                    : RESIST       - RESISTIVITY TYPE
RMC .OHMM     0.25                 : RMC          - RESISTIVITY OF MUD CAKE
RMF .OHMM     0.25                 : RMF          - RESISTIVITY OF MUD FILTRATE
SUFT.C        15                   : SUFT         - SURFACE TEMPERATURE
~A  DEPTH       GR     PHIN     PHID     RESD
# ...
  489.000   73.311    0.332    0.164    9.393
  489.250   73.914    0.343    0.173    9.935
  489.500   71.507    0.361    0.187   10.316
  489.750   69.701    0.358    0.193   10.512
  490.000   69.099    0.353    0.201   10.714
  490.250   68.498    0.349    0.197   11.122
  490.500   69.704    0.345    0.184   12.435
  490.750   73.321    0.361    0.163   13.902
  491.000   67.299    0.379    0.179   16.129
  491.250   63.685    0.405    0.225   19.066
  491.500   54.048    0.421    0.262   20.923
  491.750   48.628    0.393    0.269   22.128
  492.000   50.437    0.382    0.263   19.812
  492.250   53.450    0.368    0.257   18.406
  492.500   55.861    0.373    0.246   17.417
  492.750   57.067    0.385    0.239   17.751
  493.000   55.261    0.405    0.234   18.774
  493.250   50.444    0.389    0.238   20.228
  493.500   46.830    0.367    0.294   20.998
  493.750   48.037    0.356    0.284   19.150
  494.000   54.063    0.351    0.263   16.219
  494.250   55.871    0.355    0.246   14.789
  494.500   57.077    0.374    0.232   14.799
  494.750   53.465    0.399    0.240   15.652
  495.000   48.647    0.409    0.250   16.247
  495.250   51.057    0.390    0.269   15.956
  495.500   57.685    0.385    0.272   14.022
  495.750   63.711    0.389    0.248   11.877
  496.000   69.737    0.401    0.231   10.832
  496.250   73.955    0.388    0.217   10.250
  496.500   78.776    0.368    0.199    9.522
  496.750   81.187    0.384    0.173    9.179
  497.000   80.586    0.386    0.209    8.851
  497.250   71.552    0.391    0.236    9.019
  497.500   58.300    0.403    0.251    8.694
  497.750   50.470    0.403    0.268    6.838
  498.000   46.857    0.386    0.273    6.235
  498.250   45.653    0.377    0.266    5.281
  498.500   40.836    0.403    0.265    4.728
  498.750   36.018    0.388    0.284    4.313
  499.000   34.815    0.376    0.291    4.235
  499.250   36.624    0.376    0.300    4.159
  499.500   40.842    0.388    0.304    4.084
  499.750   43.253    0.394    0.286    4.086
  500.000   44.459    0.396    0.280    4.013
  500.250   44.461    0.390    0.269    4.090
  500.500   45.064    0.388    0.266    4.091
  500.750   51.693    0.392    0.263    4.093
  501.000   54.104    0.396    0.274    4.250
  501.250   56.514    0.400    0.272    4.331
  501.500   57.721    0.384    0.267    4.333
  501.750   58.325    0.377    0.262    4.499
  502.000   59.531    0.372    0.261    4.501
  502.250   61.340    0.363    0.257    4.673
  502.500   65.558    0.365    0.245    4.942
  502.750   70.379    0.376    0.243    5.131
  503.000   73.392    0.368    0.222    5.528
  503.250   76.406    0.360    0.205    5.846
  503.500   79.420    0.377    0.184    6.068
  503.750   80.023    0.390    0.182    6.420
  504.000   83.640    0.394    0.161    6.541
  504.250   86.653    0.400    0.182    6.545
  504.500   88.461    0.400    0.175    6.548
  504.750   91.475    0.398    0.167    6.550
  505.000   92.079    0.403    0.153    6.433
  505.250   91.478    0.397    0.143    6.203
  505.500   93.890    0.392    0.129    5.870
  505.750   95.096    0.379    0.122    5.453
  506.000   92.085    0.390    0.121    5.257
  506.250   77.629    0.413    0.145    5.163
  506.500   68.594    0.417    0.192    5.165
  506.750   62.571    0.421    0.223    5.265
  507.000   60.163    0.408    0.249    5.365
  507.250   60.164    0.380    0.262    5.571
  507.500   61.973    0.362    0.260    5.783
  507.750   67.397    0.332    0.239    6.003
  508.000   71.615    0.309    0.197    6.351
  508.250   75.833    0.299    0.176    6.593
  508.500   80.653    0.316    0.176    6.844
  508.750   86.679    0.332    0.156    7.106
  509.000   89.693    0.347    0.139    7.241
  509.250   90.296    0.371    0.134    7.380
  509.500   90.901    0.392    0.133    7.521
  509.750   90.300    0.404    0.152    7.526
  510.000   91.506    0.382    0.161    7.389
  510.250   90.303    0.368    0.176    6.740
  510.500   85.485    0.371    0.184    6.033
  510.750   76.450    0.389    0.182    5.302
  511.000   69.825    0.400    0.182    4.835
  511.250   60.790    0.384    0.215    4.409
  511.500   50.551    0.376    0.245    3.804
  511.750   45.733    0.391    0.273    3.600
  512.000   49.951    0.379    0.277    3.951
  512.250   54.169    0.360    0.248    4.338
  512.500   65.015    0.334    0.205    4.587
  512.750   69.233    0.343    0.141    4.761
  513.000   71.644    0.354    0.156    4.944
  513.250   70.441    0.355    0.194    4.946
  513.500   68.033    0.356    0.221    4.858
  513.750   67.432    0.362    0.223    4.771
  514.000   66.228    0.374    0.210    4.773
  514.250   64.422    0.378    0.203    4.775
  514.500   62.014    0.375    0.204    4.867
  514.750   63.221    0.373    0.222    4.868
  515.000   65.029    0.377    0.233    4.961
  515.250   68.645    0.383    0.226    4.964
  515.500   69.851    0.379    0.211    5.059
  515.750   72.263    0.363    0.204    5.156
  516.000   71.059    0.359    0.186    5.555
  516.250   65.639    0.343    0.150    6.097
  516.500   59.014    0.319    0.077    6.447
  516.750   54.196    0.295    0.001    7.908
  517.000   52.992    0.283    0.021    9.347
  517.250   51.187    0.269    0.025   10.644
  517.500   49.983    0.239    0.011   13.802
  517.750   47.576    0.217   -0.010   16.314
  518.000   46.372    0.198    0.000   17.902
  518.250   45.168    0.185   -0.005   20.771
  518.500   42.158    0.175   -0.010   23.224
  518.750   39.749    0.169    0.006   25.489
  519.000   36.740    0.167    0.016   26.462
  519.250   36.740    0.169    0.016   25.986
  519.500   41.562    0.174    0.008   25.524
  519.750   45.178    0.198    0.017   24.154
  520.000   46.986    0.211    0.017   22.860
