~VERSION INFORMATION
 VERS.                 2.0:   CWLS LOG ASCII STANDARD -VERSION 2.0
 WRAP.                  NO:   ONE LINE PER DEPTH STEP
~WELL INFORMATION BLOCK
#MNEM.UNIT           DATA                    DESCRIPTION OF MNEMONIC
#---------    -------------------            -------------------------------
# Generated from Intellog Unique Number	CW_70_72/WELL/3022
NULL.         -999.25                        : NULL_VALUE
WELL.         SUNDANCE CANAL 10-20           : Well_name    - WELL              
LOC .         10-20-070-23W4                 : Location     - LOCATION          
UWI .         00/10-20-070-23W4/0            : Uwi          - UNIQUE WELL ID    
ENTR.         jj                             : Entered      - ENTERED BY        
SRVC.         WESTERN ATLAS                  : Scn          - SERVICE COMPANY   
DATE.         18 FEB 77                      : Date         - LOG DATE          
STRT.M        396.24                         : top_depth    - START DEPTH       
STOP.M        579.24                         : bot_depth    - STOP DEPTH        
STEP.M        0.25                           : increment    - STEP LENGTH       
~CURVE INFORMATION BLOCK
#MNEM UNIT       ERCB CURVE CODE    CURVE DESCRIPTION
#-----------   ------------------   ----------------------------------
DEPT.M        00 001 00 00         : DEPTH        - DEPTH                       
ILD .OHMM     00 120 00 00         : RESD         - DEEP RESISTIVITY (DIL)      
CALI.MM       00 280 01 00         : CAL          - CALIPER                     
GR  .API      00 310 00 00         : GR           - GAMMA RAY                   
NPHI.V/V      00 330 00 00         : PHIN         - NEUTRON POROSITY (SANDSTONE)
DPHI.V/V      00 890 00 00         : PHID         - DENSITY POROSITY (SANDSTONE)
~PARAMETER INFORMATION       
#MNEM.UNIT           DATA             DESCRIPTION OF MNEMONIC
#---------         -----------     ------------------------------
GL  .M        626.059              : gl           - GROUND LEVEL ELEVATION      
EREF.M        629.717              : kb           - ELEVATION OF DEPTH REFERENCE
DATM.M        626.059              : datum        - DATUM ELEVATION             
TDD .M        588.264              : tdd          - TOTAL DEPTH DRILLER         
RUN .         ONE                  : Run          - RUN NUMBER                  
ENG .         DALY                 : Engineer     - RECORDING ENGINEER          
BASE.         EDM                  : Branch       - HOME BASE OF LOGGING UNIT   
MUD .         GEL BENDEX           : Mud_type     - MUD TYPE                    
MATR.         SANDSTONE            : Logunit      - NEUTRON MATRIX              
TMAX.C        23.8889              : BHT          - MAXIMUM RECORDED TEMPERATURE
BHTD.M        589.483              : BHTDEP       - MAXIMUM RECORDED TEMPERATURE
RMT .C        14.4444              : MDTP         - TEMPERATURE OF MUD          
MUDD.KG/M     1104                 : MWT          - MUD DENSITY                 
NEUT.         1                    : NEUTRON      - NEUTRON TYPE                
RESI.         0                    : RESIST       - RESISTIVITY TYPE            
RM  .OHMM     6.64                 : RM           - RESISTIVITY OF MUD          
RMC .OHMM     0.25                 : RMC          - RESISTIVITY OF MUD CAKE     
RMF .OHMM     5.99                 : RMF          - RESISTIVITY OF MUD FILTRATE 
SUFT.C        -17                  : SUFT         - SURFACE TEMPERATURE         
~A  DEPTH     RESD      CAL       GR     PHIN     PHID
# ...
  469.240    2.686  157.488   63.345    0.460    0.274
  469.490    2.705  154.937   63.601    0.441    0.290
  469.740    2.694  157.327   63.557    0.433    0.270
  469.990    2.673  157.864   63.202    0.437    0.269
  470.240    2.652  155.314   63.762    0.446    0.269
  470.490    2.636  153.792   65.417    0.455    0.266
  470.740    2.636  152.989   67.191    0.440    0.275
  470.990    2.629  152.907   66.598    0.433    0.285
  471.240    2.633  154.886   67.825    0.437    0.279
  471.490    2.652  157.376   71.242    0.438    0.276
  471.740    2.666  160.592   69.188    0.429    0.272
  471.990    2.674  161.639   65.312    0.434    0.267
  472.240    2.688  162.178   67.391    0.451    0.257
  472.490    2.701  161.992   68.194    0.442    0.261
  472.740    2.720  159.852   65.716    0.448    0.253
  472.990    2.740  159.464   65.910    0.465    0.270
  473.240    2.749  159.077   66.653    0.457    0.275
  473.490    2.742  158.378   65.755    0.445    0.262
  473.740    2.757  157.473   63.521    0.436    0.275
  473.990    2.812  156.257   62.620    0.438    0.265
  474.240    2.955  153.400   63.119    0.442    0.248
  474.490    3.515  151.052   64.287    0.450    0.222
  474.740    4.316  150.151   65.273    0.446    0.201
  474.990    6.556  151.096   64.250    0.385    0.173
  475.240    9.197  153.279   60.435    0.311    0.081
  475.490   11.395  159.170   57.469    0.178    0.040
  475.740   13.211  161.148   56.571    0.170    0.018
  475.990   10.913  160.858   56.584    0.183   -0.003
  476.240    8.575  159.748   58.301    0.257    0.011
  476.490    7.189  157.817   60.378    0.324    0.024
  476.740    6.184  155.882   62.155    0.363    0.050
  476.990    5.089  153.847   63.382    0.408    0.095
  477.240    3.868  152.943   66.373    0.440    0.125
  477.490    3.303  152.656   72.162    0.438    0.184
  477.740    2.895  152.371   76.792    0.423    0.196
  477.990    2.702  152.389   84.647    0.417    0.210
  478.240    2.767  152.722   89.765    0.458    0.244
  478.490    2.984  154.185   93.668    0.525    0.196
  478.740    3.370  157.188   90.641    0.550    0.175
  478.990    3.794  158.964   83.239    0.514    0.213
  479.240    4.176  158.056   81.671    0.502    0.236
  479.490    4.562  158.387   83.873    0.495    0.227
  479.740    4.927  161.085   87.047    0.470    0.220
  479.990    5.227  162.239   89.977    0.447    0.191
  480.240    5.284  162.161   90.294    0.434    0.162
  480.490    5.184  160.535   88.301    0.446    0.143
  480.740    5.011  158.086   88.010    0.436    0.149
  480.990    4.766  156.254   92.216    0.427    0.162
  481.240    4.608  155.249   93.932    0.423    0.182
  481.490    4.495  154.754   93.947    0.434    0.165
  481.740    4.453  154.574   95.111    0.422    0.159
  481.990    4.443  154.797   96.827    0.412    0.162
  482.240    4.440  155.645   96.899    0.419    0.159
  482.490    4.456  155.973   96.852    0.438    0.166
  482.740    4.463  156.718   98.141    0.446    0.161
  482.990    4.468  159.622  100.221    0.450    0.147
  483.240    4.450  163.966   99.687    0.478    0.144
  483.490    4.457  165.738   98.608    0.466    0.152
  483.740    4.462  163.289   97.223    0.462    0.150
  483.990    4.420  160.635   95.534    0.463    0.149
  484.240    4.394  159.114   92.810    0.468    0.148
  484.490    4.367  158.312   91.973    0.468    0.169
  484.740    4.341  158.439   94.843    0.465    0.161
  484.990    4.324  158.869   98.319    0.449    0.150
  485.240    4.355  160.231   97.177    0.443    0.160
  485.490    4.418  162.412   94.212    0.442    0.164
  485.740    4.514  163.466   95.075    0.439    0.170
  485.990    4.753  164.103   96.306    0.429    0.174
  486.240    5.042  163.613   96.684    0.435    0.160
  486.490    5.258  162.811   95.541    0.447    0.145
  486.740    5.344  161.598   86.862    0.450    0.140
  486.990    5.255  159.971   71.254    0.333    0.132
  487.240    5.088  158.142   75.583    0.303    0.122
  487.490    4.769  156.826   78.087    0.347    0.147
  487.740    4.533  156.126   79.315    0.414    0.170
  487.990    4.138  156.147   76.532    0.448    0.206
  488.240    3.827  156.581   78.430    0.458    0.202
  488.490    3.762  156.912   82.820    0.452    0.205
  488.740    3.712  157.551   85.450    0.454    0.227
  488.990    3.781  158.501   87.589    0.460    0.218
  489.240    3.959  159.553   88.999    0.452    0.205
  489.490    4.151  160.709   89.862    0.441    0.192
  489.740    4.386  161.241   90.055    0.446    0.171
  489.990    4.419  161.469   88.975    0.432    0.190
  490.240    4.384  161.185   85.949    0.433    0.189
  490.490    4.284  160.689   81.587    0.455    0.214
  490.740    4.098  157.521   80.322    0.465    0.204
  490.990    3.983  152.500   82.948    0.446    0.210
  491.240    3.901  153.861   85.516    0.436    0.223
  491.490    3.906  158.513   87.838    0.430    0.199
  491.740    4.152  159.051   86.695    0.440    0.183
  491.990    4.266  158.558   90.723    0.451    0.164
  492.240    4.336  158.270   92.799    0.448    0.190
  492.490    4.170  158.090   90.684    0.446    0.172
  492.740    4.009  157.802   83.586    0.432    0.164
  492.990    3.805  156.690   79.588    0.426    0.155
  493.240    3.578  154.962   84.222    0.436    0.172
  493.490    3.445  153.441   88.915    0.437    0.163
  493.740    3.199  151.820   88.076    0.430    0.205
  493.990    3.053  151.220   77.208    0.423    0.266
  494.240    2.940  151.757   67.984    0.434    0.267
  494.490    2.854  151.983   65.808    0.455    0.255
  494.740    2.811  152.726   68.434    0.448    0.255
  494.990    2.830  156.557   70.879    0.442    0.266
  495.240    2.974  158.330   73.872    0.431    0.250
  495.490    3.196  157.834   76.861    0.429    0.227
  495.740    3.402  156.316   81.675    0.433    0.211
  495.990    3.602  154.278   78.468    0.440    0.183
  496.240    3.627  152.241   71.855    0.458    0.206
  496.490    3.475  153.599   69.801    0.463    0.240
  496.740    3.389  157.738   73.038    0.466    0.228
  496.990    3.301  152.822   75.664    0.476    0.212
  497.240    3.258  153.049   76.466    0.474    0.213
  497.490    3.275  158.113   75.385    0.461    0.224
  497.740    3.404  152.165   74.365    0.463    0.235
  497.990    3.576  154.452   76.384    0.469    0.229
  498.240    3.772  154.474   80.710    0.483    0.219
  498.490    3.935  157.895   87.044    0.492    0.240
  498.740    3.933  156.885   95.141    0.485    0.241
  498.990    3.719  160.405  100.322    0.480    0.241
  499.240    3.484  166.294  104.224    0.515    0.240
  499.490    3.333  169.404  106.606    0.538    0.195
  499.740    3.318  170.765  102.486    0.499    0.194
  499.990    3.506  165.639   97.090    0.469    0.233
  500.240    3.725  161.034   92.789    0.450    0.192
  500.490    4.047  158.891   89.519    0.436    0.177
  500.740    4.300  158.815   87.345    0.425    0.172
  500.990    4.395  160.790   87.781    0.422    0.154
  501.240    4.436  162.973   90.591    0.427    0.144
  501.490    4.457  161.758   89.632    0.446    0.150
  501.740    4.456  156.119   85.816    0.434    0.170
  501.990    4.469  158.509   81.999    0.421    0.188
  502.240    4.502  161.620   85.295    0.419    0.190
  502.490    4.516  161.744   89.624    0.419    0.182
  502.740    4.540  161.974   95.228    0.419    0.161
  502.990    4.583  162.305   97.914    0.422    0.147
  503.240    4.595  162.328   97.077    0.433    0.160
  503.490    4.645  161.935   90.160    0.443    0.177
  503.740    4.746  160.520   82.941    0.441    0.159
  503.990    5.047  158.994   74.323    0.440    0.173
  504.240    5.154  156.342   71.418    0.438    0.183
  504.490    5.417  155.433   86.443    0.423    0.168
  504.740    5.662  158.751   99.706    0.413    0.134
  504.990    5.721  162.169  101.056    0.429    0.147
  505.240    5.721  165.588  100.280    0.440    0.131
  505.490    5.218  165.504   98.287    0.429    0.118
