~VERSION INFORMATION
 VERS.                 2.0:   CWLS LOG ASCII STANDARD -VERSION 2.0
 WRAP.                  NO:   ONE LINE PER DEPTH STEP
~WELL INFORMATION BLOCK
#MNEM.UNIT           DATA                    DESCRIPTION OF MNEMONIC
#---------    -------------------            -------------------------------
# Generated from Intellog Unique Number	CW_79_81/WELL/2489
WELL.         13-26-080-22W4                 : Well_name    - WELL
LOC .         00/13-26-080-22W4/0            : Location     - LOCATION
UWI .         00/13-26-080-22W4/0            : Uwi          - UNIQUE WELL ID
ENTR.         MAX                            : Entered      - ENTERED BY
SRVC.         SCHLUMBERGER                   : Scn          - SERVICE COMPANY
STRT.M        185                            : top_depth    - START DEPTH
STOP.M        440                            : bot_depth    - STOP DEPTH
STEP.M        0.25                           : increment    - STEP LENGTH
 NULL. -999.2500:NULL Value
~CURVE INFORMATION BLOCK
#MNEM UNIT       ERCB CURVE CODE    CURVE DESCRIPTION
#-----------   ------------------   ----------------------------------
DEPT.M        00 001 00 00         : DEPTH        - DEPTH
ILD .OHMM     00 120 00 00         : RESD         - DEEP RESISTIVITY (DIL)
NPHI.V/V      00 330 00 00         : PHIN         - NEUTRON POROSITY (SANDSTONE)
DPHI.V/V      00 890 00 00         : PHID         - DENSITY POROSITY (SANDSTONE)
GR  .API      00 310 00 00         : GR           - GAMMA RAY
CALI.MM       00 280 01 00         : CAL          - CALIPER
~PARAMETER INFORMATION
#MNEM.UNIT           DATA             DESCRIPTION OF MNEMONIC
#---------         -----------     ------------------------------
GL  .M        595.95               : gl           - GROUND LEVEL ELEVATION
EREF.M        600.6                : kb           - ELEVATION OF DEPTH REFERENCE
DATM.M        595.95               : datum        - DATUM ELEVATION
TDD .M        449                  : tdd          - TOTAL DEPTH DRILLER
RUN .         ONE                  : Run          - RUN NUMBER
ENG .         BILL                 : Engineer     - RECORDING ENGINEER
WIT .         JIM                  : Witness      - WITNESSED BY
MUD .         GEL                  : Mud_type     - MUD TYPE
MATR.         SANDSTONE            : Logunit      - NEUTRON MATRIX
TMAX.C        36                   : BHT          - MAXIMUM RECORDED TEMPERATURE
BHTD.M        449                  : BHTDEP       - MAXIMUM RECORDED TEMPERATURE
MATR.         1                    : LOGUNIT      - NEUTRON MATRIX
RMT .C        17                   : MDTP         - TEMPERATURE OF MUD
NEUT.         1                    : NEUTRON      - NEUTRON TYPE
RESI.         0                    : RESIST       - RESISTIVITY TYPE
RMC .OHMM     4.46                 : RMC          - RESISTIVITY OF MUD CAKE
RMF .OHMM     4.55                 : RMF          - RESISTIVITY OF MUD FILTRATE
SUFT.C        -20                  : SUFT         - SURFACE TEMPERATURE
~A  DEPTH     RESD     PHIN     PHID       GR      CAL
# ...
  404.000   70.884    0.370    0.292   39.082  216.034
  404.250   67.294    0.367    0.291   39.803  216.041
  404.500   64.256    0.362    0.281   41.601  215.751
  404.750   60.765    0.360    0.271   43.757  215.560
  405.000   57.206    0.362    0.265   45.136  215.666
  405.250   53.690    0.369    0.264   44.035  216.155
  405.500   48.995    0.374    0.269   43.293  216.578
  405.750   45.473    0.384    0.272   45.449  216.585
  406.000   41.974    0.381    0.279   47.246  217.787
  406.250   39.150    0.375    0.286   48.804  220.185
  406.500   36.544    0.375    0.295   50.541  222.484
  406.750   32.761    0.384    0.308   53.724  221.264
  407.000   30.582    0.385    0.293   56.468  217.122
  407.250   28.814    0.379    0.273   59.102  215.137
  407.500   26.382    0.382    0.249   61.378  214.348
  407.750   24.248    0.384    0.192   64.729  214.754
  408.000   21.972    0.379    0.116   71.664  215.956
  408.250   17.990    0.362    0.088   86.223  217.077
  408.500   15.004    0.358    0.138   88.470  216.668
  408.750   11.045    0.380    0.165   86.323  214.685
  409.000    8.692    0.403    0.179   88.837  213.895
  409.250    7.229    0.405    0.185   94.459  213.702
  409.500    6.366    0.391    0.189   99.185  213.709
  409.750    6.119    0.397    0.194   94.319  213.885
  410.000    6.773    0.417    0.198   83.118  214.723
  410.250    8.582    0.406    0.207   75.234  215.924
  410.500   10.604    0.395    0.205   70.576  215.633
  410.750   13.560    0.375    0.180   72.015  215.242
  411.000   17.366    0.345    0.138   79.489  215.748
  411.250   15.551    0.320    0.111   91.557  218.245
  411.500   10.674    0.367    0.160   99.281  220.742
  411.750    8.498    0.403    0.184  107.652  218.759
  412.000    7.731    0.403    0.190  106.881  215.579
  412.250    7.371    0.390    0.190  106.287  213.394
  412.500    7.263    0.381    0.194  108.502  212.903
  412.750    7.986    0.397    0.207  102.493  213.228
  413.000   10.202    0.435    0.216   67.633  212.820
  413.250   13.934    0.417    0.230   61.901  212.030
  413.500   17.863    0.385    0.243   61.008  211.241
  413.750   22.017    0.356    0.250   62.806  211.249
  414.000   26.803    0.338    0.249   65.499  211.953
  414.250   31.497    0.339    0.233   68.452  212.526
  414.500   29.627    0.360    0.221   72.442  213.364
  414.750   26.275    0.351    0.212   78.661  214.965
  415.000   24.150    0.342    0.208   80.937  216.865
  415.250   23.213    0.335    0.199   77.954  218.465
  415.500   23.257    0.331    0.180   72.877  219.368
  415.750   24.147    0.322    0.154   73.211  219.294
  416.000   25.105    0.313    0.167   72.469  218.889
  416.250   24.740    0.309    0.179   71.517  218.894
  416.500   22.762    0.319    0.182   72.358  219.200
  416.750   16.947    0.327    0.172   75.469  220.004
  417.000   11.981    0.331    0.154   81.211  220.610
  417.250    9.069    0.359    0.136   89.674  218.926
  417.500    7.132    0.455    0.132   88.931  216.444
  417.750    5.812    0.523    0.140   90.370  216.449
  418.000    5.250    0.513    0.155   95.036  216.456
  418.250    5.196    0.467    0.177   97.909  217.061
  418.500    5.512    0.430    0.196   97.256  218.064
  418.750    6.119    0.452    0.192   94.483  218.223
  419.000    6.880    0.451    0.180   93.740  216.986
  419.250    7.678    0.417    0.178   94.223  215.798
  419.500    8.306    0.402    0.181   93.629  215.506
  419.750    8.469    0.393    0.192   87.658  215.912
  420.000    8.160    0.384    0.236   78.756  216.518
  420.250    7.731    0.410    0.358   78.870  216.360
  420.500    7.914    0.556    0.364   92.572  215.536
  420.750    8.333    0.578    0.325   95.683  214.746
  421.000    8.588    0.525    0.297   87.859  213.958
  421.250    8.394    0.466    0.272   80.453  213.367
  421.500    7.841    0.431    0.257   82.607  213.673
  421.750    7.195    0.429    0.275  104.796  216.405
  422.000    6.768    0.481    0.258  122.481  218.071
  422.250    6.972    0.496    0.227  121.768  218.478
  422.500    7.420    0.494    0.206  112.091  217.091
  422.750    8.048    0.479    0.216  100.383  215.703
  423.000    8.875    0.458    0.244   91.242  215.212
  423.250   10.563    0.425    0.246   84.902  215.288
  423.500   13.825    0.398    0.241   74.697  213.636
  423.750   15.097    0.371    0.233   78.286  214.041
  424.000   16.321    0.356    0.208   78.470  215.343
  424.250   17.517    0.366    0.217   72.141  215.350
  424.500   18.830    0.386    0.261   63.179  214.361
  424.750   20.915    0.371    0.289   62.816  215.249
  425.000   22.610    0.363    0.271   64.564  215.672
  425.250   23.808    0.375    0.265   63.134  214.485
  425.500   24.805    0.365    0.262   62.062  214.193
  425.750   25.093    0.360    0.264   60.154  214.598
  426.000   24.681    0.369    0.274   57.529  215.601
  426.250   23.994    0.380    0.289   57.265  217.536
  426.500   23.271    0.368    0.276   65.488  219.204
  426.750   23.104    0.357    0.264   68.599  220.806
  427.000   23.322    0.358    0.263   67.050  221.510
  427.250   23.761    0.360    0.267   64.784  221.916
  427.500   24.343    0.360    0.271   63.413  222.421
  427.750   25.458    0.367    0.268   61.725  223.228
  428.000   27.522    0.385    0.265   59.239  223.234
  428.250   30.935    0.382    0.268   49.921  223.640
  428.500   34.080    0.379    0.281   43.828  223.448
  428.750   38.276    0.375    0.291   39.411  223.057
  429.000   44.174    0.371    0.293   36.068  222.765
  429.250   49.281    0.362    0.286   33.961  222.690
  429.500   46.711    0.350    0.272   32.969  222.282
  429.750   43.027    0.366    0.248   39.906  222.291
  430.000   36.055    0.363    0.262   65.489  222.299
  430.250   28.252    0.351    0.263   86.292  222.306
  430.500   22.132    0.342    0.226   93.230  222.312
  430.750   17.840    0.346    0.135   92.060  222.320
  431.000   15.677    0.334    0.075   94.554  222.329
  431.250   14.771    0.310    0.095  101.252  221.141
  431.500   14.482    0.324    0.077   94.504  220.849
  431.750   14.591    0.327    0.045   85.305  221.254
  432.000   15.054    0.299    0.025   81.603  221.859
  432.250   16.033    0.246    0.045   91.638  221.619
  432.500   16.286    0.255    0.069  108.328  220.382
  432.750   15.930    0.282    0.099  113.352  220.389
  433.000   15.933    0.312    0.114  101.345  220.694
  433.250   16.290    0.338    0.093   92.025  221.896
  433.500   16.909    0.338    0.057   93.762  223.796
  433.750   17.360    0.273    0.067  106.757  225.317
  434.000   16.455    0.264    0.080  122.698  224.911
  434.250   13.000    0.293    0.075  121.030  224.517
  434.500   11.009    0.313    0.050  113.444  223.528
  434.750   10.075    0.315    0.047  105.679  221.942
  435.000    9.839    0.305    0.068  100.782  220.455
  435.250   10.123    0.303    0.080   98.965  220.631
  435.500   10.858    0.309    0.082   98.223  221.468
  435.750   12.829    0.284    0.056   90.099  221.077
  436.000   15.652    0.258    0.058   74.624  220.088
  436.250   19.534    0.255    0.066   65.782  219.099
  436.500   23.693    0.272    0.065   67.819  218.608
  436.750   24.781    0.272    0.052   75.584  219.100
  437.000   24.787    0.270    0.050   77.332  219.520
  437.250   23.354    0.281    0.072   81.161  218.731
  437.500   21.134    0.279    0.099   81.404  218.241
  437.750   19.593    0.280    0.119   82.006  218.448
  438.000   19.031    0.282    0.120   83.505  219.351
  438.250   19.349    0.268    0.085   82.734  220.638
  438.500   19.502    0.254    0.062   81.244  221.061
  438.750   19.651    0.262    0.077   82.682  221.068
  439.000   20.020    0.274    0.103   86.272  221.375
  439.250   20.844    0.297    0.124   87.472  221.382
  439.500   22.501    0.332    0.110   85.624  220.292
  439.750   26.986    0.358    0.014   83.956  216.118
  440.000   35.316    0.327    0.005   83.960  211.146
