~VERSION INFORMATION
 VERS.                 2.0:   CWLS LOG ASCII STANDARD -VERSION 2.0
 WRAP.                  NO:   ONE LINE PER DEPTH STEP
~WELL INFORMATION BLOCK
#MNEM.UNIT           DATA                    DESCRIPTION OF MNEMONIC
#---------    -------------------            -------------------------------
# Generated from Intellog Unique Number	CN_94_101/WELL/3801
WELL.         16-23-096-16W4                 : Well_name    - WELL
LOC .         00/16-23-096-16W4/0            : Location     - LOCATION
UWI .         00/16-23-096-16W400            : Uwi          - UNIQUE WELL ID
ENTR.         T                              : Entered      - ENTERED BY
SRVC.         SCHLUMBERGER                   : Scn          - SERVICE COMPANY
DATE.         07/20/92                       : Date         - LOG DATE
STRT.M        210                            : top_depth    - START DEPTH
STOP.M        399.75                         : bot_depth    - STOP DEPTH
STEP.M        0.25                           : increment    - STEP LENGTH
 NULL. -999.2500:NULL Value
~CURVE INFORMATION BLOCK
#MNEM UNIT       ERCB CURVE CODE    CURVE DESCRIPTION
#-----------   ------------------   ----------------------------------
DEPT.M        00 001 00 00         : DEPTH        - DEPTH
GR  .API      00 310 00 00         : GR           - GAMMA RAY
CALI.MM       00 280 01 00         : CAL          - CALIPER
NPHI.V/V      00 330 00 00         : PHIN         - NEUTRON POROSITY (SANDSTONE)
DPHI.V/V      00 890 00 00         : PHID         - DENSITY POROSITY (SANDSTONE)
ILD .OHMM     00 120 00 00         : RESD         - DEEP RESISTIVITY (DIL)
~PARAMETER INFORMATION
#MNEM.UNIT           DATA             DESCRIPTION OF MNEMONIC
#---------         -----------     ------------------------------
GL  .M        658                  : gl           - GROUND LEVEL ELEVATION
EREF.M        661.2                : kb           - ELEVATION OF DEPTH REFERENCE
DATM.M        661.2                : datum        - DATUM ELEVATION
TDD .M        400                  : tdd          - TOTAL DEPTH DRILLER
RUN .         0.000000             : Run          - RUN NUMBER
MUD .         GEL                  : Mud_type     - MUD TYPE
MATR.         SANDSTONE            : Logunit      - NEUTRON MATRIX
TMAX.C        0                    : BHT          - MAXIMUM RECORDED TEMPERATURE
BHTD.M        45                   : BHTDEP       - MAXIMUM RECORDED TEMPERATURE
RMT .C        5                    : MDTP         - TEMPERATURE OF MUD
MUDD.KG/M     1                    : MWT          - MUD DENSITY
NEUT.         1                    : NEUTRON      - NEUTRON TYPE
RESI.         0                    : RESIST       - RESISTIVITY TYPE
RM  .OHMM     7.8                  : RM           - RESISTIVITY OF MUD
RMC .OHMM     7.8                  : RMC          - RESISTIVITY OF MUD CAKE
RMF .OHMM     0                    : RMF          - RESISTIVITY OF MUD FILTRATE
SUFT.C        4                    : SUFT         - SURFACE TEMPERATURE
BTZC.MM       0                    : BITZC        - BIT SIZE CONSTANT
MDW .KG/M     0                    : MDW          - MUD WEIGHT
~A  DEPTH       GR      CAL     PHIN     PHID     RESD
# ...
  319.500  100.000  158.266    0.374    0.209    9.574
  319.750  100.602  158.266    0.386    0.213    9.052
  320.000  101.205  158.266    0.396    0.208    8.245
  320.250  102.410  157.258    0.395    0.184    7.796
  320.500  104.819  157.258    0.400    0.159    7.652
  320.750  105.422  157.258    0.386    0.113    7.652
  321.000  106.627  157.258    0.367    0.116    7.943
  321.250  105.422  157.258    0.370    0.146    7.943
  321.500  102.410  157.258    0.376    0.173    8.093
  321.750   99.398  157.258    0.381    0.194    8.720
  322.000   96.988  157.258    0.372    0.195    9.223
  322.250   90.964  157.258    0.364    0.193    8.720
  322.500   95.181  157.258    0.395    0.191    7.796
  322.750  103.614  157.258    0.401    0.188    8.245
  323.000  111.446  157.258    0.397    0.191    6.841
  323.250  116.867  156.250    0.425    0.192    6.232
  323.500  117.470  156.250    0.436    0.186    6.970
  323.750  109.036  156.250    0.447    0.180    7.235
  324.000  101.205  156.250    0.428    0.181    9.223
  324.250   90.361  156.250    0.426    0.192   10.125
  324.500   78.916  156.250    0.247    0.220    9.938
  324.750   80.120  156.250    0.254    0.230    8.245
  325.000   87.702  156.250    0.264    0.233    5.170
  325.250  104.032  156.250    0.367    0.232    4.537
  325.500  107.661  156.250    0.503    0.218    3.907
  325.750  105.847  156.250    0.535    0.205    4.453
  326.000  101.008  155.242    0.512    0.187    7.652
  326.250   97.379  155.242    0.394    0.182    7.652
  326.500  101.613  155.242    0.454    0.178    5.367
  326.750  105.847  155.242    0.521    0.173    4.537
  327.000  105.847  155.242    0.556    0.168    3.626
  327.250  106.452  155.242    0.547    0.160    3.242
  327.500  110.685  155.242    0.557    0.151    3.559
  327.750  114.919  155.242    0.530    0.163    4.537
  328.000  104.637  155.242    0.493    0.203    5.367
  328.250   97.984  155.242    0.442    0.243    6.349
  328.500   95.565  155.242    0.420    0.263    7.943
  328.750   97.984  154.234    0.409    0.298    8.093
  329.000   96.774  154.234    0.379    0.326    8.401
  329.250   94.355  154.234    0.364    0.356    7.796
  329.500  100.403  154.234    0.404    0.385    7.796
  329.750  114.315  154.234    0.426    0.388    7.796
  330.000  114.919  154.234    0.464    0.383    7.652
  330.250   99.798  153.226    0.415    0.382    8.093
  330.500   88.306  155.242    0.356    0.385    8.245
  330.750   95.565  161.290    0.307    0.393    8.885
  331.000  106.452  161.290    0.326    0.397    8.720
  331.250  106.452  163.306    0.375    0.398    8.401
  331.500  105.242  163.306    0.394    0.398    8.559
  331.750  104.637  156.250    0.396    0.397    8.093
  332.000  107.056  154.234    0.386    0.397    8.093
  332.250  108.871  154.234    0.385    0.394    9.223
  332.500  109.476  154.234    0.374    0.383    9.397
  332.750  106.452  154.234    0.374    0.378    9.574
  333.000  104.032  154.234    0.360    0.369    9.754
  333.250  104.032  154.234    0.361    0.358    9.397
  333.500  105.242  154.234    0.365    0.351    9.754
  333.750  102.218  154.234    0.356    0.344   11.116
  334.000   97.984  154.234    0.323    0.336   14.436
  334.250   95.565  154.234    0.307    0.331   13.650
  334.500   96.774  154.234    0.325    0.324   10.709
  334.750  104.032  154.234    0.377    0.321   10.125
  335.000  103.427  154.234    0.381    0.314    9.574
  335.250  102.823  154.234    0.386    0.308    9.223
  335.500  105.847  154.234    0.387    0.302    8.720
  335.750  108.871  154.234    0.386    0.296    8.720
  336.000  106.452  154.234    0.381    0.292    9.397
  336.250  104.637  154.234    0.384    0.294    8.885
  336.500  105.847  154.234    0.384    0.297    9.938
  336.750  101.613  154.234    0.353    0.301    9.397
  337.000   85.282  154.234    0.322    0.303   13.150
  337.250   75.000  154.234    0.302    0.302    9.754
  337.500   85.282  154.234    0.316    0.302   15.441
  337.750   95.565  154.234    0.343    0.301   11.044
  338.000   91.331  154.234    0.332    0.298   10.640
  338.250   88.306  154.234    0.338    0.301   11.044
  338.500   91.331  154.234    0.357    0.303   11.044
  338.750   97.984  154.234    0.357    0.306   11.044
  339.000  101.008  154.234    0.352    0.309   11.252
  339.250   99.194  154.234    0.335    0.309   10.251
  339.500   94.355  154.234    0.318    0.307   11.463
  339.750   95.565  154.234    0.352    0.304   11.252
  340.000   94.355  154.234    0.304    0.301   10.840
  340.250   90.726  154.234    0.317    0.298   10.840
  340.500   93.145  154.234    0.327    0.296   10.251
  340.750   96.169  154.234    0.350    0.286   10.251
  341.000   96.169  154.234    0.387    0.276   10.444
  341.250   94.355  154.234    0.365    0.277   10.444
  341.500   94.355  154.234    0.347    0.293   11.044
  341.750   90.121  154.234    0.322    0.318   12.581
  342.000   84.677  154.234    0.296    0.324   17.921
  342.250   78.024  154.234    0.219    0.324   26.496
  342.500   70.766  154.234    0.214    0.323   38.451
  342.750   73.185  154.234    0.204    0.326   30.185
  343.000   75.605  154.234    0.208    0.333   26.496
  343.250   84.677  154.234    0.322    0.333   17.591
  343.500   95.565  154.234    0.377    0.329   10.062
  343.750   99.194  154.234    0.418    0.324    9.340
  344.000   97.379  154.234    0.377    0.319    8.670
  344.250  101.008  154.234    0.390    0.314    8.047
  344.500  114.315  154.234    0.433    0.314    7.470
  344.750  117.339  154.234    0.468    0.319    6.680
  345.000  118.548  154.234    0.452    0.319    6.086
  345.250  114.315  154.234    0.399    0.313    6.086
  345.500  110.685  154.234    0.418    0.309    7.197
  345.750  112.500  155.242    0.426    0.304    7.064
  346.000  115.524  155.242    0.425    0.306    7.470
  346.250  116.734  155.242    0.421    0.306    6.557
  346.500  117.339  155.242    0.421    0.306    6.557
  346.750  109.476  155.242    0.403    0.306    7.332
  347.000   91.331  155.242    0.358    0.306    8.199
  347.250   87.097  155.242    0.302    0.306    6.806
  347.500   98.589  155.242    0.338    0.306    6.806
  347.750  109.476  155.242    0.416    0.306    6.557
  348.000  116.734  155.242    0.440    0.304    6.317
  348.250  111.895  155.242    0.430    0.303    6.086
  348.500  108.871  155.242    0.406    0.304    5.864
  348.750  112.500  155.242    0.464    0.312    5.650
  349.000  116.129  155.242    0.468    0.319    5.343
  349.250  120.363  155.242    0.465    0.327    5.343
  349.500  120.968  155.242    0.428    0.338    5.343
  349.750  117.944  156.250    0.386    0.341    5.343
  350.000  116.734  156.250    0.394    0.342    5.545
  350.250  118.548  156.250    0.424    0.339    5.545
  350.500  122.177  156.250    0.438    0.336    5.545
  350.750  122.782  156.250    0.429    0.332    5.545
  351.000  115.524  156.250    0.435    0.327    5.545
  351.250  111.895  156.250    0.453    0.324    5.864
  351.500  120.363  156.250    0.440    0.321    5.974
  351.750  124.597  156.250    0.408    0.321    6.201
  352.000  122.782  156.250    0.384    0.323    6.317
  352.250  119.153  155.242    0.390    0.324    6.557
  352.500  114.919  151.210    0.375    0.326    6.680
  352.750  104.032  148.185    0.350    0.322    6.436
  353.000   97.379  147.177    0.301    0.301    6.201
  353.250  106.452  145.161    0.326    0.276    5.974
  353.500  114.315  145.161    0.381    0.037    5.756
  353.750  114.315  149.194    0.389    0.069    5.343
  354.000  114.919  153.226    0.400    0.111    5.443
  354.250  111.290  154.234    0.396    0.191    5.545
  354.500  115.524  155.242    0.445    0.284    5.545
  354.750  117.944  155.242    0.420    0.291    5.650
  355.000  115.524  156.250    0.399    0.301    5.650
  355.250  112.500  155.242    0.379    0.301    5.545
  355.500  110.081  155.242    0.379    0.298    4.959
  355.750  111.895  155.242    0.415    0.288    4.435
