~VERSION INFORMATION
 VERS.                 2.0:   CWLS LOG ASCII STANDARD -VERSION 2.0
 WRAP.                  NO:   ONE LINE PER DEPTH STEP
~WELL INFORMATION BLOCK
#MNEM.UNIT           DATA                    DESCRIPTION OF MNEMONIC
#---------    -------------------            -------------------------------
# Generated from Intellog Unique Number	CS_71_72/WELL/913
WELL.         MAYNARD EXPLORATION            : Well_name    - WELL
LOC .         00/11-34-071-11W4/0            : Location     - LOCATION
UWI .         00/11-34-071-11W4/0            : Uwi          - UNIQUE WELL ID
ENTR.         SP                             : Entered      - ENTERED BY
SRVC.         SCHLUMBERGER                   : Scn          - SERVICE COMPANY
STRT.M        290                            : top_depth    - START DEPTH
STOP.M        490                            : bot_depth    - STOP DEPTH
STEP.M        0.25                           : increment    - STEP LENGTH
 NULL. -999.2500:NULL Value
~CURVE INFORMATION BLOCK
#MNEM UNIT       ERCB CURVE CODE    CURVE DESCRIPTION
#-----------   ------------------   ----------------------------------
DEPT.M        00 001 00 00         : DEPTH        - DEPTH
ILD .OHMM     00 120 00 00         : RESD         - DEEP RESISTIVITY (DIL)
DPHI.V/V      00 890 00 00         : PHID         - DENSITY POROSITY (LIMESTONE)
NPHI.V/V      00 330 00 00         : PHIN         - NEUTRON POROSITY (LIMESTONE)
GR  .API      00 310 00 00         : GR           - GAMMA RAY
~PARAMETER INFORMATION
#MNEM.UNIT           DATA             DESCRIPTION OF MNEMONIC
#---------         -----------     ------------------------------
GL  .M        652.3                : gl           - GROUND LEVEL ELEVATION
EREF.M        635.5                : kb           - ELEVATION OF DEPTH REFERENCE
DATM.M        652.3                : datum        - DATUM ELEVATION
TDD .M        507.3                : tdd          - TOTAL DEPTH DRILLER
RUN .         ONE                  : Run          - RUN NUMBER
ENG .         BILL                 : Engineer     - RECORDING ENGINEER
WIT .         JIM                  : Witness      - WITNESSED BY
MUD .         GEL                  : Mud_type     - MUD TYPE
MATR.         LIMESTONE            : Logunit      - NEUTRON MATRIX
TMAX.C        22                   : BHT          - MAXIMUM RECORDED TEMPERATURE
BHTD.M        507.3                : BHTDEP       - MAXIMUM RECORDED TEMPERATURE
MATR.         1                    : LOGUNIT      - NEUTRON MATRIX
RMT .C        25                   : MDTP         - TEMPERATURE OF MUD
NEUT.         1                    : NEUTRON      - NEUTRON TYPE
RESI.         0                    : RESIST       - RESISTIVITY TYPE
RMC .OHMM     0.25                 : RMC          - RESISTIVITY OF MUD CAKE
RMF .OHMM     0.25                 : RMF          - RESISTIVITY OF MUD FILTRATE
SUFT.C        15                   : SUFT         - SURFACE TEMPERATURE
~A  DEPTH     RESD     PHID     PHIN       GR
# ...
  377.000    8.122    0.307    0.449   88.441
  377.250    7.073    0.315    0.483   87.641
  377.500    5.925    0.311    0.478   86.412
  377.750    5.688    0.309    0.428   85.245
  378.000    6.549    0.314    0.418   83.894
  378.250    8.313    0.309    0.418   81.321
  378.500    9.740    0.301    0.420   78.627
  378.750   10.454    0.298    0.422   81.248
  379.000    9.765    0.295    0.425   83.624
  379.250    9.143    0.292    0.429   84.167
  379.500    8.602    0.291    0.432   83.916
  379.750    8.200    0.298    0.436   83.544
  380.000    7.807    0.309    0.440   84.576
  380.250    7.545    0.319    0.442   86.159
  380.500    7.423    0.329    0.441   88.229
  380.750    7.448    0.338    0.436   89.872
  381.000    7.587    0.348    0.430   91.453
  381.250    7.727    0.340    0.416   92.974
  381.500    8.138    0.340    0.401   93.764
  381.750    8.753    0.345    0.392   90.275
  382.000    9.893    0.357    0.370   84.586
  382.250   11.542    0.280    0.343   79.814
  382.500   12.969    0.236    0.310   77.057
  382.750   15.134    0.147    0.204   76.074
  383.000   17.873    0.084    0.174   74.602
  383.250   20.227    0.052    0.175   73.923
  383.500   22.975    0.078    0.180   76.300
  383.750   22.959    0.120    0.193   79.471
  384.000   21.590    0.194    0.259   84.352
  384.250   17.293    0.307    0.323   88.988
  384.500   12.734    0.332    0.401   91.181
  384.750    9.701    0.322    0.420   92.641
  385.000    8.086    0.318    0.421   93.491
  385.250    7.717    0.314    0.425   94.157
  385.500    7.586    0.308    0.419   94.578
  385.750    7.480    0.302    0.414   90.784
  386.000    7.390    0.294    0.419   90.044
  386.250    7.292    0.295    0.431   90.649
  386.500    7.005    0.305    0.447   91.863
  386.750    6.711    0.310    0.446   92.652
  387.000    6.326    0.318    0.432   94.050
  387.250    6.146    0.324    0.416   93.739
  387.500    5.957    0.328    0.425   92.572
  387.750    5.876    0.323    0.449   92.810
  388.000    5.819    0.314    0.464   95.125
  388.250    5.786    0.305    0.452   97.133
  388.500    5.705    0.291    0.445   97.982
  388.750    5.574    0.279    0.449   98.038
  389.000    5.427    0.284    0.452   98.154
  389.250    5.279    0.294    0.450   97.598
  389.500    5.149    0.286    0.451   96.797
  389.750    5.108    0.227    0.447   95.997
  390.000    5.182    0.158    0.434   92.019
  390.250    5.806    0.115    0.355   86.880
  390.500    6.503    0.086    0.305   82.169
  390.750    6.922    0.170    0.291   87.539
  391.000    7.119    0.224    0.342   93.215
  391.250    6.931    0.259    0.393   97.486
  391.500    6.152    0.272    0.445   98.579
  391.750    5.529    0.272    0.458   96.801
  392.000    5.144    0.268    0.447   93.495
  392.250    4.850    0.275    0.440   95.260
  392.500    4.743    0.283    0.451   98.003
  392.750    4.867    0.284    0.458  100.746
  393.000    5.023    0.283    0.450  102.693
  393.250    5.081    0.283    0.446  102.444
  393.500    5.057    0.287    0.447  100.911
  393.750    5.049    0.292    0.441  101.637
  394.000    5.082    0.275    0.442  102.241
  394.250    5.148    0.267    0.458  102.417
  394.500    5.206    0.267    0.462  102.656
  394.750    5.255    0.278    0.452  102.711
  395.000    5.280    0.276    0.457  101.972
  395.250    5.281    0.267    0.455  100.866
  395.500    5.265    0.265    0.456  102.631
  395.750    5.249    0.267    0.461  102.014
  396.000    5.233    0.259    0.454  101.091
  396.250    5.208    0.257    0.451  102.673
  396.500    5.192    0.251    0.461  104.072
  396.750    5.168    0.244    0.453  105.593
  397.000    5.144    0.238    0.455  104.059
  397.250    5.120    0.234    0.463  101.425
  397.500    5.104    0.235    0.469   98.853
  397.750    5.104    0.247    0.475   99.518
  398.000    5.096    0.254    0.482  101.712
  398.250    5.105    0.251    0.478  103.233
  398.500    5.089    0.251    0.472  102.676
  398.750    5.056    0.257    0.481  104.012
  399.000    4.999    0.262    0.480  104.618
  399.250    4.869    0.259    0.468  104.552
  399.500    4.705    0.260    0.462  102.040
  399.750    4.558    0.253    0.466   95.985
  400.000    4.919    0.210    0.450   90.480
  400.250    5.354    0.173    0.430   93.467
  400.500    5.707    0.163    0.404  100.059
  400.750    5.904    0.199    0.426  103.169
  401.000    5.995    0.226    0.464  102.917
  401.250    5.913    0.226    0.470  102.179
  401.500    5.405    0.228    0.458  101.621
  401.750    4.914    0.236    0.449  100.944
  402.000    4.520    0.233    0.456  100.082
  402.250    4.332    0.230    0.478  100.198
  402.500    4.529    0.232    0.463   99.763
  402.750    4.808    0.227    0.454  101.162
  403.000    5.096    0.240    0.452  103.050
  403.250    5.039    0.258    0.458  106.037
  403.500    4.555    0.276    0.474  108.536
  403.750    3.892    0.288    0.487  109.813
  404.000    3.195    0.302    0.514  106.935
  404.250    2.531    0.316    0.570  103.751
  404.500    2.138    0.319    0.593  105.149
  404.750    1.819    0.306    0.594  105.877
  405.000    1.663    0.291    0.548  106.115
  405.250    1.606    0.280    0.531  105.559
  405.500    1.754    0.270    0.507  104.023
  405.750    2.279    0.272    0.488  102.186
  406.000    2.755    0.269    0.474   99.124
  406.250    3.190    0.264    0.463   99.912
  406.500    3.691    0.258    0.454  102.899
  406.750    3.904    0.245    0.451  105.825
  407.000    4.044    0.236    0.458  102.092
  407.250    4.077    0.252    0.468   99.153
  407.500    4.004    0.273    0.472   98.291
  407.750    3.873    0.287    0.479   98.651
  408.000    3.701    0.301    0.480   98.400
  408.250    3.595    0.313    0.481   98.028
  408.500    3.538    0.320    0.492   97.410
  408.750    3.621    0.304    0.482   97.036
  409.000    3.966    0.277    0.466   96.419
  409.250    4.064    0.284    0.461   95.314
  409.500    4.344    0.300    0.451   94.147
  409.750    4.401    0.321    0.439   94.445
  410.000    4.393    0.336    0.446   95.050
  410.250    4.271    0.349    0.464   96.144
  410.500    4.222    0.336    0.458   96.565
  410.750    4.099    0.327    0.463   96.619
  411.000    4.075    0.320    0.471   96.674
  411.250    4.051    0.312    0.459   96.362
  411.500    4.092    0.310    0.451   95.439
  411.750    4.183    0.319    0.443   95.494
  412.000    4.323    0.312    0.435   95.915
  412.250    4.528    0.293    0.426   96.337
  412.500    4.668    0.287    0.420   96.514
  412.750    4.791    0.285    0.420   96.812
  413.000    4.874    0.281    0.434   96.745
  413.250    4.915    0.271    0.423   94.112
  413.500    4.874    0.262    0.435   92.333
  413.750    4.809    0.257    0.448   94.099
  414.000    4.719    0.253    0.452   97.146
  414.250    4.671    0.254    0.436   99.400
  414.500    4.556    0.264    0.426  100.862
  414.750    4.524    0.272    0.433  102.138
  415.000    4.393    0.282    0.446  101.887
  415.250    4.246    0.288    0.439  100.598
  415.500    4.000    0.290    0.444   98.574
  415.750    3.755    0.293    0.452   96.858
  416.000    3.550    0.298    0.461   95.996
  416.250    3.419    0.290    0.474   95.928
  416.500    3.338    0.285    0.478   97.084
  416.750    3.362    0.279    0.480   99.888
  417.000    3.478    0.266    0.468  102.996
  417.250    3.609    0.248    0.459  105.190
  417.500    3.733    0.234    0.463  106.895
  417.750    3.807    0.240    0.466  101.022
  418.000    3.922    0.244    0.470   98.756
  418.250    3.996    0.248    0.474   99.665
  418.500    4.005    0.258    0.468  100.086
  418.750    4.005    0.275    0.454  100.080
  419.000    3.965    0.285    0.446   99.585
  419.250    3.932    0.279    0.453   98.723
  419.500    3.933    0.256    0.451   97.861
  419.750    3.982    0.251    0.442   96.572
  420.000    4.023    0.253    0.447   95.037
  420.250    4.130    0.252    0.451   94.357
