~VERSION INFORMATION
 VERS.                 2.0:   CWLS LOG ASCII STANDARD -VERSION 2.0
 WRAP.                  NO:   ONE LINE PER DEPTH STEP
~WELL INFORMATION BLOCK
#MNEM.UNIT           DATA                    DESCRIPTION OF MNEMONIC
#---------    -------------------            -------------------------------
# Generated from Intellog Unique Number	CW_73_75/WELL/2748
WELL.         UNEX ET AL MITSUE 12-20        : Well_name    - WELL
LOC .         00/12-20-073-05W5/0            : Location     - LOCATION
UWI .         00/12-20-073-05W5/0            : Uwi          - UNIQUE WELL ID
ENTR.         JAYE                           : Entered      - ENTERED BY
SRVC.         SCHLUMBERGER                   : Scn          - SERVICE COMPANY
DATE.         15 JAN 77                      : Date         - LOG DATE
STRT.M        365.76                         : top_depth    - START DEPTH
STOP.M        612.76                         : bot_depth    - STOP DEPTH
STEP.M        0.25                           : increment    - STEP LENGTH
 NULL. -999.2500:NULL Value
~CURVE INFORMATION BLOCK
#MNEM UNIT       ERCB CURVE CODE    CURVE DESCRIPTION
#-----------   ------------------   ----------------------------------
DEPT.M        00 001 00 00         : DEPTH        - DEPTH
DPHI.V/V      00 890 00 00         : PHID         - DENSITY POROSITY (SANDSTONE)
NPHI.V/V      00 330 00 00         : PHIN         - NEUTRON POROSITY (SANDSTONE)
GR  .API      00 310 00 00         : GR           - GAMMA RAY
CALI.MM       00 280 01 00         : CAL          - CALIPER
ILD .OHMM     00 120 00 00         : RESD         - DEEP RESISTIVITY (DIL)
~PARAMETER INFORMATION
#MNEM.UNIT           DATA             DESCRIPTION OF MNEMONIC
#---------         -----------     ------------------------------
GL  .M        577.291              : gl           - GROUND LEVEL ELEVATION
EREF.M        581.254              : kb           - ELEVATION OF DEPTH REFERENCE
DATM.M        577.291              : datum        - DATUM ELEVATION
TDD .M        1689.2               : tdd          - TOTAL DEPTH DRILLER
RUN .         ONE                  : Run          - RUN NUMBER
BASE.         EDM                  : Branch       - HOME BASE OF LOGGING UNIT
MATR.         SANDSTONE            : Logunit      - NEUTRON MATRIX
TMAX.C        51.1111              : BHT          - MAXIMUM RECORDED TEMPERATURE
BHTD.M        1688.29              : BHTDEP       - MAXIMUM RECORDED TEMPERATURE
RMT .C        17.7778              : MDTP         - TEMPERATURE OF MUD
MUDD.KG/M     0                    : MWT          - MUD DENSITY
NEUT.         1                    : NEUTRON      - NEUTRON TYPE
RESI.         0                    : RESIST       - RESISTIVITY TYPE
RM  .OHMM     0.75                 : RM           - RESISTIVITY OF MUD
RMC .OHMM     0                    : RMC          - RESISTIVITY OF MUD CAKE
RMF .OHMM     0.55                 : RMF          - RESISTIVITY OF MUD FILTRATE
SUFT.C        0                    : SUFT         - SURFACE TEMPERATURE
~A  DEPTH     PHID     PHIN       GR      CAL     RESD
# ...
  548.260    0.186    0.431   87.415  286.752    3.939
  548.510    0.182    0.430   82.514  285.236    3.940
  548.760    0.188    0.430   80.256  284.387    3.963
  549.010    0.186    0.425   81.608  278.226    4.379
  549.260    0.188    0.419   83.639  273.009    4.753
  549.510    0.201    0.412   80.336  268.010    5.037
  549.760    0.216    0.404   79.856  267.418    5.184
  550.010    0.201    0.401   83.099  273.497    5.201
  550.260    0.180    0.407   86.162  274.052    5.010
  550.510    0.172    0.424   86.213  273.799    4.586
  550.760    0.189    0.454   87.078  282.189    4.322
  551.010    0.196    0.445   87.815  303.999    4.095
  551.260    0.184    0.423   89.234  318.867    3.939
  551.510    0.160    0.424   88.807  332.116    3.893
  551.760    0.224    0.429   86.131  296.988    3.941
  552.010    0.181    0.426   82.703  271.777    4.131
  552.260    0.177    0.408   79.822  258.131    4.444
  552.510    0.204    0.404   74.698  245.979    4.692
  552.760    0.236    0.390   68.200  237.287    4.945
  553.010    0.251    0.394   65.658  232.517    5.222
  553.260    0.251    0.388   69.054  231.223    5.394
  553.510    0.202    0.346   68.700  231.432    5.471
  553.760    0.139    0.263   64.453  236.486    5.683
  554.010    0.072    0.235   56.378  242.695    6.090
  554.260    0.055    0.205   52.209  239.887    6.684
  554.510    0.041    0.223   49.743  235.932    7.334
  554.760    0.068    0.337   51.843  233.823    8.199
  555.010    0.180    0.366   61.230  235.416    9.014
  555.260    0.157    0.347   65.379  239.901    9.659
  555.510    0.090    0.209   60.930  244.232    8.351
  555.760    0.053    0.191   58.865  245.720    7.505
  556.010    0.086    0.212   61.298  247.758    7.020
  556.260    0.138    0.278   67.564  250.522    6.604
  556.510    0.179    0.400   65.767  254.395    6.316
  556.760    0.219    0.389   68.351  257.635    6.018
  557.010    0.243    0.382   70.713  260.609    5.599
  557.260    0.259    0.430   63.953  262.996    5.190
  557.510    0.245    0.427   63.459  265.743    4.768
  557.760    0.233    0.412   67.460  269.525    4.610
  558.010    0.235    0.400   66.970  272.951    4.507
  558.260    0.246    0.389   62.448  274.894    4.614
  558.510    0.219    0.374   60.726  277.980    4.722
  558.760    0.167    0.355   63.304  289.397    4.905
  559.010    0.231    0.365   67.790  285.320    4.984
  559.260    0.266    0.396   67.164  283.455    5.008
  559.510    0.281    0.406   62.913  285.161    5.015
  559.760    0.267    0.400   62.425  289.268    5.022
  560.010    0.243    0.413   64.588  292.826    4.991
  560.260    0.243    0.414   66.885  295.471    4.997
  560.510    0.235    0.392   67.141  298.306    5.022
  560.760    0.235    0.379   66.445  300.242    5.038
  561.010    0.242    0.386   66.087  302.178    4.943
  561.260    0.255    0.400   65.942  305.244    4.789
  561.510    0.265    0.405   66.737  307.669    4.613
  561.760    0.246    0.410   69.581  310.864    4.340
  562.010    0.251    0.406   69.025  313.030    4.121
  562.260    0.250    0.398   68.056  314.302    3.955
  562.510    0.242    0.407   70.630  316.238    3.845
  562.760    0.228    0.401   74.767  319.656    3.752
  563.010    0.215    0.387   78.490  323.319    3.682
  563.260    0.201    0.386   80.535  326.426    3.587
  563.510    0.186    0.406   83.105  329.621    3.545
  563.760    0.191    0.417   85.751  331.907    3.557
  564.010    0.181    0.425   89.013  333.944    3.574
  564.260    0.202    0.443   91.180  333.709    3.559
  564.510    0.217    0.438   87.133  331.369    3.537
  564.760    0.211    0.431   82.213  332.962    3.497
  565.010    0.205    0.446   78.995  370.345    3.431
  565.260    0.272    0.452   81.293  394.337    3.366
  565.510    0.288    0.441   84.677  375.713    3.286
  565.760    0.265    0.429   86.243  369.909    3.248
  566.010    0.211    0.428   85.472  385.476    3.282
  566.260    0.202    0.442   83.618  375.396    3.366
  566.510    0.186    0.411   79.565  363.481    3.502
  566.760    0.168    0.387   76.971  341.399    3.823
  567.010    0.168    0.371   74.014  332.124    4.134
  567.260    0.147    0.345   72.226  329.903    4.520
  567.510    0.146    0.312   74.056  320.756    4.988
  567.760    0.074    0.298   79.087  316.778    5.617
  568.010    0.116    0.336   80.639  320.472    6.210
  568.260    0.131    0.361   82.260  327.443    6.877
  568.510    0.139    0.363   82.786  330.458    7.330
  568.760    0.153    0.363   85.021  334.111    7.087
  569.010    0.166    0.379   88.006  335.952    6.498
  569.260    0.191    0.396   91.877  334.067    5.914
  569.510    0.195    0.403   90.832  332.206    5.594
  569.760    0.177    0.393   89.999  333.440    5.322
  570.010    0.170    0.392   88.688  341.501    5.251
  570.260    0.191    0.398   86.216  340.549    5.295
  570.510    0.189    0.397   83.409  334.399    5.410
  570.760    0.157    0.384   81.136  331.123    5.467
  571.010    0.159    0.384   80.502  333.656    5.555
  571.260    0.175    0.391   79.675  332.009    5.625
  571.510    0.166    0.392   80.674  330.246    5.664
  571.760    0.153    0.388   80.054  330.797    5.723
  572.010    0.170    0.369   79.885  331.352    5.803
  572.260    0.173    0.381   81.381  333.512    5.918
  572.510    0.154    0.385   86.546  336.490    5.924
  572.760    0.139    0.350   81.285  341.748    5.891
  573.010    0.142    0.353   83.587  344.868    5.843
  573.260    0.152    0.370   83.297  346.339    5.755
  573.510    0.151    0.384   84.639  346.063    5.667
  573.760    0.174    0.365   88.173  346.845    5.582
  574.010    0.157    0.374   86.104  347.987    5.497
  574.260    0.137    0.387   81.588  350.609    5.405
  574.510    0.153    0.397   79.188  355.307    5.371
  574.760    0.148    0.391   80.745  360.137    5.319
  575.010    0.171    0.416   82.561  366.237    5.257
  575.260    0.225    0.454   83.091  376.836    5.187
  575.510    0.305    0.489   85.876  387.543    5.109
  575.760    0.360    0.511   75.150  394.420    4.877
  576.010    0.438    0.538   68.853  397.764    4.302
  576.260    0.492    0.560   64.349  398.431    3.520
  576.510    0.493    0.577   60.372  394.673    2.672
  576.760    0.542    0.593   60.836  393.395    1.937
  577.010    0.571    0.606   55.773  392.346    1.576
  577.260    0.594    0.625   51.598  392.415    1.355
  577.510    0.614    0.641   50.894  391.823    1.174
  577.760    0.634    0.651   53.953  391.900    1.135
  578.010    0.501    0.629   58.844  393.038    1.232
  578.260    0.523    0.585   63.939  394.747    1.423
  578.510    0.504    0.470   69.246  396.215    1.722
  578.760    0.233    0.370   77.409  398.042    2.041
  579.010    0.231    0.398   76.170  387.497    2.389
  579.260    0.294    0.437   73.624  304.452    2.805
  579.510    0.502    0.473   73.070  267.237    3.431
  579.760    0.552    0.536   71.007  281.985    4.282
  580.010    0.595    0.595   66.964  306.904    4.946
  580.260    0.606    0.630   63.677  339.329    5.310
  580.510    0.458    0.520   66.662  359.039    5.211
  580.760    0.438    0.426   72.167  371.026    4.717
  581.010    0.396    0.381   76.367  382.877    4.389
  581.260    0.349    0.349   74.113  391.521    4.338
  581.510    0.368    0.398   70.612  395.541    4.367
  581.760    0.409    0.412   69.308  387.185    4.437
  582.010    0.456    0.428   74.061  384.502    4.468
  582.260    0.487    0.448   73.705  386.547    4.281
  582.510    0.522    0.463   75.732  388.700    4.012
  582.760    0.567    0.468   79.605  389.747    3.859
  583.010    0.551    0.465   78.974  391.887    3.885
  583.260    0.429    0.456   80.452  394.882    4.065
  583.510    0.346    0.456   81.604  396.013    4.324
  583.760    0.371    0.470   77.974  368.268    4.417
  584.010    0.434    0.500   71.682  351.266    4.279
  584.260    0.462    0.520   69.273  356.076    4.063
  584.510    0.418    0.504   72.538  364.008    3.936
