~VERSION INFORMATION
 VERS.                 2.0:   CWLS LOG ASCII STANDARD -VERSION 2.0
 WRAP.                  NO:   ONE LINE PER DEPTH STEP
~WELL INFORMATION BLOCK
#MNEM.UNIT           DATA                    DESCRIPTION OF MNEMONIC
#---------    -------------------            -------------------------------
# Generated from Intellog Unique Number	CW_79_81/WELL/2490
WELL.         13-31-080-23W4                 : Well_name    - WELL
LOC .         00/13-31-080-23W4/0            : Location     - LOCATION
UWI .         00/13-31-080-23W4/0            : Uwi          - UNIQUE WELL ID
ENTR.         MAX                            : Entered      - ENTERED BY
SRVC.         SCHLUMBERGER                   : Scn          - SERVICE COMPANY
STRT.M        250                            : top_depth    - START DEPTH
STOP.M        479.75                         : bot_depth    - STOP DEPTH
STEP.M        0.25                           : increment    - STEP LENGTH
 NULL. -999.2500:NULL Value
~CURVE INFORMATION BLOCK
#MNEM UNIT       ERCB CURVE CODE    CURVE DESCRIPTION
#-----------   ------------------   ----------------------------------
DEPT.M        00 001 00 00         : DEPTH        - DEPTH
ILD .OHMM     00 120 00 00         : RESD         - DEEP RESISTIVITY (DIL)
NPHI.V/V      00 330 00 00         : PHIN         - NEUTRON POROSITY (SANDSTONE)
DPHI.V/V      00 890 00 00         : PHID         - DENSITY POROSITY (SANDSTONE)
GR  .API      00 310 00 00         : GR           - GAMMA RAY
CALI.MM       00 280 01 00         : CAL          - CALIPER
~PARAMETER INFORMATION
#MNEM.UNIT           DATA             DESCRIPTION OF MNEMONIC
#---------         -----------     ------------------------------
GL  .M        599.82               : gl           - GROUND LEVEL ELEVATION
EREF.M        604.05               : kb           - ELEVATION OF DEPTH REFERENCE
DATM.M        599.82               : datum        - DATUM ELEVATION
TDD .M        482                  : tdd          - TOTAL DEPTH DRILLER
RUN .         ONE                  : Run          - RUN NUMBER
ENG .         BILL                 : Engineer     - RECORDING ENGINEER
WIT .         JIM                  : Witness      - WITNESSED BY
MUD .         GEL                  : Mud_type     - MUD TYPE
MATR.         SANDSTONE            : Logunit      - NEUTRON MATRIX
TMAX.C        29                   : BHT          - MAXIMUM RECORDED TEMPERATURE
BHTD.M        482                  : BHTDEP       - MAXIMUM RECORDED TEMPERATURE
MATR.         1                    : LOGUNIT      - NEUTRON MATRIX
RMT .C        15                   : MDTP         - TEMPERATURE OF MUD
NEUT.         1                    : NEUTRON      - NEUTRON TYPE
RESI.         0                    : RESIST       - RESISTIVITY TYPE
RMC .OHMM     6.9                  : RMC          - RESISTIVITY OF MUD CAKE
RMF .OHMM     6.67                 : RMF          - RESISTIVITY OF MUD FILTRATE
SUFT.C        -20                  : SUFT         - SURFACE TEMPERATURE
~A  DEPTH     RESD     PHIN     PHID       GR      CAL
# ...
  359.500    5.772    0.492    0.232   83.596  216.967
  359.750    5.777    0.486    0.239   82.199  217.031
  360.000    5.848    0.493    0.245   82.961  216.513
  360.250    6.115    0.502    0.247   83.365  215.794
  360.500    6.652    0.509    0.237   81.313  215.063
  360.750    7.610    0.514    0.192   73.840  214.083
  361.000    8.500    0.488    0.132   67.402  212.918
  361.250    8.895    0.344    0.110   68.166  211.787
  361.500    8.956    0.345    0.158   72.695  210.057
  361.750    8.866    0.416    0.214   76.443  208.134
  362.000    8.891    0.491    0.244   78.517  206.515
  362.250    9.481    0.511    0.246   82.181  205.714
  362.500   10.022    0.501    0.252   84.717  205.372
  362.750   10.409    0.489    0.273   80.207  205.436
  363.000   10.520    0.477    0.274   77.676  205.517
  363.250   10.375    0.469    0.271   77.838  205.559
  363.500    9.984    0.465    0.268   80.571  205.590
  363.750    9.146    0.460    0.260   85.227  205.810
  364.000    8.226    0.462    0.254   86.762  206.307
  364.250    8.055    0.471    0.255   88.483  206.371
  364.500    8.065    0.484    0.254   88.942  206.440
  364.750    8.104    0.493    0.252   89.583  206.907
  365.000    8.112    0.495    0.247   89.927  208.168
  365.250    8.096    0.496    0.242   86.984  210.980
  365.500    7.982    0.490    0.239   84.034  212.723
  365.750    7.874    0.484    0.238   80.737  213.599
  366.000    7.809    0.476    0.235   79.934  214.763
  366.250    7.788    0.466    0.231   82.245  215.820
  366.500    7.768    0.460    0.230   86.476  216.880
  366.750    7.664    0.476    0.237   89.335  218.906
  367.000    7.672    0.494    0.243   87.889  220.634
  367.250    7.739    0.496    0.244   85.783  221.502
  367.500    7.675    0.495    0.239   84.920  222.072
  367.750    7.542    0.491    0.225   85.315  222.535
  368.000    7.372    0.483    0.209   86.856  222.796
  368.250    7.155    0.479    0.211   89.561  222.325
  368.500    7.108    0.509    0.229   90.847  221.568
  368.750    7.062    0.507    0.237   92.324  220.828
  369.000    7.174    0.501    0.241   93.258  220.397
  369.250    7.477    0.492    0.244   93.533  219.874
  369.500    7.817    0.482    0.246   92.975  219.056
  369.750    7.770    0.478    0.247   91.153  217.619
  370.000    7.780    0.482    0.246   90.201  216.025
  370.250    8.139    0.485    0.239   88.573  212.900
  370.500    8.751    0.493    0.230   87.475  210.068
  370.750    9.406    0.496    0.217   86.078  207.541
  371.000    9.942    0.491    0.210   84.266  205.421
  371.250   10.397    0.484    0.232   82.789  203.837
  371.500   10.737    0.489    0.245   83.585  203.495
  371.750   11.236    0.485    0.254   86.016  203.154
  372.000   11.951    0.493    0.260   87.014  203.122
  372.250   12.970    0.502    0.260   84.543  203.197
  372.500   14.427    0.507    0.254   78.662  203.273
  372.750   17.047    0.496    0.234   70.735  203.359
  373.000   20.126    0.470    0.204   66.788  203.433
  373.250   24.486    0.393    0.142   64.683  203.896
  373.500   28.247    0.336    0.102   64.364  204.359
  373.750   28.738    0.305    0.090   65.242  205.021
  374.000   25.558    0.296    0.095   66.780  205.786
  374.250   20.009    0.296    0.091   69.005  206.362
  374.500   15.628    0.306    0.100   71.546  206.859
  374.750   13.046    0.342    0.121   73.254  207.315
  375.000   12.195    0.396    0.197   77.189  207.352
  375.250   11.725    0.439    0.239   81.329  207.742
  375.500   11.321    0.462    0.234   84.459  208.619
  375.750   11.105    0.474    0.242   86.229  209.823
  376.000   10.788    0.477    0.232   86.519  211.555
  376.250   10.329    0.483    0.230   85.163  213.218
  376.500   10.063    0.478    0.237   83.614  214.283
  376.750    9.931    0.470    0.237   82.595  215.158
  377.000    9.910    0.467    0.229   82.349  215.941
  377.250   10.003    0.478    0.222   82.702  216.606
  377.500   10.019    0.492    0.213   82.997  217.526
  377.750    9.886    0.505    0.216   82.812  218.384
  378.000    9.810    0.502    0.222   82.805  219.248
  378.250    9.715    0.488    0.222   83.328  219.729
  378.500    9.587    0.467    0.216   84.499  219.921
  378.750    9.420    0.447    0.215   86.218  220.746
  379.000    9.221    0.469    0.224   86.278  222.469
  379.250    9.098    0.500    0.225   86.088  224.141
  379.500    8.977    0.491    0.219   84.311  225.497
  379.750    8.892    0.473    0.217   83.417  226.364
  380.000    8.824    0.465    0.222   84.116  226.748
  380.250    8.684    0.481    0.227   85.606  226.860
  380.500    8.563    0.487    0.223   86.886  226.942
  380.750    8.262    0.493    0.215   88.120  227.046
  381.000    7.794    0.491    0.214   90.599  227.124
  381.250    7.641    0.486    0.215   92.306  226.808
  381.500    7.963    0.488    0.218   90.698  225.911
  381.750    8.976    0.499    0.231   81.975  224.026
  382.000   10.029    0.468    0.241   78.341  222.046
  382.250   11.288    0.470    0.244   82.175  219.375
  382.500   12.319    0.477    0.243   86.892  216.717
  382.750   14.016    0.496    0.242   93.684  214.829
  383.000   17.036    0.519    0.239   96.637  213.520
  383.250   21.522    0.518    0.213   81.406  211.337
  383.500   27.540    0.488    0.156   74.806  209.795
  383.750   35.916    0.391    0.126   66.579  208.674
  384.000   46.674    0.341    0.104   60.483  207.573
  384.250   52.920    0.298    0.072   56.632  206.876
  384.500   48.677    0.243    0.040   55.145  206.573
  384.750   37.459    0.199    0.060   57.932  206.274
  385.000   28.856    0.287    0.136   66.851  206.355
  385.250   22.826    0.336    0.187   72.813  206.057
  385.500   19.354    0.385    0.219   77.711  205.752
  385.750   17.599    0.429    0.234   79.891  205.445
  386.000   16.836    0.463    0.235   80.061  205.232
  386.250   16.378    0.479    0.229   81.897  205.241
  386.500   16.407    0.473    0.238   84.907  204.939
  386.750   16.675    0.461    0.247   85.437  205.009
  387.000   17.797    0.456    0.242   84.182  205.098
  387.250   20.201    0.457    0.236   81.392  204.988
  387.500   23.757    0.454    0.231   77.248  204.773
  387.750   25.912    0.430    0.212   71.917  204.876
  388.000   25.361    0.416    0.194   72.218  204.957
  388.250   22.873    0.421    0.195   71.792  205.044
  388.500   22.347    0.415    0.205   75.452  205.722
  388.750   22.792    0.424    0.216   78.343  206.396
  389.000   24.302    0.446    0.222   78.040  206.870
  389.250   29.251    0.450    0.198   73.664  207.373
  389.500   35.086    0.418    0.135   69.280  207.482
  389.750   41.804    0.340    0.057   65.551  207.551
  390.000   48.917    0.296    0.085   62.348  207.640
  390.250   47.793    0.303    0.135   60.036  207.731
  390.500   39.655    0.329    0.153   59.618  207.912
  390.750   31.590    0.296    0.106   64.029  208.724
  391.000   25.612    0.282    0.098   70.486  210.465
  391.250   19.950    0.351    0.156   78.580  212.522
  391.500   17.987    0.403    0.198   79.757  213.975
  391.750   17.437    0.443    0.222   78.391  215.240
  392.000   17.496    0.470    0.232   77.616  216.316
  392.250   17.658    0.473    0.243   79.234  216.970
  392.500   17.693    0.458    0.262   78.791  217.882
  392.750   17.202    0.455    0.264   78.139  218.371
  393.000   16.343    0.460    0.257   79.248  218.841
  393.250   15.365    0.466    0.246   82.132  219.712
  393.500   14.731    0.467    0.228   85.908  220.790
  393.750   15.399    0.463    0.198   88.222  221.289
  394.000   17.208    0.454    0.198   85.315  221.380
  394.250   18.011    0.466    0.206   80.162  221.467
  394.500   17.543    0.466    0.210   78.912  221.554
  394.750   16.426    0.457    0.215   80.738  221.632
  395.000   15.110    0.447    0.222   84.691  221.807
  395.250   13.657    0.447    0.223   89.772  222.480
  395.500   13.157    0.439    0.223   90.067  223.401
  395.750   12.982    0.441    0.219   88.465  223.864
