~VERSION INFORMATION
 VERS.                 2.0:   CWLS LOG ASCII STANDARD -VERSION 2.0
 WRAP.                  NO:   ONE LINE PER DEPTH STEP
~WELL INFORMATION BLOCK
#MNEM.UNIT           DATA                    DESCRIPTION OF MNEMONIC
#---------    -------------------            -------------------------------
# Generated from Intellog Unique Number	CW_73_75/WELL/2751
WELL.         NORCEN POR MARTEN HILLS 15-34  : Well_name    - WELL
LOC .         00/15-34-073-25W4/0            : Location     - LOCATION
UWI .         00/15-34-073-25W4/0            : Uwi          - UNIQUE WELL ID
ENTR.         JAYE                           : Entered      - ENTERED BY
SRVC.         COMPUTALOG                     : Scn          - SERVICE COMPANY
DATE.         24 FEB 83                      : Date         - LOG DATE
STRT.M        430                            : top_depth    - START DEPTH
STOP.M        650                            : bot_depth    - STOP DEPTH
STEP.M        0.25                           : increment    - STEP LENGTH
 NULL. -999.2500:NULL Value
~CURVE INFORMATION BLOCK
#MNEM UNIT       ERCB CURVE CODE    CURVE DESCRIPTION
#-----------   ------------------   ----------------------------------
DEPT.M        00 001 00 00         : DEPTH        - DEPTH
DPHI.V/V      00 890 00 00         : PHID         - DENSITY POROSITY (SANDSTONE)
NPHI.V/V      00 330 00 00         : PHIN         - NEUTRON POROSITY (SANDSTONE)
GR  .API      00 310 00 00         : GR           - GAMMA RAY
CALI.MM       00 280 01 00         : CAL          - CALIPER
ILD .OHMM     00 120 00 00         : RESD         - DEEP RESISTIVITY (DIL)
~PARAMETER INFORMATION
#MNEM.UNIT           DATA             DESCRIPTION OF MNEMONIC
#---------         -----------     ------------------------------
GL  .M        681.45               : gl           - GROUND LEVEL ELEVATION
EREF.M        684.45               : kb           - ELEVATION OF DEPTH REFERENCE
DATM.M        681.45               : datum        - DATUM ELEVATION
TDD .M        652                  : tdd          - TOTAL DEPTH DRILLER
RUN .         ONE                  : Run          - RUN NUMBER
ENG .         GRBAVAC              : Engineer     - RECORDING ENGINEER
WIT .         STEVENS/BOGNER       : Witness      - WITNESSED BY
BASE.         EDM                  : Branch       - HOME BASE OF LOGGING UNIT
MUD .         GEL CHEM             : Mud_type     - MUD TYPE
MATR.         SANDSTONE            : Logunit      - NEUTRON MATRIX
TMAX.C        30                   : BHT          - MAXIMUM RECORDED TEMPERATURE
BHTD.M        651.5                : BHTDEP       - MAXIMUM RECORDED TEMPERATURE
RMT .C        17                   : MDTP         - TEMPERATURE OF MUD
MUDD.KG/M     1120                 : MWT          - MUD DENSITY
NEUT.         1                    : NEUTRON      - NEUTRON TYPE
RESI.         0                    : RESIST       - RESISTIVITY TYPE
RM  .OHMM     5                    : RM           - RESISTIVITY OF MUD
RMC .OHMM     5                    : RMC          - RESISTIVITY OF MUD CAKE
RMF .OHMM     5                    : RMF          - RESISTIVITY OF MUD FILTRATE
SUFT.C        0                    : SUFT         - SURFACE TEMPERATURE
~A  DEPTH     PHID     PHIN       GR      CAL     RESD
# ...
  612.500    0.268    0.309   37.123  202.354    9.976
  612.750    0.265    0.314   37.406  202.064    8.103
  613.000    0.262    0.318   37.691  201.880    6.531
  613.250    0.259    0.320   37.733  202.213    5.874
  613.500    0.255    0.317   37.951  202.447    5.794
  613.750    0.252    0.313   38.614  202.475    5.881
  614.000    0.249    0.307   39.017  202.492    5.982
  614.250    0.244    0.301   40.114  202.101    6.190
  614.500    0.238    0.298   41.776  201.813    6.406
  614.750    0.233    0.296   43.625  201.422    6.528
  615.000    0.228    0.295   45.723  201.132    6.389
  615.250    0.226    0.296   47.947  201.051    6.146
  615.500    0.221    0.296   49.798  201.077    5.800
  615.750    0.214    0.294   50.894  201.309    5.473
  616.000    0.209    0.288   51.617  201.227    5.377
  616.250    0.204    0.283   52.340  200.835    5.469
  616.500    0.197    0.281   53.124  200.653    5.649
  616.750    0.193    0.281   53.847  200.574    5.868
  617.000    0.188    0.287   54.819  200.597    6.190
  617.250    0.183    0.290   55.857  200.204    6.468
  617.500    0.177    0.288   56.956  199.395    6.771
  617.750    0.175    0.287   58.490  199.110    7.020
  618.000    0.172    0.287   61.463  199.027    7.223
  618.250    0.167    0.287   62.751  199.259    7.332
  618.500    0.163    0.292   62.222  199.282    7.358
  618.750    0.159    0.292   61.762  199.097    7.356
  619.000    0.154    0.281   62.103  199.330    7.396
  619.250    0.146    0.262   63.704  199.560    7.551
  619.500    0.129    0.274   66.051  199.479    7.769
  619.750    0.104    0.289   69.024  199.505    8.133
  620.000    0.076    0.232   82.323  199.733    8.531
  620.250   -0.017    0.117   66.464  199.864    9.068
  620.500   -0.053    0.087   38.718  199.884    9.715
  620.750   -0.079    0.131   26.238  199.805   10.548
  621.000   -0.081    0.184   19.077  198.998   11.856
  621.250   -0.078    0.227   17.927  196.945   12.556
  621.500    0.017    0.258   18.833  195.305   11.985
  621.750    0.007    0.247   21.180  194.915    9.773
  622.000   -0.008    0.183   24.093  194.835    9.473
  622.250   -0.020    0.153   24.318  194.752    9.917
  622.500   -0.017    0.153   22.973  194.671   10.935
  622.750    0.011    0.195   20.379  194.799   12.699
  623.000    0.033    0.221   19.164  194.199   14.056
  623.250    0.049    0.250   19.074  192.872   14.546
  623.500    0.071    0.265   19.609  192.585   14.127
  623.750    0.106    0.280   20.396  195.725   12.804
  624.000    0.143    0.295   20.993  190.035   10.027
  624.250    0.157    0.308   21.466  188.607    8.051
  624.500    0.167    0.325   20.683  189.565    6.540
  624.750    0.178    0.359   18.839  192.392    5.531
  625.000    0.211    0.384   17.558  194.699    4.651
  625.250    0.230    0.391   17.411  191.399    4.010
  625.500    0.216    0.386   17.378  191.840    3.592
  625.750    0.196    0.371   17.421  194.668    3.390
  626.000    0.178    0.355   17.202  196.353    3.421
  626.250    0.156    0.336   16.799  197.103    3.394
  626.500    0.169    0.353   16.641  197.542    3.328
  626.750    0.190    0.381   17.114  191.854    3.308
  627.000    0.182    0.380   17.715  191.460    3.320
  627.250    0.168    0.350   18.496  193.354    3.435
  627.500    0.160    0.331   19.217  195.663    3.534
  627.750    0.163    0.323   19.812  196.725    3.574
  628.000    0.184    0.338   20.102  194.151    3.505
  628.250    0.190    0.359   20.508  192.617    3.314
  628.500    0.179    0.367   21.108  192.539    3.225
  628.750    0.167    0.362   21.514  192.769    3.186
  629.000    0.157    0.335   21.238  193.312    3.298
  629.250    0.151    0.306   20.518  194.061    3.601
  629.500    0.152    0.288   21.930  197.721    4.158
  629.750    0.163    0.294   24.468  192.343    4.532
  630.000    0.208    0.344   29.382  191.433    4.893
  630.250    0.240    0.369   33.608  193.949    4.853
  630.500    0.290    0.388   26.573  193.768    3.658
  630.750    0.317    0.415   20.350  192.647    2.909
  631.000    0.258    0.408   19.382  192.149    2.667
  631.250    0.215    0.246   23.549  194.770    2.879
  631.500    0.250    0.217   27.271  198.428    3.318
  631.750    0.316    0.181   25.495  205.206    3.920
  632.000    0.293    0.124   23.462  208.656    5.582
  632.250    0.114    0.173   20.555  207.122    9.215
  632.500    0.061    0.206   17.398  200.705   16.365
  632.750    0.075    0.218   15.184  198.754   19.863
  633.000    0.116    0.238   13.901  196.182   20.087
  633.250    0.159    0.253   13.120  192.985   19.360
  633.500    0.180    0.320   12.657  194.255   17.180
  633.750    0.202    0.378   12.691  195.940    8.747
  634.000    0.221    0.381   13.347  198.458    6.223
  634.250    0.226    0.364   14.261  201.603    5.084
  634.500    0.206    0.337   15.056  202.556    4.299
  634.750    0.180    0.305   15.265  196.659    4.695
  635.000    0.158    0.278   15.557  190.657    5.889
  635.250    0.176    0.291   15.960  190.992    6.555
  635.500    0.204    0.330   16.372  193.095    6.680
  635.750    0.192    0.312   16.342  196.652    6.742
  636.000    0.182    0.304   16.132  199.061    6.561
  636.250    0.213    0.333   17.036  198.256    6.215
  636.500    0.234    0.362   19.948  197.135    5.633
  636.750    0.231    0.399   21.609  194.977    4.782
  637.000    0.232    0.397   22.205  193.547    4.083
  637.250    0.225    0.377   22.180  192.739    3.658
  637.500    0.210    0.358   22.586  192.657    3.322
  637.750    0.179    0.353   24.247  192.890    3.022
  638.000    0.193    0.368   30.226  193.951    2.825
  638.250    0.215    0.385   29.947  195.222    2.781
  638.500    0.228    0.394   24.541  195.245    2.834
  638.750    0.229    0.400   21.445  194.232    2.877
  639.000    0.210    0.405   18.792  192.593    2.948
  639.250    0.184    0.343   17.199  192.617    3.069
  639.500    0.147    0.329   16.854  193.783    3.351
  639.750    0.125    0.292   16.764  194.844    3.745
  640.000    0.123    0.306   17.301  195.596    4.035
  640.250    0.175    0.332   17.144  196.348    4.144
  640.500    0.204    0.350   13.616  196.789    4.079
  640.750    0.212    0.366   12.584  197.019    3.849
  641.000    0.224    0.383   12.617  197.246    3.332
  641.250    0.233    0.408   13.339  197.166    2.900
  641.500    0.237    0.412   16.003  197.086    2.779
  641.750    0.239    0.371   16.981  197.005    2.794
  642.000    0.196    0.349   17.264  196.305    3.189
  642.250    0.171    0.319   17.355  196.223    3.530
  642.500    0.182    0.323   17.702  196.455    3.789
  642.750    0.185    0.335   17.736  196.269    3.744
  643.000    0.174    0.340   16.207  195.465    3.574
  643.250    0.182    0.341   16.305  193.928    3.399
  643.500    0.186    0.328   17.588  193.018    3.490
  643.750    0.155    0.308   19.500  193.769    3.782
  644.000    0.126    0.296   17.972  194.933    4.146
  644.250    0.140    0.292   16.940  197.556    4.450
  644.500    0.176    0.331   17.038  199.657    4.526
  644.750    0.224    0.351   17.140  200.093    4.439
  645.000    0.222    0.360   16.987  199.495    4.567
  645.250    0.213    0.355   17.338  199.205    4.827
  645.500    0.198    0.337   17.424  199.023    5.082
  645.750    0.180    0.323   17.899  198.739    5.382
  646.000    0.133    0.310   18.126  198.448    5.957
  646.250    0.125    0.302   18.036  197.950    6.382
  646.500    0.137    0.300   17.878  196.624    6.837
  646.750    0.143    0.334   17.722  194.881    6.980
  647.000    0.150    0.348   17.569  193.346    6.702
  647.250    0.163    0.364   17.163  192.332    6.252
  647.500    0.173    0.376   17.010  191.836    5.865
  647.750    0.183    0.372   16.485  191.546    5.514
  648.000    0.192    0.362   16.393  190.950    5.417
  648.250    0.205    0.363   16.177  190.762    5.617
  648.500    0.222    0.362   28.911  190.266    5.487
  648.750    0.217    0.361   47.590  190.498    4.305
