~VERSION INFORMATION
 VERS.                 2.0:   CWLS LOG ASCII STANDARD -VERSION 2.0
 WRAP.                  NO:   ONE LINE PER DEPTH STEP
~WELL INFORMATION BLOCK
#MNEM.UNIT           DATA                    DESCRIPTION OF MNEMONIC
#---------    -------------------            -------------------------------
# Generated from Intellog Unique Number	CS_73_76/WELL/3233
WELL.         10-08-076-08W4                 : Well_name    - WELL
LOC .         00/10-08-076-08W4/0            : Location     - LOCATION
UWI .         00/10-08-076-08W4/0            : Uwi          - UNIQUE WELL ID
ENTR.         SP                             : Entered      - ENTERED BY
SRVC.         SCHLUMBERGER                   : Scn          - SERVICE COMPANY
STRT.M        225                            : top_depth    - START DEPTH
STOP.M        455                            : bot_depth    - STOP DEPTH
STEP.M        0.25                           : increment    - STEP LENGTH
 NULL. -999.2500:NULL Value
~CURVE INFORMATION BLOCK
#MNEM UNIT       ERCB CURVE CODE    CURVE DESCRIPTION
#-----------   ------------------   ----------------------------------
DEPT.M        00 001 00 00         : DEPTH        - DEPTH
ILD .OHMM     00 120 00 00         : RESD         - DEEP RESISTIVITY (DIL)
GR  .API      00 310 00 00         : GR           - GAMMA RAY
DPHI.V/V      00 890 00 00         : PHID         - DENSITY POROSITY (LIMESTONE)
NPHI.V/V      00 330 00 00         : PHIN         - NEUTRON POROSITY (LIMESTONE)
~PARAMETER INFORMATION
#MNEM.UNIT           DATA             DESCRIPTION OF MNEMONIC
#---------         -----------     ------------------------------
GL  .M        630.79               : gl           - GROUND LEVEL ELEVATION
EREF.M        634.29               : kb           - ELEVATION OF DEPTH REFERENCE
DATM.M        630.79               : datum        - DATUM ELEVATION
TDD .M        462                  : tdd          - TOTAL DEPTH DRILLER
RUN .         ONE                  : Run          - RUN NUMBER
ENG .         BILL                 : Engineer     - RECORDING ENGINEER
WIT .         JIM                  : Witness      - WITNESSED BY
MUD .         GEL                  : Mud_type     - MUD TYPE
MATR.         LIMESTONE            : Logunit      - NEUTRON MATRIX
TMAX.C        29                   : BHT          - MAXIMUM RECORDED TEMPERATURE
BHTD.M        462                  : BHTDEP       - MAXIMUM RECORDED TEMPERATURE
MATR.         1                    : LOGUNIT      - NEUTRON MATRIX
RMT .C        25                   : MDTP         - TEMPERATURE OF MUD
NEUT.         1                    : NEUTRON      - NEUTRON TYPE
RESI.         0                    : RESIST       - RESISTIVITY TYPE
RMC .OHMM     0.25                 : RMC          - RESISTIVITY OF MUD CAKE
RMF .OHMM     0.25                 : RMF          - RESISTIVITY OF MUD FILTRATE
SUFT.C        15                   : SUFT         - SURFACE TEMPERATURE
~A  DEPTH     RESD       GR     PHID     PHIN
# ...
  312.000    4.023   83.719    0.254    0.411
  312.250    3.597   81.884    0.260    0.431
  312.500    3.276   75.153    0.255    0.458
  312.750    3.040   85.563    0.237    0.468
  313.000    2.875  101.485    0.234    0.404
  313.250    2.769  103.937    0.233    0.371
  313.500    2.718  107.614    0.222    0.385
  313.750    2.668  105.168    0.227    0.397
  314.000    2.874   95.987    0.229    0.413
  314.250    3.337   92.316    0.229    0.429
  314.500    3.596   96.605    0.227    0.408
  314.750    3.733  105.180    0.226    0.395
  315.000    3.664  112.530    0.226    0.364
  315.250    3.596  113.146    0.235    0.392
  315.500    3.529  110.088    0.246    0.426
  315.750    3.732  103.356    0.250    0.448
  316.000    3.947  100.297    0.241    0.413
  316.250    4.334   94.790    0.233    0.336
  316.500    4.757   89.283    0.234    0.339
  316.750    5.126   86.225    0.224    0.327
  317.000    5.628   81.329    0.241    0.311
  317.250    6.178   88.067    0.262    0.323
  317.500    6.782   81.948    0.271    0.334
  317.750    7.040   78.890    0.278    0.398
  318.000    7.040   80.730    0.271    0.371
  318.250    6.910   92.978    0.248    0.327
  318.500    6.063  104.001    0.234    0.344
  318.750    5.222   99.719    0.235    0.360
  319.000    4.582   96.660    0.246    0.377
  319.250    3.873   94.827    0.256    0.407
  319.500    3.463   96.054    0.263    0.429
  319.750    3.336  105.853    0.267    0.409
  320.000    3.274  105.244    0.266    0.397
  320.250    3.336  102.186    0.261    0.371
  320.500    3.462   97.291    0.255    0.382
  320.750    3.731   97.906    0.255    0.427
  321.000    3.946   93.624    0.254    0.489
  321.250    4.581   87.504    0.251    0.516
  321.500    5.839   75.874    0.268    0.410
  321.750    6.411   73.428    0.283    0.394
  322.000    7.305   79.554    0.288    0.386
  322.250    8.020   75.883    0.295    0.367
  322.500    8.325   74.662    0.304    0.400
  322.750    8.482   71.605    0.309    0.423
  323.000    8.641   69.770    0.307    0.438
  323.250    8.641   75.896    0.306    0.410
  323.500    8.641   71.613    0.287    0.411
  323.750    8.481   72.228    0.283    0.396
  324.000    8.324   80.191    0.277    0.394
  324.250    8.324   83.867    0.269    0.415
  324.500    8.169   80.197    0.263    0.400
  324.750    8.018   83.874    0.258    0.402
  325.000    8.018   87.550    0.255    0.422
  325.250    7.869   88.777    0.239    0.432
  325.500    7.869   82.659    0.235    0.408
  325.750    7.869   81.436    0.249    0.411
  326.000    7.869   82.665    0.258    0.335
  326.250    7.869   83.893    0.272    0.334
  326.500    7.868   84.507    0.275    0.370
  326.750    7.868   94.306    0.271    0.376
  327.000    7.868   95.534    0.256    0.394
  327.250    7.868   86.965    0.236    0.377
  327.500    7.868   77.172    0.231    0.350
  327.750    8.016   78.400    0.234    0.349
  328.000    8.016   85.750    0.231    0.378
  328.250    8.477   87.591    0.220    0.431
  328.500    9.482   80.858    0.192    0.466
  328.750    9.660   64.943    0.162    0.356
  329.000   10.605   49.639    0.026    0.132
  329.250   10.805   52.091    0.078    0.157
  329.500   10.605   80.258    0.127    0.255
  329.750   10.027   89.445    0.185    0.339
  330.000    9.305   86.387    0.240    0.442
  330.250    8.476   86.390    0.248    0.403
  330.500    7.437   86.392    0.235    0.366
  330.750    7.164   83.947    0.220    0.354
  331.000    6.902   89.461    0.223    0.348
  331.250    6.901   93.749    0.231    0.364
  331.500    6.774   98.038    0.217    0.403
  331.750    6.648   94.980    0.212    0.405
  332.000    6.525   88.860    0.217    0.394
  332.250    6.170   88.251    0.221    0.399
  332.500    5.943   85.805    0.215    0.406
  332.750    5.943   83.359    0.206    0.427
  333.000    5.619   79.688    0.215    0.458
  333.250    5.515   77.855    0.228    0.458
  333.500    5.413   88.267    0.220    0.419
  333.750    5.023   92.555    0.226    0.431
  334.000    4.576  100.518    0.251    0.390
  334.250    3.523  104.194    0.263    0.405
  334.500    3.034   91.952    0.265    0.415
  334.750    2.816   85.220    0.270    0.490
  335.000    2.425   93.795    0.273    0.539
  335.250    2.336   95.634    0.274    0.514
  335.500    2.380   87.678    0.279    0.490
  335.750    2.565   83.396    0.280    0.483
  336.000    2.662   79.725    0.256    0.447
  336.250    2.978   80.341    0.257    0.415
  336.500    3.331   85.854    0.254    0.421
  336.750    3.522   82.183    0.261    0.410
  337.000    4.014   83.411    0.273    0.410
  337.250    4.748   84.639    0.294    0.339
  337.500    5.513   83.418    0.308    0.295
  337.750    7.160   77.910    0.300    0.311
  338.000    7.715   73.015    0.289    0.393
  338.250    7.860   73.018    0.280    0.425
  338.500    7.572   66.898    0.303    0.453
  338.750    7.431   60.779    0.316    0.466
  339.000    7.431   53.435    0.324    0.449
  339.250    7.571   46.091    0.327    0.449
  339.500    7.714   49.767    0.320    0.444
  339.750    7.859   54.669    0.324    0.417
  340.000    7.859   55.896    0.330    0.358
  340.250    8.006   56.511    0.333    0.341
  340.500    8.006   56.514    0.336    0.355
  340.750    8.157   54.681    0.338    0.342
  341.000    8.157   54.072    0.339    0.363
  341.250    8.006   51.014    0.339    0.361
  341.500    8.005   47.343    0.339    0.356
  341.750    8.005   45.509    0.334    0.345
  342.000    8.005   46.737    0.329    0.360
  342.250    8.005   49.189    0.328    0.413
  342.500    8.005   55.927    0.331    0.443
  342.750    8.005   51.644    0.335    0.417
  343.000    8.155   57.770    0.330    0.423
  343.250    7.856   55.936    0.334    0.428
  343.500    8.004   49.816    0.336    0.400
  343.750    8.004   50.433    0.338    0.380
  344.000    8.004   51.047    0.342    0.350
  344.250    8.003   46.152    0.347    0.374
  344.500    8.003   54.727    0.345    0.397
  344.750    8.003   60.240    0.339    0.404
  345.000    8.003   49.222    0.333    0.379
  345.250    8.154   49.225    0.323    0.367
  345.500    8.307   45.555    0.318    0.372
  345.750    8.307   45.558    0.333    0.379
  346.000    8.307   47.398    0.340    0.405
  346.250    8.306   54.748    0.347    0.389
  346.500    8.306   54.751    0.334    0.368
  346.750    8.306   52.305    0.333    0.347
  347.000    8.306   51.696    0.339    0.320
  347.250    8.152   49.862    0.342    0.308
  347.500    8.152   48.641    0.352    0.344
  347.750    8.152   45.582    0.348    0.374
  348.000    8.151   47.422    0.346    0.359
  348.250    8.151   53.548    0.340    0.339
  348.500    8.151   45.592    0.334    0.381
  348.750    8.151   43.758    0.348    0.411
  349.000    8.151   46.823    0.339    0.408
  349.250    8.304   51.111    0.331    0.368
  349.500    8.304   44.379    0.335    0.342
  349.750    8.304   46.831    0.335    0.353
  350.000    8.303   46.834    0.328    0.375
  350.250    8.303   49.899    0.329    0.386
  350.500    8.460   50.514    0.328    0.386
  350.750    8.459   49.906    0.324    0.406
  351.000    8.459   49.908    0.320    0.430
  351.250    8.303   49.911    0.331    0.408
  351.500    8.459   52.363    0.331    0.403
  351.750    8.618   55.428    0.320    0.410
  352.000    8.618   59.104    0.329    0.400
  352.250    9.114   51.760    0.334    0.405
  352.500    9.286   54.825    0.324    0.363
  352.750    9.639   60.337    0.329    0.330
  353.000    9.820   54.218    0.325    0.358
  353.250    9.820   59.120    0.314    0.386
  353.500   10.005   61.571    0.307    0.379
  353.750    9.819   59.126    0.302    0.358
  354.000    9.638   59.741    0.314    0.363
  354.250    9.284   52.397    0.312    0.385
  354.500    8.778   49.951    0.315    0.435
  354.750    8.456   55.464    0.324    0.474
  355.000    7.995   58.528    0.326    0.457
  355.250    7.847   55.471    0.345    0.402
