~VERSION INFORMATION
 VERS.                 2.0:   CWLS LOG ASCII STANDARD -VERSION 2.0
 WRAP.                  NO:   ONE LINE PER DEPTH STEP
~WELL INFORMATION BLOCK
#MNEM.UNIT           DATA                    DESCRIPTION OF MNEMONIC
#---------    -------------------            -------------------------------
# Generated from Intellog Unique Number	CS_67_68/WELL/2198
WELL.         10-29-067-08W4                 : Well_name    - WELL
LOC .         00/10-29-067-08W4/0            : Location     - LOCATION
UWI .         00/10-29-067-08W4/0            : Uwi          - UNIQUE WELL ID
ENTR.         SP                             : Entered      - ENTERED BY
SRVC.         SCHLUMBERGER                   : Scn          - SERVICE COMPANY
STRT.M        330                            : top_depth    - START DEPTH
STOP.M        555                            : bot_depth    - STOP DEPTH
STEP.M        0.25                           : increment    - STEP LENGTH
 NULL. -999.2500:NULL Value
~CURVE INFORMATION BLOCK
#MNEM UNIT       ERCB CURVE CODE    CURVE DESCRIPTION
#-----------   ------------------   ----------------------------------
DEPT.M        00 001 00 00         : DEPTH        - DEPTH
ILD .OHMM     00 120 00 00         : RESD         - DEEP RESISTIVITY (DIL)
DPHI.V/V      00 890 00 00         : PHID         - DENSITY POROSITY (LIMESTONE)
NPHI.V/V      00 330 00 00         : PHIN         - NEUTRON POROSITY (LIMESTONE)
GR  .API      00 310 00 00         : GR           - GAMMA RAY
CALI.MM       00 280 01 00         : CAL          - CALIPER
~PARAMETER INFORMATION
#MNEM.UNIT           DATA             DESCRIPTION OF MNEMONIC
#---------         -----------     ------------------------------
GL  .M        639.4                : gl           - GROUND LEVEL ELEVATION
EREF.M        643.6                : kb           - ELEVATION OF DEPTH REFERENCE
DATM.M        643.6                : datum        - DATUM ELEVATION
TDD .M        560                  : tdd          - TOTAL DEPTH DRILLER
RUN .         ONE                  : Run          - RUN NUMBER
ENG .         BILL                 : Engineer     - RECORDING ENGINEER
WIT .         JIM                  : Witness      - WITNESSED BY
MUD .         GEL                  : Mud_type     - MUD TYPE
MATR.         LIMESTONE            : Logunit      - NEUTRON MATRIX
TMAX.C        23                   : BHT          - MAXIMUM RECORDED TEMPERATURE
BHTD.M        560.2                : BHTDEP       - MAXIMUM RECORDED TEMPERATURE
MATR.         1                    : LOGUNIT      - NEUTRON MATRIX
RMT .C        25                   : MDTP         - TEMPERATURE OF MUD
NEUT.         1                    : NEUTRON      - NEUTRON TYPE
RESI.         0                    : RESIST       - RESISTIVITY TYPE
RMC .OHMM     0.25                 : RMC          - RESISTIVITY OF MUD CAKE
RMF .OHMM     0.25                 : RMF          - RESISTIVITY OF MUD FILTRATE
SUFT.C        15                   : SUFT         - SURFACE TEMPERATURE
~A  DEPTH     RESD     PHID     PHIN       GR      CAL
# ...
  512.500    5.949    0.210    0.264  101.456  163.347
  512.750    5.938    0.215    0.264   97.201  162.194
  513.000    5.860    0.209    0.297  107.799  164.718
  513.250    5.849    0.199    0.327  113.305  167.548
  513.500    5.883    0.213    0.321   97.264  169.051
  513.750    6.018    0.232    0.301   82.760  168.609
  514.000    6.310    0.038    0.282   72.612  168.273
  514.250    6.542    0.017    0.266   79.529  169.672
  514.500    6.731    0.002    0.254   90.373  171.687
  514.750    6.847    0.150    0.269   98.025  173.291
  515.000    6.912    0.189    0.277  102.059  173.565
  515.250    6.860    0.207    0.260   98.848  171.282
  515.500    6.796    0.213    0.251   91.832  168.383
  515.750    6.707    0.196    0.252   93.100  167.019
  516.000    6.631    0.198    0.265   96.395  166.582
  516.250    6.531    0.206    0.265   98.832  166.652
  516.500    6.482    0.212    0.256   97.829  167.231
  516.750    6.458    0.201    0.250   93.330  167.301
  517.000    6.483    0.195    0.245   95.213  167.776
  517.250    6.582    0.191    0.238   97.035  168.053
  517.500    6.708    0.184    0.243   98.488  168.326
  517.750    6.863    0.177    0.283   98.531  168.811
  518.000    7.061    0.183    0.304   99.430  168.876
  518.250    7.169    0.197    0.320   99.843  168.746
  518.500    7.503    0.208    0.347   90.061  168.300
  518.750    8.155    0.222    0.353   82.125  167.962
  519.000    9.121    0.236    0.342   75.232  167.933
  519.250    9.971    0.260    0.327   61.033  167.997
  519.500   11.108    0.271    0.313   61.076  168.274
  519.750   12.167    0.274    0.318   66.948  168.550
  520.000   13.175    0.283    0.336   70.243  168.518
  520.250   13.710    0.297    0.335   71.023  167.871
  520.500   14.431    0.306    0.317   65.663  167.121
  520.750   14.819    0.294    0.312   59.567  165.859
  521.000   15.132    0.273    0.360   65.502  165.217
  521.250   15.104    0.264    0.381   80.151  165.082
  521.500   14.905    0.297    0.336   78.412  164.744
  521.750   14.488    0.315    0.301   70.537  164.712
  522.000   13.456    0.303    0.275   65.668  164.271
  522.250   12.522    0.286    0.261   81.240  164.442
  522.500   12.079    0.237    0.325  103.133  164.615
  522.750   11.920    0.215    0.359  112.137  164.888
  523.000   12.126    0.262    0.389  119.483  165.056
  523.250   13.899    0.297    0.420  124.558  165.131
  523.500   16.485    0.308    0.364  113.613  165.805
  523.750   18.470    0.303    0.338   87.753  165.885
  524.000   20.461    0.300    0.346   73.554  166.259
  524.250   22.073    0.312    0.340   63.898  166.229
  524.500   22.369    0.314    0.357   72.902  165.890
  524.750   21.908    0.302    0.370   85.219  165.448
  525.000   21.134    0.309    0.370   78.019  165.108
  525.250   19.444    0.316    0.328   66.092  164.253
  525.500   14.998    0.319    0.288   56.865  163.611
  525.750   10.209    0.272    0.263   54.941  163.068
  526.000    7.786    0.099    0.239   54.985  162.725
  526.250    6.665    0.060    0.252   38.883  162.491
  526.500    5.793    0.223    0.259   40.337  162.044
  526.750    5.026    0.242    0.258   56.031  162.119
  527.000    4.563    0.251    0.256   76.206  161.781
  527.250    4.230    0.238    0.259   88.094  161.851
  527.500    3.996    0.228    0.280   97.037  161.921
  527.750    3.719    0.231    0.297  103.155  162.091
  528.000    3.513    0.251    0.317  103.564  162.059
  528.250    3.364    0.269    0.324   95.746  161.718
  528.500    3.270    0.288    0.353   89.960  161.587
  528.750    3.148    0.306    0.374   83.129  161.449
  529.000    3.060    0.292    0.342   86.363  161.419
  529.250    2.991    0.259    0.314   95.979  161.486
  529.500    2.963    0.248    0.306  103.692  161.456
  529.750    2.946    0.272    0.327  108.279  161.217
  530.000    2.947    0.289    0.360   94.388  161.085
  530.250    2.947    0.299    0.383   77.793  161.359
  530.500    2.952    0.295    0.393   66.113  161.324
  530.750    2.952    0.303    0.361   62.533  161.292
  531.000    2.941    0.301    0.331   68.284  161.672
  531.250    2.936    0.293    0.364   71.763  161.843
  531.500    2.925    0.295    0.374   61.862  162.220
  531.750    2.942    0.294    0.313   65.767  162.697
  532.000    2.959    0.279    0.313   74.343  162.970
  532.250    2.987    0.256    0.344   84.574  163.249
  532.500    3.015    0.236    0.369   89.466  163.522
  532.750    3.021    0.254    0.382   93.436  163.593
  533.000    3.021    0.278    0.348   84.149  163.458
  533.250    2.953    0.300    0.315   63.015  163.419
  533.500    2.822    0.312    0.340   66.615  163.189
  533.750    2.707    0.312    0.369   71.384  163.051
  534.000    2.656    0.315    0.363   67.373  162.815
  534.250    2.626    0.319    0.332   58.456  162.679
  534.500    2.641    0.303    0.318   51.255  162.648
  534.750    2.657    0.289    0.352   57.006  162.413
  535.000    2.662    0.301    0.361   67.297  162.382
  535.250    2.667    0.307    0.338   64.821  162.859
  535.500    2.697    0.289    0.319   85.858  163.132
  535.750    2.703    0.280    0.300   97.746  163.201
  536.000    2.744    0.276    0.282  103.864  163.069
  536.250    2.797    0.272    0.266  102.065  162.729
  536.500    2.850    0.258    0.247  103.027  161.879
  536.750    2.955    0.237    0.233  116.387  161.234
  537.000    3.046    0.204    0.242  104.401  160.173
  537.250    3.116    0.229    0.286   76.944  159.424
  537.500    3.128    0.276    0.320   67.103  159.398
  537.750    3.087    0.284    0.292   64.874  159.159
  538.000    2.989    0.269    0.315   63.444  159.126
  538.250    2.928    0.284    0.333   54.708  159.299
  538.500    2.878    0.298    0.327   42.963  159.469
  538.750    2.851    0.314    0.303   37.237  159.947
  539.000    2.884    0.266    0.283   42.558  160.224
  539.250    2.928    0.239    0.308   57.760  160.496
  539.500    3.007    0.237    0.334   70.202  160.770
  539.750    3.111    0.235    0.357   68.032  160.434
  540.000    3.213    0.223    0.371   73.291  160.091
  540.250    3.293    0.238    0.353   79.105  159.755
  540.500    3.395    0.258    0.328   74.543  159.621
  540.750    3.486    0.270    0.297   71.025  159.485
  541.000    3.656    0.195    0.275   89.850  159.449
  541.250    3.811    0.168    0.257  103.456  159.731
  541.500    4.057    0.156    0.247   99.754  161.022
  541.750    4.394    0.151    0.274  102.005  161.710
  542.000    4.555    0.147    0.326  106.219  162.089
  542.250    4.303    0.229    0.377  102.641  162.458
  542.500    3.554    0.286    0.411   66.654  162.634
  542.750    2.721    0.347    0.367   44.783  162.911
  543.000    2.396    0.344    0.341   26.901  162.878
  543.250    2.200    0.344    0.310   16.324  163.256
  543.500    2.213    0.313    0.292   70.013  163.633
  543.750    2.406    0.243    0.245   94.362  164.006
  544.000    2.625    0.201    0.319  106.864  164.387
  544.250    2.837    0.160    0.350  111.939  164.762
  544.500    3.090    0.143    0.377   56.800  164.630
  544.750    3.227    0.271    0.365   49.292  161.935
  545.000    3.240    0.291    0.333   43.011  158.222
  545.250    3.015    0.302    0.316   35.994  156.143
  545.500    2.753    0.311    0.318   30.880  156.823
  545.750    2.557    0.318    0.350   29.142  157.101
  546.000    2.384    0.326    0.373   29.552  157.377
  546.250    2.201    0.332    0.377   30.209  158.569
  546.500    2.096    0.324    0.366   31.108  159.358
  546.750    2.002    0.334    0.365   33.975  160.246
  547.000    1.932    0.343    0.372   34.141  160.213
  547.250    1.888    0.354    0.381   30.499  159.874
  547.500    1.885    0.354    0.394   27.226  160.043
  547.750    1.885    0.352    0.391   24.259  160.218
  548.000    1.892    0.351    0.353   22.522  160.080
  548.250    1.910    0.350    0.322   24.528  160.050
  548.500    1.914    0.349    0.328   29.539  160.529
  548.750    1.932    0.313    0.345   31.488  160.902
