~VERSION INFORMATION
 VERS.                 2.0:   CWLS LOG ASCII STANDARD -VERSION 2.0
 WRAP.                  NO:   ONE LINE PER DEPTH STEP
~WELL INFORMATION BLOCK
#MNEM.UNIT           DATA                    DESCRIPTION OF MNEMONIC
#---------    -------------------            -------------------------------
# Generated from Intellog Unique Number	CS_77_79/WELL/1002
WELL.         MAYNARD ET AL THORNBURY        : Well_name    - WELL
LOC .         00/11-29-079-11W4/0            : Location     - LOCATION
UWI .         00/11-29-079-11W4/0            : Uwi          - UNIQUE WELL ID
ENTR.         JHS                            : Entered      - ENTERED BY
SRVC.         SCHLUMBERGER                   : Scn          - SERVICE COMPANY
STRT.M        250                            : top_depth    - START DEPTH
STOP.M        495                            : bot_depth    - STOP DEPTH
STEP.M        0.25                           : increment    - STEP LENGTH
 NULL. -999.2500:NULL Value
~CURVE INFORMATION BLOCK
#MNEM UNIT       ERCB CURVE CODE    CURVE DESCRIPTION
#-----------   ------------------   ----------------------------------
DEPT.M        00 001 00 00         : DEPTH        - DEPTH
DPHI.V/V      00 890 00 00         : PHID         - DENSITY POROSITY (LIMESTONE)
NPHI.V/V      00 330 00 00         : PHIN         - NEUTRON POROSITY (LIMESTONE)
GR  .API      00 310 00 00         : GR           - GAMMA RAY
ILD .OHMM     00 120 00 00         : RESD         - DEEP RESISTIVITY (DIL)
RHOB.KG/M3    00 350 00 00         : DENS         - BULK DENSITY
~PARAMETER INFORMATION
#MNEM.UNIT           DATA             DESCRIPTION OF MNEMONIC
#---------         -----------     ------------------------------
GL  .M        690.19               : gl           - GROUND LEVEL ELEVATION
EREF.M        693.39               : kb           - ELEVATION OF DEPTH REFERENCE
DATM.M        693.39               : datum        - DATUM ELEVATION
TDD .M        500                  : tdd          - TOTAL DEPTH DRILLER
RUN .         ONE                  : Run          - RUN NUMBER
ENG .         BILL                 : Engineer     - RECORDING ENGINEER
WIT .         JIM                  : Witness      - WITNESSED BY
MUD .         GEL                  : Mud_type     - MUD TYPE
MATR.         LIMESTONE            : Logunit      - NEUTRON MATRIX
TMAX.C        22                   : BHT          - MAXIMUM RECORDED TEMPERATURE
BHTD.M        500                  : BHTDEP       - MAXIMUM RECORDED TEMPERATURE
MATR.         1                    : LOGUNIT      - NEUTRON MATRIX
RMT .C        25                   : MDTP         - TEMPERATURE OF MUD
NEUT.         1                    : NEUTRON      - NEUTRON TYPE
RESI.         0                    : RESIST       - RESISTIVITY TYPE
RMC .OHMM     0.25                 : RMC          - RESISTIVITY OF MUD CAKE
RMF .OHMM     0.25                 : RMF          - RESISTIVITY OF MUD FILTRATE
SUFT.C        15                   : SUFT         - SURFACE TEMPERATURE
~A  DEPTH     PHID     PHIN       GR     RESD     DENS
# ...
  359.500    0.227    0.620  104.611    3.195    0.000
  359.750    0.234    0.614  108.932    3.362    0.000
  360.000    0.245    0.600  108.965    3.697    0.000
  360.250    0.267    0.591  106.545    3.949    0.000
  360.500    0.271    0.568  101.073    4.201    0.000
  360.750    0.259    0.543   98.034    4.534    0.000
  361.000    0.251    0.538   99.286    4.785    0.000
  361.250    0.248    0.533   99.931    5.119    0.000
  361.500    0.241    0.516  106.082    5.453    0.000
  361.750    0.247    0.521  104.279    5.951    0.000
  362.000    0.257    0.525   95.737    6.615    0.000
  362.250    0.267    0.510   90.869    7.031    0.000
  362.500    0.262    0.491   87.841    7.282    0.000
  362.750    0.261    0.473   84.200    7.205    0.000
  363.000    0.269    0.464   81.173    6.715    0.000
  363.250    0.281    0.459   83.647    5.814    0.000
  363.500    0.296    0.462   91.023    4.585    0.000
  363.750    0.289    0.490   97.172    4.013    0.000
  364.000    0.273    0.534  102.717    3.771    0.000
  364.250    0.260    0.549  105.807    3.528    0.000
  364.500    0.257    0.555  106.453    3.534    0.000
  364.750    0.265    0.549  104.036    3.620    0.000
  365.000    0.255    0.537   99.162    3.625    0.000
  365.250    0.255    0.540   99.814    3.547    0.000
  365.500    0.260    0.551  100.452    3.471    0.000
  365.750    0.271    0.531  102.927    3.392    0.000
  366.000    0.257    0.530  105.408    3.316    0.000
  366.250    0.243    0.548  102.989    3.238    0.000
  366.500    0.229    0.568  105.472    3.243    0.000
  366.750    0.218    0.587  104.281    3.331    0.000
  367.000    0.219    0.587  104.916    3.333    0.000
  367.250    0.240    0.569  103.727    3.421    0.000
  367.500    0.247    0.556   98.860    3.425    0.000
  367.750    0.253    0.549   98.274    3.347    0.000
  368.000    0.257    0.549   94.642    3.354    0.000
  368.250    0.250    0.553   98.951    3.522    0.000
  368.500    0.241    0.539  100.211    3.690    0.000
  368.750    0.238    0.533   99.623    4.025    0.000
  369.000    0.242    0.535   98.433    4.193    0.000
  369.250    0.254    0.535   94.787    4.527    0.000
  369.500    0.259    0.527   94.204    4.781    0.000
  369.750    0.245    0.529   95.472    4.702    0.000
  370.000    0.242    0.521   94.267    4.623    0.000
  370.250    0.233    0.520   97.360    4.299    0.000
  370.500    0.247    0.519   98.610    4.058    0.000
  370.750    0.265    0.547  100.486    3.897    0.000
  371.000    0.268    0.558  103.569    3.738    0.000
  371.250    0.267    0.551  107.891    3.742    0.000
  371.500    0.255    0.547  105.471    3.911    0.000
  371.750    0.247    0.547  101.827    4.080    0.000
  372.000    0.239    0.543   97.572    4.333    0.000
  372.250    0.238    0.538   91.480    4.419    0.000
  372.500    0.250    0.534   96.411    4.506    0.000
  372.750    0.250    0.521   99.499    4.759    0.000
  373.000    0.246    0.504  105.039    4.844    0.000
  373.250    0.242    0.481  106.303    5.261    0.000
  373.500    0.245    0.460   98.375    5.511    0.000
  373.750    0.253    0.451   92.893    6.256    0.000
  374.000    0.276    0.440   88.021    7.002    0.000
  374.250    0.297    0.430   83.154    7.666    0.000
  374.500    0.302    0.455   80.130    7.917    0.000
  374.750    0.286    0.466   81.992    7.922    0.000
  375.000    0.276    0.469   87.530    7.926    0.000
  375.250    0.264    0.464   92.462    8.096    0.000
  375.500    0.253    0.450   96.161    8.347    0.000
  375.750    0.249    0.443   96.807    8.928    0.000
  376.000    0.254    0.438   90.712    9.263    0.000
  376.250    0.261    0.435   85.848    9.349    0.000
  376.500    0.236    0.439   84.045    9.024    0.000
  376.750    0.213    0.460   84.074    8.617    0.000
  377.000    0.212    0.482   84.104    8.211    0.000
  377.250    0.215    0.494   84.143    7.887    0.000
  377.500    0.229    0.489   84.174    7.725    0.000
  377.750    0.245    0.483   85.420    7.566    0.000
  378.000    0.241    0.475   87.293    7.489    0.000
  378.250    0.242    0.473   89.152    7.411    0.000
  378.500    0.246    0.483   89.800    7.416    0.000
  378.750    0.247    0.501   89.829    7.422    0.000
  379.000    0.251    0.517   90.475    7.344    0.000
  379.250    0.238    0.524   88.666    7.266    0.000
  379.500    0.222    0.512   89.919    7.270    0.000
  379.750    0.217    0.495   91.784    7.356    0.000
  380.000    0.221    0.475   91.821    7.361    0.000
  380.250    0.244    0.464   91.847    7.285    0.000
  380.500    0.261    0.450   93.714    7.206    0.000
  380.750    0.256    0.453   93.137    6.964    0.000
  381.000    0.256    0.483   94.391    6.640    0.000
  381.250    0.259    0.493   98.710    6.315    0.000
  381.500    0.266    0.500   96.897    5.907    0.000
  381.750    0.255    0.497   95.705    5.254    0.000
  382.000    0.255    0.487   95.122    4.519    0.000
  382.250    0.246    0.479   93.313    4.029    0.000
  382.500    0.247    0.491   97.632    3.539    0.000
  382.750    0.255    0.537  101.951    3.052    0.000
  383.000    0.259    0.577  104.424    2.890    0.000
  383.250    0.259    0.607  107.524    2.815    0.000
  383.500    0.261    0.600  109.395    2.901    0.000
  383.750    0.268    0.565  109.422    2.988    0.000
  384.000    0.278    0.552  107.613    3.238    0.000
  384.250    0.275    0.536  100.907    3.820    0.000
  384.500    0.259    0.524   99.099    4.235    0.000
  384.750    0.252    0.514   97.904    4.817    0.000
  385.000    0.248    0.507   95.487    5.150    0.000
  385.250    0.250    0.504   94.296    5.320    0.000
  385.500    0.256    0.521   96.161    5.323    0.000
  385.750    0.251    0.523   98.029    5.495    0.000
  386.000    0.243    0.509  100.510    5.581    0.000
  386.250    0.230    0.505   98.094    5.749    0.000
  386.500    0.235    0.503   99.357    6.000    0.000
  386.750    0.229    0.500  100.608    6.499    0.000
  387.000    0.234    0.498  100.022    6.915    0.000
  387.250    0.266    0.488   99.434    7.414    0.000
  387.500    0.271    0.472  100.689    7.747    0.000
  387.750    0.274    0.440   99.502    8.247    0.000
  388.000    0.263    0.421  100.146    8.744    0.000
  388.250    0.252    0.411   98.951    9.161    0.000
  388.500    0.258    0.407   98.371    9.495    0.000
  388.750    0.275    0.405   95.946    9.664    0.000
  389.000    0.282    0.415   97.818    9.503    0.000
  389.250    0.270    0.458   96.620    9.098    0.000
  389.500    0.252    0.470   96.654    8.526    0.000
  389.750    0.234    0.477   96.069    7.955    0.000
  390.000    0.223    0.476   96.102    7.300    0.000
  390.250    0.217    0.476   94.295    6.894    0.000
  390.500    0.221    0.469   95.550    6.652    0.000
  390.750    0.222    0.461   94.353    6.740    0.000
  391.000    0.230    0.453   94.996    7.073    0.000
  391.250    0.254    0.444   93.803    7.570    0.000
  391.500    0.261    0.433   91.387    8.398    0.000
  391.750    0.249    0.429   88.970    9.144    0.000
  392.000    0.230    0.425   83.488    9.807    0.000
  392.250    0.218    0.419   87.804   10.140    0.000
  392.500    0.226    0.419   90.284   10.311    0.000
  392.750    0.236    0.425   89.702   10.397    0.000
  393.000    0.240    0.426   94.017   10.566    0.000
  393.250    0.258    0.423   92.827   10.737    0.000
  393.500    0.263    0.415   89.797   10.659    0.000
  393.750    0.314    0.414   88.598   10.251    0.000
  394.000    0.305    0.419   82.510    9.514    0.000
  394.250    0.298    0.431   80.089    8.861    0.000
  394.500    0.276    0.442   84.411    8.043    0.000
  394.750    0.257    0.455   86.272    7.471    0.000
  395.000    0.253    0.471   87.536    7.147    0.000
  395.250    0.247    0.472   89.395    7.153    0.000
  395.500    0.247    0.454   88.205    7.239    0.000
  395.750    0.261    0.437   85.174    7.491    0.000
