~VERSION INFORMATION
 VERS.                 2.0:   CWLS LOG ASCII STANDARD -VERSION 2.0
 WRAP.                  NO:   ONE LINE PER DEPTH STEP
~WELL INFORMATION BLOCK
#MNEM.UNIT           DATA                    DESCRIPTION OF MNEMONIC
#---------    -------------------            -------------------------------
# Generated from Intellog Unique Number	CW_79_81/WELL/2468
WELL.         10-18-080-20W4                 : Well_name    - WELL
LOC .         00/10-18-080-20W4/0            : Location     - LOCATION
UWI .         00/10-18-080-20W4/0            : Uwi          - UNIQUE WELL ID
ENTR.         MAX                            : Entered      - ENTERED BY
SRVC.         SCHLUMBERGER                   : Scn          - SERVICE COMPANY
STRT.M        152.4                          : top_depth    - START DEPTH
STOP.M        408.15                         : bot_depth    - STOP DEPTH
STEP.M        0.25                           : increment    - STEP LENGTH
 NULL. -999.2500:NULL Value
~CURVE INFORMATION BLOCK
#MNEM UNIT       ERCB CURVE CODE    CURVE DESCRIPTION
#-----------   ------------------   ----------------------------------
DEPT.M        00 001 00 00         : DEPTH        - DEPTH
ILD .OHMM     00 120 00 00         : RESD         - DEEP RESISTIVITY (DIL)
NPHI.V/V      00 330 00 00         : PHIN         - NEUTRON POROSITY (SANDSTONE)
DPHI.V/V      00 890 00 00         : PHID         - DENSITY POROSITY (SANDSTONE)
GR  .API      00 310 00 00         : GR           - GAMMA RAY
CALI.MM       00 280 01 00         : CAL          - CALIPER
~PARAMETER INFORMATION
#MNEM.UNIT           DATA             DESCRIPTION OF MNEMONIC
#---------         -----------     ------------------------------
GL  .M        579.272              : gl           - GROUND LEVEL ELEVATION
EREF.M        582.778              : kb           - ELEVATION OF DEPTH REFERENCE
DATM.M        579.272              : datum        - DATUM ELEVATION
TDD .M        411.48               : tdd          - TOTAL DEPTH DRILLER
RUN .         ONE                  : Run          - RUN NUMBER
ENG .         BILL                 : Engineer     - RECORDING ENGINEER
WIT .         JIM                  : Witness      - WITNESSED BY
MUD .         GEL                  : Mud_type     - MUD TYPE
MATR.         SANDSTONE            : Logunit      - NEUTRON MATRIX
TMAX.C        23.3333              : BHT          - MAXIMUM RECORDED TEMPERATURE
BHTD.M        411.48               : BHTDEP       - MAXIMUM RECORDED TEMPERATURE
MATR.         1                    : LOGUNIT      - NEUTRON MATRIX
RMT .C        10                   : MDTP         - TEMPERATURE OF MUD
NEUT.         1                    : NEUTRON      - NEUTRON TYPE
RESI.         0                    : RESIST       - RESISTIVITY TYPE
RMC .OHMM     7.01                 : RMC          - RESISTIVITY OF MUD CAKE
RMF .OHMM     3.48                 : RMF          - RESISTIVITY OF MUD FILTRATE
SUFT.C        -15                  : SUFT         - SURFACE TEMPERATURE
~A  DEPTH     RESD     PHIN     PHID       GR      CAL
# ...
  261.900   12.783    0.478    0.361   61.738  197.018
  262.150   12.796    0.482    0.361   61.279  197.055
  262.400   12.736    0.486    0.359   60.462  197.090
  262.650   12.700    0.494    0.357   59.405  196.923
  262.900   12.734    0.504    0.356   58.226  196.657
  263.150   12.881    0.519    0.353   57.452  196.621
  263.400   13.094    0.518    0.351   59.479  196.237
  263.650   13.198    0.513    0.343   59.738  196.275
  263.900   13.379    0.505    0.344   58.739  196.002
  264.150   13.540    0.495    0.345   57.562  195.837
  264.400   13.652    0.488    0.339   56.986  195.879
  264.650   13.809    0.487    0.324   57.193  195.919
  264.900   14.034    0.481    0.328   55.717  195.950
  265.150   14.149    0.482    0.324   55.255  195.582
  265.400   14.342    0.489    0.319   52.998  195.520
  265.650   14.514    0.492    0.319   51.821  195.761
  265.900   14.607    0.487    0.324   51.902  196.100
  266.150   14.620    0.482    0.328   50.528  196.145
  266.400   14.634    0.484    0.322   49.551  196.180
  266.650   14.648    0.483    0.318   50.291  196.218
  266.900   14.740    0.480    0.318   49.955  196.253
  267.150   14.808    0.474    0.321   50.217  196.495
  267.400   14.822    0.466    0.328   52.275  196.842
  267.650   14.836    0.457    0.341   57.906  196.884
  267.900   14.851    0.468    0.334   63.176  196.923
  268.150   14.971    0.474    0.328   66.795  197.366
  268.400   15.012    0.485    0.329   69.516  197.810
  268.650   15.026    0.493    0.323   72.177  198.049
  268.900   15.041    0.497    0.309   75.496  198.287
  269.150   15.056    0.501    0.307   81.029  199.228
  269.400   15.072    0.523    0.312   85.800  199.686
  269.650   15.419    0.521    0.314   88.462  201.758
  269.900   15.859    0.506    0.303   88.424  204.434
  270.150   16.517    0.493    0.286   81.969  208.327
  270.400   17.372    0.481    0.264   71.795  212.021
  270.650   18.227    0.443    0.235   66.924  212.234
  270.900   18.526    0.368    0.229   66.446  213.111
  271.150   18.139    0.439    0.301   66.470  221.677
  271.400   16.883    0.497    0.336   66.133  227.198
  271.650   15.479    0.533    0.354   66.395  224.394
  271.900   14.420    0.545    0.364   67.615  214.378
  272.150   13.998    0.541    0.359   70.107  203.827
  272.400   13.904    0.517    0.352   72.883  199.639
  272.650   13.918    0.502    0.353   73.140  198.864
  272.900   13.931    0.491    0.351   73.042  198.696
  273.150   13.943    0.490    0.347   72.463  198.527
  273.400   13.954    0.495    0.345   71.404  197.954
  273.650   13.947    0.494    0.345   69.742  196.703
  273.900   13.856    0.498    0.348   68.516  196.315
  274.150   13.870    0.502    0.351   69.737  196.349
  274.400   13.805    0.499    0.354   71.137  196.383
  274.650   13.715    0.497    0.354   72.239  196.421
  274.900   13.627    0.499    0.352   72.921  196.359
  275.150   13.503    0.499    0.350   73.626  195.994
  275.400   13.312    0.488    0.346   74.651  196.033
  275.650   13.223    0.489    0.342   75.868  196.067
  275.900   12.929    0.493    0.336   76.009  196.106
  276.150   12.941    0.504    0.329   75.552  195.943
  276.400   13.260    0.518    0.321   75.035  195.572
  276.650   13.373    0.530    0.313   75.258  195.204
  276.900   13.381    0.532    0.308   76.283  195.243
  277.150   13.492    0.513    0.314   78.941  195.285
  277.400   13.603    0.501    0.314   85.558  195.630
  277.650   13.914    0.495    0.310   94.097  195.869
  277.900   14.496    0.488    0.304  103.173  196.104
  278.150   15.632    0.472    0.289  110.524  197.132
  278.400   17.698    0.450    0.254  102.802  198.021
  278.650   21.172    0.431    0.164   84.832  198.867
  278.900   26.147    0.324    0.118   74.960  199.409
  279.150   30.776    0.261    0.103   71.984  199.444
  279.400   33.450    0.274    0.106   72.488  199.176
  279.650   36.135    0.303    0.122   71.185  199.219
  279.900   34.045    0.336    0.141   72.957  199.262
  280.150   27.420    0.396    0.248   74.896  198.483
  280.400   21.344    0.441    0.301   76.295  197.099
  280.650   18.533    0.465    0.315   76.796  196.525
  280.900   17.988    0.438    0.290   75.739  197.169
  281.150   18.738    0.288    0.181   71.769  198.517
  281.400   19.787    0.220    0.055   69.795  198.975
  281.650   20.393    0.239    0.074   70.772  199.012
  281.900   20.111    0.280    0.143   73.012  198.745
  282.150   18.960    0.336    0.205   76.512  198.174
  282.400   17.000    0.391    0.250   80.432  197.400
  282.650   13.945    0.434    0.312   83.199  196.636
  282.900   11.928    0.500    0.314   83.719  196.671
  283.150   11.255    0.513    0.316   84.223  197.931
  283.400   10.925    0.506    0.323   84.722  199.490
  283.650   10.778    0.490    0.327   85.223  201.552
  283.900   10.729    0.479    0.326   85.306  204.122
  284.150   10.772    0.497    0.318   84.532  206.842
  284.400   10.946    0.525    0.310   86.556  206.035
  284.650   11.198    0.529    0.311   85.857  206.072
  284.900   11.395    0.534    0.326   85.880  204.889
  285.150   11.573    0.535    0.332   86.740  202.081
  285.400   11.733    0.532    0.323   88.617  198.973
  285.650   11.831    0.524    0.321   92.111  198.618
  285.900   11.842    0.507    0.333   93.887  198.650
  286.150   11.765    0.497    0.333   93.665  198.687
  286.400   11.561    0.500    0.323   95.425  199.030
  286.650   11.066    0.502    0.306   97.366  200.081
  286.900   10.313    0.495    0.286   99.007  201.842
  287.150    9.319    0.483    0.265  101.792  203.921
  287.400    8.647    0.484    0.248  104.813  203.957
  287.650    8.100    0.482    0.252  104.833  202.370
  287.900    7.719    0.478    0.269  102.878  201.392
  288.150    7.505    0.477    0.277  101.581  201.226
  288.400    7.416    0.475    0.271  101.481  201.567
  288.650    7.392    0.465    0.261   99.777  201.605
  288.900    7.514    0.477    0.261   93.554  201.644
  289.150    7.742    0.488    0.260   94.058  200.869
  289.400    7.978    0.501    0.274   95.456  200.701
  289.650    7.957    0.510    0.279   96.577  200.046
  289.900    7.903    0.514    0.270   96.451  199.141
  290.150    8.637    0.508    0.262   94.612  199.640
  290.400    8.974    0.492    0.247   96.106  200.070
  290.650    9.107    0.504    0.247   97.778  200.081
  290.900    9.092    0.519    0.265  100.162  200.090
  291.150    8.826    0.527    0.274  103.023  199.897
  291.400    8.355    0.522    0.267  106.480  199.604
  291.650    7.767    0.502    0.253  110.613  199.951
  291.900    7.479    0.490    0.248  108.635  201.639
  292.150    7.263    0.481    0.253  108.640  204.067
  292.400    7.093    0.476    0.247  109.181  204.985
  292.650    7.017    0.485    0.235  108.116  205.397
  292.900    7.043    0.502    0.228  104.076  205.707
  293.150    7.191    0.509    0.244   94.929  205.551
  293.400    7.415    0.495    0.273   87.249  204.720
  293.650    8.030    0.482    0.269   89.873  201.909
  293.900    8.654    0.482    0.274   90.890  200.005
  294.150    9.019    0.491    0.277   90.420  199.209
  294.400    9.036    0.500    0.270   89.058  199.017
  294.650    8.879    0.492    0.256   87.676  198.054
  294.900    8.746    0.491    0.252   86.689  197.223
  295.150    8.875    0.498    0.279   86.695  197.232
  295.400    9.302    0.493    0.294   86.344  197.242
  295.650    9.829    0.487    0.297   84.683  197.253
  295.900   10.257    0.483    0.290   83.082  197.162
  296.150   10.409    0.481    0.278   85.777  196.767
  296.400   10.410    0.479    0.263   88.509  196.777
  296.650   10.184    0.481    0.255   93.751  197.190
  296.900    9.854    0.477    0.237   96.672  197.604
  297.150    9.501    0.479    0.221  101.437  198.017
  297.400    9.213    0.488    0.222  107.749  198.327
  297.650    9.080    0.493    0.256  110.057  198.423
  297.900    9.081    0.492    0.245  106.095  198.853
  298.150    9.418    0.462    0.232   91.107  199.264
