~VERSION INFORMATION
 VERS.                 2.0:   CWLS LOG ASCII STANDARD -VERSION 2.0
 WRAP.                  NO:   ONE LINE PER DEPTH STEP
~WELL INFORMATION BLOCK
#MNEM.UNIT           DATA                    DESCRIPTION OF MNEMONIC
#---------    -------------------            -------------------------------
# Generated from Intellog Unique Number	CS_73_76/WELL/3273
WELL.         STAR OIL & GAS LTD             : Well_name    - WELL
LOC .         00/12-19-075-09W4/0            : Location     - LOCATION
UWI .         00/12-19-075-09W4/0            : Uwi          - UNIQUE WELL ID
ENTR.         SP                             : Entered      - ENTERED BY
SRVC.         SCHLUMBERGER                   : Scn          - SERVICE COMPANY
STRT.M        285                            : top_depth    - START DEPTH
STOP.M        490                            : bot_depth    - STOP DEPTH
STEP.M        0.25                           : increment    - STEP LENGTH
 NULL. -999.2500:NULL Value
~CURVE INFORMATION BLOCK
#MNEM UNIT       ERCB CURVE CODE    CURVE DESCRIPTION
#-----------   ------------------   ----------------------------------
DEPT.M        00 001 00 00         : DEPTH        - DEPTH
ILD .OHMM     00 120 00 00         : RESD         - DEEP RESISTIVITY (DIL)
DPHI.V/V      00 890 00 00         : PHID         - DENSITY POROSITY (LIMESTONE)
NPHI.V/V      00 330 00 00         : PHIN         - NEUTRON POROSITY (LIMESTONE)
GR  .API      00 310 00 00         : GR           - GAMMA RAY
~PARAMETER INFORMATION
#MNEM.UNIT           DATA             DESCRIPTION OF MNEMONIC
#---------         -----------     ------------------------------
GL  .M        678.87               : gl           - GROUND LEVEL ELEVATION
EREF.M        682                  : kb           - ELEVATION OF DEPTH REFERENCE
DATM.M        678.87               : datum        - DATUM ELEVATION
TDD .M        530                  : tdd          - TOTAL DEPTH DRILLER
RUN .         ONE                  : Run          - RUN NUMBER
ENG .         BILL                 : Engineer     - RECORDING ENGINEER
WIT .         JIM                  : Witness      - WITNESSED BY
MUD .         GEL                  : Mud_type     - MUD TYPE
MATR.         LIMESTONE            : Logunit      - NEUTRON MATRIX
TMAX.C        26                   : BHT          - MAXIMUM RECORDED TEMPERATURE
BHTD.M        530                  : BHTDEP       - MAXIMUM RECORDED TEMPERATURE
MATR.         1                    : LOGUNIT      - NEUTRON MATRIX
RMT .C        25                   : MDTP         - TEMPERATURE OF MUD
NEUT.         1                    : NEUTRON      - NEUTRON TYPE
RESI.         0                    : RESIST       - RESISTIVITY TYPE
RMC .OHMM     0.25                 : RMC          - RESISTIVITY OF MUD CAKE
RMF .OHMM     0.25                 : RMF          - RESISTIVITY OF MUD FILTRATE
SUFT.C        15                   : SUFT         - SURFACE TEMPERATURE
~A  DEPTH     RESD     PHID     PHIN       GR
  285.000    3.635    0.246    1.042  107.591
  285.250    3.705    0.243    0.483  105.153
  285.500    3.706    0.238    0.490  102.718
  285.750    3.778    0.237    0.469  100.892
  286.000    3.852    0.241    0.455   99.066
  286.250    3.853    0.244    0.478  100.940
  286.500    3.781    0.243    0.489  102.806
  286.750    3.782    0.240    0.502  104.048
  287.000    3.642    0.238    0.507  108.998
  287.250    3.575    0.238    0.508  109.624
  287.500    3.576    0.239    0.519  110.878
  287.750    3.509    0.241    0.522  110.893
  288.000    3.510    0.241    0.513  104.773
  288.250    3.511    0.241    0.494  104.791
  288.500    3.512    0.243    0.489  105.435
  288.750    3.513    0.249    0.478  104.830
  289.000    3.514    0.251    0.472  103.016
  289.250    3.582    0.254    0.477  101.803
  289.500    3.939    0.256    0.468  101.207
  289.750    4.415    0.237    0.452   95.081
  290.000    6.215    0.219    0.426   85.879
  290.250    8.584    0.208    0.352   69.298
  290.500   10.380    0.199    0.294   57.023
  290.750   16.064    0.340    0.261   52.127
  291.000   25.338    0.419    0.232   50.305
  291.250   37.044    0.442    0.198   51.557
  291.500   44.798    0.456    0.168   50.345
  291.750   50.215    0.436    0.162   49.749
  292.000   51.188    0.425    0.173   52.233
  292.250   52.183    0.437    0.183   54.713
  292.500   55.260    0.446    0.185   54.117
  292.750   56.329    0.448    0.184   54.758
  293.000   59.643    0.452    0.182   54.778
  293.250   63.157    0.459    0.163   54.797
  293.500   64.376    0.470    0.158   55.437
  293.750   65.631    0.470    0.158   56.693
  294.000   64.409    0.466    0.166   56.708
  294.250   59.715    0.465    0.180   56.723
  294.500   55.365    0.469    0.186   56.133
  294.750   51.334    0.476    0.191   56.152
  295.000   49.436    0.469    0.196   56.786
  295.250   44.970    0.456    0.198   53.129
  295.500   38.644    0.440    0.209   50.690
  295.750   32.586    0.420    0.252   48.859
  296.000   29.085    0.391    0.307   47.648
  296.250   24.526    0.378    0.347   51.974
  296.500   22.312    0.367    0.383   57.537
  296.750   20.685    0.381    0.387   59.394
  297.000   19.178    0.387    0.374   55.114
  297.250   17.780    0.371    0.371   53.901
  297.500   16.175    0.345    0.362   58.225
  297.750   16.806    0.332    0.367   60.094
  298.000   17.131    0.348    0.361   59.505
  298.250   18.142    0.368    0.345   58.907
  298.500   18.847    0.382    0.327   57.696
  298.750   19.212    0.382    0.318   56.493
  299.000   20.345    0.373    0.316   54.051
  299.250   20.348    0.367    0.326   53.453
  299.500   19.595    0.365    0.339   54.093
  299.750   18.517    0.369    0.353   53.499
  300.000   18.520    0.371    0.371   51.677
  300.250   17.837    0.358    0.375   55.388
  300.500   17.839    0.338    0.382   57.862
  300.750   17.509    0.327    0.387   56.658
  301.000   17.184    0.319    0.393   54.830
  301.250   17.188    0.319    0.397   53.621
  301.500   16.870    0.327    0.395   53.027
  301.750   16.557    0.319    0.394   51.820
  302.000   16.560    0.302    0.396   50.609
  302.250   16.255    0.306    0.401   53.097
  302.500   15.953    0.318    0.398   54.961
  302.750   15.657    0.330    0.391   56.206
  303.000   15.077    0.345    0.386   56.847
  303.250   14.519    0.354    0.381   55.637
  303.500   13.981    0.357    0.399   59.346
  303.750   12.719    0.325    0.404   64.896
  304.000   11.571    0.297    0.411   69.836
  304.250    9.944    0.272    0.411   74.777
  304.500    8.876    0.220    0.406   76.639
  304.750    8.230    0.216    0.405   81.590
  305.000    7.924    0.225    0.412   83.447
  305.250    7.488    0.231    0.420   85.926
  305.500    7.075    0.226    0.422   88.410
  305.750    7.213    0.219    0.414   89.042
  306.000    7.493    0.228    0.415   85.993
  306.250    8.087    0.235    0.408   84.779
  306.500    8.243    0.241    0.401   82.346
  306.750    8.246    0.232    0.411   79.913
  307.000    8.407    0.233    0.423   84.228
  307.250    8.409    0.242    0.432   91.012
  307.500    8.737    0.244    0.437   91.033
  307.750    8.905    0.264    0.442   87.365
  308.000    9.981    0.292    0.432   78.780
  308.250   11.621    0.330    0.413   68.966
  308.500   13.276    0.356    0.411   60.380
  308.750   13.792    0.376    0.409   65.326
  309.000   14.886    0.374    0.409   65.953
  309.250   15.175    0.372    0.414   67.201
  309.500   15.470    0.365    0.423   62.305
  309.750   15.474    0.359    0.421   62.326
  310.000   15.476    0.354    0.413   63.583
  310.250   15.479    0.350    0.408   61.756
  310.500   15.483    0.341    0.410   63.619
  310.750   15.487    0.336    0.406   67.947
  311.000   15.201    0.337    0.395   69.194
  311.250   15.204    0.332    0.401   69.224
  311.500   14.921    0.321    0.419   69.852
  311.750   14.646    0.301    0.438   71.104
  312.000   13.839    0.295    0.438   75.427
  312.250   13.326    0.317    0.453   83.440
  312.500   11.896    0.329    0.464   90.221
  312.750   11.028    0.309    0.469   96.390
  313.000    9.478    0.290    0.464   95.181
  313.250    8.301    0.269    0.463   98.895
  313.500    7.270    0.246    0.468  108.750
  313.750    6.367    0.227    0.475  117.378
  314.000    5.903    0.211    0.491  124.779
  314.250    5.473    0.204    0.503  125.412
  314.500    5.270    0.207    0.497  122.360
  314.750    5.173    0.210    0.477  127.914
  315.000    5.477    0.211    0.462  131.627
  315.250    6.257    0.208    0.455  133.491
  315.500    7.013    0.218    0.444  132.279
  315.750    7.713    0.225    0.441  129.840
  316.000    8.483    0.238    0.444  124.334
  316.250    9.692    0.251    0.452  118.817
  316.500   10.068    0.267    0.456  114.535
  316.750   11.073    0.296    0.454  114.554
  317.000   11.504    0.308    0.442  112.119
  317.250   11.952    0.297    0.432  105.994
  317.500   12.184    0.268    0.435  107.242
  317.750   12.187    0.255    0.439  109.105
  318.000   11.517    0.247    0.443  102.985
  318.250   10.678    0.256    0.447   98.698
  318.500   10.089    0.265    0.436  109.792
  318.750    9.903    0.260    0.431  113.493
  319.000    9.904    0.246    0.435  121.509
  319.250   10.290    0.236    0.441  122.144
  319.500   11.317    0.227    0.444  108.642
  319.750   12.448    0.243    0.430   93.908
  320.000   12.931    0.267    0.413   84.087
  320.250   13.692    0.293    0.408   71.813
  320.500   13.959    0.302    0.410   72.448
  320.750   14.230    0.300    0.423   80.468
  321.000   13.703    0.307    0.433   83.556
  321.250   12.948    0.322    0.443   79.274
  321.500   11.780    0.331    0.430   87.293
  321.750   11.343    0.312    0.427   96.537
  322.000    9.935    0.294    0.435  103.320
  322.250    9.211    0.276    0.434  108.252
  322.500    8.703    0.255    0.425  108.281
  322.750    8.541    0.244    0.423  107.066
  323.000    8.383    0.238    0.409  101.564
  323.250    8.877    0.235    0.398   97.889
  323.500    9.049    0.233    0.389   93.604
  323.750    9.224    0.236    0.397   98.547
  324.000    9.053    0.233    0.405  101.023
  324.250    8.555    0.225    0.416  107.192
  324.500    7.931    0.223    0.422  117.671
  324.750    7.638    0.228    0.425  120.761
  325.000    7.496    0.231    0.441  117.093
  325.250    8.244    0.232    0.461  111.578
  325.500    9.242    0.244    0.451  103.608
  325.750    9.785    0.251    0.437   98.096
  326.000   10.165    0.257    0.447   96.271
  326.250   10.764    0.271    0.468   96.910
  326.500   11.184    0.278    0.488  100.006
  326.750   11.401    0.272    0.486  104.328
  327.000   11.404    0.270    0.474  103.118
  327.250   11.192    0.272    0.478  100.065
  327.500   11.197    0.273    0.485  103.164
  327.750   11.199    0.274    0.474  106.876
  328.000   11.201    0.278    0.443  108.122
  328.250   11.203    0.281    0.418  110.603
