~VERSION INFORMATION
 VERS.                 2.0:   CWLS LOG ASCII STANDARD -VERSION 2.0
 WRAP.                  NO:   ONE LINE PER DEPTH STEP
~WELL INFORMATION BLOCK
#MNEM.UNIT           DATA                    DESCRIPTION OF MNEMONIC
#---------    -------------------            -------------------------------
# Generated from Intellog Unique Number	CW_82_90/WELL/877
WELL.         TEXEX TEXCAN MUSKWA 10-17-084- : Well_name    - WELL
LOC .         00/10-17-084-25W4/0            : Location     - LOCATION
UWI .         00/10-17-084-25W4/0            : Uwi          - UNIQUE WELL ID
ENTR.         JAYE                           : Entered      - ENTERED BY
SRVC.         SCHLUMBERGER                   : Scn          - SERVICE COMPANY
DATE.         23 JAN 76                      : Date         - LOG DATE
STRT.F        650                            : top_depth    - START DEPTH
STOP.F        1320.11                        : bot_depth    - STOP DEPTH
STEP.F        0.82                           : increment    - STEP LENGTH
 NULL. -999.2500:NULL Value
~CURVE INFORMATION BLOCK
#MNEM UNIT       ERCB CURVE CODE    CURVE DESCRIPTION
#-----------   ------------------   ----------------------------------
DEPT.F        00 001 00 00         : DEPTH        - DEPTH
GR  .API      00 310 00 00         : GR           - GAMMA RAY
NPHI.V/V      00 330 00 00         : PHIN         - NEUTRON POROSITY (SANDSTONE)
DPHI.V/V      00 890 00 00         : PHID         - DENSITY POROSITY (SANDSTONE)
ILD .OHMM     00 120 00 00         : RESD         - DEEP RESISTIVITY (DLL)
~PARAMETER INFORMATION
#MNEM.UNIT           DATA             DESCRIPTION OF MNEMONIC
#---------         -----------     ------------------------------
GL  .M        543.154              : gl           - GROUND LEVEL ELEVATION
EREF.M        546.811              : kb           - ELEVATION OF DEPTH REFERENCE
DATM.M        543.154              : datum        - DATUM ELEVATION
TDD .M        388.62               : tdd          - TOTAL DEPTH DRILLER
RUN .         ONE                  : Run          - RUN NUMBER
ENG .         SKOWORODKO           : Engineer     - RECORDING ENGINEER
WIT .         NICOUD &YANITSKI     : Witness      - WITNESSED BY
BASE.         EDMONTON             : Branch       - HOME BASE OF LOGGING UNIT
MATR.         SANDSTONE            : Logunit      - NEUTRON MATRIX
TMAX.F        75                   : BHT          - MAXIMUM RECORDED TEMPERATURE
BHTD.F        1340                 : BHTDEP       - MAXIMUM RECORDED TEMPERATURE
RMT .F        55                   : MDTP         - TEMPERATURE OF MUD
MUDD.LB/G     0                    : MWT          - MUD DENSITY
NEUT.         0                    : NEUTRON      - NEUTRON TYPE
RESI.         1                    : RESIST       - RESISTIVITY TYPE
RM  .OHMM     6.15                 : RM           - RESISTIVITY OF MUD
RMC .OHMM     0                    : RMC          - RESISTIVITY OF MUD CAKE
RMF .OHMM     6.1                  : RMF          - RESISTIVITY OF MUD FILTRATE
SUFT.F        4                    : SUFT         - SURFACE TEMPERATURE
~A  DEPTH       GR     PHIN     PHID     RESD
# ...
 1220.870   95.079    0.458    0.099    7.987
 1221.690   96.911    0.461    0.071    7.704
 1222.510   98.127    0.461    0.060    7.296
 1223.330   99.344    0.458    0.069    7.165
 1224.150  100.554    0.457    0.093    6.787
 1224.970  101.156    0.460    0.106    6.545
 1225.790  101.143    0.460    0.103    6.428
 1226.610  101.748    0.460    0.104    6.430
 1227.430  101.729    0.462    0.122    6.431
 1228.250  102.331    0.467    0.137    6.551
 1229.070  102.933    0.473    0.131    6.672
 1229.890  102.923    0.480    0.128    6.796
 1230.710  101.681    0.488    0.128    6.798
 1231.530  101.047    0.491    0.140    6.676
 1232.350   99.808    0.463    0.144    6.678
 1233.170   96.721    0.446    0.143    6.559
 1233.990   91.173    0.452    0.164    8.464
 1234.810   85.012    0.460    0.167   10.156
 1235.630   78.237    0.463    0.168   11.539
 1236.450   70.848    0.467    0.178   13.596
 1237.270   62.229    0.469    0.170   17.229
 1238.090   57.295    0.472    0.141   23.060
 1238.910   52.979    0.469    0.105   27.172
 1239.730   52.966    0.468    0.080   29.765
 1240.550   54.179    0.465    0.055   32.020
 1241.370   55.396    0.465    0.121   33.217
 1242.190   55.995    0.463    0.149   33.834
 1243.010   56.596    0.462    0.193   33.231
 1243.830   55.969    0.459    0.214   32.639
 1244.650   54.112    0.456    0.218   32.643
 1245.470   52.866    0.452    0.214   32.651
 1246.290   52.239    0.452    0.213   32.658
 1247.110   52.840    0.452    0.215   32.664
 1247.930   54.672    0.451    0.209   32.083
 1248.750   55.889    0.448    0.202   30.942
 1249.570   57.713    0.444    0.196   28.777
 1250.390   57.704    0.438    0.196   27.252
 1251.210   57.694    0.432    0.200   26.283
 1252.030   55.222    0.428    0.203   25.814
 1252.850   54.588    0.420    0.208   26.776
 1253.670   54.579    0.408    0.214   28.288
 1254.490   54.566    0.393    0.218   29.343
 1255.310   53.935    0.384    0.226   29.888
 1256.140   52.693    0.369    0.231   30.441
 1256.960   52.065    0.361    0.239   31.576
 1257.780   51.434    0.362    0.250   33.359
 1258.600   50.192    0.368    0.258   32.764
 1259.420   50.176    0.374    0.261   31.029
 1260.240   50.160    0.379    0.255   30.474
 1261.060   50.153    0.382    0.248   29.390
 1261.880   51.367    0.384    0.241   28.348
 1262.700   51.354    0.382    0.229   27.843
 1263.520   51.344    0.385    0.231   28.360
 1264.340   51.328    0.386    0.236   28.364
 1265.160   51.930    0.390    0.226   28.892
 1265.980   51.917    0.394    0.219   27.866
 1266.800   51.904    0.396    0.212   25.446
 1267.620   51.888    0.397    0.210   24.099
 1268.440   50.643    0.397    0.210   24.546
 1269.260   50.019    0.399    0.212   25.463
 1270.080   50.620    0.411    0.214   25.936
 1270.900   53.681    0.423    0.215   25.941
 1271.720   62.272    0.428    0.218   25.947
 1272.540   69.021    0.431    0.224   25.484
 1273.360   80.073    0.443    0.229   20.864
 1274.180   96.043    0.466    0.255   19.761
 1275.000  107.096    0.582    0.333   17.719
 1275.820  119.992    0.545    0.384   14.507
 1276.640  123.050    0.416    0.428   12.095
 1277.460  123.652    0.427    0.438   10.084
 1278.280  123.024    0.489    0.263    8.562
 1279.100  121.167    0.505    0.165    8.258
 1279.920  118.696    0.476    0.189    8.411
 1280.740  113.150    0.449    0.197    8.568
 1281.560  102.069    0.426    0.194    9.913
 1282.380   88.532    0.405    0.191   11.262
 1283.200   88.519    0.396    0.195   12.338
 1284.020   93.417    0.402    0.195   11.900
 1284.840   97.096    0.417    0.202   10.671
 1285.660   98.928    0.451    0.256    9.744
 1286.480   95.838    0.500    0.309    8.738
 1287.300   90.910    0.532    0.358    8.582
 1288.120   88.435    0.563    0.401    8.742
 1288.940   87.193    0.561    0.443    8.905
 1289.760   78.574    0.560    0.410    9.237
 1290.580   65.037    0.572    0.373    9.757
 1291.400   60.714    0.257    0.131   11.923
 1292.220   60.702    0.225    0.097   11.710
 1293.040   61.921    0.227    0.108   11.294
 1293.860   71.744    0.519    0.163   10.696
 1294.690   81.567    0.566    0.321    9.767
 1295.510   80.933    0.583    0.387    9.251
 1296.330   77.850    0.568    0.362   10.320
 1297.150   64.927    0.513    0.287   14.855
 1297.970   54.464    0.477    0.261   22.998
 1298.790   43.998    0.467    0.236   31.347
 1299.610   35.993    0.438    0.204   38.304
 1300.430   26.145    0.375    0.180   45.134
 1301.250   21.211    0.229    0.131   45.972
 1302.070   19.350    0.165   -0.004   43.535
 1302.890   21.182    0.133    0.010   39.041
 1303.710   23.628    0.188    0.006   35.011
 1304.530   26.689    0.218    0.024   33.158
 1305.350   28.517    0.276    0.057   32.564
 1306.170   27.889    0.278    0.092   32.572
 1306.990   25.417    0.243    0.113   32.578
 1307.810   21.105    0.220    0.097   33.795
 1308.630   15.553    0.137    0.058   36.355
 1309.450   16.154    0.103    0.022   40.559
 1310.270   17.983    0.059   -0.005   44.430
 1311.090   18.591    0.048   -0.017   53.314
 1311.910   19.193    0.054   -0.030   63.974
 1312.730   20.406    0.064   -0.025   74.014
 1313.550   20.393    0.077   -0.018  104.617
 1314.370   20.995    0.102    0.004  137.497
 1315.190   20.983    0.119    0.022  125.561
 1316.010   20.349    0.132    0.029   82.626
 1316.830   19.718    0.144    0.035   71.444
 1317.650   19.096    0.156    0.040   62.909
 1318.470   17.854    0.173    0.048   58.509
 1319.290   17.841    0.190    0.056   58.521
 1320.110   17.825    0.201    0.061   59.608
