~VERSION INFORMATION
 VERS.                 2.0:   CWLS LOG ASCII STANDARD -VERSION 2.0
 WRAP.                  NO:   ONE LINE PER DEPTH STEP
~WELL INFORMATION BLOCK
#MNEM.UNIT           DATA                    DESCRIPTION OF MNEMONIC
#---------    -------------------            -------------------------------
# Generated from Intellog Unique Number	CC_80_83/WELL/2341
NULL.         -999.25                        : NULL_VALUE
WELL.         HOMESTEAD ET AL COWPAR         : WELL_NAME
LOC .         10-09-080-04W4                 : Location     - LOCATION          
UWI .         00/10-09-080-04W400            : Uwi          - UNIQUE WELL ID    
ENTR.         DW                             : Entered      - ENTERED BY        
SRVC.         SCHLUMBERGER                   : Scn          - SERVICE COMPANY   
DATE.         23 JAN 72                      : Date         - LOG DATE
STRT.M        94.488                         : top_depth    - START DEPTH       
STOP.M        320.04                         : bot_depth    - STOP DEPTH        
STEP.M        0.3048                         : increment    - STEP LENGTH       
~CURVE INFORMATION BLOCK
#MNEM UNIT       ERCB CURVE CODE    CURVE DESCRIPTION
#-----------   ------------------   ----------------------------------
DEPT.M        00 001 00 00         : DEPTH        - DEPTH                       
NPHI.V/V      00 330 00 00         : PHIN         - NEUTRON POROSITY (LIMESTONE)
GR  .API      00 310 00 00         : GR           - GAMMA RAY                   
DPHI.V/V      00 890 00 00         : PHID         - DENSITY POROSITY (LIMESTONE)
ILD .OHMM     00 120 00 00         : RESD         - DEEP RESISTIVITY (DIL)      
~PARAMETER INFORMATION       
#MNEM.UNIT           DATA             DESCRIPTION OF MNEMONIC
#---------         -----------     ------------------------------
GL  .M        479.45               : gl           - GROUND LEVEL ELEVATION      
EREF.M        483.108              : kb           - ELEVATION OF DEPTH REFERENCE
DATM.M        483.108              : datum        - DATUM ELEVATION             
TDD .M        331.622              : tdd          - TOTAL DEPTH DRILLER         
RUN .         ONE                  : Run          - RUN NUMBER                  
ENG .         BILL                 : Engineer     - RECORDING ENGINEER          
WIT .         JIM                  : Witness      - WITNESSED BY                
MUD .         GEL                  : Mud_type     - MUD TYPE                    
MATR.         LIMESTONE            : Logunit      - NEUTRON MATRIX              
TMAX.C        21.1111              : BHT          - MAXIMUM RECORDED TEMPERATURE
BHTD.M        331.622              : BHTDEP       - MAXIMUM RECORDED TEMPERATURE
MATR.         1                    : LOGUNIT      - NEUTRON MATRIX              
RMT .C        25                   : MDTP         - TEMPERATURE OF MUD          
NEUT.         0                    : NEUTRON      - NEUTRON TYPE                
RESI.         0                    : RESIST       - RESISTIVITY TYPE            
RMC .OHMM     0.25                 : RMC          - RESISTIVITY OF MUD CAKE     
RMF .OHMM     0.25                 : RMF          - RESISTIVITY OF MUD FILTRATE 
SUFT.C        15                   : SUFT         - SURFACE TEMPERATURE         
~A  DEPTH     PHIN       GR     PHID     RESD
# ...
  253.591    0.380   41.609    0.319    2.206
  253.896    0.355   37.945    0.325    2.123
  254.201    0.353   35.500    0.341    1.967
  254.506    0.391   33.054    0.363    1.858
  254.811    0.389   34.672    0.350    1.789
  255.115    0.377   42.789    0.346    1.690
  255.420    0.360   53.345    0.344    1.688
  255.725    0.359   61.868    0.332    1.718
  256.030    0.369   54.547    0.315    1.849
  256.335    0.382   42.758    0.311    1.918
  256.639    0.383   35.436    0.333    1.951
  256.944    0.359   37.460    0.342    1.878
  257.249    0.349   34.201    0.356    1.646
  257.554    0.368   30.131    0.365    1.527
  257.859    0.380   36.623    0.372    1.415
  258.163    0.375   43.523    0.369    1.388
  258.468    0.365   52.047    0.355    1.386
  258.773    0.371   50.820    0.363    1.411
  259.078    0.409   36.185    0.370    1.463
  259.383    0.408   40.646    0.366    1.462
  259.688    0.397   43.482    0.364    1.487
  259.992    0.395   44.693    0.366    1.514
  260.297    0.384   47.936    0.359    1.599
  260.602    0.418   57.678    0.342    1.721
  260.907    0.403   43.450    0.341    1.853
  261.212    0.365   35.317    0.340    1.921
  261.516    0.408   29.214    0.323    1.883
  261.821    0.384   27.988    0.341    1.847
  262.126    0.379   29.605    0.369    1.712
  262.431    0.392   32.034    0.359    1.647
  262.736    0.397   33.245    0.355    1.586
  263.040    0.383   32.830    0.357    1.443
  263.345    0.370   31.605    0.357    1.442
  263.650    0.363   31.191    0.357    1.467
  263.955    0.381   34.431    0.357    1.466
  264.260    0.363   36.456    0.351    1.437
  264.564    0.353   36.854    0.344    1.463
  264.869    0.339   33.190    0.344    1.488
  265.174    0.340   31.557    0.350    1.487
  265.479    0.352   38.863    0.359    1.630
  265.784    0.344   62.013    0.352    1.821
  266.089    0.341   64.441    0.335    1.924
  266.393    0.360   58.746    0.316    1.995
  266.698    0.365   43.300    0.320    1.885
  267.003    0.357   25.008    0.353    1.684
  267.308    0.388   26.219    0.375    1.476
  267.613    0.416   27.432    0.386    1.394
  267.917    0.404   26.203    0.393    1.342
  268.222    0.408   24.978    0.387    1.316
  268.527    0.401   29.845    0.375    1.314
  268.832    0.400   29.023    0.359    1.337
  269.137    0.366   27.798    0.371    1.336
  269.441    0.360   30.227    0.374    1.335
  269.746    0.407   33.876    0.369    1.384
  270.051    0.388   42.806    0.358    1.489
  270.356    0.381   52.548    0.331    1.574
  270.661    0.382   53.759    0.324    1.758
  270.965    0.371   44.002    0.319    1.789
  271.270    0.361   32.617    0.318    1.754
  271.575    0.386   28.140    0.348    1.626
  271.880    0.383   25.289    0.357    1.536
  272.185    0.386   23.248    0.362    1.451
  272.490    0.366   26.085    0.374    1.397
  272.794    0.397   31.359    0.397    1.344
  273.099    0.427   28.100    0.414    1.394
  273.404    0.435   26.873    0.392    1.418
  273.709    0.395   28.490    0.346    1.444
  274.014    0.360   30.920    0.333    1.416
  274.318    0.352   31.318    0.365    1.653
  274.623    0.321   28.467    0.369    1.683
  274.928    0.299   24.803    0.436    1.682
  275.233    0.475   23.572    0.558    1.620
  275.538    0.526   24.380    0.489    1.448
  275.842    0.355   25.591    0.357    1.344
  276.147    0.368   25.989    0.365    1.247
  276.452    0.404   27.200    0.388    1.223
  276.757    0.397   28.005    0.390    1.269
  277.062    0.381   28.401    0.369    1.341
  277.366    0.390   30.832    0.330    1.615
  277.671    0.381   37.732    0.291    1.838
  277.976    0.343   60.475    0.260    2.093
  278.281    0.324   51.936    0.270    2.132
  278.586    0.356   45.834    0.332    2.091
  278.891    0.357   53.544    0.310    2.014
  279.195    0.374   54.753    0.299    1.869
  279.500    0.357   53.936    0.333    1.733
  279.805    0.382   45.801    0.362    1.700
  280.110    0.399   42.138    0.360    1.700
  280.415    0.410   43.753    0.346    1.764
  280.719    0.385   46.589    0.320    1.796
  281.024    0.365   48.207    0.309    1.829
  281.329    0.371   46.168    0.330    1.828
  281.634    0.403   40.471    0.335    1.760
  281.939    0.426   38.026    0.346    1.664
  282.243    0.430   38.832    0.330    1.573
  282.548    0.410   43.292    0.331    1.543
  282.853    0.392   42.066    0.342    1.542
  283.158    0.399   37.182    0.340    1.630
  283.463    0.393   41.643    0.308    1.691
  283.767    0.379   47.730    0.319    1.722
  284.072    0.381   50.159    0.339    1.690
  284.377    0.410   42.838    0.342    1.627
  284.682    0.384   40.393    0.334    1.596
  284.987    0.370   40.384    0.343    1.537
  285.292    0.398   40.781    0.351    1.508
  285.596    0.408   39.556    0.350    1.507
  285.901    0.413   37.112    0.328    1.535
  286.206    0.413   37.916    0.325    1.684
  286.511    0.404   44.813    0.329    1.780
  286.816    0.373   44.806    0.311    1.812
  287.120    0.367   39.924    0.309    1.745
  287.425    0.368   26.509    0.328    1.589
  287.730    0.391   19.188    0.357    1.474
  288.035    0.412   13.084    0.356    1.394
  288.340    0.376   13.482    0.351    1.269
  288.644    0.381   15.507    0.361    1.245
  288.949    0.395   19.155    0.346    1.245
  289.254    0.376   22.399    0.339    1.268
  289.559    0.373   15.483    0.356    1.315
  289.864    0.406   13.848    0.372    1.290
  290.168    0.401   14.653    0.379    1.242
  290.473    0.394   13.831    0.377    1.219
  290.778    0.392   13.012    0.354    1.174
  291.083    0.392   19.506    0.349    1.195
  291.388    0.368   23.968    0.343    1.240
  291.693    0.367   19.083    0.341    1.412
  291.997    0.378   14.606    0.340    1.465
  292.302    0.396   14.597    0.352    1.437
  292.607    0.406   16.213    0.376    1.384
  292.912    0.414   16.615    0.379    1.333
  293.217    0.408   17.013    0.365    1.283
  293.521    0.409   17.411    0.355    1.236
  293.826    0.411   16.590    0.371    1.212
  294.131    0.409   15.363    0.387    1.189
  294.436    0.395   13.728    0.362    1.189
  294.741    0.401   12.910    0.349    1.188
  295.045    0.403   12.490    0.371    1.210
  295.350    0.383   12.890    0.371    1.210
  295.655    0.379   13.290    0.361    1.209
  295.960    0.384   14.094    0.357    1.231
  296.265    0.378   14.089    0.364    1.231
  296.569    0.379   13.266    0.365    1.253
  296.874    0.367   12.446    0.348    1.276
  297.179    0.375   12.438    0.338    1.324
  297.484    0.375   13.245    0.343    1.348
  297.789    0.363   14.455    0.326    1.347
  298.094    0.361   14.854    0.334    1.297
  298.398    0.369   15.251    0.353    1.297
  298.703    0.401   15.650    0.366    1.272
  299.008    0.413   16.860    0.361    1.248
  299.313    0.391   18.476    0.343    1.271
  299.618    0.378   18.875    0.334    1.295
  299.922    0.363   18.463    0.326    1.294
  300.227    0.350   16.421    0.342    1.317
  300.532    0.349   17.631    0.359    1.342
  300.837    0.350   18.843    0.342    1.392
  301.142    0.357   20.869    0.353    1.471
  301.446    0.378   26.142    0.355    1.555
  301.751    0.406   34.260    0.337    1.738
  302.056    0.407   57.005    0.256    2.016
  302.361    0.427  106.969    0.238    2.338
  302.666    0.430  115.899    0.200    2.764
  302.970    0.413  118.328    0.177    3.454
  303.275    0.410  115.475    0.262    4.081
  303.580    0.439  107.749    0.324    4.395
  303.885    0.497  101.241    0.373    4.559
  304.190    0.475  105.701    0.352    4.642
  304.495    0.430  105.288    0.205    4.816
  304.799    0.372  106.091    0.196    4.904
  305.104    0.380  108.519    0.205    4.812
  305.409    0.391  110.545    0.210    4.809
  305.714    0.401  107.692    0.207    4.546
  306.019    0.412  111.749    0.215    4.297
  306.323    0.454  112.553    0.242    4.062
