~VERSION INFORMATION
 VERS.                 2.0:   CWLS LOG ASCII STANDARD -VERSION 2.0
 WRAP.                  NO:   ONE LINE PER DEPTH STEP
~WELL INFORMATION BLOCK
#MNEM.UNIT           DATA                    DESCRIPTION OF MNEMONIC
#---------    -------------------            -------------------------------
# Generated from Intellog Unique Number	CW_73_75/WELL/3529
WELL.         ULSTER G&W MARTEN HILLS        : Well_name    - WELL
LOC .         00/12-12-074-02W5/0            : Location     - LOCATION
UWI .         00/12-12-074-02W5/0            : Uwi          - UNIQUE WELL ID
ENTR.         T                              : Entered      - ENTERED BY
SRVC.         SCHLUMBERGER                   : Scn          - SERVICE COMPANY
STRT.M        360                            : top_depth    - START DEPTH
STOP.M        600                            : bot_depth    - STOP DEPTH
STEP.M        0.25                           : increment    - STEP LENGTH
 NULL. -999.2500:NULL Value
~CURVE INFORMATION BLOCK
#MNEM UNIT       ERCB CURVE CODE    CURVE DESCRIPTION
#-----------   ------------------   ----------------------------------
DEPT.M        00 001 00 00         : DEPTH        - DEPTH
ILD .OHMM     00 120 00 00         : RESD         - DEEP RESISTIVITY (DIL)
DPHI.V/V      00 890 00 00         : PHID         - DENSITY POROSITY (SANDSTONE)
NPHI.V/V      00 330 00 00         : PHIN         - NEUTRON POROSITY (SANDSTONE)
GR  .API      00 310 00 00         : GR           - GAMMA RAY
~PARAMETER INFORMATION
#MNEM.UNIT           DATA             DESCRIPTION OF MNEMONIC
#---------         -----------     ------------------------------
GL  .M        644                  : gl           - GROUND LEVEL ELEVATION
EREF.M        647.2                : kb           - ELEVATION OF DEPTH REFERENCE
DATM.M        647.2                : datum        - DATUM ELEVATION
TDD .M        606                  : tdd          - TOTAL DEPTH DRILLER
RUN .         ONE                  : Run          - RUN NUMBER
ENG .         BILL                 : Engineer     - RECORDING ENGINEER
WIT .         JIM                  : Witness      - WITNESSED BY
MUD .         GEL                  : Mud_type     - MUD TYPE
MATR.         SANDSTONE            : Logunit      - NEUTRON MATRIX
TMAX.C        23                   : BHT          - MAXIMUM RECORDED TEMPERATURE
BHTD.M        606                  : BHTDEP       - MAXIMUM RECORDED TEMPERATURE
MATR.         1                    : LOGUNIT      - NEUTRON MATRIX
RMT .C        17                   : MDTP         - TEMPERATURE OF MUD
NEUT.         1                    : NEUTRON      - NEUTRON TYPE
RESI.         0                    : RESIST       - RESISTIVITY TYPE
RMC .OHMM     2.6                  : RMC          - RESISTIVITY OF MUD CAKE
RMF .OHMM     1.7                  : RMF          - RESISTIVITY OF MUD FILTRATE
SUFT.C        15                   : SUFT         - SURFACE TEMPERATURE
~A  DEPTH     RESD     PHID     PHIN       GR
# ...
  534.000   15.180    0.288    0.353   64.245
  534.250   13.358    0.286    0.346   64.250
  534.500   11.332    0.273    0.336   64.844
  534.750    9.792    0.253    0.329   67.213
  535.000    9.104    0.236    0.327   70.172
  535.250    8.941    0.229    0.327   73.129
  535.500    9.279    0.218    0.325   79.040
  535.750    9.628    0.212    0.326   85.542
  536.000   10.364    0.209    0.328   91.454
  536.250   10.954    0.206    0.330   89.686
  536.500   11.159    0.192    0.330   80.831
  536.750   11.580    0.165    0.330   78.474
  537.000   12.018    0.142    0.330   77.299
  537.250   12.246    0.081    0.334   77.894
  537.500   12.477    0.125    0.335   75.535
  537.750   11.813    0.173    0.334   73.768
  538.000   10.983    0.194    0.330   74.954
  538.250   10.591    0.190    0.328   74.371
  538.500   10.030    0.180    0.328   73.782
  538.750    9.851    0.179    0.329   72.016
  539.000    9.854    0.186    0.332   70.249
  539.250    9.860    0.192    0.337   71.436
  539.500    9.862    0.203    0.340   72.624
  539.750    9.867    0.212    0.342   73.807
  540.000    9.690    0.212    0.346   76.175
  540.250    9.345    0.209    0.345   78.542
  540.500    8.688    0.210    0.344   79.137
  540.750    8.378    0.211    0.341   77.962
  541.000    7.789    0.205    0.337   79.740
  541.250    7.242    0.196    0.335   88.013
  541.500    6.734    0.186    0.335   98.059
  541.750    6.493    0.173    0.333  108.695
  542.000    6.261    0.168    0.333  109.291
  542.250    5.929    0.167    0.333  103.980
  542.500    5.824    0.166    0.334   98.668
  542.750    5.826    0.164    0.336   93.949
  543.000    5.828    0.155    0.334   88.639
  543.250    5.938    0.104    0.330   84.508
  543.500    6.162    0.076    0.315   72.700
  543.750    7.138    0.042    0.295   69.751
  544.000    8.734    0.081    0.260   63.849
  544.250    9.231    0.142    0.298   78.030
  544.500    8.741    0.177    0.314   81.580
  544.750    8.277    0.163    0.326   78.631
  545.000    7.695    0.153    0.329   80.998
  545.250    7.420    0.150    0.331   83.366
  545.500    7.026    0.152    0.333   86.917
  545.750    6.775    0.162    0.334   88.101
  546.000    6.655    0.164    0.335   86.333
  546.250    6.782    0.163    0.335   83.977
  546.500    6.909    0.163    0.334   83.981
  546.750    6.911    0.169    0.333   85.758
  547.000    7.577    0.174    0.329   85.763
  547.250    8.307    0.170    0.325   83.405
  547.500    9.107    0.153    0.315   78.684
  547.750   10.357    0.078    0.297   69.239
  548.000   10.748    0.040    0.252   53.295
  548.250   10.557    0.069    0.215   57.435
  548.500    9.998    0.136    0.247   72.206
  548.750    9.640    0.147    0.257   82.252
  549.000    9.129    0.149    0.291   94.662
  549.250    8.804    0.151    0.312   91.124
  549.500    8.489    0.151    0.291   87.584
  549.750    8.039    0.135    0.278   82.863
  550.000    7.753    0.118    0.300   80.505
  550.250    9.315    0.147    0.324   82.874
  550.500    9.844    0.158    0.329   85.241
  550.750    9.321    0.152    0.335   87.607
  551.000    8.667    0.138    0.334   92.929
  551.250    8.206    0.137    0.331   97.660
  551.500    8.060    0.142    0.334  101.799
  551.750    7.631    0.144    0.336  100.622
  552.000    7.360    0.149    0.334  100.627
  552.250    7.229    0.152    0.333   99.451
  552.500    7.232    0.149    0.330   98.274
  552.750    7.235    0.143    0.333   95.328
  553.000    7.238    0.139    0.335   94.150
  553.250    7.374    0.133    0.337   95.336
  553.500    7.514    0.131    0.335   98.885
  553.750    7.516    0.129    0.335  102.433
  554.000    7.658    0.116    0.334  104.802
  554.250    7.660    0.098    0.334  101.261
  554.500    7.805    0.116    0.331   96.541
  554.750    8.101    0.125    0.328   98.319
  555.000    8.252    0.132    0.325  101.866
  555.250    8.409    0.124    0.324  103.645
  555.500    8.725    0.114    0.325  102.468
  555.750    9.221    0.119    0.326  103.654
  556.000   10.110    0.128    0.325  108.384
  556.250   10.882    0.137    0.324  106.026
  556.500   11.714    0.142    0.321   97.171
  556.750   12.845    0.144    0.320   94.222
  557.000   13.575    0.152    0.318  102.496
  557.250   14.087    0.162    0.317  104.866
  557.500   13.835    0.158    0.317  102.508
  557.750   13.589    0.146    0.315  100.149
  558.000   12.867    0.131    0.314   95.428
  558.250   12.410    0.122    0.313   91.300
  558.500   11.968    0.129    0.312   93.666
  558.750   11.755    0.134    0.313   98.987
  559.000   11.976    0.139    0.308  102.535
  559.250   12.658    0.135    0.290   97.816
  559.500   14.662    0.133    0.281   94.867
  559.750   15.213    0.125    0.292   87.194
  560.000   14.673    0.084    0.309   79.521
  560.250   14.411    0.120    0.320   81.888
  560.500   13.899    0.146    0.316   86.617
  560.750   13.650    0.150    0.307   91.348
  561.000   13.409    0.147    0.298   93.716
  561.250   13.172    0.139    0.296   97.264
  561.500   12.938    0.132    0.302  103.766
  561.750   12.705    0.128    0.308  100.227
  562.000   12.030    0.126    0.317  103.185
  562.250    9.838    0.121    0.287  111.459
  562.500   10.209    0.109    0.267  116.780
  562.750   11.193    0.092    0.235  112.059
  563.000   12.271    0.068    0.243   98.479
  563.250   14.214    0.063    0.273   80.764
  563.500   15.873    0.077    0.299   86.677
  563.750   14.224    0.062    0.278  102.629
  564.000   12.748    0.049    0.253   96.136
  564.250   11.427    0.082    0.285   87.872
  564.500   10.819    0.090    0.311   80.789
  564.750   10.058    0.105    0.329   91.425
  565.000    9.352    0.116    0.334   94.975
  565.250    9.018    0.124    0.332   94.389
  565.500    8.697    0.127    0.329   93.214
  565.750    9.192    0.123    0.323   92.629
  566.000    9.894    0.104    0.318   93.222
  566.250   11.049    0.070    0.310   95.592
  566.500   11.893    0.053    0.299   93.825
  566.750   12.118    0.032    0.228   89.693
  567.000   11.686    0.009    0.262   82.020
  567.250   11.477    0.058    0.293   78.481
  567.500   10.867    0.073    0.315   83.800
  567.750   10.291    0.101    0.327   93.849
  568.000    9.745    0.090    0.327   96.807
  568.250    9.573    0.076    0.324   97.402
  568.500    9.401    0.071    0.321   95.043
  568.750    9.579    0.117    0.318   92.096
  569.000    9.760    0.117    0.316   96.234
  569.250    9.943    0.103    0.312  103.917
  569.500   10.131    0.093    0.305   99.788
  569.750   10.322    0.107    0.309   96.251
  570.000   10.139    0.117    0.312   96.254
  570.250    9.778    0.123    0.313   97.440
  570.500    9.605    0.129    0.312   98.626
  570.750    9.607    0.118    0.308  100.403
  571.000    9.611    0.092    0.305  102.181
  571.250    9.614    0.074    0.302  102.775
  571.500    9.272    0.049    0.296  103.370
  571.750    8.011    0.037    0.289   98.061
  572.000    6.551    0.082    0.289   99.246
  572.250    3.997    0.098    0.296  104.567
  572.500    3.453    0.131    0.308  108.708
  572.750    2.929    0.143    0.323  109.893
  573.000    2.625    0.177    0.347  113.441
  573.250    2.310    0.191    0.388  117.581
  573.500    2.354    0.171    0.398  115.816
  573.750    2.581    0.147    0.395  114.049
  574.000    2.881    0.132    0.387  113.464
  574.250    3.217    0.121    0.373  112.876
  574.500    3.937    0.103    0.346  111.110
  574.750    4.730    0.090    0.309  108.752
  575.000    5.896    0.098    0.311  105.802
  575.250    6.232    0.099    0.314  105.216
  575.500    6.234    0.098    0.317  112.309
  575.750    6.237    0.095    0.319  116.449
  576.000    6.126    0.086    0.318  113.501
  576.250    6.016    0.081    0.317  110.552
  576.500    6.018    0.074    0.292  109.966
  576.750    6.845    0.067    0.280  108.790
  577.000    8.224    0.150    0.261  105.250
  577.250   10.250    0.323    0.202   98.758
