~VERSION INFORMATION
 VERS.                 2.0:   CWLS LOG ASCII STANDARD -VERSION 2.0
 WRAP.                  NO:   ONE LINE PER DEPTH STEP
~WELL INFORMATION BLOCK
#MNEM.UNIT           DATA                    DESCRIPTION OF MNEMONIC
#---------    -------------------            -------------------------------
# Generated from Intellog Unique Number	CS_77_79/WELL/978
WELL.         TRANS-PRAIRIE PIPLINES         : Well_name    - WELL
LOC .         00/10-32-077-12W4/0            : Location     - LOCATION
UWI .         00/10-32-077-12W4/0            : Uwi          - UNIQUE WELL ID
ENTR.         SP                             : Entered      - ENTERED BY
SRVC.         SCHLUMBERGER                   : Scn          - SERVICE COMPANY
STRT.M        264.566                        : top_depth    - START DEPTH
STOP.M        469.066                        : bot_depth    - STOP DEPTH
STEP.M        0.25                           : increment    - STEP LENGTH
 NULL. -999.2500:NULL Value
~CURVE INFORMATION BLOCK
#MNEM UNIT       ERCB CURVE CODE    CURVE DESCRIPTION
#-----------   ------------------   ----------------------------------
DEPT.M        00 001 00 00         : DEPTH        - DEPTH
GR  .API      00 310 00 00         : GR           - GAMMA RAY
DPHI.V/V      00 890 00 00         : PHID         - DENSITY POROSITY (SANDSTONE)
NPHI.V/V      00 330 00 00         : PHIN         - NEUTRON POROSITY (SANDSTONE)
ILD .OHMM     00 120 00 00         : RESD         - DEEP RESISTIVITY (DIL)
~PARAMETER INFORMATION
#MNEM.UNIT           DATA             DESCRIPTION OF MNEMONIC
#---------         -----------     ------------------------------
GL  .M        669.188              : gl           - GROUND LEVEL ELEVATION
EREF.M        672.846              : kb           - ELEVATION OF DEPTH REFERENCE
DATM.M        669.188              : datum        - DATUM ELEVATION
TDD .M        475.488              : tdd          - TOTAL DEPTH DRILLER
RUN .         ONE                  : Run          - RUN NUMBER
ENG .         BILL                 : Engineer     - RECORDING ENGINEER
WIT .         JIM                  : Witness      - WITNESSED BY
MUD .         GEL                  : Mud_type     - MUD TYPE
MATR.         SANDSTONE            : Logunit      - NEUTRON MATRIX
TMAX.C        60                   : BHT          - MAXIMUM RECORDED TEMPERATURE
BHTD.M        475.488              : BHTDEP       - MAXIMUM RECORDED TEMPERATURE
MATR.         1                    : LOGUNIT      - NEUTRON MATRIX
RMT .C        25                   : MDTP         - TEMPERATURE OF MUD
NEUT.         1                    : NEUTRON      - NEUTRON TYPE
RESI.         0                    : RESIST       - RESISTIVITY TYPE
RMC .OHMM     0.25                 : RMC          - RESISTIVITY OF MUD CAKE
RMF .OHMM     0.25                 : RMF          - RESISTIVITY OF MUD FILTRATE
SUFT.C        15                   : SUFT         - SURFACE TEMPERATURE
~A  DEPTH       GR     PHID     PHIN     RESD
# ...
  351.566   79.645    0.222    0.634    6.109
  351.816   78.283    0.234    0.610    6.315
  352.066   77.666    0.224    0.591    6.364
  352.316   77.394    0.217    0.588    6.371
  352.566   80.073    0.220    0.602    6.195
  352.816   84.969    0.234    0.615    6.010
  353.066   87.165    0.215    0.595    5.764
  353.316   86.495    0.200    0.588    5.440
  353.566   87.148    0.196    0.598    5.284
  353.816   89.160    0.199    0.595    5.125
  354.066   90.414    0.208    0.584    4.980
  354.316   91.402    0.211    0.595    5.076
  354.566   89.720    0.198    0.596    5.084
  354.816   88.775    0.209    0.573    4.963
  355.066   88.244    0.182    0.564    4.904
  355.316   89.585    0.202    0.580    4.703
  355.566   92.607    0.213    0.576    4.623
  355.816   94.810    0.196    0.590    4.769
  356.066   94.062    0.221    0.604    5.073
  356.316   91.155    0.233    0.602    5.448
  356.566   87.956    0.234    0.598    5.945
  356.816   86.153    0.248    0.592    6.239
  357.066   85.199    0.255    0.590    6.535
  357.316   85.641    0.243    0.599    5.999
  357.566   89.097    0.250    0.604    5.009
  357.816   93.579    0.243    0.605    4.388
  358.066   97.408    0.215    0.602    3.898
  358.316  100.494    0.197    0.598    3.457
  358.566  104.218    0.206    0.597    3.248
  358.816  103.817    0.232    0.595    3.132
  359.066  101.745    0.226    0.590    3.004
  359.316   99.881    0.212    0.589    2.960
  359.566   98.531    0.236    0.587    2.835
  359.816   98.731    0.246    0.593    2.790
  360.066   99.426    0.236    0.596    2.758
  360.316   98.656    0.235    0.596    2.738
  360.566   98.711    0.247    0.596    2.734
  360.816   99.030    0.238    0.594    2.701
  361.066   99.345    0.229    0.593    2.737
  361.316   99.826    0.250    0.591    2.728
  361.566  100.493    0.250    0.591    2.689
  361.816  100.405    0.247    0.591    2.580
  362.066   98.769    0.257    0.591    2.577
  362.316   99.099    0.249    0.592    2.646
  362.566   97.968    0.260    0.593    2.724
  362.816   97.725    0.266    0.592    2.837
  363.066   97.746    0.258    0.591    3.126
  363.316   97.370    0.245    0.589    3.443
  363.566   95.721    0.226    0.589    3.909
  363.816   94.859    0.227    0.589    4.653
  364.066   95.348    0.225    0.591    5.210
  364.316   94.713    0.227    0.593    5.978
  364.566   90.850    0.253    0.595    6.869
  364.816   85.942    0.273    0.600    7.285
  365.066   78.844    0.280    0.603    7.495
  365.316   73.144    0.270    0.584    7.716
  365.566   72.403    0.276    0.558    7.808
  365.816   74.130    0.264    0.558    7.799
  366.066   75.055    0.250    0.538    7.701
  366.316   75.365    0.239    0.526    7.604
  366.566   76.346    0.229    0.533    7.554
  366.816   77.894    0.244    0.555    7.554
  367.066   78.542    0.261    0.564    7.393
  367.316   79.204    0.258    0.570    7.402
  367.566   79.577    0.248    0.545    7.400
  367.816   81.245    0.241    0.561    7.394
  368.066   79.130    0.233    0.568    7.392
  368.316   82.395    0.230    0.560    7.386
  368.566   82.244    0.224    0.538    7.372
  368.816   80.854    0.254    0.525    7.519
  369.066   81.204    0.244    0.557    7.510
  369.316   82.034    0.237    0.589    7.507
  369.566   82.597    0.235    0.593    7.504
  369.816   82.894    0.237    0.575    7.515
  370.066   83.884    0.227    0.563    7.347
  370.316   82.237    0.210    0.551    7.357
  370.566   79.586    0.200    0.550    7.365
  370.816   77.000    0.213    0.538    7.204
  371.066   75.972    0.207    0.547    7.218
  371.316   77.902    0.209    0.563    6.966
  371.566   80.094    0.225    0.565    6.692
  371.816   79.838    0.235    0.571    6.586
  372.066   80.894    0.239    0.581    6.704
  372.316   81.839    0.239    0.568    6.680
  372.566   84.141    0.234    0.568    6.825
  372.816   84.102    0.240    0.561    6.672
  373.066   82.989    0.243    0.549    6.459
  373.316   83.309    0.238    0.533    5.905
  373.566   83.026    0.242    0.552    5.266
  373.816   84.998    0.234    0.548    4.673
  374.066   87.496    0.224    0.566    4.022
  374.316   88.368    0.222    0.586    3.463
  374.566   89.349    0.230    0.606    3.109
  374.816   90.536    0.250    0.611    2.914
  375.066   88.179    0.247    0.608    2.856
  375.316   87.231    0.234    0.602    3.029
  375.566   87.123    0.216    0.607    3.291
  375.816   85.851    0.229    0.614    3.418
  376.066   84.252    0.229    0.610    3.697
  376.316   82.503    0.231    0.607    4.018
  376.566   84.014    0.212    0.613    4.323
  376.816   83.649    0.242    0.604    4.639
  377.066   83.300    0.263    0.558    4.848
  377.316   82.246    0.237    0.518    5.079
  377.566   82.868    0.227    0.546    5.282
  377.816   84.526    0.227    0.567    5.494
  378.066   83.568    0.232    0.556    5.636
  378.316   83.266    0.249    0.562    5.799
  378.566   83.854    0.254    0.568    5.905
  378.816   84.861    0.264    0.562    6.078
  379.066   84.938    0.248    0.545    6.233
  379.316   86.121    0.241    0.535    6.338
  379.566   87.044    0.247    0.531    6.393
  379.816   83.007    0.252    0.548    6.577
  380.066   77.563    0.253    0.556    6.671
  380.316   74.720    0.263    0.534    6.874
  380.566   78.115    0.284    0.529    7.084
  380.816   80.403    0.275    0.539    7.199
  381.066   81.482    0.264    0.542    7.229
  381.316   77.606    0.251    0.537    7.453
  381.566   74.626    0.226    0.524    7.560
  381.816   72.576    0.250    0.533    7.424
  382.066   69.927    0.266    0.542    7.443
  382.316   68.603    0.293    0.546    7.271
  382.566   66.492    0.315    0.546    7.408
  382.816   63.431    0.328    0.531    7.413
  383.066   61.020    0.323    0.519    7.420
  383.316   60.289    0.319    0.516    7.422
  383.566   60.252    0.324    0.520    7.406
  383.816   60.523    0.333    0.535    7.572
  384.066   60.103    0.319    0.560    7.566
  384.316   58.510    0.301    0.554    7.842
  384.566   57.302    0.281    0.541    7.862
  384.816   56.581    0.268    0.558    8.110
  385.066   55.513    0.267    0.574    8.106
  385.316   55.377    0.283    0.530    8.148
  385.566   55.319    0.299    0.527    8.105
  385.816   56.039    0.308    0.522    8.100
  386.066   55.259    0.298    0.538    8.117
  386.316   55.304    0.302    0.552    8.224
  386.566   55.521    0.298    0.563    8.817
  386.816   56.519    0.258    0.544   10.175
  387.066   58.061    0.190    0.471   11.613
  387.316   57.000    0.089    0.352   13.418
  387.566   52.616    0.033    0.228   15.101
  387.816   47.455    0.057    0.218   15.866
  388.066   44.573    0.066    0.219   15.490
  388.316   42.648    0.056    0.230   15.033
  388.566   42.996    0.099    0.288   14.403
  388.816   46.184    0.135    0.329   13.834
  389.066   49.548    0.199    0.367   13.035
  389.316   52.949    0.259    0.362   11.498
  389.566   54.178    0.276    0.361   10.812
  389.816   56.267    0.277    0.380    9.546
  390.066   56.538    0.288    0.429    8.815
  390.316   56.877    0.308    0.485    7.968
  390.566   57.474    0.311    0.528    7.398
  390.816   57.626    0.304    0.517    7.084
  391.066   57.984    0.300    0.488    6.781
  391.316   58.105    0.309    0.476    6.738
  391.566   56.686    0.301    0.493    7.198
  391.816   56.171    0.294    0.520    7.152
  392.066   55.778    0.307    0.539    7.135
  392.316   55.428    0.302    0.498    7.290
  392.566   54.906    0.299    0.516    7.274
  392.816   55.161    0.300    0.537    7.270
  393.066   56.209    0.303    0.538    7.263
  393.316   58.249    0.302    0.515    7.373
  393.566   59.293    0.299    0.512    7.389
  393.816   59.562    0.317    0.521    7.389
  394.066   57.967    0.326    0.524    7.399
  394.316   57.321    0.323    0.534    7.230
  394.566   57.782    0.320    0.546    7.245
  394.816   56.793    0.320    0.556    7.108
