~VERSION INFORMATION
 VERS.                 2.0:   CWLS LOG ASCII STANDARD -VERSION 2.0
 WRAP.                  NO:   ONE LINE PER DEPTH STEP
~WELL INFORMATION BLOCK
#MNEM.UNIT           DATA                    DESCRIPTION OF MNEMONIC
#---------    -------------------            -------------------------------
# Generated from Intellog Unique Number	CW_73_75/WELL/1049
WELL.         SUNCOR MITSUE 11-34            : Well_name    - WELL
LOC .         00/11-34-074-05W5/0            : Location     - LOCATION
UWI .         00/11-34-074-05W5/0            : Uwi          - UNIQUE WELL ID
ENTR.         JAYE                           : Entered      - ENTERED BY
SRVC.         SCHLUMBERGER                   : Scn          - SERVICE COMPANY
DATE.         18 MAR 80                      : Date         - LOG DATE
STRT.M        725                            : top_depth    - START DEPTH
STOP.M        945                            : bot_depth    - STOP DEPTH
STEP.M        0.25                           : increment    - STEP LENGTH
 NULL. -999.2500:NULL Value
~CURVE INFORMATION BLOCK
#MNEM UNIT       ERCB CURVE CODE    CURVE DESCRIPTION
#-----------   ------------------   ----------------------------------
DEPT.M        00 001 00 00         : DEPTH        - DEPTH
ILD .OHMM     00 120 00 00         : RESD         - DEEP RESISTIVITY (DLL)
NPHI.V/V      00 330 00 00         : PHIN         - NEUTRON POROSITY (SANDSTONE)
DPHI.V/V      00 890 00 00         : PHID         - DENSITY POROSITY (SANDSTONE)
GR  .API      00 310 00 00         : GR           - GAMMA RAY
CALI.MM       00 280 01 00         : CAL          - CALIPER
~PARAMETER INFORMATION
#MNEM.UNIT           DATA             DESCRIPTION OF MNEMONIC
#---------         -----------     ------------------------------
GL  .M        977.2                : gl           - GROUND LEVEL ELEVATION
EREF.M        980.3                : kb           - ELEVATION OF DEPTH REFERENCE
DATM.M        977.2                : datum        - DATUM ELEVATION
TDD .M        958                  : tdd          - TOTAL DEPTH DRILLER
RUN .         ONE                  : Run          - RUN NUMBER
ENG .         HOOK                 : Engineer     - RECORDING ENGINEER
WIT .         KEIR                 : Witness      - WITNESSED BY
BASE.         5270                 : Branch       - HOME BASE OF LOGGING UNIT
MUD .         GEL CHEM             : Mud_type     - MUD TYPE
MATR.         SANDSTONE            : Logunit      - NEUTRON MATRIX
TMAX.C        36                   : BHT          - MAXIMUM RECORDED TEMPERATURE
BHTD.M        957                  : BHTDEP       - MAXIMUM RECORDED TEMPERATURE
RMT .C        25.6                 : MDTP         - TEMPERATURE OF MUD
MUDD.KG/M     1066                 : MWT          - MUD DENSITY
NEUT.         0                    : NEUTRON      - NEUTRON TYPE
RESI.         1                    : RESIST       - RESISTIVITY TYPE
RM  .OHMM     3.83                 : RM           - RESISTIVITY OF MUD
RMC .OHMM     0                    : RMC          - RESISTIVITY OF MUD CAKE
RMF .OHMM     0                    : RMF          - RESISTIVITY OF MUD FILTRATE
SUFT.C        0                    : SUFT         - SURFACE TEMPERATURE
~A  DEPTH     RESD     PHIN     PHID       GR      CAL
  725.000    1.588    0.525    0.247  103.156  221.320
  725.250    1.652    0.541    0.238  102.550  221.320
  725.500    1.755    0.540    0.245  104.909  222.374
  725.750    1.795    0.532    0.263  106.649  222.374
  726.000    1.799    0.527    0.271  107.218  224.694
  726.250    1.770    0.527    0.277  105.687  225.645
  726.500    1.818    0.528    0.270  103.847  225.645
  726.750    1.901    0.516    0.261  101.145  226.389
  727.000    1.958    0.506    0.248   98.378  226.389
  727.250    2.017    0.496    0.243   92.835  211.100
  727.500    2.150    0.477    0.241   83.402  170.687
  727.750    2.291    0.466    0.240   75.761  172.662
  728.000    2.428    0.451    0.254   70.217  170.110
  728.250    2.664    0.436    0.268   65.537  165.300
  728.500    2.772    0.427    0.270   61.353  160.997
  728.750    2.793    0.423    0.271   61.673  156.901
  729.000    2.818    0.417    0.277   65.947  153.629
  729.250    2.839    0.414    0.274   70.096  151.490
  729.500    2.828    0.412    0.263   73.810  150.899
  729.750    2.716    0.410    0.247   78.021  151.945
  730.000    2.587    0.432    0.226   82.046  155.359
  730.250    2.452    0.463    0.229   86.564  159.704
  730.500    2.324    0.483    0.227   86.394  163.736
  730.750    2.248    0.470    0.217   82.948  171.266
  731.000    2.200    0.450    0.207   84.566  164.908
  731.250    2.172    0.439    0.200   87.726  157.935
  731.500    2.171    0.465    0.216   88.727  156.205
  731.750    2.161    0.466    0.234   89.912  156.843
  732.000    2.148    0.465    0.216   92.826  160.056
  732.250    2.128    0.472    0.208   98.334  163.778
  732.500    2.108    0.483    0.236  100.505  166.988
  732.750    2.084    0.493    0.241   98.173  168.557
  733.000    2.097    0.497    0.255   88.556  168.369
  733.250    2.144    0.493    0.249   81.962  167.055
  733.500    2.266    0.480    0.259   74.875  164.399
  733.750    2.461    0.463    0.265   68.962  159.789
  734.000    2.640    0.453    0.257   66.382  155.590
  734.250    2.793    0.444    0.252   65.840  152.939
  734.500    2.968    0.436    0.261   66.653  152.340
  734.750    3.099    0.438    0.268   68.395  151.746
  735.000    3.192    0.433    0.269   70.631  151.046
  735.250    3.316    0.425    0.273   71.198  150.550
  735.500    3.392    0.421    0.282   71.086  149.957
  735.750    3.476    0.424    0.279   74.866  149.465
  736.000    3.580    0.433    0.270   78.396  149.280
  736.250    3.638    0.425    0.262   83.162  149.402
  736.500    3.653    0.412    0.258   82.990  150.037
  736.750    3.625    0.422    0.253   77.261  151.706
  737.000    3.603    0.442    0.244   71.533  152.344
  737.250    3.575    0.457    0.255   67.039  152.573
  737.500    3.512    0.456    0.272   64.459  152.593
  737.750    3.454    0.451    0.289   69.965  152.511
  738.000    3.410    0.425    0.298   74.670  152.120
  738.250    3.379    0.417    0.265   75.546  151.833
  738.500    3.354    0.421    0.246   70.929  151.443
  738.750    3.326    0.425    0.231   69.893  151.152
  739.000    3.295    0.433    0.216   72.744  151.484
  739.250    3.285    0.446    0.211   75.041  152.121
  739.500    3.265    0.455    0.231   74.868  152.553
  739.750    3.207    0.465    0.264   77.658  152.678
  740.000    3.097    0.467    0.285   83.351  152.700
  740.250    2.915    0.463    0.298   89.228  152.721
  740.500    2.735    0.469    0.298   95.475  152.843
  740.750    2.522    0.484    0.295   99.316  155.023
  741.000    2.339    0.494    0.288  102.105  165.128
  741.250    2.317    0.503    0.279   98.352  167.824
  741.500    2.494    0.496    0.258   90.465  169.079
  741.750    2.812    0.487    0.265   83.747  167.351
  742.000    3.110    0.498    0.306   71.413  164.081
  742.250    3.505    0.489    0.319   63.030  162.456
  742.500    3.957    0.469    0.312   54.400  161.240
  742.750    4.203    0.446    0.293   50.153  159.204
  743.000    4.366    0.413    0.288   48.005  156.755
  743.250    4.459    0.414    0.299   48.512  154.000
  743.500    4.546    0.413    0.302   49.389  152.065
  743.750    4.565    0.409    0.305   50.636  150.748
  744.000    4.568    0.405    0.294   52.994  149.739
  744.250    4.525    0.400    0.287   55.167  148.937
  744.500    4.437    0.398    0.285   56.293  148.444
  744.750    4.359    0.401    0.286   56.736  148.466
  745.000    4.275    0.408    0.285   56.625  148.383
  745.250    4.140    0.414    0.277   55.403  148.096
  745.500    3.958    0.416    0.295   54.489  147.499
  745.750    3.874    0.417    0.295   54.502  147.314
  746.000    3.747    0.418    0.281   55.378  147.544
  746.250    3.687    0.419    0.291   56.626  148.079
  746.500    3.627    0.420    0.299   58.120  148.308
  746.750    3.587    0.422    0.291   61.774  148.117
  747.000    3.584    0.427    0.287   64.565  148.138
  747.250    3.592    0.434    0.272   63.466  148.573
  747.500    3.578    0.433    0.281   59.097  148.905
  747.750    3.538    0.428    0.290   57.566  149.336
  748.000    3.533    0.427    0.291   56.590  149.978
  748.250    3.511    0.432    0.286   55.617  150.095
  748.500    3.480    0.436    0.287   53.652  150.634
  748.750    3.451    0.430    0.298   51.258  150.859
  749.000    3.436    0.421    0.306   50.344  150.983
  749.250    3.406    0.409    0.309   49.924  150.900
  749.500    3.385    0.401    0.309   49.815  151.233
  749.750    3.381    0.402    0.309   50.384  151.251
  750.000    3.371    0.412    0.305   51.196  151.270
  750.250    3.340    0.414    0.307   51.394  150.880
  750.500    3.303    0.413    0.314   51.407  150.695
  750.750    3.287    0.416    0.320   50.431  150.719
  751.000    3.257    0.424    0.315   48.284  150.738
  751.250    3.195    0.432    0.305   46.876  151.174
  751.500    3.153    0.440    0.306   46.952  151.192
  751.750    3.112    0.452    0.313   48.075  151.420
  752.000    3.078    0.457    0.316   49.940  151.439
  752.250    3.069    0.458    0.311   50.754  151.874
  752.500    3.067    0.445    0.301   50.395  151.788
  752.750    3.076    0.432    0.286   49.113  151.810
  753.000    3.076    0.421    0.281   48.571  152.141
  753.250    3.094    0.423    0.283   48.397  152.263
  753.500    3.133    0.429    0.286   48.658  152.490
  753.750    3.163    0.433    0.297   49.471  153.128
  754.000    3.176    0.432    0.308   50.904  153.458
  754.250    3.199    0.432    0.310   53.261  154.202
  754.500    3.213    0.434    0.309   54.819  154.527
  754.750    3.230    0.436    0.318   56.497  154.655
  755.000    3.266    0.438    0.330   62.744  154.675
  755.250    3.276    0.439    0.335   71.584  154.592
  755.500    3.283    0.440    0.328   80.672  154.099
  755.750    3.269    0.444    0.321   86.858  154.122
  756.000    3.242    0.452    0.302   91.191  154.142
  756.250    3.136    0.461    0.292   94.845  154.575
  756.500    2.830    0.472    0.294   97.203  154.799
  756.750    2.557    0.491    0.294   98.574  155.950
  757.000    2.230    0.517    0.294   97.415  158.132
  757.250    1.944    0.561    0.289   91.377  160.519
  757.500    1.788    0.585    0.289   83.858  162.084
  757.750    1.851    0.602    0.289   77.697  175.274
  758.000    1.972    0.587    0.284   70.858  173.237
  758.250    2.166    0.535    0.298   64.451  166.776
  758.500    2.475    0.503    0.313   54.340  161.344
  758.750    2.752    0.462    0.335   49.042  158.793
  759.000    3.019    0.407    0.335   47.944  155.420
  759.250    3.329    0.411    0.328   45.734  152.867
  759.500    3.633    0.419    0.335   44.759  150.626
  759.750    3.984    0.423    0.339   47.181  149.618
  760.000    4.483    0.424    0.340   48.920  147.992
  760.250    4.885    0.423    0.340   50.230  146.267
  760.500    5.169    0.423    0.352   51.108  145.260
  760.750    5.244    0.424    0.347   51.365  145.074
  761.000    5.160    0.429    0.337   51.501  145.300
  761.250    5.017    0.426    0.339   51.885  146.245
