~VERSION INFORMATION
 VERS.                 2.0:   CWLS LOG ASCII STANDARD -VERSION 2.0
 WRAP.                  NO:   ONE LINE PER DEPTH STEP
~WELL INFORMATION BLOCK
#MNEM.UNIT           DATA                    DESCRIPTION OF MNEMONIC
#---------    -------------------            -------------------------------
# Generated from Intellog Unique Number	CS_77_79/WELL/1025
WELL.         CWWE THORNBURY                 : Well_name    - WELL
LOC .         00/16-18-079-13W4/0            : Location     - LOCATION
UWI .         00/16-18-079-13W4/0            : Uwi          - UNIQUE WELL ID
ENTR.         JHS                            : Entered      - ENTERED BY
SRVC.         SCHLUMBERGER                   : Scn          - SERVICE COMPANY
STRT.M        250                            : top_depth    - START DEPTH
STOP.M        510                            : bot_depth    - STOP DEPTH
STEP.M        0.25                           : increment    - STEP LENGTH
 NULL. -999.2500:NULL Value
~CURVE INFORMATION BLOCK
#MNEM UNIT       ERCB CURVE CODE    CURVE DESCRIPTION
#-----------   ------------------   ----------------------------------
DEPT.M        00 001 00 00         : DEPTH        - DEPTH
DPHI.V/V      00 890 00 00         : PHID         - DENSITY POROSITY (LIMESTONE)
NPHI.V/V      00 330 00 00         : PHIN         - NEUTRON POROSITY (LIMESTONE)
GR  .API      00 310 00 00         : GR           - GAMMA RAY
ILD .OHMM     00 120 00 00         : RESD         - DEEP RESISTIVITY (DIL)
RHOB.KG/M3    00 350 00 00         : DENS         - BULK DENSITY
~PARAMETER INFORMATION
#MNEM.UNIT           DATA             DESCRIPTION OF MNEMONIC
#---------         -----------     ------------------------------
GL  .M        681.78               : gl           - GROUND LEVEL ELEVATION
EREF.M        684.88               : kb           - ELEVATION OF DEPTH REFERENCE
DATM.M        684.88               : datum        - DATUM ELEVATION
TDD .M        523                  : tdd          - TOTAL DEPTH DRILLER
RUN .         ONE                  : Run          - RUN NUMBER
ENG .         BILL                 : Engineer     - RECORDING ENGINEER
WIT .         JIM                  : Witness      - WITNESSED BY
MUD .         GEL                  : Mud_type     - MUD TYPE
MATR.         LIMESTONE            : Logunit      - NEUTRON MATRIX
TMAX.C        21                   : BHT          - MAXIMUM RECORDED TEMPERATURE
BHTD.M        523                  : BHTDEP       - MAXIMUM RECORDED TEMPERATURE
MATR.         1                    : LOGUNIT      - NEUTRON MATRIX
RMT .C        25                   : MDTP         - TEMPERATURE OF MUD
NEUT.         1                    : NEUTRON      - NEUTRON TYPE
RESI.         0                    : RESIST       - RESISTIVITY TYPE
RMC .OHMM     0.25                 : RMC          - RESISTIVITY OF MUD CAKE
RMF .OHMM     0.25                 : RMF          - RESISTIVITY OF MUD FILTRATE
SUFT.C        15                   : SUFT         - SURFACE TEMPERATURE
~A  DEPTH     PHID     PHIN       GR     RESD     DENS
# ...
  323.000    0.357    0.442   56.167   34.948    0.000
  323.250    0.352    0.445   62.270   34.355    0.000
  323.500    0.346    0.427   61.027   31.318    0.000
  323.750    0.345    0.420   62.849   26.984    0.000
  324.000    0.345    0.425   63.442   24.133    0.000
  324.250    0.345    0.422   59.143   20.413    0.000
  324.500    0.346    0.424   51.777   17.918    0.000
  324.750    0.345    0.440   54.820   16.642    0.000
  325.000    0.354    0.452   60.311   16.052    0.000
  325.250    0.355    0.433   60.903   16.084    0.000
  325.500    0.350    0.434   58.438   15.805    0.000
  325.750    0.345    0.432   58.422   16.142    0.000
  326.000    0.345    0.430   59.635   16.158    0.000
  326.250    0.353    0.436   60.223   16.189    0.000
  326.500    0.353    0.446   58.372   16.205    0.000
  326.750    0.355    0.445   57.134   16.230    0.000
  327.000    0.353    0.435   58.952   16.264    0.000
  327.250    0.353    0.431   60.764   16.278    0.000
  327.500    0.363    0.441   59.526   15.995    0.000
  327.750    0.358    0.464   58.897   16.644    0.000
  328.000    0.353    0.468   60.108   17.301    0.000
  328.250    0.354    0.453   63.753   19.410    0.000
  328.500    0.343    0.451   63.747   20.173    0.000
  328.750    0.327    0.417   58.830   21.376    0.000
  329.000    0.301    0.313   52.073   20.632    0.000
  329.250    0.292    0.299   53.284   19.887    0.000
  329.500    0.331    0.375   57.548   18.140    0.000
  329.750    0.348    0.428   58.151   17.488    0.000
  330.000    0.356    0.455   60.575   16.561    0.000
  330.250    0.363    0.478   59.337   15.975    0.000
  330.500    0.364    0.444   55.648   15.700    0.000
  330.750    0.358    0.432   55.630   15.724    0.000
  331.000    0.355    0.438   58.671   15.749    0.000
  331.250    0.342    0.454   60.496   15.481    0.000
  331.500    0.340    0.475   61.699   15.496    0.000
  331.750    0.343    0.465   59.846   15.234    0.000
  332.000    0.341    0.456   58.607   15.260    0.000
  332.250    0.357    0.454   56.142   15.280    0.000
  332.500    0.350    0.456   54.288   15.019    0.000
  332.750    0.350    0.477   60.997   15.044    0.000
  333.000    0.360    0.493   61.593   15.070    0.000
  333.250    0.365    0.472   58.517   14.804    0.000
  333.500    0.356    0.453   55.443   14.830    0.000
  333.750    0.354    0.468   54.812   14.577    0.000
  334.000    0.359    0.469   57.239   14.608    0.000
  334.250    0.366    0.453   58.449   14.622    0.000
  334.500    0.364    0.446   54.759   14.648    0.000
  334.750    0.351    0.447   50.455   14.665    0.000
  335.000    0.350    0.451   49.829   14.697    0.000
  335.250    0.359    0.452   49.812   14.713    0.000
  335.500    0.360    0.436   51.013   14.736    0.000
  335.750    0.344    0.429   51.003   14.756    0.000
  336.000    0.342    0.447   50.983   14.783    0.000
  336.250    0.364    0.439   50.966   14.800    0.000
  336.500    0.371    0.420   51.562   14.835    0.000
  336.750    0.366    0.417   51.544   14.849    0.000
  337.000    0.344    0.441   51.524   14.865    0.000
  337.250    0.341    0.458   53.342   15.175    0.000
  337.500    0.355    0.466   54.550   15.205    0.000
  337.750    0.360    0.463   58.208   15.217    0.000
  338.000    0.353    0.446   56.968   15.532    0.000
  338.250    0.340    0.439   55.727   15.852    0.000
  338.500    0.331    0.443   58.765   15.877    0.000
  338.750    0.334    0.450   58.136   15.902    0.000
  339.000    0.350    0.454   56.285   15.924    0.000
  339.250    0.380    0.438   57.490   15.951    0.000
  339.500    0.407    0.444   62.373   17.224    0.000
  339.750    0.389    0.481   65.417   18.602    0.000
  340.000    0.366    0.466   61.112   19.716    0.000
  340.250    0.356    0.476   58.648   19.747    0.000
  340.500    0.352    0.481   64.138   19.042    0.000
  340.750    0.345    0.469   67.184   17.688    0.000
  341.000    0.330    0.459   68.999   16.427    0.000
  341.250    0.322    0.459   66.530   15.268    0.000
  341.500    0.322    0.471   64.068   14.997    0.000
  341.750    0.324    0.459   64.660   15.034    0.000
  342.000    0.328    0.454   66.485   15.054    0.000
  342.250    0.329    0.455   68.916   15.067    0.000
  342.500    0.329    0.446   70.125   15.109    0.000
  342.750    0.334    0.437   70.106   15.121    0.000
  343.000    0.337    0.432   70.085   15.138    0.000
  343.250    0.337    0.438   67.617   15.167    0.000
  343.500    0.334    0.442   64.544   15.184    0.000
  343.750    0.332    0.429   62.688   14.934    0.000
  344.000    0.336    0.422   58.387   14.946    0.000
  344.250    0.338    0.415   54.087   14.980    0.000
  344.500    0.336    0.409   57.132   14.999    0.000
  344.750    0.333    0.409   63.847   15.018    0.000
  345.000    0.328    0.426   62.604   15.052    0.000
  345.250    0.327    0.440   60.138   15.070    0.000
  345.500    0.319    0.441   60.113   15.087    0.000
  345.750    0.319    0.428   58.269   14.835    0.000
  346.000    0.319    0.423   54.574   14.850    0.000
  346.250    0.319    0.429   58.233   14.597    0.000
  346.500    0.317    0.431   62.500   14.350    0.000
  346.750    0.310    0.423   64.933   14.111    0.000
  347.000    0.318    0.416   63.691   13.860    0.000
  347.250    0.321    0.417   57.552   13.886    0.000
  347.500    0.318    0.427   56.921   13.902    0.000
  347.750    0.312    0.436   60.577   14.192    0.000
  348.000    0.307    0.443   64.227   14.207    0.000
  348.250    0.294    0.446   65.438   14.511    0.000
  348.500    0.287    0.456   65.424   14.528    0.000
  348.750    0.288    0.455   62.958   14.544    0.000
  349.000    0.301    0.426   61.106   14.846    0.000
  349.250    0.314    0.415   62.312   14.874    0.000
  349.500    0.317    0.428   61.682   14.613    0.000
  349.750    0.318    0.435   59.830   14.635    0.000
  350.000    0.319    0.433   59.810   14.118    0.000
  350.250    0.320    0.443   58.569   12.633    0.000
  350.500    0.328    0.432   59.158   11.955    0.000
  350.750    0.329    0.432   61.593   10.902    0.000
  351.000    0.322    0.452   63.417   10.124    0.000
  351.250    0.313    0.441   66.460    9.056    0.000
  351.500    0.294    0.444   79.293    8.103    0.000
  351.750    0.279    0.472   85.401    7.963    0.000
  352.000    0.275    0.464   85.996    8.281    0.000
  352.250    0.284    0.473   74.957   10.010    0.000
  352.500    0.323    0.473   65.149   12.335    0.000
  352.750    0.333    0.440   55.337   13.828    0.000
  353.000    0.329    0.405   52.255   15.212    0.000
  353.250    0.322    0.424   52.239   16.126    0.000
  353.500    0.313    0.438   56.505   16.466    0.000
  353.750    0.314    0.446   58.322   16.176    0.000
  354.000    0.311    0.440   56.471   15.606    0.000
  354.250    0.315    0.434   57.677   15.342    0.000
  354.500    0.319    0.431   57.662   15.073    0.000
  354.750    0.320    0.434   55.195   14.820    0.000
  355.000    0.322    0.437   57.016   14.833    0.000
  355.250    0.330    0.442   57.613   14.858    0.000
  355.500    0.332    0.441   56.983   15.169    0.000
  355.750    0.319    0.435   59.415   15.184    0.000
  356.000    0.317    0.435   54.496   15.209    0.000
  356.250    0.316    0.428   53.258   15.523    0.000
  356.500    0.305    0.419   55.685   15.849    0.000
  356.750    0.303    0.431   57.508   15.882    0.000
  357.000    0.304    0.468   61.165   15.896    0.000
  357.250    0.310    0.454   66.655   15.926    0.000
  357.500    0.309    0.443   66.027   15.645    0.000
  357.750    0.316    0.435   64.170   15.380    0.000
  358.000    0.326    0.433   67.826   15.119    0.000
  358.250    0.319    0.427   68.424   15.134    0.000
  358.500    0.304    0.428   64.120   14.882    0.000
  358.750    0.302    0.423   61.040   14.896    0.000
  359.000    0.307    0.417   61.632   14.646    0.000
  359.250    0.314    0.421   61.613   14.398    0.000
