~VERSION INFORMATION
 VERS.                 2.0:   CWLS LOG ASCII STANDARD -VERSION 2.0
 WRAP.                  NO:   ONE LINE PER DEPTH STEP
~WELL INFORMATION BLOCK
#MNEM.UNIT           DATA                    DESCRIPTION OF MNEMONIC
#---------    -------------------            -------------------------------
# Generated from Intellog Unique Number	CW_73_75/WELL/2752
WELL.         BRENDA ET AL MARTEN H 16-12    : Well_name    - WELL
LOC .         00/16-12-073-25W4/0            : Location     - LOCATION
UWI .         00/16-12-073-25W4/0            : Uwi          - UNIQUE WELL ID
ENTR.         JAYE                           : Entered      - ENTERED BY
SRVC.         SCHLUMBERGER                   : Scn          - SERVICE COMPANY
DATE.         3 MAR 81                       : Date         - LOG DATE
STRT.M        385                            : top_depth    - START DEPTH
STOP.M        615                            : bot_depth    - STOP DEPTH
STEP.M        0.25                           : increment    - STEP LENGTH
 NULL. -999.2500:NULL Value
~CURVE INFORMATION BLOCK
#MNEM UNIT       ERCB CURVE CODE    CURVE DESCRIPTION
#-----------   ------------------   ----------------------------------
DEPT.M        00 001 00 00         : DEPTH        - DEPTH
DPHI.V/V      00 890 00 00         : PHID         - DENSITY POROSITY (SANDSTONE)
NPHI.V/V      00 330 00 00         : PHIN         - NEUTRON POROSITY (SANDSTONE)
GR  .API      00 310 00 00         : GR           - GAMMA RAY
CALI.MM       00 280 01 00         : CAL          - CALIPER
ILD .OHMM     00 120 00 00         : RESD         - DEEP RESISTIVITY (DIL)
~PARAMETER INFORMATION
#MNEM.UNIT           DATA             DESCRIPTION OF MNEMONIC
#---------         -----------     ------------------------------
GL  .M        636.55               : gl           - GROUND LEVEL ELEVATION
EREF.M        640.15               : kb           - ELEVATION OF DEPTH REFERENCE
DATM.M        636.55               : datum        - DATUM ELEVATION
TDD .M        620                  : tdd          - TOTAL DEPTH DRILLER
RUN .         ONE                  : Run          - RUN NUMBER
ENG .         BRANDSTROM           : Engineer     - RECORDING ENGINEER
WIT .         CHRISTENSEN          : Witness      - WITNESSED BY
BASE.         EDM                  : Branch       - HOME BASE OF LOGGING UNIT
MUD .         GEL CHEN             : Mud_type     - MUD TYPE
MATR.         SANDSTONE            : Logunit      - NEUTRON MATRIX
TMAX.C        27.4                 : BHT          - MAXIMUM RECORDED TEMPERATURE
BHTD.M        621                  : BHTDEP       - MAXIMUM RECORDED TEMPERATURE
RMT .C        13.4                 : MDTP         - TEMPERATURE OF MUD
MUDD.KG/M     0                    : MWT          - MUD DENSITY
NEUT.         1                    : NEUTRON      - NEUTRON TYPE
RESI.         0                    : RESIST       - RESISTIVITY TYPE
RM  .OHMM     0.26                 : RM           - RESISTIVITY OF MUD
RMC .OHMM     0                    : RMC          - RESISTIVITY OF MUD CAKE
RMF .OHMM     0.36                 : RMF          - RESISTIVITY OF MUD FILTRATE
SUFT.C        0                    : SUFT         - SURFACE TEMPERATURE
~A  DEPTH     PHID     PHIN       GR      CAL     RESD
# ...
  421.500    0.193    0.473   98.829  231.983    3.562
  421.750    0.286    0.460  100.524  229.492    3.063
  422.000    0.314    0.510  104.907  228.981    2.936
  422.250    0.342    0.560  106.289  235.453    3.169
  422.500    0.329    0.580  109.360  261.099    3.786
  422.750    0.322    0.484  108.427  258.921    4.644
  423.000    0.300    0.456   97.491  231.108    5.742
  423.250    0.287    0.426   67.985  220.592    6.898
  423.500    0.343    0.373   56.986  221.436    7.765
  423.750    0.353    0.385   60.057  223.638    7.331
  424.000    0.345    0.405   65.753  224.167    6.315
  424.250    0.341    0.415   69.698  223.657    5.652
  424.500    0.324    0.430   72.394  223.251    5.378
  424.750    0.313    0.435   73.963  223.469    5.205
  425.000    0.302    0.420   77.409  224.001    5.067
  425.250    0.295    0.411   79.916  224.013    4.952
  425.500    0.287    0.424   83.110  223.188    4.877
  425.750    0.285    0.437   87.181  222.572    4.839
  426.000    0.284    0.432   91.314  222.585    4.820
  426.250    0.279    0.438   92.383  222.906    4.875
  426.500    0.264    0.426   91.890  223.439    4.903
  426.750    0.253    0.448   91.646  224.177    4.931
  427.000    0.275    0.464   92.090  226.272    4.997
  427.250    0.281    0.485   93.471  230.451    5.016
  427.500    0.293    0.481   95.854  235.046    5.073
  427.750    0.301    0.463   98.611  229.951    5.161
  428.000    0.273    0.456  105.745  230.795    5.290
  428.250    0.257    0.477  108.440  234.662    5.464
  428.500    0.240    0.477  108.009  242.904    5.742
  428.750    0.264    0.439  108.015  230.826    5.954
  429.000    0.240    0.404  110.085  228.337    6.092
  429.250    0.221    0.385  112.405  227.721    6.173
  429.500    0.206    0.407  113.848  227.940    6.208
  429.750    0.229    0.443  113.605  228.263    6.208
  430.000    0.241    0.452  113.111  228.377    6.148
  430.250    0.227    0.462  113.367  228.804    6.043
  430.500    0.222    0.485  114.312  229.650    5.894
  430.750    0.230    0.507  114.318  229.659    5.727
  431.000    0.212    0.464  113.949  228.939    5.491
  431.250    0.209    0.434  113.143  228.430    5.234
  431.500    0.205    0.443  112.398  228.648    4.961
  431.750    0.223    0.477  112.529  229.596    4.702
  432.000    0.218    0.485  114.036  230.649    4.431
  432.250    0.197    0.514  124.359  238.787    4.240
  432.500    0.209    0.503  125.116  237.339    4.050
  432.750    0.240    0.489  117.744  231.305    3.973
  433.000    0.265    0.489  103.994  228.920    4.127
  433.250    0.278    0.522   99.811  228.200    4.558
  433.500    0.290    0.552   99.755  227.691    5.200
  433.750    0.305    0.535   97.510  227.178    6.036
  434.000    0.324    0.481   84.698  226.773    6.428
  434.250    0.390    0.524   81.954  226.365    6.577
  434.500    0.424    0.579   97.154  233.254    6.576
  434.750    0.309    0.490  108.790  245.145    6.639
  435.000    0.241    0.441  110.109  234.942    6.715
  435.250    0.252    0.443  107.802  228.491    6.792
  435.500    0.278    0.448  102.556  225.376    6.870
  435.750    0.323    0.454   98.123  224.033    7.002
  436.000    0.323    0.447   95.253  223.417    7.150
  436.250    0.321    0.449   93.446  223.010    7.301
  436.500    0.320    0.474   92.140  222.813    7.356
  436.750    0.316    0.485   93.584  223.345    7.258
  437.000    0.309    0.479   97.904  223.875    7.243
  437.250    0.297    0.467  102.162  224.406    7.299
  437.500    0.293    0.465  105.796  224.941    7.354
  437.750    0.288    0.481  105.051  225.263    7.353
  438.000    0.293    0.461  103.306  225.482    7.255
  438.250    0.306    0.442   94.621  225.700    7.144
  438.500    0.301    0.432   95.065  226.021    6.982
  438.750    0.290    0.449   98.573  226.344    6.862
  439.000    0.264    0.459  102.706  226.564    6.875
  439.250    0.254    0.472  103.525  226.782    6.887
  439.500    0.264    0.487   97.091  226.898    6.913
  439.750    0.275    0.498   94.534  227.117    7.046
  440.000    0.282    0.465  100.230  226.919    7.099
  440.250    0.290    0.442  100.111  226.617    7.004
  440.500    0.302    0.444   98.930  226.418    6.845
  440.750    0.311    0.449   98.623  226.220    6.651
  441.000    0.296    0.460   96.941  226.021    6.549
  441.250    0.295    0.478   94.635  225.305    6.499
  441.500    0.307    0.483   92.389  224.793    6.400
  441.750    0.317    0.478   91.520  224.282    6.314
  442.000    0.311    0.468   96.028  224.500    6.206
  442.250    0.292    0.460  102.287  227.324    6.123
  442.500    0.246    0.471  106.483  229.628    6.041
  442.750    0.217    0.477  108.990  230.471    5.983
  443.000    0.197    0.459  110.184  231.003    5.892
  443.250    0.212    0.440  109.941  230.910    5.780
  443.500    0.226    0.445  107.445  231.127    5.780
  443.750    0.239    0.445  103.012  231.140    6.073
  444.000    0.253    0.454   98.892  231.149    6.456
  444.250    0.236    0.464   95.709  231.160    6.942
  444.500    0.225    0.475   90.463  231.275    8.355
  444.750    0.207    0.470   80.965  231.182    9.370
  445.000    0.177    0.377   73.781  230.877    9.513
  445.250    0.139    0.310   74.100  230.888    8.547
  445.500    0.184    0.350   72.730  230.795    7.237
  445.750    0.217    0.387   71.111  230.388    6.046
  446.000    0.295    0.422   70.242  230.085    5.612
  446.250    0.324    0.455   69.999  229.159    5.421
  446.500    0.336    0.466   70.068  228.545    5.248
  446.750    0.345    0.452   70.010  228.138    5.237
  447.000    0.347    0.458   68.955  228.043    5.167
  447.250    0.354    0.480   66.772  227.847    5.059
  447.500    0.359    0.516   63.151  227.439    5.088
  447.750    0.359    0.502   61.782  226.511    5.097
  448.000    0.360    0.483   63.852  226.314    5.068
  448.250    0.355    0.511   65.609  226.116    4.971
  448.500    0.348    0.504   65.115  226.021    4.971
  448.750    0.342    0.483   62.434  225.512    5.028
  449.000    0.334    0.478   60.688  225.731    5.124
  449.250    0.342    0.473   58.756  225.844    5.385
  449.500    0.346    0.477   56.949  225.647    5.902
  449.750    0.341    0.495   55.267  225.448    6.456
  450.000    0.330    0.478   54.022  225.565    7.323
  450.250    0.318    0.452   52.341  226.096    7.681
  450.500    0.297    0.448   51.034  226.211    7.889
  450.750    0.276    0.436   49.791  226.220    7.607
  451.000    0.249    0.412   48.733  225.813    7.169
  451.250    0.254    0.425   47.051  225.201    6.615
  451.500    0.274    0.431   44.806  224.900    6.270
  451.750    0.280    0.433   43.561  224.907    5.875
  452.000    0.283    0.421   45.694  224.918    5.526
  452.250    0.290    0.409   48.952  225.139    5.258
  452.500    0.299    0.431   49.834  225.253    5.021
  452.750    0.315    0.437   49.777  225.263    4.860
  453.000    0.323    0.432   49.721  225.272    4.669
  453.250    0.316    0.423   50.040  225.596    4.545
  453.500    0.324    0.424   50.358  225.709    4.502
  453.750    0.340    0.440   51.116  225.929    4.527
  454.000    0.330    0.458   51.934  226.043    4.623
  454.250    0.336    0.461   52.816  226.054    4.821
  454.500    0.328    0.464   53.823  225.959    5.047
  454.750    0.318    0.468   54.391  226.074    5.223
  455.000    0.308    0.449   54.398  226.085    5.334
  455.250    0.288    0.431   54.341  225.885    5.426
  455.500    0.272    0.418   54.410  226.002    5.467
  455.750    0.279    0.431   55.729  225.908    5.446
  456.000    0.296    0.432   57.924  226.022    5.477
  456.250    0.288    0.421   55.492  225.617    5.539
  456.500    0.282    0.419   52.559  225.417    5.624
  456.750    0.279    0.412   53.066  225.219    5.754
  457.000    0.277    0.411   55.135  225.229    5.955
  457.250    0.276    0.412   57.455  225.239    6.163
  457.500    0.275    0.412   60.275  225.355    6.427
  457.750    0.272    0.409   58.843  225.469    6.780
