~VERSION INFORMATION
 VERS.                 2.0:   CWLS LOG ASCII STANDARD -VERSION 2.0
 WRAP.                  NO:   ONE LINE PER DEPTH STEP
~WELL INFORMATION BLOCK
#MNEM.UNIT           DATA                    DESCRIPTION OF MNEMONIC
#---------    -------------------            -------------------------------
# Generated from Intellog Unique Number	CW_79_81/WELL/3696
WELL.         EAGLE RESOURCES LTD.           : Well_name    - WELL
LOC .         00/15-23-079-22W4/0            : Location     - LOCATION
UWI .         00/15-23-079-22W4/0            : Uwi          - UNIQUE WELL ID
ENTR.         JOETTE                         : Entered      - ENTERED BY
SRVC.         COMPUTALOG                     : Scn          - SERVICE COMPANY
DATE.         08-26-92                       : Date         - LOG DATE
STRT.M        175                            : top_depth    - START DEPTH
STOP.M        450                            : bot_depth    - STOP DEPTH
STEP.M        0.25                           : increment    - STEP LENGTH
 NULL. -999.2500:NULL Value
~CURVE INFORMATION BLOCK
#MNEM UNIT       ERCB CURVE CODE    CURVE DESCRIPTION
#-----------   ------------------   ----------------------------------
DEPT.M        00 001 00 00         : DEPTH        - DEPTH
NPHI.V/V      00 330 00 00         : PHIN         - NEUTRON POROSITY (SANDSTONE)
GR  .API      00 310 00 00         : GR           - GAMMA RAY
DPHI.V/V      00 890 00 00         : PHID         - DENSITY POROSITY (SANDSTONE)
ILD .OHMM     00 120 00 00         : RESD         - DEEP RESISTIVITY (DIL)
~PARAMETER INFORMATION
#MNEM.UNIT           DATA             DESCRIPTION OF MNEMONIC
#---------         -----------     ------------------------------
GL  .M        575.8                : gl           - GROUND LEVEL ELEVATION
EREF.M        579.42               : kb           - ELEVATION OF DEPTH REFERENCE
DATM.M        579.42               : datum        - DATUM ELEVATION
TDD .M        449                  : tdd          - TOTAL DEPTH DRILLER
RUN .         ONE                  : Run          - RUN NUMBER
ENG .         BILL                 : Engineer     - RECORDING ENGINEER
WIT .         JIM                  : Witness      - WITNESSED BY
MUD .         GEL                  : Mud_type     - MUD TYPE
MATR.         SANDSTONE            : Logunit      - NEUTRON MATRIX
TMAX.C        22                   : BHT          - MAXIMUM RECORDED TEMPERATURE
BHTD.M        449                  : BHTDEP       - MAXIMUM RECORDED TEMPERATURE
MATR.         1                    : LOGUNIT      - NEUTRON MATRIX
RMT .C        20                   : MDTP         - TEMPERATURE OF MUD
NEUT.         1                    : NEUTRON      - NEUTRON TYPE
RESI.         0                    : RESIST       - RESISTIVITY TYPE
RMC .OHMM     3.1                  : RMC          - RESISTIVITY OF MUD CAKE
RMF .OHMM     4.5                  : RMF          - RESISTIVITY OF MUD FILTRATE
SUFT.C        15                   : SUFT         - SURFACE TEMPERATURE
~A  DEPTH     PHIN       GR     PHID     RESD
# ...
  349.000    0.376   78.210    0.177   26.616
  349.250    0.378   75.820    0.208   26.153
  349.500    0.387   74.044    0.219   23.855
  349.750    0.407   75.885    0.232   21.765
  350.000    0.414   84.393    0.215   20.599
  350.250    0.411   89.268    0.216   19.868
  350.500    0.415   89.300    0.217   18.814
  350.750    0.421   86.305    0.210   18.487
  351.000    0.434   88.153    0.202   18.507
  351.250    0.427   91.213    0.199   18.180
  351.500    0.417   90.042    0.209   18.199
  351.750    0.407   87.644    0.203   18.566
  352.000    0.398   87.676    0.198   18.585
  352.250    0.402   89.532    0.200   18.954
  352.500    0.407   89.564    0.208   18.969
  352.750    0.413   84.147    0.218   19.346
  353.000    0.417   80.538    0.226   19.372
  353.250    0.417   81.797    0.231   19.035
  353.500    0.414   84.243    0.225   18.704
  353.750    0.410   86.697    0.215   17.712
  354.000    0.414   89.150    0.195   17.078
  354.250    0.422   91.612    0.189   16.472
  354.500    0.428   91.644    0.180   15.891
  354.750    0.434   91.676    0.187   15.912
  355.000    0.434   94.138    0.196   15.925
  355.250    0.431   95.970    0.203   15.925
  355.500    0.424   98.432    0.204   17.853
  355.750    0.426   96.656    0.199   14.830
  356.000    0.426   96.066    0.199   14.842
  356.250    0.423   95.493    0.199   14.857
  356.500    0.424   97.349    0.200   14.873
  356.750    0.430   99.197    0.202   13.825
  357.000    0.441  102.257    0.195   13.334
  357.250    0.437  102.894    0.185   13.345
  357.500    0.425   98.082    0.182   14.669
  357.750    0.408   93.271    0.177   15.233
  358.000    0.394   88.459    0.161   17.055
  358.250    0.385   83.034    0.151   18.732
  358.500    0.392   80.039    0.157   20.585
  358.750    0.398   84.325    0.166   21.389
  359.000    0.407   88.587    0.176   20.629
  359.250    0.409   95.892    0.188   19.891
  359.500    0.410   98.338    0.205   17.814
  359.750    0.416   95.343    0.206   16.558
  360.000    0.422   94.769    0.202   15.962
  360.250    0.427   96.012    0.195   15.399
  360.500    0.424   97.263    0.192   15.127
  360.750    0.418   97.901    0.183   15.148
  361.000    0.411   97.319    0.173   15.159
  361.250    0.424   96.148    0.172   15.184
  361.500    0.424   95.567    0.183   15.196
  361.750    0.422   94.993    0.194   15.493
  362.000    0.422   95.025    0.195   15.514
  362.250    0.421   95.057    0.186   15.530
  362.500    0.423   97.511    0.172   15.835
  362.750    0.427   99.981    0.177   15.851
  363.000    0.421  101.829    0.179   15.872
  363.250    0.425  103.669    0.184   15.596
  363.500    0.420  103.096    0.180   14.765
  363.750    0.421  100.706    0.169   13.982
  364.000    0.421   98.938    0.158   13.993
  364.250    0.421   98.356    0.158   13.750
  364.500    0.427   97.791    0.176   14.286
  364.750    0.431   97.807    0.188   14.566
  365.000    0.435   97.233    0.191   14.859
  365.250    0.436   96.660    0.192   14.875
  365.500    0.430  100.340    0.188   14.887
  365.750    0.428  103.400    0.182   14.907
  366.000    0.422  105.240    0.177   14.116
  366.250    0.417  101.639    0.177   13.863
  366.500    0.411   99.249    0.172   13.626
  366.750    0.408   96.852    0.160   13.640
  367.000    0.403   98.103    0.151   14.172
  367.250    0.410  100.548    0.165   14.725
  367.500    0.431  104.213    0.172   15.303
  367.750    0.431  112.124    0.164   14.760
  368.000    0.418  112.156    0.153   14.232
  368.250    0.401  104.317    0.156   12.054
  368.500    0.405   99.505    0.168   11.195
  368.750    0.403  103.783    0.174   11.004
  369.000    0.399  107.448    0.175   11.018
  369.250    0.389  106.261    0.174   11.240
  369.500    0.369  104.485    0.166   11.246
  369.750    0.355  101.489    0.149   11.685
  370.000    0.350   97.881    0.127   12.368
  370.250    0.350   92.464    0.125   14.369
  370.500    0.373   83.414    0.153   20.488
  370.750    0.370   80.418    0.224   21.688
  371.000    0.367   81.661    0.242   22.528
  371.250    0.365   77.455    0.248   23.406
  371.500    0.374   76.284    0.242   23.012
  371.750    0.381   80.546    0.222   21.785
  372.000    0.384   87.844    0.217   21.006
  372.250    0.387   90.306    0.209   19.882
  372.500    0.396   89.732    0.198   18.485
  372.750    0.398   89.756    0.185   18.154
  373.000    0.397   92.823    0.159   17.838
  373.250    0.403   95.874    0.184   17.533
  373.500    0.419  101.961    0.205   17.876
  373.750    0.434  100.177    0.213   18.236
  374.000    0.421   95.365    0.187   18.598
  374.250    0.407   89.956    0.197   18.967
  374.500    0.396   87.558    0.255   18.983
  374.750    0.388   82.141    0.233   19.728
  375.000    0.383   74.908    0.210   20.115
  375.250    0.376   70.096    0.184   20.525
  375.500    0.370   67.101    0.175   20.541
  375.750    0.356   64.711    0.161   20.563
  376.000    0.349   65.348    0.177   20.983
  376.250    0.356   67.197    0.168   21.795
  376.500    0.357   65.420    0.152   23.077
  376.750    0.356   63.038    0.156   23.964
  377.000    0.355   62.457    0.129   25.374
  377.250    0.359   62.489    0.121   26.851
  377.500    0.371   65.540    0.210   27.385
  377.750    0.396   63.150    0.219   25.932
  378.000    0.405   63.788    0.224   24.098
  378.250    0.414   66.249    0.225   22.393
  378.500    0.420   68.098    0.223   21.593
  378.750    0.423   68.138    0.218   19.701
  379.000    0.413   67.572    0.211   18.996
  379.250    0.416   67.588    0.201   17.657
  379.500    0.410   68.234    0.190   17.676
  379.750    0.391   65.836    0.112   17.373
  380.000    0.321   62.235    0.081   18.046
  380.250    0.292   61.670    0.074   19.097
  380.500    0.299   64.115    0.099   20.594
  380.750    0.317   67.788    0.125   23.484
  381.000    0.340   70.839    0.184   27.281
  381.250    0.350   73.898    0.212   28.878
  381.500    0.363   78.185    0.202   27.346
  381.750    0.374   79.412    0.180   26.369
  382.000    0.392   78.838    0.195   24.510
  382.250    0.414   76.448    0.201   23.204
  382.500    0.410   75.875    0.197   21.967
  382.750    0.403   78.329    0.192   21.182
  383.000    0.405   83.834    0.196   19.689
  383.250    0.406   85.068    0.195   18.640
  383.500    0.404   87.522    0.188   17.983
  383.750    0.401   89.976    0.180   17.660
  384.000    0.398   93.027    0.164   17.034
  384.250    0.391   92.462    0.153   16.742
  384.500    0.389   90.677    0.162   16.446
  384.750    0.390   91.307    0.160   16.160
  385.000    0.399   93.769    0.148   15.879
  385.250    0.401   95.617    0.116   15.611
  385.500    0.400   93.235    0.085   15.623
  385.750    0.398   90.232    0.133   15.356
  386.000    0.401   90.877    0.143   15.364
  386.250    0.405   93.323    0.157   15.101
  386.500    0.405   95.769    0.157   14.834
  386.750    0.404  100.047    0.149   14.311
  387.000    0.414  102.501    0.134   13.803
  387.250    0.409  101.322    0.124   13.559
  387.500    0.393   98.932    0.156   13.327
  387.750    0.386   97.147    0.171   13.095
  388.000    0.397   97.180    0.180   13.359
  388.250    0.415   99.028    0.178   13.370
  388.500    0.415  100.271    0.176   13.635
  388.750    0.407   99.092    0.177   14.171
  389.000    0.401   98.526    0.182   14.716
  389.250    0.390   99.164    0.183   15.878
  389.500    0.385  101.004    0.183   15.318
  389.750    0.384  105.274    0.162   13.969
  390.000    0.386   93.811    0.126   12.735
  390.250    0.390   95.045    0.154   12.751
  390.500    0.392   98.726    0.161   13.751
  390.750    0.384  100.566    0.160   15.395
  391.000    0.369  104.231    0.162   15.132
  391.250    0.361  104.861    0.156   14.864
  391.500    0.350  101.873    0.146   14.884
  391.750    0.335   99.483    0.127   15.751
  392.000    0.322   96.480    0.124   16.982
  392.250    0.318   92.282    0.131   19.369
