~VERSION INFORMATION
 VERS.                 2.0:   CWLS LOG ASCII STANDARD -VERSION 2.0
 WRAP.                  NO:   ONE LINE PER DEPTH STEP
~WELL INFORMATION BLOCK
#MNEM.UNIT           DATA                    DESCRIPTION OF MNEMONIC
#---------    -------------------            -------------------------------
# Generated from Intellog Unique Number	CN_91_93/WELL/2795
WELL.         PARAMOUNT RESOURCES LTD.       : Well_name    - WELL
LOC .         00/15-35-093-21W4/0            : Location     - LOCATION
UWI .         00/15-35-093-21W4/0            : Uwi          - UNIQUE WELL ID
ENTR.         JOETTE                         : Entered      - ENTERED BY
SRVC.         COMPUTALOG                     : Scn          - SERVICE COMPANY
DATE.         03/24/92                       : Date         - LOG DATE
STRT.M        190                            : top_depth    - START DEPTH
STOP.M        358                            : bot_depth    - STOP DEPTH
STEP.M        0.25                           : increment    - STEP LENGTH
 NULL. -999.2500:NULL Value
~CURVE INFORMATION BLOCK
#MNEM UNIT       ERCB CURVE CODE    CURVE DESCRIPTION
#-----------   ------------------   ----------------------------------
DEPT.M        00 001 00 00         : DEPTH        - DEPTH
CALI.MM       00 280 01 00         : CAL          - CALIPER
GR  .API      00 310 00 00         : GR           - GAMMA RAY
NPHI.V/V      00 330 00 00         : PHIN         - NEUTRON POROSITY (SANDSTONE)
DPHI.V/V      00 890 00 00         : PHID         - DENSITY POROSITY (SANDSTONE)
ILD .OHMM     00 120 00 00         : RESD         - DEEP RESISTIVITY (DIL)
~PARAMETER INFORMATION
#MNEM.UNIT           DATA             DESCRIPTION OF MNEMONIC
#---------         -----------     ------------------------------
GL  .M        665.6                : gl           - GROUND LEVEL ELEVATION
EREF.M        669                  : kb           - ELEVATION OF DEPTH REFERENCE
DATM.M        669                  : datum        - DATUM ELEVATION
TDD .M        356.5                : tdd          - TOTAL DEPTH DRILLER
RUN .         ONE                  : Run          - RUN NUMBER
ENG .         BILL                 : Engineer     - RECORDING ENGINEER
WIT .         JIM                  : Witness      - WITNESSED BY
MUD .         GEL                  : Mud_type     - MUD TYPE
MATR.         SANDSTONE            : Logunit      - NEUTRON MATRIX
TMAX.C        27                   : BHT          - MAXIMUM RECORDED TEMPERATURE
BHTD.M        356.5                : BHTDEP       - MAXIMUM RECORDED TEMPERATURE
RMT .C        13                   : MDTP         - TEMPERATURE OF MUD
MUDD.KG/M     1100                 : MWT          - MUD DENSITY
NEUT.         1                    : NEUTRON      - NEUTRON TYPE
RESI.         0                    : RESIST       - RESISTIVITY TYPE
RM  .OHMM     1.5                  : RM           - RESISTIVITY OF MUD
RMC .OHMM     1.5                  : RMC          - RESISTIVITY OF MUD CAKE
RMF .OHMM     1.5                  : RMF          - RESISTIVITY OF MUD FILTRATE
SUFT.C        4                    : SUFT         - SURFACE TEMPERATURE
~A  DEPTH      CAL       GR     PHIN     PHID     RESD
# ...
  263.000  175.842   95.675    0.456    0.254    4.743
  263.250  174.903   91.967    0.443    0.256    4.947
  263.500  169.719   90.771    0.417    0.260    5.057
  263.750  165.618   91.455    0.387    0.265    5.069
  264.000  166.844   94.686    0.404    0.267    5.078
  264.250  168.013   99.814    0.421    0.263    4.706
  264.500  169.124  105.591    0.471    0.261    4.278
  264.750  170.293  106.925    0.506    0.261    4.048
  265.000  171.462  100.653    0.507    0.259    3.974
  265.250  173.742  104.533    0.494    0.250    3.986
  265.500  175.936  104.619    0.479    0.240    3.993
  265.750  178.188  100.877    0.464    0.240    4.167
  266.000  179.328  100.313    0.440    0.231    4.254
  266.250  179.500  103.544    0.436    0.218    4.522
  266.500  178.503  106.142    0.442    0.203    4.714
  266.750  175.514  106.844    0.456    0.177    4.914
  267.000  173.463  105.015    0.473    0.159    5.128
  267.250  169.419  101.940    0.479    0.169    5.238
  267.500  167.397  103.256    0.474    0.195    5.251
  267.750  166.430  107.136    0.469    0.210    5.269
  268.000  164.494  109.085    0.480    0.221    5.279
  268.250  164.580  109.786    0.491    0.223    5.192
  268.500  164.666  107.975    0.489    0.228    5.097
  268.750  166.917  106.147    0.462    0.237    4.919
  269.000  168.058  106.848    0.439    0.226    4.924
  269.250  171.334  107.550    0.472    0.204    4.936
  269.500  175.665  105.106    0.472    0.201    4.953
  269.750  176.862  104.508    0.460    0.214    4.962
  270.000  175.952  102.680    0.451    0.224    5.069
  270.250  174.955  105.945    0.456    0.229    5.284
  270.500  170.854  105.997    0.446    0.233    5.401
  270.750  169.944  103.536    0.436    0.241    5.630
  271.000  172.167  102.973    0.427    0.237    5.869
  271.250  174.418  103.674    0.415    0.225    6.121
  271.500  173.507  100.598    0.423    0.233    6.384
  271.750  172.511  100.017    0.414    0.226    6.658
  272.000  169.492  101.983    0.406    0.207    6.802
  272.250  167.471   97.626    0.403    0.175    7.090
  272.500  167.643   90.106    0.402    0.172    7.391
  272.750  167.700   86.996    0.402    0.193    7.404
  273.000  169.980   83.937    0.400    0.233    7.572
  273.250  172.174   83.339    0.414    0.251    7.439
  273.500  172.260   85.938    0.418    0.262    7.039
  273.750  171.350   91.715    0.415    0.257    6.777
  274.000  170.382   97.475    0.412    0.239    5.588
  274.250  168.446  105.133    0.430    0.228    5.076
  274.500  168.504  112.808    0.447    0.225    4.614
  274.750  170.755  106.553    0.447    0.200    4.279
  275.000  171.924  100.280    0.443    0.152    4.206
  275.250  173.093   93.393    0.467    0.114    4.051
  275.500  172.182  102.948    0.506    0.178    3.910
  275.750  170.132  120.108    0.507    0.203    3.843
  276.000  169.221  119.545    0.487    0.190    3.850
  276.250  170.390  113.922    0.489    0.184    3.861
  276.500  170.505  108.300    0.485    0.191    3.942
  276.750  164.296  110.266    0.464    0.221    4.114
  277.000  168.626  110.967    0.455    0.232    4.202
  277.250  174.011  109.771    0.463    0.232    4.378
  277.500  176.262  100.354    0.471    0.238    4.572
  277.750  175.352  104.217    0.464    0.243    4.670
  278.000  174.355  108.730    0.454    0.246    4.676
  278.250  174.499  106.902    0.454    0.247    4.509
  278.500  174.614  106.338    0.451    0.246    4.430
  278.750  175.811  107.039    0.445    0.245    4.275
  279.000  175.869  108.356    0.437    0.241    4.199
  279.250  177.037  111.604    0.442    0.231    4.127
  279.500  178.235  114.220    0.456    0.227    4.057
  279.750  178.321  115.553    0.469    0.228    3.988
  280.000  177.410  115.622    0.471    0.231    3.920
  280.250  174.363  115.059    0.479    0.219    3.929
  280.500  168.154  111.966    0.473    0.177    3.862
  280.750  165.136  107.608    0.463    0.126    3.794
  281.000  166.247  104.515    0.471    0.177    3.805
  281.250  169.524  107.096    0.481    0.202    3.742
  281.500  172.801  112.224    0.489    0.222    3.746
  281.750  173.969  115.472    0.491    0.218    3.755
  282.000  175.196  115.523    0.472    0.228    3.843
  282.250  175.282  113.063    0.456    0.233    3.928
  282.500  175.425  109.337    0.460    0.237    4.013
  282.750  175.511  103.732    0.458    0.231    4.102
  283.000  175.683  101.254    0.444    0.220    4.363
  283.250  175.770   97.546    0.432    0.219    4.457
  283.500  172.751   96.965    0.427    0.223    4.834
  283.750  168.593   97.684    0.425    0.228    4.938
  284.000  170.844  101.530    0.429    0.231    5.051
  284.250  174.121  111.084    0.459    0.233    4.962
  284.500  175.261  117.494    0.476    0.233    4.695
  284.750  176.458  120.725    0.487    0.234    4.523
  285.000  175.519  120.179    0.474    0.234    4.357
  285.250  174.609  117.701    0.470    0.233    4.202
  285.500  174.666  114.608    0.471    0.230    4.130
  285.750  173.756  111.532    0.479    0.229    4.057
  286.000  173.842  108.422    0.484    0.233    4.072
  286.250  172.960  103.432    0.487    0.243    4.157
  286.500  173.017   98.424    0.477    0.256    4.603
  286.750  173.161   97.228    0.452    0.256    4.793
  287.000  173.304   95.434    0.430    0.225    5.195
  287.250  173.362   94.836    0.433    0.152    5.415
  287.500  171.368   96.820    0.450    0.114    5.428
  287.750  169.433  100.683    0.470    0.144    5.339
  288.000  169.490  107.708    0.494    0.183    4.852
  288.250  171.770  118.527    0.504    0.196    4.500
  288.500  171.885  123.672    0.495    0.196    4.335
  288.750  167.784  123.741    0.473    0.216    4.261
  289.000  163.654  123.178    0.474    0.212    4.186
  289.250  167.985  125.144    0.488    0.196    4.195
  289.500  170.236  126.478    0.493    0.182    4.124
  289.750  170.322  123.402    0.496    0.185    4.133
  290.000  169.412  126.615    0.503    0.192    4.225
  290.250  169.498  133.658    0.511    0.187    4.324
  290.500  170.695  128.650    0.514    0.173    4.331
  290.750  171.835  124.942    0.510    0.170    4.425
  291.000  174.087  129.420    0.505    0.187    4.528
  291.250  177.364  131.404    0.498    0.209    4.534
  291.500  173.263  128.293    0.484    0.227    4.547
  291.750  171.269  107.494    0.468    0.245    4.472
  292.000  170.302  101.854    0.450    0.258    4.477
  292.250  168.337   97.496    0.415    0.266    4.762
  292.500  166.373   91.891    0.387    0.266    5.696
  292.750  166.430   92.592    0.383    0.265    6.544
  293.000  165.520   93.293    0.388    0.267    7.377
  293.250  165.606   92.080    0.378    0.277    8.321
  293.500  166.774   86.475    0.371    0.284    9.386
  293.750  170.108   86.543    0.372    0.294    9.977
  294.000  168.115   85.348    0.363    0.300   10.193
  294.250  165.068   81.605    0.346    0.287   10.229
  294.500  164.100   70.291    0.323    0.191   10.247
  294.750  164.215   68.445    0.319    0.151   10.265
  295.000  166.438   72.326    0.348    0.170   10.911
  295.250  167.607   78.736    0.366    0.205   11.153
  295.500  166.696   80.685    0.373    0.237   11.186
  295.750  165.786   75.694    0.357    0.266   11.219
  296.000  165.872   68.807    0.312    0.219   11.034
  296.250  165.987   75.200    0.295    0.158   10.833
  296.500  167.155   96.154    0.303    0.210   10.641
  296.750  171.515  113.947    0.340    0.229    9.875
  297.000  172.626  117.178    0.391    0.220    9.322
  297.250  178.039  115.982    0.412    0.221    7.683
  297.500  180.262  111.009    0.427    0.223    5.971
  297.750  181.431  106.651    0.419    0.220    5.534
  298.000  179.438  104.806    0.414    0.213    5.660
  298.250  179.553  104.875    0.414    0.218    5.896
  298.500  178.613  109.388    0.422    0.219    6.392
  298.750  177.703  113.251    0.439    0.221    6.407
  299.000  176.764  115.217    0.440    0.216    6.297
  299.250  175.853  115.918    0.438    0.220    5.837
