~VERSION INFORMATION
 VERS.                 2.0:   CWLS LOG ASCII STANDARD -VERSION 2.0
 WRAP.                  NO:   ONE LINE PER DEPTH STEP
~WELL INFORMATION BLOCK
#MNEM.UNIT           DATA                    DESCRIPTION OF MNEMONIC
#---------    -------------------            -------------------------------
# Generated from Intellog Unique Number	CS_77_79/WELL/1022
WELL.         C.W.W.E. HARDY                 : Well_name    - WELL
LOC .         00/15-07-078-04W4/0            : Location     - LOCATION
UWI .         00/15-07-078-04W4/0            : Uwi          - UNIQUE WELL ID
ENTR.         JHS                            : Entered      - ENTERED BY
SRVC.         SCHLUMBERGER                   : Scn          - SERVICE COMPANY
STRT.M        165                            : top_depth    - START DEPTH
STOP.M        420                            : bot_depth    - STOP DEPTH
STEP.M        0.25                           : increment    - STEP LENGTH
 NULL. -999.2500:NULL Value
~CURVE INFORMATION BLOCK
#MNEM UNIT       ERCB CURVE CODE    CURVE DESCRIPTION
#-----------   ------------------   ----------------------------------
DEPT.M        00 001 00 00         : DEPTH        - DEPTH
DPHI.V/V      00 890 00 00         : PHID         - DENSITY POROSITY (LIMESTONE)
NPHI.V/V      00 330 00 00         : PHIN         - NEUTRON POROSITY (LIMESTONE)
GR  .API      00 310 00 00         : GR           - GAMMA RAY
ILD .OHMM     00 120 00 00         : RESD         - DEEP RESISTIVITY (DIL)
RHOB.KG/M3    00 350 00 00         : DENS         - BULK DENSITY
~PARAMETER INFORMATION
#MNEM.UNIT           DATA             DESCRIPTION OF MNEMONIC
#---------         -----------     ------------------------------
GL  .M        579.2                : gl           - GROUND LEVEL ELEVATION
EREF.M        583.1                : kb           - ELEVATION OF DEPTH REFERENCE
DATM.M        583.1                : datum        - DATUM ELEVATION
TDD .M        425.3                : tdd          - TOTAL DEPTH DRILLER
RUN .         ONE                  : Run          - RUN NUMBER
ENG .         BILL                 : Engineer     - RECORDING ENGINEER
WIT .         JIM                  : Witness      - WITNESSED BY
MUD .         GEL                  : Mud_type     - MUD TYPE
MATR.         LIMESTONE            : Logunit      - NEUTRON MATRIX
TMAX.C        20                   : BHT          - MAXIMUM RECORDED TEMPERATURE
BHTD.M        425.3                : BHTDEP       - MAXIMUM RECORDED TEMPERATURE
MATR.         1                    : LOGUNIT      - NEUTRON MATRIX
RMT .C        25                   : MDTP         - TEMPERATURE OF MUD
NEUT.         1                    : NEUTRON      - NEUTRON TYPE
RESI.         0                    : RESIST       - RESISTIVITY TYPE
RMC .OHMM     0.25                 : RMC          - RESISTIVITY OF MUD CAKE
RMF .OHMM     0.25                 : RMF          - RESISTIVITY OF MUD FILTRATE
SUFT.C        15                   : SUFT         - SURFACE TEMPERATURE
~A  DEPTH     PHID     PHIN       GR     RESD     DENS
# ...
  347.500    0.238    0.346   59.389    5.119 2303.000
  347.750    0.254    0.347   57.566    4.925 2275.570
  348.000    0.268    0.347   54.516    4.831 2252.400
  348.250    0.270    0.350   54.538    4.647 2248.250
  348.500    0.279    0.354   50.256    4.645 2233.490
  348.750    0.265    0.345   51.508    4.554 2256.860
  349.000    0.248    0.334   61.365    4.552 2286.540
  349.250    0.248    0.329   62.618    4.723 2286.620
  349.500    0.267    0.338   54.033    4.721 2252.840
  349.750    0.272    0.343   51.596    4.898 2244.460
  350.000    0.231    0.320   68.847    4.896 2315.690
  350.250    0.259    0.327   61.460    4.893 2266.900
  350.500    0.288    0.345   48.541    4.799 2218.120
  350.750    0.290    0.353   49.758    4.531 2213.850
  351.000    0.288    0.355   52.820    4.277 2218.060
  351.250    0.300    0.361   47.279    3.962 2196.830
  351.500    0.304    0.358   41.735    3.886 2190.440
  351.750    0.294    0.346   41.108    3.882 2207.370
  352.000    0.273    0.344   52.776    3.881 2243.380
  352.250    0.267    0.342   54.608    4.027 2253.940
  352.500    0.254    0.335   57.059    4.181 2275.110
  352.750    0.222    0.325   65.039    4.422 2330.200
  353.000    0.202    0.319   69.332    4.676 2364.080
  353.250    0.226    0.332   65.632    4.762 2323.780
  353.500    0.248    0.344   59.472    4.760 2285.590
  353.750    0.266    0.351   57.002    4.666 2255.890
  354.000    0.269    0.340   55.764    4.577 2249.490
  354.250    0.274    0.336   48.990    4.488 2240.990
  354.500    0.290    0.346   42.833    4.319 2213.400
  354.750    0.300    0.357   38.519    4.155 2196.410
  355.000    0.297    0.357   37.890    3.923 2202.740
  355.250    0.297    0.349   38.496    3.847 2202.710
  355.500    0.290    0.343   42.173    3.773 2213.280
  355.750    0.274    0.349   47.694    3.771 2240.810
  356.000    0.267    0.366   51.372    3.912 2253.490
  356.250    0.261    0.374   55.666    3.985 2264.060
  356.500    0.258    0.355   58.728    3.983 2268.270
  356.750    0.274    0.346   58.101    3.980 2240.690
  357.000    0.304    0.351   57.476    3.903 2189.780
  357.250    0.304    0.349   56.848    3.899 2189.750
  357.500    0.277    0.348   59.914    3.898 2236.360
  357.750    0.258    0.354   67.280    3.969 2268.130
  358.000    0.267    0.370   71.573    3.966 2253.250
  358.250    0.278    0.380   65.414    3.964 2234.150
  358.500    0.267    0.370   62.943    3.887 2253.190
  358.750    0.263    0.368   61.705    3.812 2259.530
  359.000    0.286    0.376   53.701    3.809 2221.340
  359.250    0.282    0.374   56.151    3.879 2227.670
  359.500    0.260    0.352   65.360    3.950 2265.790
  359.750    0.249    0.338   63.503    3.949 2284.840
  360.000    0.266    0.348   57.960    4.098 2255.130
  360.250    0.276    0.354   53.647    4.095 2238.150
  360.500    0.286    0.348   50.561    4.016 2221.160
  360.750    0.295    0.345   51.165    3.864 2206.290
  361.000    0.286    0.349   52.999    3.718 2221.090
  361.250    0.276    0.340   56.063    3.577 2238.030
  361.500    0.281    0.334   53.592    3.507 2229.510
  361.750    0.296    0.341   48.050    3.506 2204.050
  362.000    0.305    0.349   44.963    3.504 2189.180
  362.250    0.293    0.354   48.026    3.435 2208.230
  362.500    0.282    0.359   48.631    3.368 2227.280
  362.750    0.292    0.367   40.627    3.367 2210.290
  363.000    0.310    0.369   36.928    3.301 2180.580
  363.250    0.318    0.364   39.992    3.299 2165.710
  363.500    0.317    0.353   44.898    3.235 2167.800
  363.750    0.300    0.348   46.116    3.233 2197.450
  364.000    0.285    0.348   45.488    3.230 2222.860
  364.250    0.281    0.343   46.094    3.290 2229.190
  364.500    0.292    0.341   44.856    3.350 2210.080
  364.750    0.308    0.344   43.612    3.413 2182.490
  365.000    0.304    0.348   47.289    3.541 2190.940
  365.250    0.287    0.348   52.815    3.540 2218.470
  365.500    0.281    0.351   53.416    3.538 2229.040
  365.750    0.300    0.357   41.728    3.468 2197.210
  366.000    0.317    0.364   35.569    3.400 2167.500
  366.250    0.319    0.359   33.714    3.399 2165.350
  366.500    0.316    0.351   34.931    3.333 2169.560
  366.750    0.317    0.345   36.152    3.269 2167.410
  367.000    0.312    0.342   37.370    3.266 2175.860
  367.250    0.310    0.345   39.818    3.202 2180.070
  367.500    0.311    0.357   37.963    3.200 2177.910
  367.750    0.311    0.361   36.106    3.198 2177.890
  368.000    0.312    0.357   37.325    3.197 2175.740
  368.250    0.307    0.355   40.389    3.194 2184.190
  368.500    0.300    0.360   48.369    3.193 2196.880
  368.750    0.308    0.366   50.203    3.190 2184.130
  369.000    0.319    0.361   36.666    3.248 2165.020
  369.250    0.319    0.353   34.198    3.186 2164.990
  369.500    0.315    0.352   29.883    3.124 2171.320
  369.750    0.311    0.346   27.415    3.064 2177.650
  370.000    0.303    0.342   27.403    3.004 2192.450
  370.250    0.300    0.344   31.695    3.002 2196.660
  370.500    0.308    0.357   31.684    3.000 2183.920
  370.750    0.313    0.360   31.058    2.998 2175.410
  371.000    0.315    0.356   35.965    2.997 2171.140
  371.250    0.316    0.351   40.255    3.051 2168.990
  371.500    0.304    0.352   42.706    3.167 2190.160
  371.750    0.287    0.347   52.531    3.349 2219.800
  372.000    0.269    0.341   52.520    3.412 2249.450
  372.250    0.282    0.341   48.205    3.676 2228.220
  372.500    0.309    0.350   45.736    3.675 2181.560
  372.750    0.325    0.364   39.578    3.672 2153.970
  373.000    0.334    0.383   33.419    3.402 2139.100
  373.250    0.333    0.372   34.638    3.212 2141.190
  373.500    0.328    0.361   36.471    3.033 2149.640
  373.750    0.326    0.366   36.459    2.974 2151.730
  374.000    0.333    0.377   40.753    2.917 2141.100
  374.250    0.340    0.381   43.815    2.970 2128.350
  374.500    0.343    0.387   40.731    2.968 2124.080
  374.750    0.338    0.390   35.187    3.023 2132.530
  375.000    0.334    0.377   36.406    3.078 2138.860
  375.250    0.330    0.367   37.625    3.019 2145.190
  375.500    0.329    0.366   36.385    2.961 2147.280
  375.750    0.334    0.361   33.915    2.958 2138.770
  376.000    0.334    0.365   34.518    3.071 2138.740
  376.250    0.288    0.374   44.958    3.310 2217.140
  376.500    0.213    0.380   52.937    3.635 2346.420
  376.750    0.209    0.384   61.533    3.994 2352.750
  377.000    0.224    0.387   78.120    4.471 2327.280
  377.250    0.203    0.375   86.715    5.100 2363.290
  377.500    0.218    0.358   83.631    5.294 2337.820
  377.750    0.242    0.365   70.710    5.291 2295.390
  378.000    0.231    0.376   71.314    4.810 2314.440
  378.250    0.259    0.376   77.451    4.373 2267.780
  378.500    0.292    0.384   65.144    4.051 2210.510
  378.750    0.333    0.381   49.766    3.753 2140.530
  379.000    0.347    0.378   44.222    3.413 2117.180
  379.250    0.353    0.396   42.981    3.222 2106.550
  379.500    0.332    0.429   48.505    3.219 2142.560
  379.750    0.291    0.410   63.247    3.342 2212.480
  380.000    0.229    0.395   75.528    3.671 2318.440
  380.250    0.219    0.386   82.281    3.957 2335.370
  380.500    0.217    0.399   87.803    4.265 2339.580
  380.750    0.223    0.420   92.709    4.685 2328.950
  381.000    0.236    0.411   81.019    4.681 2305.600
  381.250    0.251    0.396   61.953    4.421 2280.130
  381.500    0.291    0.394   44.729    3.870 2212.270
  381.750    0.326    0.394   36.112    3.452 2152.890
  382.000    0.342    0.384   33.643    3.199 2125.300
  382.250    0.333    0.380   37.934    3.020 2140.110
  382.500    0.338    0.393   45.913    2.961 2131.600
  382.750    0.384    0.421   47.131    3.016 2053.140
  383.000    0.389    0.431   45.277    3.071 2044.630
  383.250    0.363    0.433   42.805    3.128 2089.120
  383.500    0.332    0.416   45.871    3.185 2142.080
  383.750    0.317    0.394   47.701    3.184 2167.490
