~VERSION INFORMATION
 VERS.                 2.0:   CWLS LOG ASCII STANDARD -VERSION 2.0
 WRAP.                  NO:   ONE LINE PER DEPTH STEP
~WELL INFORMATION BLOCK
#MNEM.UNIT           DATA                    DESCRIPTION OF MNEMONIC
#---------    -------------------            -------------------------------
# Generated from Intellog Unique Number	CS_73_76/WELL/3232
WELL.         HOME OIL COMPANY LIMITED       : Well_name    - WELL
LOC .         00/10-08-076-06W4/0            : Location     - LOCATION
UWI .         00/10-08-076-06W4/0            : Uwi          - UNIQUE WELL ID
ENTR.         SP                             : Entered      - ENTERED BY
SRVC.         SCHLUMBERGER                   : Scn          - SERVICE COMPANY
STRT.M        173.736                        : top_depth    - START DEPTH
STOP.M        412.986                        : bot_depth    - STOP DEPTH
STEP.M        0.25                           : increment    - STEP LENGTH
 NULL. -999.2500:NULL Value
~CURVE INFORMATION BLOCK
#MNEM UNIT       ERCB CURVE CODE    CURVE DESCRIPTION
#-----------   ------------------   ----------------------------------
DEPT.M        00 001 00 00         : DEPTH        - DEPTH
GR  .API      00 310 00 00         : GR           - GAMMA RAY
DPHI.V/V      00 890 00 00         : PHID         - DENSITY POROSITY (SANDSTONE)
NPHI.V/V      00 330 00 00         : PHIN         - NEUTRON POROSITY (SANDSTONE)
ILD .OHMM     00 120 00 00         : RESD         - DEEP RESISTIVITY (DIL)
~PARAMETER INFORMATION
#MNEM.UNIT           DATA             DESCRIPTION OF MNEMONIC
#---------         -----------     ------------------------------
GL  .M        580.278              : gl           - GROUND LEVEL ELEVATION
EREF.M        584.119              : kb           - ELEVATION OF DEPTH REFERENCE
DATM.M        580.278              : datum        - DATUM ELEVATION
TDD .M        389.23               : tdd          - TOTAL DEPTH DRILLER
RUN .         ONE                  : Run          - RUN NUMBER
ENG .         BILL                 : Engineer     - RECORDING ENGINEER
WIT .         JIM                  : Witness      - WITNESSED BY
MUD .         GEL                  : Mud_type     - MUD TYPE
MATR.         SANDSTONE            : Logunit      - NEUTRON MATRIX
TMAX.C        16.6667              : BHT          - MAXIMUM RECORDED TEMPERATURE
BHTD.M        389.23               : BHTDEP       - MAXIMUM RECORDED TEMPERATURE
MATR.         1                    : LOGUNIT      - NEUTRON MATRIX
RMT .C        25                   : MDTP         - TEMPERATURE OF MUD
NEUT.         1                    : NEUTRON      - NEUTRON TYPE
RESI.         0                    : RESIST       - RESISTIVITY TYPE
RMC .OHMM     0.25                 : RMC          - RESISTIVITY OF MUD CAKE
RMF .OHMM     0.25                 : RMF          - RESISTIVITY OF MUD FILTRATE
SUFT.C        15                   : SUFT         - SURFACE TEMPERATURE
~A  DEPTH       GR     PHID     PHIN     RESD
# ...
  217.236  117.551    0.164    0.423   15.152
  217.486  124.817    0.163    0.438   12.706
  217.736  128.913    0.199    0.466   11.206
  217.986  131.422    0.194    0.498   10.674
  218.236  131.269    0.183    0.505   10.411
  218.486  128.178    0.175    0.495   10.662
  218.736  123.921    0.173    0.480   11.165
  218.986  119.869    0.180    0.485   11.865
  219.236  117.134    0.184    0.474   12.289
  219.486  115.174    0.189    0.462   13.691
  219.736  115.692    0.197    0.453   14.288
  219.986  118.483    0.211    0.472   14.728
  220.236  115.010    0.216    0.483   15.179
  220.486  111.897    0.219    0.454   15.164
  220.736  111.947    0.219    0.452   15.141
  220.986  112.301    0.225    0.435   15.463
  221.236  114.105    0.225    0.435   15.154
  221.486  116.097    0.215    0.449   15.182
  221.736  114.775    0.202    0.451   15.184
  221.986  114.176    0.199    0.447   15.043
  222.236  112.531    0.203    0.443   14.578
  222.486  111.611    0.197    0.449   13.940
  222.736  112.890    0.183    0.462   12.421
  222.986  114.152    0.179    0.469   11.586
  223.236  114.984    0.188    0.463   10.407
  223.486  107.988    0.191    0.472    9.125
  223.736   99.685    0.185    0.478    8.818
  223.986   92.390    0.210    0.464    8.503
  224.236   89.675    0.225    0.449    8.562
  224.486   91.478    0.236    0.418    8.844
  224.736   88.255    0.225    0.429    9.585
  224.986   80.883    0.227    0.447   11.469
  225.236   79.121    0.233    0.434   13.063
  225.486   83.432    0.225    0.411   14.352
  225.736   86.106    0.231    0.421   15.398
  225.986   82.829    0.227    0.424   16.645
  226.236   79.128    0.224    0.416   16.655
  226.486   78.718    0.231    0.399   15.774
  226.736   81.287    0.228    0.406   13.051
  226.986   83.621    0.223    0.414   12.052
  227.236   81.565    0.244    0.410   11.301
  227.486   78.832    0.260    0.415   11.605
  227.736   80.758    0.251    0.407   12.015
  227.986   88.184    0.227    0.400   12.655
  228.236   96.439    0.196    0.427   12.780
  228.486  100.509    0.190    0.445   13.182
  228.736   98.832    0.199    0.464   14.116
  228.986   96.172    0.207    0.462   14.995
  229.236   94.419    0.210    0.452   16.240
  229.486   94.130    0.200    0.441   17.651
  229.736   88.077    0.198    0.434   15.539
  229.986   83.139    0.202    0.426   12.326
  230.236   76.827    0.220    0.434   10.588
  230.486   72.946    0.236    0.437    9.725
  230.736   69.986    0.250    0.433    9.061
  230.986   65.879    0.266    0.420    8.436
  231.236   63.664    0.276    0.414    8.447
  231.486   63.269    0.287    0.426    8.728
  231.736   63.279    0.274    0.444    9.100
  231.986   63.343    0.273    0.454    9.461
  232.236   64.402    0.274    0.448    9.596
  232.486   65.734    0.278    0.435    9.897
  232.736   66.322    0.280    0.433    9.983
  232.986   67.361    0.286    0.424   10.330
  233.236   68.125    0.296    0.425   10.399
  233.486   68.751    0.293    0.428   10.972
  233.736   69.344    0.292    0.422   11.197
  233.986   69.273    0.291    0.424   10.954
  234.236   69.902    0.283    0.433   10.770
  234.486   69.879    0.281    0.441   10.360
  234.736   69.769    0.283    0.444    9.511
  234.986   69.293    0.282    0.423    9.105
  235.236   67.959    0.285    0.433    8.994
  235.486   67.474    0.289    0.445    9.111
  235.736   67.399    0.278    0.451    9.366
  235.986   68.338    0.286    0.449   10.357
  236.236   69.323    0.296    0.445   11.215
  236.486   69.890    0.299    0.458   11.581
  236.736   69.862    0.299    0.466   11.645
  236.986   69.852    0.298    0.464   12.538
  237.236   69.861    0.299    0.452   12.922
  237.486   69.981    0.299    0.446   12.831
  237.736   70.993    0.299    0.442   11.039
  237.986   72.694    0.299    0.446   10.351
  238.236   72.665    0.297    0.443    9.772
  238.486   71.111    0.296    0.436    9.463
  238.736   70.352    0.295    0.441    9.429
  238.986   71.248    0.299    0.444   10.101
  239.236   73.321    0.302    0.447   10.672
  239.486   74.966    0.303    0.454   11.806
  239.736   72.783    0.302    0.458   12.113
  239.986   72.409    0.300    0.460   11.689
  240.236   72.126    0.298    0.462   10.381
  240.486   70.398    0.296    0.462    9.683
  240.736   69.394    0.297    0.464    8.848
  240.986   68.341    0.301    0.451    8.415
  241.236   68.421    0.305    0.435    8.473
  241.486   70.082    0.304    0.426    8.812
  241.736   70.842    0.290    0.441    9.367
  241.986   69.225    0.285    0.449    9.665
  242.236   68.747    0.294    0.451    9.700
  242.486   69.152    0.293    0.448    9.501
  242.736   69.411    0.287    0.457    9.503
  242.986   67.954    0.278    0.450    9.780
  243.236   69.105    0.290    0.439    9.879
  243.486   70.257    0.291    0.427    9.911
  243.736   68.668    0.285    0.435    9.386
  243.986   70.204    0.280    0.447    9.175
  244.236   71.308    0.288    0.462    8.906
  244.486   70.609    0.304    0.457    8.666
  244.736   69.181    0.311    0.442    8.670
  244.986   67.733    0.304    0.429    8.916
  245.236   67.872    0.302    0.421    9.399
  245.486   68.981    0.298    0.421    9.528
  245.736   69.329    0.302    0.422    9.818
  245.986   68.996    0.301    0.431    9.910
  246.236   69.469    0.308    0.439   10.208
  246.486   69.404    0.316    0.450   10.751
  246.736   69.017    0.306    0.461   11.296
  246.986   68.326    0.298    0.461   11.409
  247.236   68.244    0.301    0.456   11.759
  247.486   67.768    0.301    0.459   11.547
  247.736   67.811    0.297    0.453   10.747
  247.986   66.995    0.297    0.458    9.980
  248.236   66.977    0.309    0.464    9.223
  248.486   69.001    0.298    0.461    9.029
  248.736   70.280    0.302    0.442    9.063
  248.986   69.907    0.313    0.445    8.278
  249.236   68.751    0.311    0.459    8.322
  249.486   67.721    0.304    0.466    8.729
  249.736   67.647    0.301    0.468    9.587
  249.986   69.512    0.293    0.456   10.199
  250.236   71.941    0.295    0.462   10.507
  250.486   72.995    0.294    0.463   10.767
  250.736   73.212    0.290    0.457   10.245
  250.986   72.600    0.296    0.458    9.317
  251.236   73.509    0.306    0.458    8.476
  251.486   74.443    0.300    0.461    7.911
  251.736   73.898    0.303    0.466    7.322
  251.986   72.635    0.307    0.451    6.904
  252.236   71.273    0.304    0.450    6.849
  252.486   70.942    0.299    0.454    6.948
  252.736   76.168    0.285    0.466    6.986
  252.986   89.598    0.273    0.488    6.854
  253.236  103.860    0.252    0.499    6.721
  253.486  109.565    0.214    0.484    6.721
  253.736  109.109    0.172    0.480    6.852
  253.986  110.447    0.168    0.523    6.916
  254.236  115.578    0.165    0.529    7.125
  254.486  117.597    0.165    0.507    7.245
  254.736  115.341    0.162    0.486    7.327
  254.986  114.569    0.173    0.470    7.411
  255.236  115.186    0.173    0.458    7.549
  255.486  115.016    0.173    0.475    7.543
  255.736  113.280    0.179    0.489    7.544
  255.986  111.438    0.167    0.504    7.735
  256.236  103.281    0.183    0.514    7.996
  256.486   98.788    0.191    0.467    8.751
  256.736   96.217    0.192    0.445    8.910
  256.986  102.069    0.184    0.434    7.558
  257.236  109.215    0.177    0.439    6.194
  257.486  113.632    0.166    0.491    5.846
  257.736  117.048    0.175    0.505    5.950
  257.986  115.910    0.179    0.510    6.494
  258.236  114.565    0.169    0.494    5.856
  258.486  113.201    0.178    0.486    5.487
  258.736  112.249    0.185    0.483    5.465
  258.986  110.510    0.197    0.484    5.617
  259.236  109.569    0.199    0.495    5.610
  259.486  107.840    0.206    0.502    5.587
  259.736  104.688    0.219    0.513    5.842
  259.986   99.996    0.220    0.521    5.930
  260.236   95.586    0.213    0.506    6.244
  260.486   92.112    0.215    0.471    6.717
