~VERSION INFORMATION
 VERS.                 2.0:   CWLS LOG ASCII STANDARD -VERSION 2.0
 WRAP.                  NO:   ONE LINE PER DEPTH STEP
~WELL INFORMATION BLOCK
#MNEM.UNIT           DATA                    DESCRIPTION OF MNEMONIC
#---------    -------------------            -------------------------------
# Generated from Intellog Unique Number	CW_76_78/WELL/2577
WELL.         10-19-078-25W4                 : Well_name    - WELL
LOC .         00/10-19-078-25W4/0            : Location     - LOCATION
UWI .         00/10-19-078-25W4/0            : Uwi          - UNIQUE WELL ID
ENTR.         MAX                            : Entered      - ENTERED BY
SRVC.         COMPUTALOG                     : Scn          - SERVICE COMPANY
STRT.M        270                            : top_depth    - START DEPTH
STOP.M        500                            : bot_depth    - STOP DEPTH
STEP.M        0.25                           : increment    - STEP LENGTH
 NULL. -999.2500:NULL Value
~CURVE INFORMATION BLOCK
#MNEM UNIT       ERCB CURVE CODE    CURVE DESCRIPTION
#-----------   ------------------   ----------------------------------
DEPT.M        00 001 00 00         : DEPTH        - DEPTH
ILD .OHMM     00 120 00 00         : RESD         - DEEP RESISTIVITY (DIL)
NPHI.V/V      00 330 00 00         : PHIN         - NEUTRON POROSITY (SANDSTONE)
DPHI.V/V      00 890 00 00         : PHID         - DENSITY POROSITY (SANDSTONE)
CALI.MM       00 280 01 00         : CAL          - CALIPER
GR  .API      00 310 00 00         : GR           - GAMMA RAY
~PARAMETER INFORMATION
#MNEM.UNIT           DATA             DESCRIPTION OF MNEMONIC
#---------         -----------     ------------------------------
GL  .M        581.86               : gl           - GROUND LEVEL ELEVATION
EREF.M        586.11               : kb           - ELEVATION OF DEPTH REFERENCE
DATM.M        581.86               : datum        - DATUM ELEVATION
TDD .M        501                  : tdd          - TOTAL DEPTH DRILLER
RUN .         ONE                  : Run          - RUN NUMBER
ENG .         BILL                 : Engineer     - RECORDING ENGINEER
WIT .         JIM                  : Witness      - WITNESSED BY
MUD .         GEL                  : Mud_type     - MUD TYPE
MATR.         SANDSTONE            : Logunit      - NEUTRON MATRIX
TMAX.C        18                   : BHT          - MAXIMUM RECORDED TEMPERATURE
BHTD.M        501                  : BHTDEP       - MAXIMUM RECORDED TEMPERATURE
RMT .C        16                   : MDTP         - TEMPERATURE OF MUD
MUDD.KG/M     1100                 : MWT          - MUD DENSITY
NEUT.         1                    : NEUTRON      - NEUTRON TYPE
RESI.         0                    : RESIST       - RESISTIVITY TYPE
RM  .OHMM     4.4                  : RM           - RESISTIVITY OF MUD
RMC .OHMM     4.1                  : RMC          - RESISTIVITY OF MUD CAKE
RMF .OHMM     5.4                  : RMF          - RESISTIVITY OF MUD FILTRATE
SUFT.C        -10                  : SUFT         - SURFACE TEMPERATURE
~A  DEPTH     RESD     PHIN     PHID      CAL       GR
# ...
  343.000    7.833    0.336    0.234  196.891   68.708
  343.250    7.982    0.370    0.247  196.902   69.009
  343.500    7.844    0.409    0.262  196.908   68.715
  343.750    7.637    0.440    0.290  196.908   70.502
  344.000    7.107    0.465    0.294  196.917   76.451
  344.250    6.612    0.481    0.283  197.418   69.319
  344.500    5.468    0.452    0.270  198.911   66.051
  344.750    5.228    0.438    0.242  198.421   60.108
  345.000    4.864    0.482    0.225  197.930   57.732
  345.250    4.445    0.405    0.191  197.440   52.086
  345.500    3.917    0.244    0.177  199.426   52.386
  345.750    3.238    0.294    0.292  210.829   65.472
  346.000    3.013    0.571    0.456  214.799   66.962
  346.250    3.015    0.518    0.394  209.849   68.154
  346.500    3.129    0.479    0.309  203.907   72.915
  346.750    3.368    0.437    0.293  199.454   80.352
  347.000    4.005    0.412    0.291  197.477   78.868
  347.250    4.429    0.422    0.276  196.490   82.736
  347.500    5.414    0.397    0.262  196.496   85.713
  347.750    5.619    0.395    0.254  196.006   83.337
  348.000    5.372    0.384    0.243  196.010   84.827
  348.250    5.137    0.381    0.239  196.015   88.398
  348.500    5.048    0.443    0.246  196.517   84.238
  348.750    5.098    0.506    0.255  196.521   84.539
  349.000    5.195    0.479    0.252  196.526   84.245
  349.250    5.343    0.424    0.239  196.535   81.869
  349.500    5.346    0.377    0.219  196.537   77.710
  349.750    5.399    0.367    0.211  196.543   78.605
  350.000    5.552    0.367    0.206  196.547   80.986
  350.250    5.814    0.424    0.218  197.048   79.206
  350.500    6.314    0.459    0.243  197.054   75.938
  350.750    7.442    0.486    0.264  197.059   72.969
  351.000    8.009    0.451    0.277  197.560   70.295
  351.250    8.777    0.446    0.285  198.061   64.649
  351.500    9.620    0.432    0.273  198.061   61.084
  351.750    9.892    0.418    0.267  198.567   61.979
  352.000   10.082    0.437    0.272  199.564   61.685
  352.250   10.089    0.417    0.274  199.572   61.392
  352.500   10.094    0.408    0.269  199.575   65.557
  352.750   10.107    0.393    0.264  199.575   66.750
  353.000   10.108    0.387    0.267  199.585   66.157
  353.250   10.108    0.389    0.279  199.589   63.486
  353.500   10.217    0.414    0.293  199.099   61.110
  353.750   10.601    0.441    0.298  198.612   59.626
  354.000   10.802    0.456    0.302  198.614   58.737
  354.250   11.314    0.436    0.305  198.618   57.849
  354.500   11.529    0.457    0.309  198.618   58.149
  354.750   11.857    0.443    0.315  198.631   56.665
  355.000   12.193    0.414    0.317  198.634   51.911
  355.250   12.315    0.425    0.316  198.143   49.536
  355.500   12.315    0.462    0.317  198.143   51.322
  355.750   12.441    0.470    0.319  197.165   50.732
  356.000   12.449    0.429    0.325  196.673   51.032
  356.250   12.235    0.439    0.322  196.183   54.603
  356.500   12.023    0.438    0.322  196.189   62.039
  356.750   11.709    0.421    0.326  196.193   60.556
  357.000   11.709    0.408    0.328  195.706   59.666
  357.250   11.618    0.438    0.322  195.708   61.156
  357.500   11.108    0.443    0.317  195.713   62.646
  357.750   11.116    0.479    0.312  195.719   68.002
  358.000   11.124    0.520    0.303  195.724   67.411
  358.250   11.233    0.466    0.285  195.729   66.818
  358.500   11.344    0.374    0.284  195.734   69.795
  358.750   11.149    0.361    0.284  195.743   77.528
  359.000   10.855    0.387    0.270  196.241   76.937
  359.250   10.475    0.442    0.207  196.246   73.967
  359.500   10.475    0.421    0.222  196.746   67.131
  359.750   10.029    0.337    0.244  196.752   62.972
  360.000    9.586    0.330    0.224  196.756   62.975
  360.250    9.000    0.396    0.204  196.266   83.197
  360.500    8.076    0.435    0.236  196.272   88.552
  360.750    7.514    0.433    0.258  195.782   85.879
  361.000    6.929    0.531    0.220  195.787   73.691
  361.250    6.626    0.489    0.263  195.792   68.343
  361.500    6.753    0.421    0.255  195.797   64.778
  361.750    7.201    0.374    0.241  195.803   61.511
  362.000    7.749    0.354    0.215  195.803   64.487
  362.250    8.043    0.354    0.208  196.310   76.383
  362.500    8.048    0.388    0.223  196.313   85.603
  362.750    7.909    0.404    0.232  196.319   84.418
  363.000    7.909    0.391    0.235  196.325   84.421
  363.250    7.637    0.366    0.233  196.329   86.803
  363.500    7.302    0.374    0.225  196.830   87.995
  363.750    7.241    0.479    0.216  198.323   90.079
  364.000    7.115    0.457    0.216  200.804   93.650
  364.250    7.057    0.418    0.210  201.306   99.600
  364.500    6.997    0.378    0.204  201.310  106.739
  364.750    6.997    0.374    0.216  201.811  101.093
  365.000    7.007    0.398    0.214  202.313   91.879
  365.250    6.824    0.377    0.204  202.814   88.612
  365.500    6.766    0.380    0.204  202.323   88.615
  365.750    6.771    0.404    0.198  201.833   90.996
  366.000    6.654    0.418    0.192  201.342   94.864
  366.250    6.542    0.431    0.200  200.851  102.598
  366.500    6.425    0.434    0.201  201.848   98.141
  366.750    6.089    0.413    0.196  204.331  100.523
  367.000    6.093    0.400    0.188  205.824  102.905
  367.250    6.617    0.440    0.195  205.828   84.177
  367.500    7.185    0.438    0.202  204.347   82.693
  367.750    7.664    0.430    0.206  201.874   84.777
  368.000    7.598    0.447    0.216  199.402   89.538
  368.250    7.333    0.460    0.223  198.911   94.595
  368.500    7.210    0.437    0.220  198.917   97.572
  368.750    7.082    0.422    0.221  199.914   96.386
  369.000    6.895    0.381    0.215  201.405   90.443
  369.250    6.963    0.402    0.211  203.393   91.338
  369.500    7.160    0.432    0.212  203.398   90.449
  369.750    7.636    0.403    0.206  202.908   79.451
  370.000    8.070    0.390    0.206  202.914   75.886
  370.250    8.451    0.428    0.201  202.917   77.970
  370.500    8.850    0.408    0.189  202.923   80.947
  370.750    9.101    0.395    0.205  202.928   77.679
  371.000    9.107    0.381    0.231  202.936   80.655
  371.250    8.630    0.352    0.242  202.939   88.389
  371.500    8.179    0.344    0.239  203.439   86.906
  371.750    8.036    0.373    0.233  204.436   72.637
  372.000    7.970    0.446    0.245  205.928   70.262
  372.250    8.194    0.444    0.249  206.924   72.049
  372.500    8.126    0.386    0.245  208.416   83.648
  372.750    7.771    0.375    0.211  209.908   94.652
  373.000    7.430    0.425    0.208  212.391   95.250
  373.250    7.430    0.390    0.208  213.387   96.443
  373.500    7.048    0.376    0.201  213.392   95.256
  373.750    7.051    0.481    0.216  211.911   79.798
  374.000    7.588    0.489    0.243  209.934   74.449
  374.250    8.468    0.466    0.255  207.957   74.156
  374.500    9.450    0.429    0.249  205.980   74.754
  374.750   10.171    0.435    0.249  204.499   75.649
  375.000   10.087    0.438    0.264  203.513   75.948
  375.250    9.912    0.460    0.260  202.526   74.762
  375.500    9.919    0.445    0.257  202.532   74.468
  375.750   10.386    0.431    0.258  203.032   72.687
  376.000   11.383    0.428    0.253  203.533   68.528
  376.250   12.475    0.435    0.244  203.539   64.963
  376.500   13.675    0.414    0.223  203.545   65.859
  376.750   13.806    0.379    0.222  203.550   64.375
  377.000   13.322    0.391    0.244  203.550   64.973
  377.250   12.624    0.373    0.260  203.064   66.165
  377.500   11.961    0.494    0.262  202.078   68.844
  377.750   11.131    0.469    0.259  202.078   72.118
  378.000   10.452    0.448    0.254  202.090   77.473
  378.250    9.814    0.408    0.250  201.598   78.368
  378.500    9.814    0.393    0.240  202.100   82.534
  378.750    9.478    0.386    0.239  202.105   86.997
  379.000    8.819    0.376    0.237  202.606   91.162
  379.250    8.589    0.361    0.228  202.610   97.707
