~VERSION INFORMATION
 VERS.                 2.0:   CWLS LOG ASCII STANDARD -VERSION 2.0
 WRAP.                  NO:   ONE LINE PER DEPTH STEP
~WELL INFORMATION BLOCK
#MNEM.UNIT           DATA                    DESCRIPTION OF MNEMONIC
#---------    -------------------            -------------------------------
# Generated from Intellog Unique Number	CC_80_83/WELL/2399
NULL.         -999.25                        : NULL_VALUE
WELL.         PEX HOUSE                      : Well_name    - WELL
LOC .         11-17-080-15W4                 : Location     - LOCATION          
UWI .         00/11-17-080-15W4/0            : Uwi          - UNIQUE WELL ID    
ENTR.         DW                             : Entered      - ENTERED BY        
SRVC.         SCHLUMBERGER                   : Scn          - SERVICE COMPANY   
DATE.         27 JAN 82                      : Date         - LOG DATE
STRT.M        150                            : top_depth    - START DEPTH       
STOP.M        384.896                        : bot_depth    - STOP DEPTH        
STEP.M        0.3                            : increment    - STEP LENGTH       
~CURVE INFORMATION BLOCK
#MNEM UNIT       ERCB CURVE CODE    CURVE DESCRIPTION
#-----------   ------------------   ----------------------------------
DEPT.M        00 001 00 00         : DEPTH        - DEPTH                       
ILD .OHMM     00 120 00 00         : RESD         - DEEP RESISTIVITY (DIL)      
GR  .API      00 310 00 00         : GR           - GAMMA RAY                   
NPHI.V/V      00 330 00 00         : PHIN         - NEUTRON POROSITY (LIMESTONE)
DPHI.V/V      00 890 00 00         : PHID         - DENSITY POROSITY (LIMESTONE)
~PARAMETER INFORMATION       
#MNEM.UNIT           DATA             DESCRIPTION OF MNEMONIC
#---------         -----------     ------------------------------
GL  .M        595.9                : gl           - GROUND LEVEL ELEVATION      
EREF.M        599.6                : kb           - ELEVATION OF DEPTH REFERENCE
DATM.M        599.6                : datum        - DATUM ELEVATION             
TDD .M        385                  : tdd          - TOTAL DEPTH DRILLER         
RUN .         ONE                  : Run          - RUN NUMBER                  
ENG .         BILL                 : Engineer     - RECORDING ENGINEER          
WIT .         JIM                  : Witness      - WITNESSED BY                
MUD .         GEL                  : Mud_type     - MUD TYPE                    
MATR.         LIMESTONE            : Logunit      - NEUTRON MATRIX              
TMAX.C        18.8                 : BHT          - MAXIMUM RECORDED TEMPERATURE
BHTD.M        388                  : BHTDEP       - MAXIMUM RECORDED TEMPERATURE
MATR.         1                    : LOGUNIT      - NEUTRON MATRIX              
RMT .C        25                   : MDTP         - TEMPERATURE OF MUD          
NEUT.         1                    : NEUTRON      - NEUTRON TYPE                
RESI.         0                    : RESIST       - RESISTIVITY TYPE            
RMC .OHMM     0.25                 : RMC          - RESISTIVITY OF MUD CAKE     
RMF .OHMM     0.25                 : RMF          - RESISTIVITY OF MUD FILTRATE 
SUFT.C        15                   : SUFT         - SURFACE TEMPERATURE         
~A  DEPTH     RESD       GR     PHIN     PHID
# ...
  306.599    9.437   85.038    0.470    0.167
  306.899    9.618   72.100    0.377    0.082
  307.199    9.256   62.235    0.337    0.149
  307.499    8.575   59.125    0.366    0.193
  307.799    8.096   63.392    0.423    0.266
  308.099    7.941   70.108    0.454    0.266
  308.399    7.940   71.313    0.447    0.233
  308.699    8.092   66.977    0.442    0.240
  308.999    8.090   68.160    0.446    0.286
  309.299    8.245   66.907    0.457    0.263
  309.599    8.402   62.568    0.468    0.280
  309.899    9.599   67.448    0.436    0.297
  310.199   11.180   68.644    0.272    0.117
  310.499   11.611   57.552    0.228    0.000
  310.799   11.610   50.759    0.300    0.110
  311.099   10.352   59.322    0.405    0.203
  311.399    8.553   65.431    0.452    0.242
  311.699    7.483   68.465    0.434    0.247
  311.999    7.481   70.264    0.423    0.263
  312.299    7.064   70.859    0.429    0.265
  312.599    7.063   69.592    0.440    0.242
  312.899    7.061   63.412    0.444    0.222
  313.199    6.926   62.152    0.444    0.221
  313.499    6.926   65.806    0.470    0.239
  313.799    6.793   67.605    0.483    0.251
  314.099    6.792   65.728    0.473    0.265
  314.399    6.791   64.461    0.469    0.272
  314.699    6.789   65.661    0.489    0.249
  314.999    6.788   68.086    0.497    0.233
  315.299    6.787   71.740    0.478    0.232
  315.599    7.049   72.318    0.400    0.247
  315.899    7.047   72.894    0.417    0.243
  316.199    7.046   73.476    0.436    0.224
  316.499    6.912   74.057    0.441    0.232
  316.799    6.282   74.020    0.452    0.197
  317.099    5.819   74.597    0.476    0.191
  317.399    5.495   77.025    0.453    0.192
  317.699    4.900   78.220    0.440    0.166
  317.999    4.287   81.254    0.454    0.182
  318.299    4.369   86.138    0.475    0.177
  318.599    4.805   97.778    0.479    0.179
  318.899    5.490   92.821    0.479    0.165
  319.199    6.154   89.096    0.461    0.149
  319.499    7.735   89.069    0.440    0.173
  319.798    8.188   85.964    0.435    0.200
  320.098    8.345   73.640    0.383    0.123
  320.398    8.343   69.912    0.395    0.123
  320.698    8.184   74.799    0.420    0.208
  320.998    8.027   79.062    0.437    0.223
  321.298    8.181   77.792    0.429    0.214
  321.598    8.660   74.685    0.424    0.183
  321.898    8.826   74.042    0.448    0.168
  322.198    9.168   76.465    0.434    0.162
  322.498    9.165   80.114    0.427    0.163
  322.798    8.820   80.084    0.437    0.189
  323.098    8.818   80.048    0.457    0.199
  323.398    8.987   76.933    0.477    0.198
  323.698    9.158   76.908    0.461    0.175
  323.998    9.695   84.248    0.448    0.165
  324.298    9.881   78.060    0.445    0.171
  324.598   10.069   74.345    0.446    0.208
  324.898    9.876   78.611    0.432    0.207
  325.198    9.875   80.410    0.420    0.177
  325.498   10.256   78.543    0.425    0.156
  325.798   10.452   77.274    0.396    0.151
  326.098   10.651   80.931    0.389    0.113
  326.398   10.448   80.892    0.398    0.118
  326.698    9.679   82.701    0.409    0.134
  326.998    7.846   88.201    0.407    0.145
  327.298    6.864   97.382    0.405    0.143
  327.598    6.005  102.874    0.413    0.127
  327.898    5.891   94.235    0.434    0.108
  328.198    5.457   87.440    0.452    0.111
  328.498    5.055   87.411    0.457    0.154
  328.798    2.643   88.598    0.519    0.167
  329.098    2.062   85.490    0.579    0.188
  329.398    1.910   81.778    0.610    0.220
  329.698    2.142   74.983    0.625    0.242
  329.998    2.796   74.947    0.599    0.252
  330.298    3.651   69.375    0.478    0.201
  330.598    4.859   63.819    0.447    0.150
  330.898    6.719   65.619    0.447    0.196
  331.198    7.677   71.121    0.446    0.207
  331.498    8.772   72.932    0.446    0.208
  331.798    8.939   67.358    0.381    0.215
  332.098    8.281   65.480    0.379    0.116
  332.398    6.974   67.296    0.395    0.123
  332.698    4.761   77.091    0.431    0.167
  332.998    3.787   84.430    0.469    0.151
  333.298    3.576   85.620    0.490    0.174
  333.598    4.008   78.830    0.492    0.202
  333.898    4.579   73.262    0.446    0.206
  334.198    4.407   73.846    0.394    0.161
  334.498    4.083   79.342    0.423    0.145
  334.798    3.572   86.680    0.458    0.168
  335.098    3.309   93.399    0.501    0.191
  335.398    3.372   95.824    0.503    0.206
  335.698    3.780   88.416    0.464    0.128
  335.998    4.157   85.306    0.421    0.109
  336.298    4.401   92.648    0.432    0.163
  336.598    4.317  104.905    0.460    0.184
  336.898    4.077  109.169    0.478    0.156
  337.198    3.923   98.073    0.473    0.177
  337.498    4.075   97.426    0.469    0.177
  337.798    4.397  100.462    0.437    0.148
  338.098    5.024   93.668    0.407    0.121
  338.398    6.687   77.046    0.385    0.129
  338.698   10.566   57.344    0.341    0.198
  338.998   13.280   56.697    0.370    0.213
  339.298   14.605   65.880    0.425    0.205
  339.598   11.181   65.228    0.447    0.218
  339.898    5.018   57.825    0.374    0.216
  340.198    3.842   63.930    0.440    0.194
  340.498    3.492   82.332    0.528    0.205
  340.798    4.145   82.296    0.408    0.201
  341.098    4.736   65.057    0.342    0.148
  341.398    9.229   59.487    0.322    0.047
  341.698   14.307   66.831    0.385    0.127
  341.998   15.736   77.237    0.381    0.163
  342.298   17.640   74.743    0.371    0.200
  342.598   21.341   58.124    0.340    0.238
  342.898   21.748   56.243    0.321    0.236
  343.198   20.931   61.121    0.315    0.152
  343.498   20.529   76.454    0.397    0.161
  343.798   21.325   98.538    0.433    0.197
  344.098   25.312   92.971    0.428    0.215
  344.397   28.923   84.336    0.398    0.230
  344.697   31.809   75.085    0.369    0.218
  344.997   30.613   66.445    0.364    0.206
  345.297   26.276   62.104    0.356    0.224
  345.597   23.431   63.306    0.359    0.232
  345.897   20.894   70.641    0.363    0.188
  346.197   18.989   80.435    0.363    0.190
  346.497   18.276   84.692    0.360    0.171
  346.797   18.271   86.513    0.356    0.159
  347.097   18.621   84.637    0.355    0.166
  347.397   21.276   80.302    0.350    0.146
  347.697   26.741   69.818    0.339    0.144
  347.997   26.735   64.869    0.332    0.187
  348.297   24.767   64.222    0.329    0.191
  348.597   20.857   72.174    0.349    0.158
  348.897   19.322   84.427    0.385    0.173
  349.197   18.954   86.852    0.379    0.164
  349.497   23.373   63.468    0.351    0.101
  349.797   28.278   56.060    0.328    0.107
  350.097   16.334   77.359    0.397    0.170
  350.397   15.417   83.571    0.378    0.114
  350.697   17.582   86.677    0.385    0.052
  350.997   18.957   89.790    0.394    0.105
  351.297   21.619   83.001    0.385    0.162
  351.597   22.023   74.353    0.370    0.183
  351.897   20.393   66.945    0.365    0.200
  352.197   15.614   71.298    0.374    0.218
  352.497   13.915   77.502    0.414    0.181
  352.797   14.998   84.945    0.395    0.125
  353.097   17.115   89.295    0.384    0.148
  353.397   18.101   78.177    0.386    0.173
  353.697   18.773   73.861    0.389    0.186
  353.997   18.756   75.121    0.388    0.187
  354.297   19.096   77.611    0.398    0.186
  354.597   19.448   78.865    0.396    0.201
  354.897   21.768   78.880    0.421    0.204
  355.197   22.593   73.329    0.431    0.213
  355.497   23.894   68.396    0.399    0.217
  355.797   24.322   73.367    0.394    0.197
  356.097   22.951   78.344    0.401    0.182
  356.397   22.499   78.977    0.412    0.175
  356.697   22.907   79.609    0.416    0.194
  356.997   24.684   79.009    0.405    0.205
  357.297   27.117   76.549    0.387    0.198
  357.597   30.948   69.140    0.381    0.199
  357.897   34.002   59.256    0.405    0.237
  358.197   35.955   66.088    0.391    0.264
  358.497   36.593   66.715    0.385    0.218
