~VERSION INFORMATION
 VERS.                 2.0:   CWLS LOG ASCII STANDARD -VERSION 2.0
 WRAP.                  NO:   ONE LINE PER DEPTH STEP
~WELL INFORMATION BLOCK
#MNEM.UNIT           DATA                    DESCRIPTION OF MNEMONIC
#---------    -------------------            -------------------------------
# Generated from Intellog Unique Number	CS_71_72/WELL/923
WELL.         BRENDA IPIATIK                 : Well_name    - WELL
LOC .         00/14-04-071-09W4/0            : Location     - LOCATION
UWI .         00/14-04-071-09W4/0            : Uwi          - UNIQUE WELL ID
ENTR.         SP                             : Entered      - ENTERED BY
SRVC.         SCHLUMBERGER                   : Scn          - SERVICE COMPANY
STRT.M        250                            : top_depth    - START DEPTH
STOP.M        450                            : bot_depth    - STOP DEPTH
STEP.M        0.25                           : increment    - STEP LENGTH
 NULL. -999.2500:NULL Value
~CURVE INFORMATION BLOCK
#MNEM UNIT       ERCB CURVE CODE    CURVE DESCRIPTION
#-----------   ------------------   ----------------------------------
DEPT.M        00 001 00 00         : DEPTH        - DEPTH
ILD .OHMM     00 120 00 00         : RESD         - DEEP RESISTIVITY (DIL)
DPHI.V/V      00 890 00 00         : PHID         - DENSITY POROSITY (LIMESTONE)
NPHI.V/V      00 330 00 00         : PHIN         - NEUTRON POROSITY (LIMESTONE)
GR  .API      00 310 00 00         : GR           - GAMMA RAY
~PARAMETER INFORMATION
#MNEM.UNIT           DATA             DESCRIPTION OF MNEMONIC
#---------         -----------     ------------------------------
GL  .M        604.92               : gl           - GROUND LEVEL ELEVATION
EREF.M        608.28               : kb           - ELEVATION OF DEPTH REFERENCE
DATM.M        604.92               : datum        - DATUM ELEVATION
TDD .M        460                  : tdd          - TOTAL DEPTH DRILLER
RUN .         ONE                  : Run          - RUN NUMBER
ENG .         BILL                 : Engineer     - RECORDING ENGINEER
WIT .         JIM                  : Witness      - WITNESSED BY
MUD .         GEL                  : Mud_type     - MUD TYPE
MATR.         LIMESTONE            : Logunit      - NEUTRON MATRIX
TMAX.C        15                   : BHT          - MAXIMUM RECORDED TEMPERATURE
BHTD.M        460                  : BHTDEP       - MAXIMUM RECORDED TEMPERATURE
MATR.         1                    : LOGUNIT      - NEUTRON MATRIX
RMT .C        25                   : MDTP         - TEMPERATURE OF MUD
NEUT.         1                    : NEUTRON      - NEUTRON TYPE
RESI.         0                    : RESIST       - RESISTIVITY TYPE
RMC .OHMM     0.25                 : RMC          - RESISTIVITY OF MUD CAKE
RMF .OHMM     0.25                 : RMF          - RESISTIVITY OF MUD FILTRATE
SUFT.C        15                   : SUFT         - SURFACE TEMPERATURE
~A  DEPTH     RESD     PHID     PHIN       GR
# ...
  337.000   13.781    0.378    0.465   55.761
  337.250   13.776    0.370    0.456   56.498
  337.500   13.770    0.369    0.452   57.113
  337.750   13.736    0.376    0.447   57.485
  338.000   13.599    0.383    0.452   57.733
  338.250   13.742    0.384    0.464   58.350
  338.500   13.714    0.379    0.465   58.780
  338.750   13.300    0.382    0.472   59.699
  339.000   13.293    0.386    0.483   62.024
  339.250   13.285    0.365    0.494   62.575
  339.500   13.205    0.357    0.483   62.764
  339.750   13.075    0.349    0.468   61.367
  340.000   12.920    0.341    0.462   58.386
  340.250   12.791    0.341    0.461   55.770
  340.500   12.691    0.344    0.459   54.312
  340.750   12.542    0.355    0.460   54.928
  341.000   12.465    0.364    0.467   56.702
  341.250   12.364    0.366    0.463   58.230
  341.500   12.289    0.359    0.460   59.821
  341.750   12.189    0.365    0.462   60.375
  342.000   12.183    0.369    0.472   59.526
  342.250   12.083    0.377    0.479   55.874
  342.500   12.011    0.373    0.487   55.940
  342.750   11.914    0.370    0.486   58.140
  343.000   11.907    0.367    0.491   59.974
  343.250   11.901    0.357    0.500   58.821
  343.500   11.894    0.366    0.510   59.620
  343.750   11.979    0.344    0.505   61.575
  344.000   12.063    0.335    0.495   63.044
  344.250   12.193    0.338    0.483   61.769
  344.500   12.320    0.354    0.480   58.239
  344.750   12.295    0.360    0.478   57.147
  345.000   12.288    0.367    0.478   57.092
  345.250   12.166    0.362    0.478   57.219
  345.500   11.845    0.349    0.483   57.531
  345.750   11.488    0.340    0.478   58.024
  346.000   11.375    0.345    0.474   58.271
  346.250   11.584    0.352    0.471   59.191
  346.500   11.840    0.354    0.470   60.782
  346.750   11.969    0.353    0.469   62.922
  347.000   12.120    0.356    0.464   64.511
  347.250   12.183    0.358    0.458   65.734
  347.500   12.107    0.361    0.454   65.558
  347.750   11.943    0.353    0.467   62.271
  348.000   11.715    0.341    0.482   61.606
  348.250   11.556    0.339    0.477   61.916
  348.500   11.658    0.353    0.462   62.227
  348.750   12.120    0.359    0.454   62.049
  349.000   12.205    0.353    0.457   61.689
  349.250   12.222    0.351    0.465   61.085
  349.500   12.192    0.354    0.467   59.688
  349.750   12.140    0.355    0.462   58.353
  350.000   12.088    0.353    0.464   57.566
  350.250   12.036    0.347    0.468   56.962
  350.500   12.006    0.350    0.473   56.906
  350.750   12.021    0.349    0.469   57.400
  351.000   11.994    0.349    0.463   58.197
  351.250   11.988    0.350    0.457   57.653
  351.500   12.004    0.353    0.454   56.440
  351.750   11.996    0.355    0.456   56.141
  352.000   11.945    0.357    0.467   57.121
  352.250   11.872    0.354    0.472   59.443
  352.500   11.689    0.351    0.467   61.947
  352.750   11.315    0.355    0.462   62.928
  353.000   10.750    0.364    0.472   61.653
  353.250   10.349    0.371    0.514   64.463
  353.500   10.323    0.357    0.566   67.759
  353.750   10.957    0.091    0.372   71.971
  354.000   11.369    0.069    0.340   75.695
  354.250   11.471    0.087    0.328   79.114
  354.500   11.379    0.133    0.359   80.641
  354.750   10.670    0.207    0.425   80.282
  355.000    9.492    0.232    0.479   82.359
  355.250    8.555    0.245    0.472   84.682
  355.500    8.190    0.237    0.486   85.844
  355.750    7.840    0.231    0.487   88.226
  356.000    7.477    0.240    0.478   91.889
  356.250    7.104    0.247    0.468   94.211
  356.500    6.826    0.242    0.473   94.886
  356.750    6.534    0.217    0.474   93.002
  357.000    6.337    0.203    0.478   88.619
  357.250    6.393    0.201    0.488   84.907
  357.500    6.646    0.216    0.500   82.169
  357.750    7.001    0.233    0.506   81.748
  358.000    7.320    0.251    0.484   83.642
  358.250    7.610    0.259    0.456   85.660
  358.500    7.823    0.247    0.444   86.457
  358.750    7.907    0.237    0.442   85.244
  359.000    7.855    0.251    0.441   83.969
  359.250    7.780    0.271    0.450   85.377
  359.500    7.633    0.261    0.452   88.187
  359.750    7.306    0.250    0.448   89.532
  360.000    7.045    0.241    0.457   89.781
  360.250    7.003    0.237    0.470   89.543
  360.500    7.025    0.241    0.477   91.072
  360.750    7.127    0.242    0.464   91.686
  361.000    7.205    0.240    0.465   90.778
  361.250    7.255    0.243    0.475   87.797
  361.500    7.250    0.237    0.478   90.057
  361.750    7.219    0.232    0.485   93.538
  362.000    7.108    0.230    0.500   95.006
  362.250    6.985    0.229    0.512   94.462
  362.500    6.865    0.234    0.514   92.822
  362.750    6.759    0.230    0.505   92.461
  363.000    6.642    0.220    0.500   92.468
  363.250    6.491    0.222    0.497   91.863
  363.500    6.283    0.232    0.495   90.344
  363.750    6.094    0.235    0.504   91.325
  364.000    5.878    0.232    0.514   93.465
  364.250    5.543    0.231    0.509   94.810
  364.500    5.024    0.231    0.506   95.549
  364.750    4.445    0.230    0.516   95.492
  365.000    3.682    0.233    0.528   94.463
  365.250    2.746    0.243    0.568   93.797
  365.500    2.462    0.257    0.578   94.532
  365.750    2.334    0.267    0.587   96.427
  366.000    2.315    0.272    0.567   97.712
  366.250    2.389    0.262    0.565   97.718
  366.500    2.673    0.252    0.569   99.674
  366.750    3.069    0.244    0.536  100.716
  367.000    3.401    0.230    0.537  100.416
  367.250    3.748    0.216    0.543   97.313
  367.500    4.208    0.222    0.530   92.503
  367.750    4.672    0.244    0.495   88.181
  368.000    5.043    0.263    0.483   88.979
  368.250    5.302    0.266    0.485   89.899
  368.500    5.481    0.255    0.496   88.685
  368.750    5.572    0.247    0.505   86.009
  369.000    5.641    0.243    0.506   82.844
  369.250    5.640    0.268    0.508   78.767
  369.500    5.605    0.287    0.519   76.822
  369.750    5.539    0.278    0.529   75.669
  370.000    5.515    0.273    0.534   78.538
  370.250    5.523    0.277    0.531   82.323
  370.500    5.603    0.286    0.517   79.768
  370.750    5.739    0.292    0.503   75.263
  371.000    5.932    0.303    0.498   74.598
  371.250    6.008    0.315    0.490   77.590
  371.500    6.106    0.297    0.485   78.328
  371.750    6.161    0.294    0.480   77.784
  372.000    6.286    0.305    0.481   73.766
  372.250    6.401    0.309    0.502   71.516
  372.500    6.446    0.315    0.507   73.716
  372.750    6.516    0.332    0.491   76.464
  373.000    6.599    0.332    0.485   75.555
  373.250    6.657    0.329    0.492   78.365
  373.500    6.704    0.325    0.495   80.320
  373.750    6.713    0.313    0.491   83.008
  374.000    6.709    0.295    0.478   83.561
  374.250    6.692    0.271    0.462   84.299
  374.500    6.639    0.257    0.455   87.718
  374.750    6.549    0.254    0.451   89.430
  375.000    6.484    0.263    0.451   90.714
  375.250    6.492    0.255    0.444   91.391
  375.500    6.576    0.250    0.432   88.958
  375.750    6.696    0.253    0.430   84.819
  376.000    6.769    0.263    0.435   83.787
  376.250    6.842    0.275    0.443   84.951
  376.500    6.928    0.266    0.447   85.689
  376.750    6.832    0.263    0.469   86.181
  377.000    6.741    0.259    0.481   88.808
  377.250    6.381    0.253    0.474   91.313
  377.500    6.051    0.246    0.468   92.416
  377.750    5.781    0.240    0.476   92.542
  378.000    5.575    0.232    0.484   90.596
  378.250    5.458    0.220    0.489   85.360
  378.500    5.466    0.210    0.473   87.864
  378.750    5.463    0.202    0.463   87.809
  379.000    5.491    0.207    0.464   84.219
  379.250    5.529    0.217    0.467   84.834
  379.500    5.609    0.227    0.470   86.058
  379.750    5.670    0.241    0.474   86.917
  380.000    5.709    0.247    0.477   88.873
  380.250    5.696    0.238    0.479   91.377
