~VERSION INFORMATION
 VERS.                 2.0:   CWLS LOG ASCII STANDARD -VERSION 2.0
 WRAP.                  NO:   ONE LINE PER DEPTH STEP
~WELL INFORMATION BLOCK
#MNEM.UNIT           DATA                    DESCRIPTION OF MNEMONIC
#---------    -------------------            -------------------------------
# Generated from Intellog Unique Number	CS_67_68/WELL/2208
WELL.         MANNVILLE ET AL ATMORE         : Well_name    - WELL
LOC .         00/11-22-067-15W4/0            : Location     - LOCATION
UWI .         00/11-22-067-15W4/0            : Uwi          - UNIQUE WELL ID
ENTR.         SP                             : Entered      - ENTERED BY
SRVC.         SCHLUMBERGER                   : Scn          - SERVICE COMPANY
STRT.M        330                            : top_depth    - START DEPTH
STOP.M        540                            : bot_depth    - STOP DEPTH
STEP.M        0.25                           : increment    - STEP LENGTH
 NULL. -999.2500:NULL Value
~CURVE INFORMATION BLOCK
#MNEM UNIT       ERCB CURVE CODE    CURVE DESCRIPTION
#-----------   ------------------   ----------------------------------
DEPT.M        00 001 00 00         : DEPTH        - DEPTH
ILD .OHMM     00 120 00 00         : RESD         - DEEP RESISTIVITY (DIL)
DPHI.V/V      00 890 00 00         : PHID         - DENSITY POROSITY (LIMESTONE)
NPHI.V/V      00 330 00 00         : PHIN         - NEUTRON POROSITY (LIMESTONE)
GR  .API      00 310 00 00         : GR           - GAMMA RAY
CALI.MM       00 280 01 00         : CAL          - CALIPER
~PARAMETER INFORMATION
#MNEM.UNIT           DATA             DESCRIPTION OF MNEMONIC
#---------         -----------     ------------------------------
GL  .M        580.3                : gl           - GROUND LEVEL ELEVATION
EREF.M        583.5                : kb           - ELEVATION OF DEPTH REFERENCE
DATM.M        583.5                : datum        - DATUM ELEVATION
TDD .M        542.5                : tdd          - TOTAL DEPTH DRILLER
RUN .         ONE                  : Run          - RUN NUMBER
ENG .         BILL                 : Engineer     - RECORDING ENGINEER
WIT .         JIM                  : Witness      - WITNESSED BY
MUD .         GEL                  : Mud_type     - MUD TYPE
MATR.         LIMESTONE            : Logunit      - NEUTRON MATRIX
TMAX.C        16.6                 : BHT          - MAXIMUM RECORDED TEMPERATURE
BHTD.M        540                  : BHTDEP       - MAXIMUM RECORDED TEMPERATURE
MATR.         1                    : LOGUNIT      - NEUTRON MATRIX
RMT .C        25                   : MDTP         - TEMPERATURE OF MUD
NEUT.         1                    : NEUTRON      - NEUTRON TYPE
RESI.         0                    : RESIST       - RESISTIVITY TYPE
RMC .OHMM     0.25                 : RMC          - RESISTIVITY OF MUD CAKE
RMF .OHMM     0.25                 : RMF          - RESISTIVITY OF MUD FILTRATE
SUFT.C        15                   : SUFT         - SURFACE TEMPERATURE
~A  DEPTH     RESD     PHID     PHIN       GR      CAL
# ...
  476.000    4.442    0.179    0.371  111.330  167.082
  476.250    4.478    0.169    0.394  103.153  167.191
  476.500    4.564    0.141    0.399   94.610  167.605
  476.750    4.080    0.109    0.392   92.661  167.917
  477.000    3.092    0.100    0.401   96.145  168.535
  477.250    2.574    0.145    0.404   99.446  169.253
  477.500    2.336    0.147    0.390  101.465  173.432
  477.750    2.080    0.129    0.425  102.201  193.789
  478.000    1.978    0.152    0.515  100.374  222.896
  478.250    1.935    0.181    0.514   97.936  223.616
  478.500    1.947    0.200    0.510   98.612  217.416
  478.750    1.948    0.214    0.512  102.768  211.928
  479.000    1.971    0.246    0.505  106.129  208.679
  479.250    2.032    0.210    0.500  109.369  208.787
  479.500    2.086    0.162    0.502  111.510  206.963
  479.750    2.147    0.186    0.512  112.186  200.051
  480.000    2.209    0.208    0.510  112.190  194.461
  480.250    2.252    0.216    0.513  112.499  190.501
  480.500    2.343    0.216    0.519  113.175  186.744
  480.750    2.457    0.201    0.507  111.347  184.714
  481.000    2.590    0.188    0.492  107.078  181.874
  481.250    2.820    0.182    0.485  102.137  180.149
  481.500    3.081    0.169    0.504   99.638  177.714
  481.750    3.353    0.154    0.435   96.468  170.701
  482.000    3.496    0.143    0.394   98.181  165.619
  482.250    3.604    0.122    0.417  102.032  166.543
  482.500    3.619    0.100    0.434  106.188  166.549
  482.750    3.554    0.159    0.441  108.756  166.354
  483.000    3.437    0.176    0.452  107.599  166.156
  483.250    3.318    0.186    0.472   92.219  165.959
  483.500    3.345    0.165    0.398   94.055  165.865
  483.750    3.315    0.147    0.352   99.675  165.871
  484.000    3.194    0.156    0.413  105.541  167.099
  484.250    3.020    0.178    0.436  109.818  171.380
  484.500    2.862    0.195    0.450  111.410  178.001
  484.750    2.752    0.201    0.463  109.216  184.519
  485.000    2.708    0.194    0.470  107.816  191.750
  485.250    2.719    0.177    0.460  110.446  195.217
  485.500    2.735    0.198    0.443  113.075  197.666
  485.750    2.757    0.214    0.459  115.948  200.623
  486.000    2.707    0.209    0.471  118.577  194.934
  486.250    2.693    0.147    0.482  114.430  191.378
  486.500    2.669    0.125    0.478  116.022  196.167
  486.750    2.670    0.154    0.460  114.621  199.939
  487.000    2.671    0.172    0.435  118.166  201.472
  487.250    2.682    0.145    0.447  120.796  199.952
  487.500    2.749    0.134    0.464  120.678  191.921
  487.750    2.824    0.129    0.482  119.217  187.553
  488.000    3.005    0.151    0.496  121.053  178.097
  488.250    3.204    0.186    0.480  121.972  184.616
  488.500    3.456    0.185    0.434  114.101  180.960
  488.750    3.563    0.174    0.406  110.564  171.809
  489.000    3.598    0.179    0.390  106.967  165.915
  489.250    3.552    0.154    0.424  108.130  164.293
  489.500    3.429    0.086    0.468  111.981  165.419
  489.750    3.188    0.072    0.488  114.671  168.275
  490.000    2.877    0.188    0.497  118.216  177.644
  490.250    2.706    0.183    0.497  119.075  184.773
  490.500    2.597    0.168    0.509  116.393  186.103
  490.750    2.584    0.184    0.524  115.725  183.463
  491.000    2.566    0.203    0.511  113.898  180.622
  491.250    2.562    0.223    0.491  110.789  177.984
  491.500    2.563    0.185    0.475  113.418  175.853
  491.750    2.598    0.200    0.485  115.864  172.909
  492.000    2.823    0.211    0.494   86.320  174.849
  492.250    3.125    0.203    0.429   80.219  169.463
  492.500    3.578    0.195    0.347   77.659  159.804
  492.750    4.159    0.186    0.307   75.282  151.773
  493.000    4.799    0.168    0.309   75.409  152.187
  493.250    5.802    0.148    0.311   68.758  153.211
  493.500    7.029    0.037    0.243   58.568  154.948
  493.750    9.300    0.000    0.180   50.818  156.074
  494.000   11.675    0.000    0.155   46.914  157.201
  494.250   14.711    0.007    0.143   45.820  158.225
  494.500   17.197    0.009    0.140   47.839  158.537
  494.750   16.571    0.015    0.157   51.017  158.747
  495.000   13.871    0.090    0.202   57.737  157.940
  495.250   10.792    0.141    0.274   63.663  155.606
  495.500    8.950    0.177    0.294   68.368  152.764
  495.750    7.852    0.188    0.304   70.631  151.652
  496.000    7.045    0.171    0.308   70.514  151.049
  496.250    6.251    0.143    0.310   65.878  150.648
  496.500    5.934    0.131    0.320   66.004  150.758
  496.750    5.814    0.136    0.328   70.526  151.070
  497.000    5.709    0.152    0.319   73.887  151.993
  497.250    5.690    0.163    0.313   74.624  153.729
  497.500    5.682    0.156    0.308   78.047  155.872
  497.750    5.663    0.155    0.317   82.081  154.760
  498.000    5.644    0.154    0.314   86.419  153.037
  498.250    5.646    0.143    0.306   89.964  154.774
  498.500    5.617    0.185    0.324   69.761  156.510
  498.750    5.588    0.209    0.335   59.508  157.331
  499.000    5.591    0.231    0.313   53.041  156.931
  499.250    5.603    0.251    0.322   56.709  154.089
  499.500    5.616    0.262    0.337   61.963  152.977
  499.750    5.452    0.251    0.354   67.523  154.002
  500.000    5.303    0.229    0.366   74.914  155.331
  500.250    5.062    0.202    0.346   82.244  156.457
  500.500    4.841    0.188    0.327   89.208  157.583
  500.750    4.665    0.185    0.307   93.424  158.811
  501.000    4.597    0.182    0.326   94.039  159.937
  501.250    4.539    0.180    0.339   93.067  160.758
  501.500    4.482    0.214    0.325   92.460  160.663
  501.750    4.400    0.235    0.331   88.558  159.450
  502.000    4.288    0.255    0.348   85.753  158.133
  502.250    4.186    0.228    0.359   90.763  156.512
  502.500    4.095    0.202    0.331   96.689  157.435
  502.750    4.081    0.176    0.311  102.310  158.357
  503.000    4.296    0.156    0.313  107.503  159.281
  503.250    4.411    0.162    0.325  112.148  159.592
  503.500    4.634    0.154    0.334  115.326  160.209
  503.750    4.886    0.144    0.338  115.818  160.727
  504.000    5.065    0.154    0.346  109.107  160.528
  504.250    5.163    0.196    0.354  103.189  159.721
  504.500    5.204    0.205    0.356   96.845  157.490
  504.750    5.177    0.169    0.360  100.024  156.581
  505.000    4.961    0.148    0.366  104.423  157.503
  505.250    4.753    0.131    0.362  108.029  158.222
  505.500    4.667    0.115    0.351  105.957  155.991
  505.750    4.677    0.111    0.341  107.854  153.658
  506.000    4.786    0.112    0.334  110.178  156.616
  506.250    5.008    0.115    0.324  108.290  158.759
  506.500    5.212    0.153    0.316  103.655  156.934
  506.750    5.403    0.177    0.310  100.362  155.415
  507.000    5.580    0.162    0.320   98.229  157.660
  507.250    5.699    0.152    0.331  100.126  156.955
  507.500    5.400    0.166    0.339  102.144  155.029
  507.750    5.183    0.181    0.342   99.523  153.408
  508.000    5.108    0.173    0.330   98.306  152.906
  508.250    5.178    0.158    0.331   99.471  153.319
  508.500    5.239    0.142    0.326   99.231  157.193
  508.750    5.271    0.143    0.320   80.919  161.270
  509.000    4.919    0.155    0.344   66.882  161.989
  509.250    4.431    0.174    0.352   50.952  158.842
  509.500    4.120    0.191    0.243   47.049  156.712
  509.750    4.247    0.121    0.217   53.341  155.803
  510.000    4.461    0.064    0.239   67.143  155.708
  510.250    4.686    0.092    0.275   85.950  156.529
  510.500    4.750    0.097    0.338  104.636  158.673
  510.750    4.384    0.079    0.387   98.291  160.104
  511.000    4.100    0.158    0.444   82.666  157.567
  511.250    3.965    0.215    0.374   84.380  154.420
  511.500    3.813    0.209    0.321   90.245  153.104
  511.750    3.737    0.194    0.291   96.293  153.111
  512.000    3.739    0.179    0.290  100.998  154.441
  512.250    3.776    0.162    0.296  101.796  155.669
