~VERSION INFORMATION
 VERS.                 2.0:   CWLS LOG ASCII STANDARD -VERSION 2.0
 WRAP.                  NO:   ONE LINE PER DEPTH STEP
~WELL INFORMATION BLOCK
#MNEM.UNIT           DATA                    DESCRIPTION OF MNEMONIC
#---------    -------------------            -------------------------------
# Generated from Intellog Unique Number	CC_80_83/WELL/2405
NULL.         -999.25                        : NULL_VALUE
WELL.         HOMESTEAD ET AL COWPAR         : WELL_NAME
LOC .         11-23-080-04W4                 : Location     - LOCATION          
UWI .         00/11-23-080-04W400            : Uwi          - UNIQUE WELL ID    
ENTR.         DW                             : Entered      - ENTERED BY        
SRVC.         SCHLUMBERGER                   : Scn          - SERVICE COMPANY   
DATE.         27 JAN 74                      : Date         - LOG DATE
STRT.M        85.344                         : top_depth    - START DEPTH       
STOP.M        347.473                        : bot_depth    - STOP DEPTH        
STEP.M        0.3048                         : increment    - STEP LENGTH       
~CURVE INFORMATION BLOCK
#MNEM UNIT       ERCB CURVE CODE    CURVE DESCRIPTION
#-----------   ------------------   ----------------------------------
DEPT.M        00 001 00 00         : DEPTH        - DEPTH                       
DPHI.V/V      00 890 00 00         : PHID         - DENSITY POROSITY (LIMESTONE)
NPHI.V/V      00 330 00 00         : PHIN         - NEUTRON POROSITY (LIMESTONE)
GR  .API      00 310 00 00         : GR           - GAMMA RAY                   
ILD .OHMM     00 120 00 00         : RESD         - DEEP RESISTIVITY (DIL)      
~PARAMETER INFORMATION       
#MNEM.UNIT           DATA             DESCRIPTION OF MNEMONIC
#---------         -----------     ------------------------------
GL  .M        513.588              : gl           - GROUND LEVEL ELEVATION      
EREF.M        517.246              : kb           - ELEVATION OF DEPTH REFERENCE
DATM.M        517.246              : datum        - DATUM ELEVATION             
TDD .M        361.493              : tdd          - TOTAL DEPTH DRILLER         
RUN .         ONE                  : Run          - RUN NUMBER                  
ENG .         BILL                 : Engineer     - RECORDING ENGINEER          
WIT .         JIM                  : Witness      - WITNESSED BY                
MUD .         GEL                  : Mud_type     - MUD TYPE                    
MATR.         LIMESTONE            : Logunit      - NEUTRON MATRIX              
TMAX.C        22.2222              : BHT          - MAXIMUM RECORDED TEMPERATURE
BHTD.M        361.493              : BHTDEP       - MAXIMUM RECORDED TEMPERATURE
MATR.         1                    : LOGUNIT      - NEUTRON MATRIX              
RMT .C        25                   : MDTP         - TEMPERATURE OF MUD          
NEUT.         1                    : NEUTRON      - NEUTRON TYPE                
RESI.         0                    : RESIST       - RESISTIVITY TYPE            
RMC .OHMM     0.25                 : RMC          - RESISTIVITY OF MUD CAKE     
RMF .OHMM     0.25                 : RMF          - RESISTIVITY OF MUD FILTRATE 
SUFT.C        15                   : SUFT         - SURFACE TEMPERATURE         
~A  DEPTH     PHID     PHIN       GR     RESD
# ...
  244.448    0.309    0.568  100.230    2.150
  244.752    0.316    0.568  103.271    2.109
  245.057    0.301    0.570  107.529    2.148
  245.362    0.294    0.573  108.749    2.148
  245.667    0.287    0.569  101.468    2.270
  245.972    0.276    0.562   97.830    2.538
  246.276    0.272    0.496  100.265    2.838
  246.581    0.253    0.482  106.343    3.234
  246.886    0.232    0.472  109.387    3.824
  247.191    0.237    0.470  108.177    4.438
  247.496    0.279    0.465  103.325    5.055
  247.800    0.282    0.450   98.473    5.548
  248.105    0.286    0.446   99.692    5.756
  248.410    0.279    0.460  111.237    5.441
  248.715    0.262    0.496  116.709    4.348
  249.020    0.254    0.524  117.323    3.959
  249.324    0.279    0.525  111.863    3.813
  249.629    0.248    0.525  107.009    3.604
  249.934    0.248    0.535  107.622    3.343
  250.239    0.252    0.562  113.093    3.280
  250.544    0.235    0.564  111.886    3.279
  250.848    0.231    0.547  109.462    3.278
  251.153    0.241    0.519  111.290    3.338
  251.458    0.248    0.510  118.583    3.400
  251.763    0.261    0.508  118.590    3.463
  252.068    0.277    0.504  116.775    3.461
  252.372    0.258    0.496  112.530    3.460
  252.677    0.236    0.495  111.319    3.459
  252.982    0.251    0.511  111.326    3.394
  253.287    0.264    0.482  110.117    3.457
  253.592    0.285    0.459  107.086    3.654
  253.896    0.296    0.437  104.055    3.722
  254.201    0.290    0.422  101.025    4.084
  254.506    0.259    0.421  101.638    4.482
  254.811    0.249    0.482  103.465    4.651
  255.115    0.242    0.479  105.293    4.650
  255.420    0.227    0.477  105.299    4.395
  255.725    0.200    0.459   96.804    4.394
  256.030    0.129    0.410   93.165    5.005
  256.335    0.107    0.380   98.637    5.918
  256.639    0.247    0.438  102.285    6.141
  256.944    0.251    0.442   99.863    5.805
  257.249    0.262    0.434   90.152    5.188
  257.554    0.280    0.442   85.908    4.637
  257.859    0.291    0.455   84.699    3.569
  258.164    0.285    0.463   84.704    3.131
  258.468    0.286    0.467   87.139    2.905
  258.773    0.301    0.474   91.396    2.745
  259.078    0.300    0.502   96.868    2.644
  259.383    0.300    0.536  105.376    2.594
  259.688    0.302    0.548  119.348    2.545
  259.992    0.295    0.526  130.286    2.544
  260.297    0.262    0.511  131.508    2.792
  260.602    0.237    0.503  128.477    3.122
  260.907    0.238    0.497  125.447    3.832
  261.212    0.237    0.479  125.451    4.205
  261.516    0.208    0.462  126.674    4.615
  261.821    0.208    0.462  126.071    4.788
  262.126    0.215    0.474  123.647    4.699
  262.431    0.229    0.483  118.794    4.441
  262.736    0.216    0.463  117.588    4.608
  263.040    0.192    0.460  119.414    4.872
  263.345    0.205    0.451  121.242    4.870
  263.650    0.228    0.435  120.034    4.869
  263.955    0.229    0.433  113.358    4.689
  264.260    0.233    0.481  101.825    4.113
  264.565    0.246    0.504   81.790    3.226
  264.869    0.279    0.480   38.679    1.985
  265.174    0.317    0.394   36.255    1.646
  265.479    0.317    0.384   36.262    1.444
  265.784    0.308    0.383   33.231    1.391
  266.089    0.306    0.382   32.630    1.365
  266.393    0.307    0.370   32.636    1.390
  266.698    0.291    0.370   35.680    1.442
  267.003    0.297    0.383   39.330    1.469
  267.308    0.315    0.386   42.979    1.524
  267.613    0.313    0.381   45.413    1.495
  267.917    0.304    0.367   44.813    1.495
  268.222    0.298    0.361   42.387    1.522
  268.527    0.292    0.369   38.143    1.522
  268.832    0.309    0.384   35.718    1.521
  269.137    0.331    0.377   31.473    1.493
  269.441    0.333    0.375   33.909    1.465
  269.746    0.323    0.377   36.952    1.410
  270.051    0.320    0.365   36.956    1.410
  270.356    0.323    0.358   35.748    1.436
  270.661    0.309    0.366   32.718    1.435
  270.966    0.313    0.378   32.723    1.435
  271.270    0.315    0.369   36.375    1.434
  271.575    0.312    0.377   38.200    1.461
  271.880    0.327    0.370   40.637    1.460
  272.185    0.319    0.362   38.820    1.460
  272.490    0.309    0.372   32.145    1.459
  272.794    0.303    0.370   32.153    1.459
  273.099    0.329    0.370   33.373    1.458
  273.404    0.330    0.378   34.593    1.458
  273.709    0.318    0.384   35.206    1.457
  274.014    0.315    0.384   35.211    1.457
  274.318    0.333    0.375   35.218    1.399
  274.623    0.325    0.379   32.782    1.400
  274.928    0.318    0.387   40.061    1.349
  275.233    0.335    0.391   33.374    1.325
  275.538    0.312    0.384   33.365    1.326
  275.842    0.334    0.380   35.179    1.352
  276.147    0.315    0.379   34.564    1.352
  276.452    0.330    0.384   33.344    1.354
  276.757    0.311    0.381   30.907    1.354
  277.062    0.336    0.365   31.508    1.330
  277.367    0.319    0.358   32.714    1.331
  277.671    0.317    0.386   30.276    1.331
  277.976    0.332    0.398   32.698    1.332
  278.281    0.321    0.387   34.513    1.333
  278.586    0.322    0.376   34.506    1.334
  278.891    0.338    0.372   32.677    1.335
  279.195    0.343    0.373   30.239    1.310
  279.500    0.330    0.375   28.412    1.311
  279.805    0.333    0.380   30.832    1.288
  280.110    0.320    0.386   35.075    1.289
  280.415    0.306    0.382   38.104    1.289
  280.719    0.301    0.373   38.097    1.290
  281.024    0.317    0.368   35.660    1.291
  281.329    0.299    0.374   34.437    1.291
  281.634    0.297    0.380   35.643    1.292
  281.939    0.327    0.375   35.637    1.318
  282.243    0.333    0.370   33.807    1.318
  282.548    0.339    0.370   32.583    1.319
  282.853    0.338    0.370   32.580    1.320
  283.158    0.323    0.373   35.000    1.296
  283.463    0.317    0.383   41.066    1.297
  283.768    0.332    0.395   44.094    1.297
  284.072    0.338    0.387   34.979    1.298
  284.377    0.338    0.392   34.364    1.400
  284.682    0.335    0.391   40.428    1.567
  284.987    0.332    0.380   48.922    1.657
  285.292    0.321    0.380   65.310    1.787
  285.596    0.296    0.424   69.552    1.755
  285.901    0.315    0.458   65.294    1.660
  286.206    0.338    0.460   50.713    1.379
  286.511    0.356    0.417   37.955    1.211
  286.816    0.367    0.407   37.339    1.211
  287.120    0.355    0.394   38.547    1.235
  287.425    0.315    0.386   42.182    1.331
  287.730    0.315    0.383   45.819    1.518
  288.035    0.294    0.386   56.134    1.606
  288.340    0.296    0.418   64.627    1.577
  288.645    0.311    0.436   61.583    1.549
  288.949    0.331    0.408   50.646    1.412
  289.254    0.316    0.380   43.352    1.311
  289.559    0.304    0.373   40.306    1.288
  289.864    0.309    0.386   41.514    1.288
  290.169    0.322    0.386   42.720    1.339
  290.473    0.327    0.382   42.712    1.364
  290.778    0.331    0.390   43.313    1.444
  291.083    0.333    0.396   43.914    1.444
  291.388    0.332    0.395   44.513    1.445
  291.693    0.308    0.390   44.505    1.446
  291.997    0.304    0.377   45.713    1.447
  292.302    0.292    0.361   49.350    1.503
  292.607    0.297    0.355   48.734    1.532
  292.912    0.307    0.360   45.691    1.533
  293.217    0.305    0.368   45.681    1.478
  293.521    0.320    0.387   46.283    1.398
  293.826    0.327    0.374   45.667    1.373
  294.131    0.336    0.374   45.053    1.323
  294.436    0.342    0.385   46.865    1.300
  294.741    0.319    0.406   47.468    1.276
  295.046    0.338    0.413   49.889    1.277
  295.350    0.335    0.410   51.703    1.255
  295.655    0.335    0.402   55.338    1.232
  295.960    0.345    0.393   60.797    1.210
  296.265    0.348    0.390   69.290    1.211
  296.570    0.348    0.389   71.104    1.212
  296.874    0.353    0.396   63.203    1.235
  297.179    0.359    0.382   52.264    1.307
