~VERSION INFORMATION
 VERS.                 2.0:   CWLS LOG ASCII STANDARD -VERSION 2.0
 WRAP.                  NO:   ONE LINE PER DEPTH STEP
~WELL INFORMATION BLOCK
#MNEM.UNIT           DATA                    DESCRIPTION OF MNEMONIC
#---------    -------------------            -------------------------------
# Generated from Intellog Unique Number	CS_73_76/WELL/3234
WELL.         10-11-076-08W4                 : Well_name    - WELL
LOC .         00/10-11-076-08W4/0            : Location     - LOCATION
UWI .         00/10-11-076-08W4/0            : Uwi          - UNIQUE WELL ID
ENTR.         SP                             : Entered      - ENTERED BY
SRVC.         SCHLUMBERGER                   : Scn          - SERVICE COMPANY
STRT.M        228.6                          : top_depth    - START DEPTH
STOP.M        460.1                          : bot_depth    - STOP DEPTH
STEP.M        0.25                           : increment    - STEP LENGTH
 NULL. -999.2500:NULL Value
~CURVE INFORMATION BLOCK
#MNEM UNIT       ERCB CURVE CODE    CURVE DESCRIPTION
#-----------   ------------------   ----------------------------------
DEPT.M        00 001 00 00         : DEPTH        - DEPTH
GR  .API      00 310 00 00         : GR           - GAMMA RAY
DPHI.V/V      00 890 00 00         : PHID         - DENSITY POROSITY (SANDSTONE)
NPHI.V/V      00 330 00 00         : PHIN         - NEUTRON POROSITY (SANDSTONE)
ILD .OHMM     00 120 00 00         : RESD         - DEEP RESISTIVITY (DIL)
~PARAMETER INFORMATION
#MNEM.UNIT           DATA             DESCRIPTION OF MNEMONIC
#---------         -----------     ------------------------------
GL  .M        637.794              : gl           - GROUND LEVEL ELEVATION
EREF.M        640.232              : kb           - ELEVATION OF DEPTH REFERENCE
DATM.M        637.794              : datum        - DATUM ELEVATION
TDD .M        466.344              : tdd          - TOTAL DEPTH DRILLER
RUN .         ONE                  : Run          - RUN NUMBER
ENG .         BILL                 : Engineer     - RECORDING ENGINEER
WIT .         JIM                  : Witness      - WITNESSED BY
MUD .         GEL                  : Mud_type     - MUD TYPE
MATR.         SANDSTONE            : Logunit      - NEUTRON MATRIX
TMAX.C        15.5556              : BHT          - MAXIMUM RECORDED TEMPERATURE
BHTD.M        466.344              : BHTDEP       - MAXIMUM RECORDED TEMPERATURE
MATR.         1                    : LOGUNIT      - NEUTRON MATRIX
RMT .C        25                   : MDTP         - TEMPERATURE OF MUD
NEUT.         1                    : NEUTRON      - NEUTRON TYPE
RESI.         0                    : RESIST       - RESISTIVITY TYPE
RMC .OHMM     0.25                 : RMC          - RESISTIVITY OF MUD CAKE
RMF .OHMM     0.25                 : RMF          - RESISTIVITY OF MUD FILTRATE
SUFT.C        15                   : SUFT         - SURFACE TEMPERATURE
~A  DEPTH       GR     PHID     PHIN     RESD
# ...
  272.100  100.761    0.230    0.516   12.435
  272.350  101.134    0.232    0.527   13.083
  272.600  103.133    0.249    0.530   13.465
  272.850  104.849    0.260    0.516   13.823
  273.100   97.397    0.255    0.499   13.800
  273.350   92.697    0.257    0.474   13.503
  273.600   91.651    0.262    0.448   13.014
  273.850   92.815    0.251    0.462   12.438
  274.100   95.857    0.248    0.470   11.336
  274.350   98.004    0.257    0.481   10.761
  274.600   99.881    0.246    0.473   10.163
  274.850  105.988    0.228    0.479    9.453
  275.100  112.157    0.207    0.492    9.208
  275.350  108.772    0.216    0.499    9.075
  275.600  107.053    0.217    0.498    8.888
  275.850  101.419    0.205    0.486    8.907
  276.100   94.231    0.199    0.490    9.079
  276.350   87.259    0.202    0.475    9.406
  276.600   81.256    0.205    0.484    9.914
  276.850   75.801    0.265    0.491   11.248
  277.100   70.523    0.251    0.480   12.802
  277.350   65.401    0.246    0.477   15.687
  277.600   61.424    0.252    0.475   19.641
  277.850   59.837    0.260    0.454   23.845
  278.100   57.727    0.267    0.438   26.456
  278.350   56.265    0.290    0.434   28.790
  278.600   55.677    0.298    0.442   30.541
  278.850   55.722    0.297    0.451   33.088
  279.100   55.824    0.299    0.462   34.140
  279.350   57.518    0.313    0.464   35.895
  279.600   58.817    0.322    0.451   36.978
  279.850   58.668    0.322    0.446   38.087
  280.100   56.938    0.306    0.446   39.985
  280.350   56.875    0.306    0.439   41.323
  280.600   56.770    0.306    0.441   41.715
  280.850   55.727    0.323    0.435   42.333
  281.100   55.219    0.319    0.427   43.163
  281.350   55.583    0.317    0.433   43.998
  281.600   55.144    0.314    0.441   44.596
  281.850   54.259    0.309    0.442   44.693
  282.100   54.297    0.324    0.442   45.643
  282.350   53.659    0.309    0.440   45.523
  282.600   53.849    0.302    0.445   46.561
  282.850   54.284    0.310    0.453   46.486
  283.100   54.267    0.319    0.447   47.018
  283.350   54.227    0.311    0.446   47.334
  283.600   54.786    0.305    0.449   47.362
  283.850   56.099    0.331    0.448   47.368
  284.100   57.353    0.332    0.460   47.374
  284.350   56.767    0.334    0.467   47.379
  284.600   56.478    0.341    0.470   47.363
  284.850   55.404    0.349    0.470   47.335
  285.100   55.012    0.357    0.472   46.572
  285.350   54.114    0.356    0.475   45.600
  285.600   54.153    0.357    0.469   45.704
  285.850   54.158    0.347    0.458   45.800
  286.100   54.290    0.336    0.457   44.807
  286.350   54.728    0.341    0.463   44.885
  286.600   56.001    0.335    0.464   44.403
  286.850   57.987    0.338    0.457   43.962
  287.100   58.400    0.336    0.445   43.325
  287.350   58.028    0.333    0.440   42.483
  287.600   58.399    0.331    0.447   41.618
  287.850   59.313    0.352    0.471   41.021
  288.100   60.548    0.363    0.482   39.912
  288.350   60.197    0.366    0.478   39.566
  288.600   60.886    0.359    0.475   39.325
  288.850   59.730    0.356    0.476   37.905
  289.100   58.929    0.354    0.475   36.784
  289.350   58.244    0.356    0.470   35.001
  289.600   58.352    0.363    0.463   34.131
  289.850   60.028    0.358    0.470   33.637
  290.100   61.710    0.355    0.478   32.969
  290.350   63.288    0.364    0.475   32.334
  290.600   63.821    0.352    0.464   31.708
  290.850   63.785    0.365    0.465   33.772
  291.100   63.763    0.354    0.454   33.573
  291.350   64.253    0.351    0.454   33.573
  291.600   64.595    0.356    0.471   33.625
  291.850   64.341    0.340    0.467   32.965
  292.100   62.630    0.338    0.471   32.988
  292.350   62.650    0.345    0.481   32.982
  292.600   63.105    0.351    0.479   32.982
  292.850   63.746    0.343    0.480   32.798
  293.100   65.003    0.345    0.486   30.367
  293.350   66.579    0.357    0.502   28.920
  293.600   66.936    0.359    0.511   31.752
  293.850   60.098    0.354    0.507   31.800
  294.100   57.659    0.352    0.504   32.303
  294.350   57.423    0.351    0.495   32.451
  294.600   58.069    0.361    0.490   31.810
  294.850   58.468    0.354    0.485   31.782
  295.100   58.475    0.347    0.481   32.491
  295.350   57.415    0.336    0.475   32.429
  295.600   56.390    0.361    0.477   32.370
  295.850   55.340    0.347    0.482   33.097
  296.100   54.905    0.342    0.479   33.040
  296.350   55.440    0.342    0.496   33.062
  296.600   57.459    0.345    0.507   33.136
  296.850   59.061    0.348    0.507   33.703
  297.100   58.182    0.349    0.498   33.975
  297.350   57.931    0.322    0.508   34.339
  297.600   57.976    0.324    0.513   34.907
  297.850   57.214    0.344    0.508   35.609
  298.100   57.274    0.348    0.504   36.260
  298.350   58.075    0.346    0.507   36.172
  298.600   59.332    0.344    0.507   37.009
  298.850   59.151    0.341    0.504   36.911
  299.100   58.745    0.352    0.510   37.701
  299.350   59.798    0.353    0.518   37.762
  299.600   61.339    0.335    0.524   38.359
  299.850   63.097    0.332    0.516   38.693
  300.100   64.008    0.334    0.506   39.012
  300.350   63.989    0.334    0.497   39.647
  300.600   62.811    0.340    0.490   39.760
  300.850   61.459    0.339    0.486   39.783
  301.100   61.463    0.324    0.498   39.788
  301.350   61.414    0.325    0.483   39.791
  301.600   61.450    0.329    0.471   39.801
  301.850   58.806    0.328    0.465   40.277
  302.100   57.393    0.321    0.479   40.482
  302.350   59.522    0.327    0.483   41.253
  302.600   60.560    0.334    0.488   41.282
  302.850   60.771    0.320    0.491   41.280
  303.100   60.256    0.332    0.490   41.977
  303.350   59.220    0.339    0.488   42.066
  303.600   58.209    0.345    0.478   42.094
  303.850   58.834    0.340    0.468   42.062
  304.100   57.114    0.347    0.476   41.571
  304.350   54.441    0.345    0.478   39.821
  304.600   51.039    0.342    0.470   37.869
  304.850   50.922    0.335    0.464   36.488
  305.100   52.574    0.323    0.461   33.866
  305.350   54.652    0.340    0.473   32.291
  305.600   55.951    0.337    0.477   29.838
  305.850   57.474    0.343    0.462   28.214
  306.100   58.442    0.336    0.458   26.124
  306.350   60.315    0.330    0.466   24.129
  306.600   61.381    0.338    0.476   21.047
  306.850   61.373    0.320    0.478   17.609
  307.100   63.081    0.307    0.476   14.690
  307.350   62.940    0.291    0.476   11.495
  307.600   63.652    0.238    0.444    9.489
  307.850   63.617    0.124    0.302   10.290
  308.100   61.224    0.008    0.225   14.018
  308.350   55.515    0.006    0.201   22.082
  308.600   53.859    0.013    0.185   34.852
  308.850   51.477    0.019    0.181   52.309
  309.100   54.696    0.050    0.188   57.564
  309.350   55.906    0.062    0.242   48.324
  309.600   59.343    0.237    0.359   37.019
  309.850   65.138    0.294    0.437   28.222
  310.100   70.110    0.307    0.476   22.925
  310.350   73.841    0.299    0.493   25.286
  310.600   79.036    0.280    0.483   19.361
  310.850   84.530    0.271    0.483   11.573
  311.100   89.732    0.265    0.505    7.620
  311.350   94.843    0.273    0.520    6.661
  311.600   98.145    0.272    0.502    6.266
  311.850   97.104    0.266    0.495    5.855
  312.100   96.718    0.252    0.504    5.350
  312.350   97.632    0.254    0.521    5.033
  312.600   99.359    0.256    0.530    4.845
  312.850   99.858    0.252    0.539    4.549
  313.100   98.842    0.240    0.554    4.400
  313.350   98.546    0.243    0.565    4.358
  313.600   98.593    0.255    0.572    4.272
  313.850   97.791    0.255    0.580    4.398
  314.100   98.515    0.247    0.566    4.444
  314.350  100.666    0.237    0.572    4.452
  314.600  104.028    0.230    0.578    4.341
  314.850  105.289    0.225    0.570    4.211
  315.100  105.272    0.225    0.556    4.167
  315.350  105.270    0.217    0.545    4.139
