~VERSION INFORMATION
 VERS.                 2.0:   CWLS LOG ASCII STANDARD -VERSION 2.0
 WRAP.                  NO:   ONE LINE PER DEPTH STEP
~WELL INFORMATION BLOCK
#MNEM.UNIT           DATA                    DESCRIPTION OF MNEMONIC
#---------    -------------------            -------------------------------
# Generated from Intellog Unique Number	CW_73_75/WELL/1037
WELL.         THOM-JEN CHERPETA 11-11        : Well_name    - WELL
LOC .         00/11-11-074-20W4/0            : Location     - LOCATION
UWI .         00/11-11-074-20W4/0            : Uwi          - UNIQUE WELL ID
ENTR.         JAYE                           : Entered      - ENTERED BY
SRVC.         COMPUTALOG                     : Scn          - SERVICE COMPANY
DATE.         5 MAR 85                       : Date         - LOG DATE
STRT.M        450                            : top_depth    - START DEPTH
STOP.M        675                            : bot_depth    - STOP DEPTH
STEP.M        0.25                           : increment    - STEP LENGTH
 NULL. -999.2500:NULL Value
~CURVE INFORMATION BLOCK
#MNEM UNIT       ERCB CURVE CODE    CURVE DESCRIPTION
#-----------   ------------------   ----------------------------------
DEPT.M        00 001 00 00         : DEPTH        - DEPTH
GR  .API      00 310 00 00         : GR           - GAMMA RAY
CALI.MM       00 280 01 00         : CAL          - CALIPER
NPHI.V/V      00 330 00 00         : PHIN         - NEUTRON POROSITY (SANDSTONE)
DPHI.V/V      00 890 00 00         : PHID         - DENSITY POROSITY (SANDSTONE)
ILD .OHMM     00 120 00 00         : RESD         - DEEP RESISTIVITY (DIL)
~PARAMETER INFORMATION
#MNEM.UNIT           DATA             DESCRIPTION OF MNEMONIC
#---------         -----------     ------------------------------
GL  .M        763.9                : gl           - GROUND LEVEL ELEVATION
EREF.M        767.6                : kb           - ELEVATION OF DEPTH REFERENCE
DATM.M        763.9                : datum        - DATUM ELEVATION
TDD .M        700                  : tdd          - TOTAL DEPTH DRILLER
RUN .         ONE                  : Run          - RUN NUMBER
ENG .         TEETZEL              : Engineer     - RECORDING ENGINEER
WIT .         GORMAN               : Witness      - WITNESSED BY
BASE.         EDMONTON             : Branch       - HOME BASE OF LOGGING UNIT
MUD .         GEL CHEM             : Mud_type     - MUD TYPE
MATR.         SANDSTONE            : Logunit      - NEUTRON MATRIX
TMAX.C        38                   : BHT          - MAXIMUM RECORDED TEMPERATURE
BHTD.M        698.7                : BHTDEP       - MAXIMUM RECORDED TEMPERATURE
RMT .C        38                   : MDTP         - TEMPERATURE OF MUD
MUDD.KG/M     1110                 : MWT          - MUD DENSITY
NEUT.         1                    : NEUTRON      - NEUTRON TYPE
RESI.         0                    : RESIST       - RESISTIVITY TYPE
RM  .OHMM     4.7                  : RM           - RESISTIVITY OF MUD
RMC .OHMM     0                    : RMC          - RESISTIVITY OF MUD CAKE
RMF .OHMM     3.7                  : RMF          - RESISTIVITY OF MUD FILTRATE
SUFT.C        0                    : SUFT         - SURFACE TEMPERATURE
~A  DEPTH       GR      CAL     PHIN     PHID     RESD
# ...
  486.500   64.246  150.722    0.418    0.273   28.712
  486.750   72.576  150.648    0.437    0.294   26.895
  487.000   76.619  150.570    0.452    0.313   26.022
  487.250   77.389  151.127    0.451    0.306   26.647
  487.500   77.532  152.300    0.434    0.295   28.286
  487.750   77.109  152.650    0.395    0.253   32.022
  488.000   75.738  153.936    0.333    0.201   35.636
  488.250   68.014  155.329    0.220    0.044   38.116
  488.500   60.660  157.245    0.181    0.000   38.372
  488.750   55.515  158.535    0.175    0.015   36.427
  489.000   54.267  157.825    0.180    0.083   29.497
  489.250   61.339  152.818    0.281    0.189   21.242
  489.500   73.387  152.837    0.366    0.262   15.917
  489.750   84.928  153.814    0.368    0.254   11.057
  490.000   98.420  155.098    0.360    0.238    8.285
  490.250  102.594  157.325    0.385    0.228    7.196
  490.500   99.965  159.040    0.424    0.251    7.244
  490.750   79.766  159.168    0.423    0.260    7.986
  491.000   72.856  155.214    0.405    0.253    8.771
  491.250   70.919  155.445    0.392    0.241    9.435
  491.500   70.369  157.992    0.378    0.247   10.225
  491.750   68.370  155.923    0.390    0.277   11.230
  492.000   62.211  153.530    0.405    0.291   11.943
  492.250   59.582  152.722    0.400    0.306   12.323
  492.500   60.925  153.794    0.402    0.318   13.381
  492.750   62.892  153.722    0.393    0.316   14.668
  493.000   61.083  152.484    0.365    0.296   15.629
  493.250   59.023  154.087    0.369    0.279   15.792
  493.500   61.243  154.120    0.415    0.272   15.483
  493.750   65.412  150.581    0.431    0.273   13.914
  494.000   70.721  150.186    0.401    0.264   11.746
  494.250   78.548  153.151    0.358    0.245    9.841
  494.500   83.100  155.384    0.369    0.230    8.403
  494.750   82.167  154.676    0.389    0.229    7.135
  495.000   83.700  156.176    0.424    0.236    5.799
  495.250   87.620  157.041    0.437    0.231    5.221
  495.500   91.855  158.105    0.442    0.225    4.818
  495.750   93.509  158.880    0.444    0.241    4.644
  496.000   91.510  158.173    0.425    0.261    4.622
  496.250   88.251  155.996    0.399    0.263    4.750
  496.500   86.253  154.978    0.384    0.248    5.052
  496.750   86.268  158.030    0.385    0.227    5.322
  497.000   86.034  163.430    0.380    0.212    5.617
  497.250   85.481  166.074    0.376    0.271    5.963
  497.500   75.171  163.064    0.376    0.361    6.475
  497.750   59.759  157.316    0.482    0.436    7.275
  498.000   40.757  149.892    0.565    0.543    8.313
  498.250   38.694  153.377    0.472    0.658    9.044
  498.500   49.418  155.297    0.365    0.354    9.692
  498.750   54.535  155.219    0.347    0.277    9.556
  499.000   52.033  154.822    0.359    0.279    9.088
  499.250   49.080  154.750    0.380    0.275    8.694
  499.500   48.098  154.989    0.401    0.278    8.144
  499.750   45.841  154.913    0.412    0.302    7.924
  500.000   44.979  154.825    0.401    0.313    7.872
  500.250   44.620  155.159    0.383    0.318    7.881
  500.500   44.192  155.404    0.380    0.320    7.918
  500.750   43.708  155.009    0.378    0.327    7.970
  501.000   44.478  154.202    0.374    0.330    8.116
  501.250   46.636  153.602    0.369    0.329    8.202
  501.500   48.415  153.098    0.366    0.326    8.398
  501.750   49.630  153.112    0.371    0.326    8.487
  502.000   45.492  153.259    0.363    0.331    8.511
  502.250   43.237  153.294    0.335    0.333    8.472
  502.500   44.011  153.317    0.322    0.331    8.399
  502.750   46.423  153.876    0.341    0.327    8.329
  503.000   43.856  153.696    0.352    0.323    8.275
  503.250   43.307  151.204    0.352    0.321    8.219
  503.500   45.714  151.122    0.331    0.321    8.166
  503.750   43.718  154.408    0.326    0.311    8.113
  504.000   40.081  157.262    0.345    0.307    8.074
  504.250   40.034  155.402    0.341    0.306    8.068
  504.500   39.293  151.860    0.330    0.305    8.030
  504.750   37.927  149.060    0.332    0.297    8.023
  505.000   38.950  146.778    0.346    0.283    8.092
  505.250   41.737  146.063    0.360    0.276    8.193
  505.500   44.084  146.084    0.350    0.276    8.516
  505.750   41.959  146.121    0.316    0.258    8.804
  506.000   37.249  146.467    0.282    0.240    9.016
  506.250   32.483  147.644    0.269    0.216    9.408
  506.500   29.727  150.512    0.265    0.209    9.949
  506.750   30.813  154.942    0.285    0.236   10.442
  507.000   34.479  157.914    0.308    0.262   10.492
  507.250   38.024  159.616    0.328    0.281   10.423
  507.500   40.871  158.598    0.338    0.288   10.122
  507.750   42.340  156.107    0.331    0.281    9.701
  508.000   42.925  152.984    0.338    0.284    9.510
  508.250   45.083  152.898    0.313    0.273    9.812
  508.500   41.385  149.995    0.294    0.245   10.716
  508.750   37.242  148.129    0.261    0.220   12.040
  509.000   35.561  149.629    0.241    0.193   13.000
  509.250   35.954  154.263    0.204    0.138   13.086
  509.500   38.301  155.033    0.227    0.174   11.962
  509.750   41.340  155.161    0.335    0.271   11.100
  510.000   45.263  155.195    0.400    0.310   10.165
  510.250   48.365  155.535    0.396    0.311    9.469
  510.500   47.878  156.087    0.373    0.314    8.704
  510.750   47.075  156.852    0.349    0.335    8.202
  511.000   46.209  156.244    0.340    0.351    7.800
  511.250   45.408  155.435    0.354    0.347    7.532
  511.500   45.613  154.524    0.378    0.344    7.370
  511.750   46.134  152.240    0.390    0.346    7.280
  512.000   45.769  151.533    0.398    0.344    7.274
  512.250   44.961  151.869    0.386    0.339    7.309
  512.500   44.414  152.420    0.372    0.338    7.415
  512.750   43.869  153.394    0.362    0.345    7.606
  513.000   41.616  155.313    0.350    0.346    7.760
  513.250   39.932  156.805    0.340    0.341    7.886
  513.500   40.764  156.729    0.347    0.348    8.030
  513.750   44.375  155.289    0.351    0.346    8.129
  514.000   46.782  153.946    0.358    0.338    8.244
  514.250   47.108  152.619    0.384    0.334    8.301
  514.500   47.070  151.486    0.387    0.339    8.356
  514.750   45.512  151.091    0.388    0.341    8.380
  515.000   43.073  152.070    0.402    0.334    8.421
  515.250   43.150  154.093    0.415    0.327    8.413
  515.500   44.238  155.791    0.399    0.319    8.438
  515.750   44.946  155.929    0.373    0.321    8.462
  516.000   43.201  155.542    0.365    0.334    8.455
  516.250   41.635  155.454    0.399    0.329    8.447
  516.500   40.837  155.493    0.390    0.320    8.390
  516.750   40.478  154.991    0.362    0.314    8.367
  517.000   40.812  154.282    0.365    0.309    8.361
  517.250   41.203  152.842    0.381    0.316    8.306
  517.500   40.150  151.926    0.373    0.318    8.252
  517.750   39.538  152.363    0.372    0.322    8.197
  518.000   39.491  152.295    0.382    0.324    8.158
  518.250   39.063  151.587    0.384    0.326    8.044
  518.500   37.819  151.933    0.404    0.328    7.885
  518.750   36.266  152.380    0.415    0.323    7.716
  519.000   34.834  153.454    0.380    0.323    7.565
  519.250   32.895  155.992    0.379    0.325    7.444
  519.500   30.898  156.021    0.403    0.329    7.340
  519.750   31.356  155.945    0.417    0.335    7.277
  520.000   32.938  155.771    0.411    0.341    7.245
  520.250   34.221  155.272    0.407    0.340    7.183
  520.500   37.199  154.667    0.404    0.333    7.164
  520.750   38.472  155.957    0.403    0.327    7.129
  521.000   37.799  158.396    0.403    0.326    7.110
  521.250   33.911  156.956    0.405    0.330    7.103
  521.500   35.563  154.047    0.402    0.333    7.110
  521.750   37.281  152.179    0.384    0.336    7.145
  522.000   37.424  151.992    0.373    0.337    7.139
  522.250   36.684  152.550    0.382    0.333    7.173
  522.500   37.079  153.725    0.392    0.329    7.221
  522.750   38.163  154.183    0.386    0.331    7.240
