~VERSION INFORMATION
 VERS.                 2.0:   CWLS LOG ASCII STANDARD -VERSION 2.0
 WRAP.                  NO:   ONE LINE PER DEPTH STEP
~WELL INFORMATION BLOCK
#MNEM.UNIT           DATA                    DESCRIPTION OF MNEMONIC
#---------    -------------------            -------------------------------
# Generated from Intellog Unique Number	CW_82_90/WELL/992
WELL.         10-33-084-23W4                 : Well_name    - WELL
LOC .         00/10-33-084-23W4/0            : Location     - LOCATION
UWI .         00/10-33-084-23W4/0            : Uwi          - UNIQUE WELL ID
ENTR.         JAYE                           : Entered      - ENTERED BY
SRVC.         SCHLUMBERGER                   : Scn          - SERVICE COMPANY
DATE.         11 MAR 76                      : Date         - LOG DATE
STRT.M        182.88                         : top_depth    - START DEPTH
STOP.M        393.88                         : bot_depth    - STOP DEPTH
STEP.M        0.25                           : increment    - STEP LENGTH
 NULL. -999.2500:NULL Value
~CURVE INFORMATION BLOCK
#MNEM UNIT       ERCB CURVE CODE    CURVE DESCRIPTION
#-----------   ------------------   ----------------------------------
DEPT.M        00 001 00 00         : DEPTH        - DEPTH
CALI.MM       00 280 01 00         : CAL          - CALIPER
GR  .API      00 310 00 00         : GR           - GAMMA RAY
NPHI.V/V      00 330 00 00         : PHIN         - NEUTRON POROSITY (SANDSTONE)
DPHI.V/V      00 890 00 00         : PHID         - DENSITY POROSITY (SANDSTONE)
ILD .OHMM     00 120 00 00         : RESD         - DEEP RESISTIVITY (DIL)
~PARAMETER INFORMATION
#MNEM.UNIT           DATA             DESCRIPTION OF MNEMONIC
#---------         -----------     ------------------------------
GL  .M        573.329              : gl           - GROUND LEVEL ELEVATION
EREF.M        576.682              : kb           - ELEVATION OF DEPTH REFERENCE
DATM.M        573.329              : datum        - DATUM ELEVATION
TDD .M        404.774              : tdd          - TOTAL DEPTH DRILLER
RUN .         ONE                  : Run          - RUN NUMBER
BASE.         EDMONTON             : Branch       - HOME BASE OF LOGGING UNIT
MUD .         GEL CHEM             : Mud_type     - MUD TYPE
MATR.         SANDSTONE            : Logunit      - NEUTRON MATRIX
TMAX.C        21.6667              : BHT          - MAXIMUM RECORDED TEMPERATURE
BHTD.M        404.774              : BHTDEP       - MAXIMUM RECORDED TEMPERATURE
RMT .C        10                   : MDTP         - TEMPERATURE OF MUD
MUDD.KG/M     9200                 : MWT          - MUD DENSITY
NEUT.         1                    : NEUTRON      - NEUTRON TYPE
RESI.         0                    : RESIST       - RESISTIVITY TYPE
RM  .OHMM     1.9                  : RM           - RESISTIVITY OF MUD
RMC .OHMM     0                    : RMC          - RESISTIVITY OF MUD CAKE
RMF .OHMM     1.77                 : RMF          - RESISTIVITY OF MUD FILTRATE
SUFT.C        -17.7778             : SUFT         - SURFACE TEMPERATURE
~A  DEPTH      CAL       GR     PHIN     PHID     RESD
# ...
  255.880  148.313   78.767    0.463    0.241    9.394
  256.130  149.595   80.444    0.460    0.236    8.852
  256.380  152.337   83.577    0.472    0.228    8.116
  256.630  160.946   86.382    0.510    0.222    7.386
  256.880  163.238   88.258    0.499    0.262    6.625
  257.130  160.348   90.396    0.492    0.248    5.921
  257.380  159.139   95.181    0.505    0.242    5.468
  257.630  156.134   96.595    0.523    0.256    5.345
  257.880  151.998   96.885    0.511    0.247    5.439
  258.130  150.008   92.341    0.501    0.237    5.678
  258.380  149.367   90.380    0.503    0.244    6.196
  258.630  149.073   89.675    0.513    0.234    6.503
  258.880  148.321   85.332    0.521    0.242    6.990
  259.130  148.239   82.379    0.530    0.254    7.570
  259.380  147.834   81.013    0.505    0.265    8.228
  259.630  147.193   81.036    0.496    0.284    9.092
  259.880  146.776   80.796    0.501    0.279    9.989
  260.130  146.587   80.160    0.510    0.291   11.017
  260.380  147.303   74.956    0.503    0.288   12.285
  260.630  147.790   72.199    0.484    0.269   13.329
  260.880  148.736   71.694    0.455    0.248   13.440
  261.130  148.992   69.666    0.440    0.234   12.921
  261.380  149.827   66.117    0.447    0.218   12.132
  261.630  150.197   68.655    0.474    0.212   11.143
  261.880  149.220   73.441    0.476    0.245   10.386
  262.130  148.132   73.268    0.447    0.218    9.808
  262.380  148.169   80.765    0.444    0.163    9.498
  262.630  151.143   90.316    0.505    0.151    9.083
  262.880  151.854   92.391    0.512    0.178    8.575
  263.130  151.002   90.365    0.511    0.243    7.934
  263.380  150.461   86.086    0.498    0.254    7.328
  263.630  151.744   85.848    0.486    0.268    6.682
  263.880  154.711   87.326    0.490    0.235    6.365
  264.130  157.911   91.252    0.506    0.219    5.932
  264.380  159.527   96.703    0.498    0.216    5.489
  264.630  161.255   98.047    0.491    0.214    5.079
  264.880  158.470   98.069    0.518    0.230    5.021
  265.130  156.935   95.250    0.538    0.251    5.126
  265.380  157.649   90.509    0.548    0.263    5.511
  265.630  155.317   84.513    0.539    0.261    6.304
  265.880  149.599   79.773    0.512    0.254    7.817
  266.130  147.382   75.429    0.480    0.246   10.035
  266.380  147.308   72.871    0.476    0.250   12.442
  266.630  147.014   70.776    0.473    0.264   13.647
  266.880  147.049   66.832    0.478    0.254   12.466
  267.130  146.630   64.541    0.496    0.241   11.243
  267.380  146.896   71.246    0.500    0.240    9.813
  267.630  147.837   76.163    0.529    0.252    8.898
  267.880  149.340   82.475    0.521    0.285    7.177
  268.130  150.842   88.055    0.501    0.262    6.274
  268.380  151.331   86.557    0.549    0.245    6.235
  268.630  151.031   77.583    0.536    0.241    6.345
  268.880  148.368   68.872    0.524    0.275    6.998
  269.130  146.935   63.667    0.511    0.268    8.243
  269.380  146.971   60.649    0.508    0.302    9.764
  269.630  147.019   67.161    0.502    0.308   11.376
  269.880  147.278   69.429    0.500    0.297   11.661
  270.130  147.535   70.246    0.545    0.288   11.151
  270.380  147.912   67.092    0.541    0.277   10.880
  270.630  148.069   63.809    0.514    0.266   11.050
  270.880  147.655   66.680    0.514    0.305   11.517
  271.130  147.239   70.007    0.500    0.313   11.195
  271.380  147.162   72.876    0.483    0.305   10.079
  271.630  147.199   76.477    0.487    0.283    8.746
  271.880  148.482   79.543    0.492    0.275    6.533
  272.130  149.869   83.337    0.495    0.270    5.081
  272.380  150.246   87.990    0.502    0.255    4.557
  272.630  150.733   91.718    0.528    0.242    4.463
  272.880  150.324   92.734    0.526    0.248    4.728
  273.130  149.574   92.230    0.537    0.229    5.252
  273.380  148.935   90.597    0.531    0.230    5.998
  273.630  152.131   87.380    0.510    0.221    7.065
  273.880  154.532   86.739    0.521    0.144    8.777
  274.130  155.698   88.485    0.531    0.206    8.851
  274.380  156.639   91.291    0.504    0.214    8.842
  274.630  157.356   92.569    0.485    0.209    8.548
  274.880  157.954   92.393    0.482    0.181    8.189
  275.130  157.433   90.430    0.493    0.174    7.787
  275.380  156.791   94.361    0.498    0.209    7.206
  275.630  156.832   96.365    0.529    0.198    6.941
  275.880  156.415   94.472    0.520    0.201    6.760
  276.130  156.114   89.929    0.507    0.224    6.743
  276.380  156.945   84.267    0.499    0.219    6.860
  276.630  158.222   84.023    0.502    0.182    7.097
  276.880  159.170   87.619    0.533    0.203    7.491
  277.130  158.295   93.993    0.516    0.205    8.173
  277.380  156.640   98.717    0.498    0.197    8.866
  277.630  155.550   99.003    0.483    0.183    9.566
  277.880  156.040   97.833    0.482    0.169    9.716
  278.130  161.832   96.533    0.492    0.209    9.533
  278.380  167.732   95.500    0.495    0.194    9.472
  278.630  173.639   98.236    0.504    0.210    9.499
  278.880  175.482  104.280    0.505    0.192   10.174
  279.130  163.450  106.421    0.516    0.205   11.704
  279.380  154.463  104.259    0.507    0.206   13.363
  279.630  150.779   81.920    0.477    0.182   15.037
  279.880  151.050   77.379    0.413    0.119   16.078
  280.130  150.290   77.737    0.310    0.075   16.094
  280.380  149.875   77.494    0.313    0.054   14.701
  280.630  149.809   76.126    0.391    0.168   12.347
  280.880  149.956   70.462    0.464    0.209   11.958
  281.130  149.656   66.052    0.445    0.266   10.627
  281.380  150.262   64.553    0.425    0.266    8.604
  281.630  151.759   70.008    0.435    0.237    7.578
  281.880  153.830   73.729    0.461    0.217    6.923
  282.130  161.082   85.068    0.480    0.203    6.891
  282.380  160.672   83.304    0.500    0.213    7.421
  282.630  149.540   79.291    0.502    0.227    8.599
  282.880  148.676   73.427    0.490    0.272   11.099
  283.130  147.590   71.862    0.485    0.285   13.838
  283.380  147.286   70.297    0.478    0.295   15.346
  283.630  146.085   66.818    0.469    0.300   16.498
  283.880  145.555   65.316    0.464    0.287   16.823
  284.130  146.051   66.664    0.469    0.285   16.992
  284.380  146.426   65.827    0.475    0.279   17.706
  284.630  147.138   62.546    0.458    0.252   19.493
  284.880  148.078   60.646    0.429    0.228   22.015
  285.130  148.797   59.082    0.353    0.173   25.647
  285.380  149.057   56.465    0.349    0.138   30.377
  285.630  148.528   56.552    0.347    0.109   32.837
  285.880  147.559   59.355    0.346    0.114   33.906
  286.130  146.694   60.500    0.361    0.126   29.806
  286.380  146.844   60.395    0.386    0.135   28.766
  286.630  147.100   59.824    0.387    0.140   28.169
  286.880  146.803   59.645    0.385    0.145   27.333
  287.130  145.936   59.933    0.392    0.168   25.290
  287.380  144.963   62.537    0.436    0.182   21.791
  287.630  144.889   68.384    0.511    0.227   19.653
  287.880  144.704   69.199    0.519    0.258   17.985
  288.130  145.188   68.428    0.504    0.284   17.164
  288.380  145.455   67.927    0.490    0.282   16.566
  288.630  145.602   67.151    0.491    0.286   16.341
  288.880  146.098   67.968    0.493    0.291   16.238
  289.130  146.238   67.730    0.491    0.290   15.963
  289.380  146.502   65.902    0.486    0.287   15.630
  289.630  147.341   65.658    0.473    0.285   15.053
  289.880  147.597   65.685    0.462    0.292   14.110
  290.130  147.407   66.238    0.475    0.291   13.394
  290.380  147.224   66.262    0.481    0.286   13.653
  290.630  146.818   67.276    0.490    0.292   13.844
  290.880  146.972   68.754    0.550    0.318   13.531
  291.130  146.884   72.814    0.507    0.317   12.774
  291.380  146.698   76.476    0.475    0.296   11.736
  291.630  148.422   80.996    0.447    0.267   11.240
  291.880  152.634   89.222    0.445    0.240   10.554
  292.130  156.508   91.565    0.460    0.210   10.429
