~VERSION INFORMATION
 VERS.                 2.0:   CWLS LOG ASCII STANDARD -VERSION 2.0
 WRAP.                  NO:   ONE LINE PER DEPTH STEP
~WELL INFORMATION BLOCK
#MNEM.UNIT           DATA                    DESCRIPTION OF MNEMONIC
#---------    -------------------            -------------------------------
# Generated from Intellog Unique Number	CS_67_68/WELL/2192
WELL.         10-07-067-04W4                 : Well_name    - WELL
LOC .         00/10-07-067-04W4/0            : Location     - LOCATION
UWI .         00/10-07-067-04W4/0            : Uwi          - UNIQUE WELL ID
ENTR.         SP                             : Entered      - ENTERED BY
SRVC.         SCHLUMBERGER                   : Scn          - SERVICE COMPANY
STRT.M        355                            : top_depth    - START DEPTH
STOP.M        570                            : bot_depth    - STOP DEPTH
STEP.M        0.25                           : increment    - STEP LENGTH
 NULL. -999.2500:NULL Value
~CURVE INFORMATION BLOCK
#MNEM UNIT       ERCB CURVE CODE    CURVE DESCRIPTION
#-----------   ------------------   ----------------------------------
DEPT.M        00 001 00 00         : DEPTH        - DEPTH
ILD .OHMM     00 120 00 00         : RESD         - DEEP RESISTIVITY (DIL)
DPHI.V/V      00 890 00 00         : PHID         - DENSITY POROSITY (LIMESTONE)
NPHI.V/V      00 330 00 00         : PHIN         - NEUTRON POROSITY (LIMESTONE)
GR  .API      00 310 00 00         : GR           - GAMMA RAY
CALI.MM       00 280 01 00         : CAL          - CALIPER
~PARAMETER INFORMATION
#MNEM.UNIT           DATA             DESCRIPTION OF MNEMONIC
#---------         -----------     ------------------------------
GL  .M        682.01               : gl           - GROUND LEVEL ELEVATION
EREF.M        686.28               : kb           - ELEVATION OF DEPTH REFERENCE
DATM.M        686.8                : datum        - DATUM ELEVATION
TDD .M        580                  : tdd          - TOTAL DEPTH DRILLER
RUN .         ONE                  : Run          - RUN NUMBER
ENG .         BILL                 : Engineer     - RECORDING ENGINEER
WIT .         JIM                  : Witness      - WITNESSED BY
MUD .         GEL                  : Mud_type     - MUD TYPE
MATR.         LIMESTONE            : Logunit      - NEUTRON MATRIX
TMAX.C        22                   : BHT          - MAXIMUM RECORDED TEMPERATURE
BHTD.M        578.2                : BHTDEP       - MAXIMUM RECORDED TEMPERATURE
MATR.         1                    : LOGUNIT      - NEUTRON MATRIX
RMT .C        25                   : MDTP         - TEMPERATURE OF MUD
NEUT.         1                    : NEUTRON      - NEUTRON TYPE
RESI.         0                    : RESIST       - RESISTIVITY TYPE
RMC .OHMM     0.25                 : RMC          - RESISTIVITY OF MUD CAKE
RMF .OHMM     0.25                 : RMF          - RESISTIVITY OF MUD FILTRATE
SUFT.C        15                   : SUFT         - SURFACE TEMPERATURE
~A  DEPTH     RESD     PHID     PHIN       GR      CAL
  355.000    2.880    0.246    0.502   88.426  259.297
  355.250    2.870    0.247    0.511   90.213  257.178
  355.500    2.915    0.249    0.521   91.635  255.258
  355.750    3.012    0.248    0.534   89.871  254.260
  356.000    3.159    0.243    0.541   87.617  254.076
  356.250    3.257    0.239    0.525   86.037  253.894
  356.500    3.340    0.236    0.516   86.785  253.404
  356.750    3.316    0.246    0.525   89.372  252.917
  357.000    3.237    0.247    0.497   89.447  252.532
  357.250    3.184    0.254    0.479   88.850  252.554
  357.500    3.203    0.256    0.501   88.494  252.373
  357.750    3.278    0.249    0.522   83.055  252.292
  358.000    3.374    0.243    0.535   79.820  252.311
  358.250    3.486    0.230    0.465   78.668  252.030
  358.500    3.540    0.209    0.443   83.828  251.950
  358.750    3.528    0.222    0.427   90.459  251.971
  359.000    3.477    0.241    0.434   91.759  251.889
  359.250    3.362    0.259    0.445   87.606  251.604
  359.500    3.203    0.256    0.462   84.309  251.632
  359.750    3.143    0.253    0.483   84.323  251.853
  360.000    3.086    0.252    0.497   85.194  251.977
  360.250    3.082    0.254    0.484   82.819  251.999
  360.500    3.147    0.243    0.500   76.030  251.614
  360.750    3.307    0.220    0.508   70.467  251.227
  361.000    3.658    0.200    0.431   68.273  251.150
  361.250    3.925    0.193    0.400   69.512  251.270
  361.500    4.292    0.215    0.399   74.981  251.497
  361.750    4.729    0.227    0.419   78.669  251.624
  362.000    4.997    0.208    0.447   80.645  251.540
  362.250    4.850    0.201    0.467   81.575  251.563
  362.500    4.699    0.205    0.456   81.957  251.482
  362.750    4.639    0.214    0.433   82.766  251.812
  363.000    4.668    0.229    0.446   84.678  252.753
  363.250    4.705    0.239    0.447   81.199  254.205
  363.500    4.707    0.244    0.452   78.761  255.760
  363.750    4.621    0.222    0.433   83.924  256.802
  364.000    4.468    0.219    0.423   86.264  256.927
  364.250    4.512    0.219    0.424   84.316  256.543
  364.500    4.715    0.220    0.450   80.408  256.460
  364.750    4.927    0.224    0.465   77.173  256.176
  365.000    5.296    0.233    0.479   76.145  255.482
  365.250    5.903    0.237    0.445   76.956  253.563
  365.500    6.321    0.239    0.417   73.046  250.930
  365.750    6.808    0.211    0.403   67.115  249.321
  366.000    7.195    0.180    0.393   62.350  248.322
  366.250    7.489    0.164    0.378   59.359  247.832
  366.500    7.311    0.256    0.385   56.922  247.444
  366.750    6.884    0.284    0.399   63.615  247.160
  367.000    6.657    0.259    0.411   66.569  247.182
  367.250    6.890    0.231    0.440   61.620  247.920
  367.500    7.255    0.252    0.456   59.242  249.065
  367.750    7.754    0.281    0.425   59.073  251.231
  368.000    8.543    0.232    0.383   60.004  253.911
  368.250    9.485    0.214    0.369   54.380  255.975
  368.500   10.710    0.228    0.393   45.386  258.037
  368.750   12.465    0.287    0.383   38.720  259.898
  369.000   14.954    0.295    0.391   34.934  261.555
  369.250   17.506    0.335    0.398   31.822  262.700
  369.500   19.141    0.352    0.395   30.181  263.233
  369.750   20.422    0.352    0.425   33.380  263.153
  370.000   17.863    0.350    0.450   37.254  262.050
  370.250   15.535    0.366    0.468   40.393  261.871
  370.500   13.927    0.352    0.447   41.815  263.525
  370.750   13.213    0.340    0.428   40.420  270.491
  371.000   14.950    0.334    0.433   36.267  276.029
  371.250   16.471    0.355    0.451   33.461  280.441
  371.500   17.773    0.371    0.450   32.431  274.950
  371.750   18.643    0.359    0.440   36.308  272.315
  372.000   18.828    0.337    0.434   41.037  278.364
  372.250   17.965    0.334    0.424   44.358  287.679
  372.500   15.477    0.372    0.437   39.960  296.586
  372.750   13.259    0.365    0.449   47.633  287.519
  373.000   11.402    0.317    0.461   58.983  273.447
  373.250    9.316    0.313    0.440   64.877  259.581
  373.500    8.226    0.317    0.441   69.793  252.555
  373.750    7.388    0.318    0.432   71.276  254.926
  374.000    7.720    0.304    0.417   68.471  257.503
  374.250    8.522    0.298    0.400   67.934  253.133
  374.500    9.623    0.303    0.435   66.110  244.785
  374.750   10.423    0.301    0.455   61.710  241.330
  375.000   11.420    0.288    0.436   58.476  237.985
  375.250   12.253    0.278    0.425   57.692  236.268
  375.500   12.468    0.275    0.426   61.442  235.778
  375.750   11.875    0.284    0.435   63.479  239.175
  376.000   10.890    0.292    0.443   65.085  243.075
  376.250    9.652    0.306    0.455   68.591  245.649
  376.500    8.160    0.301    0.481   71.302  246.284
  376.750    7.568    0.292    0.465   72.661  246.305
  377.000    6.980    0.281    0.439   72.061  245.817
  377.250    6.610    0.266    0.436   71.279  245.432
  377.500    6.538    0.257    0.456   70.495  245.556
  377.750    6.504    0.241    0.455   68.487  245.579
  378.000    6.593    0.217    0.441   67.580  245.906
  378.250    6.903    0.202    0.433   67.103  246.746
  378.500    7.158    0.217    0.424   69.199  247.893
  378.750    7.522    0.284    0.427   71.296  248.934
  379.000    8.011    0.305    0.429   66.162  250.285
  379.250    8.498    0.322    0.420   63.050  251.735
  379.500    8.998    0.335    0.417   63.800  253.291
  379.750    8.783    0.343    0.419   65.405  253.723
  380.000    7.727    0.355    0.419   67.258  253.843
  380.250    6.758    0.339    0.428   68.741  253.865
  380.500    6.162    0.340    0.441   72.982  253.890
  380.750    5.781    0.336    0.452   78.326  254.524
  381.000    5.675    0.317    0.466   86.001  255.566
  381.250    5.710    0.299    0.474   89.568  257.017
  381.500    5.865    0.270    0.433   91.785  258.574
  381.750    5.947    0.242    0.426   90.328  258.799
  382.000    5.848    0.242    0.411   88.136  256.880
  382.250    5.687    0.236    0.397   88.577  254.859
  382.500    5.604    0.225    0.412   87.917  253.349
  382.750    5.617    0.216    0.443   84.928  252.963
  383.000    5.421    0.209    0.454   83.960  253.293
  383.250    5.506    0.214    0.441   84.096  253.112
  383.500    6.009    0.223    0.429   80.312  252.622
  383.750    6.197    0.228    0.409   76.463  252.439
  384.000    6.649    0.242    0.395   72.924  252.669
  384.250    6.779    0.252    0.387   71.894  253.098
  384.500    6.898    0.245    0.380   70.805  253.321
  384.750    7.073    0.239    0.373   70.082  253.245
  385.000    7.321    0.247    0.374   68.442  252.758
  385.250    7.394    0.260    0.392   67.290  252.573
  385.500    7.383    0.268    0.400   67.243  252.490
  385.750    7.429    0.260    0.389   67.317  252.924
  386.000    7.645    0.245    0.406   66.410  252.841
  386.250    7.914    0.262    0.410   63.360  253.067
  386.500    8.145    0.271    0.391   61.412  253.295
  386.750    8.304    0.274    0.380   59.344  253.317
  387.000    8.418    0.277    0.395   57.946  253.133
  387.250    8.664    0.287    0.401   56.245  251.524
  387.500    9.209    0.277    0.398   55.092  250.014
  387.750   10.070    0.272    0.395   52.839  248.912
  388.000   11.137    0.288    0.403   48.440  247.911
  388.250   12.647    0.291    0.408   44.349  247.422
  388.500   14.174    0.303    0.408   41.112  247.138
  388.750   14.867    0.325    0.411   40.085  246.958
  389.000   14.485    0.325    0.406   48.125  247.694
  389.250   13.208    0.304    0.401   57.023  249.863
  389.500   11.662    0.286    0.398   57.466  251.004
  389.750   10.415    0.290    0.397   53.495  251.743
  390.000    9.461    0.305    0.391   54.428  252.275
  390.250    8.792    0.298    0.400   62.100  252.502
  390.500    8.201    0.258    0.409   71.122  252.935
  390.750    7.621    0.234    0.430   76.833  252.955
  391.000    7.082    0.241    0.470   80.831  252.875
  391.250    6.681    0.250    0.474   83.601  252.897
