~VERSION INFORMATION
 VERS.                 2.0:   CWLS LOG ASCII STANDARD -VERSION 2.0
 WRAP.                  NO:   ONE LINE PER DEPTH STEP
~WELL INFORMATION BLOCK
#MNEM.UNIT           DATA                    DESCRIPTION OF MNEMONIC
#---------    -------------------            -------------------------------
# Generated from Intellog Unique Number	CX_WELLS/WELL/3404
WELL.         SUNCOR NEWBY                   : Well_name    - WELL
LOC .         00/11-20-084-04W4/0            : Location     - LOCATION
UWI .         00/11-20-084-04W4/0            : Uwi          - UNIQUE WELL ID
ENTR.         T                              : Entered      - ENTERED BY
SRVC.         SCHLUMBERGER                   : Scn          - SERVICE COMPANY
STRT.M        80                             : top_depth    - START DEPTH
STOP.M        235                            : bot_depth    - STOP DEPTH
STEP.M        0.25                           : increment    - STEP LENGTH
 NULL. -999.2500:NULL Value
~CURVE INFORMATION BLOCK
#MNEM UNIT       ERCB CURVE CODE    CURVE DESCRIPTION
#-----------   ------------------   ----------------------------------
DEPT.M        00 001 00 00         : DEPTH        - DEPTH
GR  .API      00 310 00 00         : GR           - GAMMA RAY
NPHI.V/V      00 330 00 00         : PHIN         - NEUTRON POROSITY (SANDSTONE)
DPHI.V/V      00 890 00 00         : PHID         - DENSITY POROSITY (SANDSTONE)
ILD .OHMM     00 120 00 00         : RESD         - DEEP RESISTIVITY (OTHER)
~PARAMETER INFORMATION
#MNEM.UNIT           DATA             DESCRIPTION OF MNEMONIC
#---------         -----------     ------------------------------
GL  .M        463                  : gl           - GROUND LEVEL ELEVATION
EREF.M        466                  : kb           - ELEVATION OF DEPTH REFERENCE
DATM.M        466                  : datum        - DATUM ELEVATION
TDD .M        245                  : tdd          - TOTAL DEPTH DRILLER
RUN .         ONE                  : Run          - RUN NUMBER
ENG .         BILL                 : Engineer     - RECORDING ENGINEER
WIT .         JIM                  : Witness      - WITNESSED BY
MUD .         GEL                  : Mud_type     - MUD TYPE
MATR.         SANDSTONE            : Logunit      - NEUTRON MATRIX
TMAX.C        33                   : BHT          - MAXIMUM RECORDED TEMPERATURE
BHTD.M        245                  : BHTDEP       - MAXIMUM RECORDED TEMPERATURE
MATR.         1                    : LOGUNIT      - NEUTRON MATRIX
RMT .C        18                   : MDTP         - TEMPERATURE OF MUD
NEUT.         1                    : NEUTRON      - NEUTRON TYPE
RESI.         2                    : RESIST       - RESISTIVITY TYPE
RMC .OHMM     1.9                  : RMC          - RESISTIVITY OF MUD CAKE
RMF .OHMM     2.7                  : RMF          - RESISTIVITY OF MUD FILTRATE
SUFT.C        4                    : SUFT         - SURFACE TEMPERATURE
~A  DEPTH       GR     PHIN     PHID     RESD
# ...
  210.500   39.057    0.362    0.323    3.168
  210.750   46.947    0.358    0.317    3.003
  211.000   59.660    0.360    0.318    2.791
  211.250   67.551    0.371    0.332    2.274
  211.500   75.466    0.386    0.318    1.888
  211.750   73.762    0.399    0.303    1.755
  212.000   69.060    0.396    0.304    1.938
  212.250   66.157    0.396    0.310    2.101
  212.500   65.676    0.401    0.317    2.107
  212.750   65.124    0.400    0.323    2.036
  213.000   64.620    0.397    0.327    1.823
  213.250   63.516    0.395    0.330    1.693
  213.500   60.612    0.396    0.332    1.732
  213.750   58.309    0.397    0.333    2.104
  214.000   57.805    0.395    0.334    2.363
  214.250   59.723    0.393    0.334    2.817
  214.500   62.217    0.393    0.334    2.774
  214.750   65.934    0.395    0.333    2.436
  215.000   67.205    0.397    0.327    2.182
  215.250   67.923    0.400    0.322    1.646
  215.500   67.995    0.401    0.320    1.533
  215.750   69.337    0.398    0.316    1.479
  216.000   70.008    0.392    0.314    1.603
  216.250   71.303    0.389    0.312    1.670
  216.500   70.199    0.391    0.308    1.810
  216.750   66.720    0.390    0.307    1.884
  217.000   64.969    0.391    0.314    2.039
  217.250   61.466    0.393    0.324    2.008
  217.500   56.788    0.397    0.332    1.607
  217.750   50.862    0.401    0.335    1.492
  218.000   52.757    0.404    0.334    1.362
  218.250   55.274    0.405    0.334    1.367
  218.500   56.545    0.404    0.337    1.452
  218.750   57.864    0.404    0.342    1.604
  219.000   58.535    0.400    0.340    1.608
  219.250   58.654    0.400    0.333    1.585
  219.500   58.725    0.402    0.332    1.561
  219.750   58.868    0.402    0.332    1.568
  220.000   58.916    0.396    0.334    1.570
  220.250   60.834    0.393    0.336    1.576
  220.500   65.750    0.386    0.337    1.613
  220.750   64.023    0.377    0.336    1.617
  221.000   62.943    0.380    0.337    1.592
  221.250   62.414    0.384    0.338    1.569
  221.500   61.934    0.384    0.338    1.544
  221.750   62.029    0.385    0.338    1.493
  222.000   60.302    0.389    0.338    1.470
  222.250   59.221    0.393    0.339    1.448
  222.500   58.693    0.396    0.340    1.508
  222.750   58.213    0.397    0.340    1.633
  223.000   57.684    0.398    0.341    1.770
  223.250   55.405    0.397    0.342    1.841
  223.500   52.478    0.396    0.345    2.113
  223.750   49.575    0.394    0.350    2.286
  224.000   45.472    0.394    0.355    2.474
  224.250   47.966    0.392    0.357    2.730
  224.500   54.058    0.387    0.351    2.445
  224.750   71.568    0.370    0.339    1.845
  225.000   84.280    0.371    0.317    1.999
  225.250   90.396    0.377    0.254    2.768
  225.500   92.890    0.384    0.163    3.238
  225.750   94.808    0.388    0.166    3.640
  226.000   95.479    0.395    0.156    3.937
  226.250   99.772    0.399    0.150    4.107
  226.500  105.312    0.400    0.185    2.931
  226.750  102.985    0.400    0.207    2.829
  227.000   91.110    0.404    0.228    2.582
  227.250   87.560    0.412    0.255    2.446
  227.500   78.037    0.419    0.266    2.191
  227.750   59.542    0.411    0.284    1.964
  228.000   57.839    0.393    0.288    1.829
  228.250   73.549    0.383    0.283    1.764
  228.500   75.419    0.383    0.276    1.672
  228.750   81.535    0.384    0.260    1.678
  229.000   85.828    0.386    0.227    1.750
  229.250   89.522    0.388    0.213    1.858
  229.500   93.838    0.391    0.206    1.973
  229.750   91.559    0.395    0.194    2.306
  230.000   88.632    0.398    0.179    3.326
  230.250   85.105    0.397    0.158    3.457
  230.500   75.006    0.387    0.105    4.040
  230.750   69.081    0.358    0.006    5.600
  231.000   55.960    0.323    0.010    6.539
  231.250   47.060    0.273    0.016    8.727
  231.500   44.757    0.205    0.019   10.786
  231.750   49.649    0.200    0.012   12.380
  232.000   50.392    0.191    0.012   12.413
  232.250   49.840    0.193    0.016   12.949
  232.500   48.736    0.195    0.018   13.242
  232.750   47.632    0.194    0.024   13.277
  233.000   45.328    0.190    0.029   13.085
  233.250   43.648    0.188    0.027   13.638
  233.500   42.544    0.184    0.020   14.214
  233.750   41.416    0.178    0.011   15.387
  234.000   39.713    0.174    0.003   16.642
  234.250   38.633    0.172    0.007   19.450
  234.500   38.104    0.172    0.010   20.307
  234.750   38.200    0.173    0.012   20.750
  235.000   38.295    0.174    0.016   21.220
