~VERSION INFORMATION
 VERS.                 2.0:   CWLS LOG ASCII STANDARD -VERSION 2.0
 WRAP.                  NO:   ONE LINE PER DEPTH STEP
~WELL INFORMATION BLOCK
#MNEM.UNIT           DATA                    DESCRIPTION OF MNEMONIC
#---------    -------------------            -------------------------------
# Generated from Intellog Unique Number	CW_70_72/WELL/1049
NULL.         -999.25                        : NULL_VALUE
WELL.         HOME CDN SUP MITSUE 10-34      : Well_name    - WELL              
LOC .         10-34-071-03W5                 : Location     - LOCATION          
UWI .         00/10-34-071-03W5/0            : Uwi          - UNIQUE WELL ID    
ENTR.         JAYE                           : Entered      - ENTERED BY        
SRVC.         COMPUTALOG                     : Scn          - SERVICE COMPANY   
DATE.         7 SEPT 84                      : Date         - LOG DATE          
STRT.M        420                            : top_depth    - START DEPTH       
STOP.M        625                            : bot_depth    - STOP DEPTH        
STEP.M        0.25                           : increment    - STEP LENGTH       
~CURVE INFORMATION BLOCK
#MNEM UNIT       ERCB CURVE CODE    CURVE DESCRIPTION
#-----------   ------------------   ----------------------------------
DEPT.M        00 001 00 00         : DEPTH        - DEPTH                       
DPHI.V/V      00 890 00 00         : PHID         - DENSITY POROSITY (SANDSTONE)
NPHI.V/V      00 330 00 00         : PHIN         - NEUTRON POROSITY (SANDSTONE)
GR  .API      00 310 00 00         : GR           - GAMMA RAY                   
CALI.MM       00 280 01 00         : CAL          - CALIPER                     
ILD .OHMM     00 120 00 00         : RESD         - DEEP RESISTIVITY (DIL)      
~PARAMETER INFORMATION       
#MNEM.UNIT           DATA             DESCRIPTION OF MNEMONIC
#---------         -----------     ------------------------------
GL  .M        625.4                : gl           - GROUND LEVEL ELEVATION      
EREF.M        628.3                : kb           - ELEVATION OF DEPTH REFERENCE
DATM.M        625.4                : datum        - DATUM ELEVATION             
TDD .M        643                  : tdd          - TOTAL DEPTH DRILLER         
RUN .         ONE                  : Run          - RUN NUMBER                  
ENG .         MACLEAN              : Engineer     - RECORDING ENGINEER          
WIT .         COOK/YARDLEY         : Witness      - WITNESSED BY                
BASE.         EDM                  : Branch       - HOME BASE OF LOGGING UNIT   
MUD .         GEL CHEM             : Mud_type     - MUD TYPE                    
MATR.         SANDSTONE            : Logunit      - NEUTRON MATRIX              
TMAX.C        22                   : BHT          - MAXIMUM RECORDED TEMPERATURE
BHTD.M        632.5                : BHTDEP       - MAXIMUM RECORDED TEMPERATURE
RMT .C        17                   : MDTP         - TEMPERATURE OF MUD          
MUDD.KG/M     1120                 : MWT          - MUD DENSITY                 
NEUT.         1                    : NEUTRON      - NEUTRON TYPE                
RESI.         0                    : RESIST       - RESISTIVITY TYPE            
RM  .OHMM     4                    : RM           - RESISTIVITY OF MUD          
RMC .OHMM     3.2                  : RMC          - RESISTIVITY OF MUD CAKE     
RMF .OHMM     3.8                  : RMF          - RESISTIVITY OF MUD FILTRATE 
SUFT.C        0                    : SUFT         - SURFACE TEMPERATURE         
~A  DEPTH     PHID     PHIN       GR      CAL     RESD
  420.000    0.204    0.475   48.859  222.343    2.396
  420.250    0.211    0.462   51.054  220.490    2.450
  420.500    0.211    0.456   53.750  217.805    2.476
  420.750    0.203    0.447   55.010  214.600    2.508
  421.000    0.203    0.449   53.460  210.045    2.535
  421.250    0.212    0.469   50.663  207.982    2.558
  421.500    0.217    0.485   48.304  207.274    2.600
  421.750    0.216    0.478   46.693  205.837    2.643
  422.000    0.207    0.451   46.018  204.400    2.727
  422.250    0.190    0.446   46.341  203.482    2.808
  422.500    0.173    0.442   46.477  203.917    2.897
  422.750    0.191    0.425   47.299  203.936    2.995
  423.000    0.200    0.395   47.936  202.813    3.011
  423.250    0.204    0.381   45.826  203.039    2.976
  423.500    0.205    0.394   42.154  202.849    2.819
  423.750    0.210    0.434   39.361  201.100    2.626
  424.000    0.224    0.458   40.931  202.472    2.548
  424.250    0.237    0.470   44.060  212.059    2.723
  424.500    0.267    0.447   43.199  215.301    3.147
  424.750    0.292    0.383   38.280  212.096    3.969
  425.000    0.306    0.325   34.797  200.571    5.422
  425.250    0.320    0.306   31.814  192.894    6.431
  425.500    0.332    0.292   30.390  191.147    7.515
  425.750    0.331    0.299   30.090  190.748    8.229
  426.000    0.322    0.301   31.973  190.666    8.396
  426.250    0.325    0.298   33.294  190.060    8.072
  426.500    0.323    0.303   32.245  189.455    7.258
  426.750    0.306    0.316   30.635  190.202    6.648
  427.000    0.291    0.342   30.459  191.365    6.045
  427.250    0.276    0.367   33.091  192.422    5.476
  427.500    0.263    0.386   36.471  192.754    5.091
  427.750    0.248    0.400   39.790  192.774    4.725
  428.000    0.235    0.394   36.681  192.792    4.393
  428.250    0.231    0.381   30.890  193.123    3.994
  428.500    0.222    0.369   29.092  194.078    3.741
  428.750    0.200    0.393   32.223  195.970    3.570
  429.000    0.208    0.416   38.350  197.238    3.295
  429.250    0.227    0.445   42.729  199.856    3.103
  429.500    0.240    0.459   47.733  202.162    3.214
  429.750    0.254    0.429   50.427  203.742    3.741
  430.000    0.272    0.392   46.820  202.616    4.438
  430.250    0.336    0.312   39.905  198.580    5.043
  430.500    0.366    0.263   33.925  195.582    5.785
  430.750    0.379    0.236   31.940  194.146    6.103
  431.000    0.329    0.268   34.260  192.919    5.868
  431.250    0.286    0.355   38.452  192.519    5.315
  431.500    0.259    0.375   43.643  192.331    4.806
  431.750    0.268    0.396   50.643  192.142    4.402
  432.000    0.263    0.375   49.343  192.472    3.988
  432.250    0.214    0.325   41.056  192.804    3.863
  432.500    0.192    0.349   39.321  193.342    4.253
  432.750    0.199    0.384   41.329  193.777    4.364
  433.000    0.249    0.366   46.269  194.213    4.258
  433.250    0.283    0.321   41.789  195.374    4.162
  433.500    0.276    0.327   35.997  195.915    3.965
  433.750    0.249    0.374   35.384  196.973    3.728
  434.000    0.214    0.404   39.827  199.387    3.478
  434.250    0.225    0.421   45.265  201.276    3.439
  434.500    0.231    0.425   45.901  203.893    3.642
  434.750    0.224    0.415   45.226  210.360    3.987
  435.000    0.209    0.398   45.300  211.628    4.350
  435.250    0.192    0.376   44.749  208.942    4.667
  435.500    0.206    0.351   43.575  201.473    4.869
  435.750    0.214    0.356   42.464  195.981    4.786
  436.000    0.209    0.352   40.229  195.065    4.697
  436.250    0.191    0.332   38.120  196.330    4.712
  436.500    0.173    0.370   38.631  198.327    4.853
  436.750    0.151    0.381   42.010  200.530    5.073
  437.000    0.355    0.275   49.323  202.837    5.312
  437.250    0.389    0.218   40.910  201.920    5.330
  437.500    0.381    0.185   31.375  197.988    5.058
  437.750    0.320    0.221   26.769  193.637    4.694
  438.000    0.299    0.276   27.715  192.306    4.268
  438.250    0.286    0.333   31.721  192.326    3.795
  438.500    0.274    0.360   35.851  192.552    3.601
  438.750    0.259    0.353   38.983  193.091    3.764
  439.000    0.241    0.346   42.364  193.317    3.956
  439.250    0.226    0.323   43.497  193.337    4.074
  439.500    0.250    0.272   38.017  193.042    3.831
  439.750    0.299    0.262   29.855  192.648    3.337
  440.000    0.319    0.251   24.001  192.145    2.984
  440.250    0.338    0.265   20.081  191.645    2.629
  440.500    0.331    0.302   16.410  191.455    2.269
  440.750    0.319    0.326   14.925  191.372    2.074
  441.000    0.308    0.345   16.746  192.015    1.947
  441.250    0.311    0.340   20.377  193.073    1.861
  441.500    0.318    0.329   19.077  193.714    1.967
  441.750    0.309    0.325   15.719  194.359    2.122
  442.000    0.267    0.326   22.969  195.001    2.294
  442.250    0.222    0.379   38.330  195.852    2.559
  442.500    0.196    0.401   52.256  196.494    2.786
  442.750    0.193    0.374   51.770  197.242    3.125
  443.000    0.218    0.356   49.160  197.782    3.310
  443.250    0.246    0.347   46.426  198.319    3.340
  443.500    0.263    0.357   43.380  198.859    3.433
  443.750    0.254    0.368   41.019  199.293    3.489
  444.000    0.236    0.374   41.904  200.560    3.573
  444.250    0.210    0.406   44.287  202.141    3.777
  444.500    0.193    0.406   46.607  203.406    4.128
  444.750    0.194    0.397   48.117  205.193    3.969
  445.000    0.190    0.396   51.123  207.086    3.649
  445.250    0.183    0.410   55.440  207.831    3.203
  445.500    0.188    0.470   60.818  207.539    2.785
  445.750    0.205    0.488   60.018  205.999    2.523
  446.000    0.189    0.494   52.229  204.458    2.302
  446.250    0.163    0.473   47.748  203.852    2.375
  446.500    0.178    0.429   50.006  203.248    2.620
  446.750    0.220    0.406   57.442  202.537    3.091
  447.000    0.206    0.389   54.833  202.348    3.949
  447.250    0.225    0.367   49.103  202.265    5.641
  447.500    0.303    0.290   44.123  199.371    8.147
  447.750    0.332    0.239   36.585  196.582   10.048
  448.000    0.362    0.229   30.669  195.457   10.921
  448.250    0.386    0.232   29.307  195.059   10.154
  448.500    0.334    0.274   29.131  194.562    8.523
  448.750    0.297    0.314   30.578  194.577    7.049
  449.000    0.260    0.326   33.148  194.809    6.005
  449.250    0.228    0.337   36.654  195.343    5.212
  449.500    0.223    0.349   37.476  195.991    4.635
  449.750    0.240    0.373   37.175  196.317    4.381
  450.000    0.255    0.382   39.122  196.340    4.307
  450.250    0.263    0.382   39.444  196.361    4.346
  450.500    0.265    0.377   37.209  196.480    4.345
  450.750    0.259    0.381   35.847  196.397    4.343
  451.000    0.249    0.389   35.547  196.520    4.333
  451.250    0.241    0.377   36.745  196.849    4.372
  451.500    0.250    0.369   40.625  197.183    4.371
  451.750    0.262    0.373   39.886  197.197    4.329
  452.000    0.283    0.351   37.964  197.220    4.224
  452.250    0.297    0.328   37.663  197.444    3.986
  452.500    0.285    0.353   40.109  197.985    3.776
  452.750    0.266    0.382   45.175  198.625    3.530
  453.000    0.252    0.387   47.619  198.959    3.381
  453.250    0.242    0.382   43.886  199.082    3.214
  453.500    0.245    0.386   39.842  198.893    3.067
  453.750    0.258    0.396   39.167  198.494    2.965
  454.000    0.264    0.398   41.612  198.097    2.883
  454.250    0.253    0.387   41.686  197.909    2.792
  454.500    0.256    0.395   39.451  197.200    2.699
  454.750    0.272    0.402   37.340  196.182    2.693
  455.000    0.285    0.397   35.106  195.679    2.708
  455.250    0.281    0.389   31.934  195.595    2.722
  455.500    0.272    0.381   34.005  195.617    2.782
  455.750    0.265    0.376   38.384  195.632    2.839
  456.000    0.259    0.417   36.836  195.649    2.907
  456.250    0.257    0.410   33.915  195.668    2.944
