~VERSION INFORMATION
 VERS.                 2.0:   CWLS LOG ASCII STANDARD -VERSION 2.0
 WRAP.                  NO:   ONE LINE PER DEPTH STEP
~WELL INFORMATION BLOCK
#MNEM.UNIT           DATA                    DESCRIPTION OF MNEMONIC
#---------    -------------------            -------------------------------
# Generated from Intellog Unique Number	CS_77_79/WELL/991
WELL.         HOME OIL COMPANY LIMITED       : Well_name    - WELL
LOC .         00/11-07-077-06W4/0            : Location     - LOCATION
UWI .         00/11-07-077-06W4/0            : Uwi          - UNIQUE WELL ID
ENTR.         SP                             : Entered      - ENTERED BY
SRVC.         SCHLUMBERGER                   : Scn          - SERVICE COMPANY
STRT.M        140.208                        : top_depth    - START DEPTH
STOP.M        368.458                        : bot_depth    - STOP DEPTH
STEP.M        0.25                           : increment    - STEP LENGTH
 NULL. -999.2500:NULL Value
~CURVE INFORMATION BLOCK
#MNEM UNIT       ERCB CURVE CODE    CURVE DESCRIPTION
#-----------   ------------------   ----------------------------------
DEPT.M        00 001 00 00         : DEPTH        - DEPTH
GR  .API      00 310 00 00         : GR           - GAMMA RAY
DPHI.V/V      00 890 00 00         : PHID         - DENSITY POROSITY (SANDSTONE)
NPHI.V/V      00 330 00 00         : PHIN         - NEUTRON POROSITY (SANDSTONE)
ILD .OHMM     00 120 00 00         : RESD         - DEEP RESISTIVITY (DIL)
~PARAMETER INFORMATION
#MNEM.UNIT           DATA             DESCRIPTION OF MNEMONIC
#---------         -----------     ------------------------------
GL  .M        561.96               : gl           - GROUND LEVEL ELEVATION
EREF.M        565.8                : kb           - ELEVATION OF DEPTH REFERENCE
DATM.M        561.96               : datum        - DATUM ELEVATION
TDD .M        372.466              : tdd          - TOTAL DEPTH DRILLER
RUN .         ONE                  : Run          - RUN NUMBER
ENG .         BILL                 : Engineer     - RECORDING ENGINEER
WIT .         JIM                  : Witness      - WITNESSED BY
MUD .         GEL                  : Mud_type     - MUD TYPE
MATR.         SANDSTONE            : Logunit      - NEUTRON MATRIX
TMAX.C        15.5556              : BHT          - MAXIMUM RECORDED TEMPERATURE
BHTD.M        372.466              : BHTDEP       - MAXIMUM RECORDED TEMPERATURE
MATR.         1                    : LOGUNIT      - NEUTRON MATRIX
RMT .C        25                   : MDTP         - TEMPERATURE OF MUD
NEUT.         1                    : NEUTRON      - NEUTRON TYPE
RESI.         0                    : RESIST       - RESISTIVITY TYPE
RMC .OHMM     0.25                 : RMC          - RESISTIVITY OF MUD CAKE
RMF .OHMM     0.25                 : RMF          - RESISTIVITY OF MUD FILTRATE
SUFT.C        15                   : SUFT         - SURFACE TEMPERATURE
~A  DEPTH       GR     PHID     PHIN     RESD
# ...
  270.708   61.016    0.249    0.477    9.995
  270.958   63.263    0.349    0.498    8.626
  271.208   61.709    0.360    0.487    7.997
  271.458   59.198    0.350    0.465    7.966
  271.708   57.326    0.336    0.443    8.492
  271.958   55.391    0.305    0.438    9.056
  272.208   54.173    0.227    0.416    9.420
  272.458   52.683    0.215    0.344   10.056
  272.708   53.041    0.263    0.376   10.138
  272.958   55.430    0.291    0.422    9.547
  273.208   57.319    0.344    0.435    8.450
  273.458   59.835    0.343    0.433    7.743
  273.708   60.763    0.355    0.449    7.671
  273.958   59.062    0.360    0.462    8.000
  274.208   58.933    0.361    0.443    8.323
  274.458   59.417    0.360    0.445    8.724
  274.708   61.234    0.351    0.453    8.752
  274.958   59.909    0.344    0.453    8.350
  275.208   57.909    0.345    0.451    7.516
  275.458   56.645    0.352    0.451    6.693
  275.708   59.101    0.353    0.451    6.261
  275.958   61.202    0.356    0.461    6.336
  276.208   61.237    0.355    0.474    6.672
  276.458   61.868    0.348    0.476    7.002
  276.708   62.208    0.355    0.469    7.227
  276.958   60.388    0.364    0.461    7.266
  277.208   57.224    0.369    0.466    7.051
  277.458   57.042    0.368    0.481    5.894
  277.708   59.074    0.362    0.492    5.824
  277.958   61.099    0.356    0.479    5.923
  278.208   62.668    0.364    0.476    5.988
  278.458   64.257    0.369    0.477    6.054
  278.708   65.251    0.375    0.478    6.167
  278.958   66.239    0.376    0.485    6.207
  279.208   67.219    0.373    0.480    6.277
  279.458   68.417    0.370    0.470    6.386
  279.708   68.228    0.366    0.459    6.523
  279.958   67.151    0.365    0.472    6.510
  280.208   68.495    0.365    0.475    6.586
  280.458   69.688    0.359    0.481    6.628
  280.708   70.107    0.355    0.495    6.632
  280.958   69.471    0.351    0.510    6.632
  281.208   68.908    0.347    0.507    6.628
  281.458   69.391    0.346    0.496    6.737
  281.708   69.320    0.352    0.496    6.753
  281.958   67.635    0.358    0.494    6.757
  282.208   67.713    0.363    0.492    6.761
  282.458   67.882    0.369    0.482    6.802
  282.708   68.262    0.368    0.471    6.884
  282.958   68.329    0.357    0.477    6.885
  283.208   67.641    0.351    0.471    6.885
  283.458   67.055    0.341    0.473    6.885
  283.708   67.634    0.341    0.474    6.899
  283.958   68.219    0.347    0.517    6.749
  284.208   67.001    0.354    0.498    6.762
  284.458   68.659    0.366    0.488    6.774
  284.708   68.883    0.373    0.494    6.632
  284.958   68.845    0.363    0.488    6.550
  285.208   70.354    0.357    0.470    6.341
  285.458   71.241    0.343    0.472    6.280
  285.708   74.269    0.327    0.480    6.088
  285.958   76.358    0.313    0.494    5.909
  286.208   77.721    0.301    0.475    5.733
  286.458   77.648    0.299    0.470    5.499
  286.708   79.531    0.297    0.477    5.301
  286.958   82.286    0.308    0.474    5.143
  287.208   86.288    0.286    0.472    5.038
  287.458   88.078    0.259    0.466    4.926
  287.708   89.649    0.265    0.460    4.854
  287.958   87.600    0.273    0.466    4.856
  288.208   85.382    0.258    0.477    4.856
  288.458   86.207    0.243    0.487    4.920
  288.708   88.875    0.235    0.491    5.075
  288.958   90.791    0.233    0.485    5.231
  289.208   87.672    0.238    0.473    5.392
  289.458   86.537    0.247    0.474    5.556
  289.708   87.154    0.262    0.477    5.732
  289.958   88.481    0.256    0.506    5.797
  290.208   89.688    0.238    0.525    5.841
  290.458   90.645    0.221    0.519    5.835
  290.708   92.650    0.222    0.498    5.962
  290.958   93.129    0.245    0.483    5.952
  291.208   92.634    0.258    0.484    5.952
  291.458   92.518    0.255    0.485    5.952
  291.708   92.479    0.237    0.489    5.953
  291.958   92.017    0.229    0.509    5.953
  292.208   89.497    0.243    0.500    5.953
  292.458   85.943    0.266    0.490    5.954
  292.708   82.657    0.273    0.495    5.954
  292.958   78.589    0.285    0.481    5.954
  293.208   77.374    0.301    0.449    5.955
  293.458   79.732    0.298    0.452    5.956
  293.708   75.919    0.312    0.457    5.960
  293.958   77.652    0.312    0.461    5.861
  294.208   80.253    0.308    0.477    5.819
  294.458   81.190    0.301    0.492    5.518
  294.708   82.759    0.303    0.475    5.304
  294.958   83.868    0.290    0.457    4.727
  295.208   85.865    0.255    0.445    4.193
  295.458   86.073    0.229    0.472    3.867
  295.708   84.946    0.239    0.510    3.327
  295.958   85.752    0.236    0.506    2.918
  296.208   86.748    0.248    0.491    2.460
  296.458   86.681    0.258    0.493    2.137
  296.708   84.126    0.256    0.518    2.017
  296.958   83.680    0.288    0.583    2.010
  297.208   84.054    0.306    0.593    2.060
  297.458   84.525    0.301    0.566    2.125
  297.708   86.349    0.306    0.566    2.186
  297.958   87.574    0.289    0.564    2.204
  298.208   86.947    0.278    0.570    2.205
  298.458   82.946    0.282    0.554    2.206
  298.708   85.128    0.285    0.547    2.205
  298.958   87.056    0.289    0.559    2.238
  299.208   88.916    0.291    0.567    2.407
  299.458   89.867    0.294    0.581    2.505
  299.708   89.801    0.286    0.593    2.718
  299.958   89.436    0.267    0.551    2.943
  300.208   85.878    0.261    0.508    3.276
  300.458   83.456    0.228    0.479    3.671
  300.708   83.354    0.228    0.469    3.928
  300.958   86.258    0.233    0.476    4.242
  301.208   88.749    0.221    0.465    4.643
  301.458   89.274    0.213    0.436    4.877
  301.708   90.240    0.208    0.425    5.060
  301.958   91.234    0.214    0.439    4.988
  302.208   92.166    0.220    0.463    4.539
  302.458   94.801    0.229    0.474    3.988
  302.708   95.752    0.249    0.489    3.578
  302.958   93.701    0.263    0.516    3.496
  303.208   89.842    0.274    0.529    3.498
  303.458   89.841    0.255    0.488    3.498
  303.708   90.877    0.228    0.467    3.499
  303.958   92.087    0.226    0.479    3.499
  304.208   93.392    0.234    0.488    3.500
  304.458   94.303    0.228    0.493    3.451
  304.708   95.827    0.227    0.503    3.436
  304.958   95.720    0.234    0.507    3.435
  305.208   95.354    0.241    0.494    3.374
  305.458   97.115    0.240    0.485    3.303
  305.708   98.059    0.244    0.478    3.313
  305.958   98.053    0.240    0.497    3.245
  306.208   97.974    0.228    0.500    3.252
  306.458   97.449    0.239    0.501    3.193
  306.708   97.419    0.246    0.503    3.254
  306.958   98.159    0.237    0.517    3.326
  307.208   98.221    0.231    0.525    3.431
  307.458   97.010    0.238    0.511    3.653
  307.708   94.989    0.227    0.492    3.921
  307.958   93.306    0.222    0.482    4.567
  308.208   92.776    0.214    0.489    5.480
  308.458   86.784    0.189    0.495    6.624
  308.708   82.052    0.168    0.482    8.038
  308.958   74.871    0.144    0.396    8.548
  309.208   72.308    0.145    0.368    8.926
  309.458   72.539    0.197    0.387    9.180
  309.708   73.478    0.235    0.411    9.669
  309.958   71.453    0.244    0.415    9.948
  310.208   70.289    0.253    0.416   10.250
  310.458   70.961    0.276    0.423   10.557
  310.708   69.883    0.288    0.439   10.582
  310.958   67.976    0.282    0.449   10.059
  311.208   57.788    0.272    0.457    8.928
  311.458   48.762    0.281    0.440    8.062
  311.708   46.081    0.303    0.422    7.282
  311.958   48.189    0.295    0.423    6.558
  312.208   53.051    0.313    0.429    6.190
  312.458   59.048    0.327    0.431    6.715
  312.708   64.788    0.332    0.442    7.132
  312.958   69.323    0.310    0.467    7.424
  313.208   66.878    0.288    0.486    7.717
  313.458   73.002    0.289    0.458    7.592
  313.708   83.228    0.227    0.431    7.564
  313.958   92.103    0.195    0.407    7.722
