~VERSION INFORMATION
 VERS.                 2.0:   CWLS LOG ASCII STANDARD -VERSION 2.0
 WRAP.                  NO:   ONE LINE PER DEPTH STEP
~WELL INFORMATION BLOCK
#MNEM.UNIT           DATA                    DESCRIPTION OF MNEMONIC
#---------    -------------------            -------------------------------
# Generated from Intellog Unique Number	CS_67_68/WELL/2196
WELL.         10-28-067-03W4                 : Well_name    - WELL
LOC .         00/10-28-067-03W4/0            : Location     - LOCATION
UWI .         00/10-28-067-03W4/0            : Uwi          - UNIQUE WELL ID
ENTR.         SP                             : Entered      - ENTERED BY
SRVC.         SCHLUMBERGER                   : Scn          - SERVICE COMPANY
STRT.M        335                            : top_depth    - START DEPTH
STOP.M        560                            : bot_depth    - STOP DEPTH
STEP.M        0.25                           : increment    - STEP LENGTH
 NULL. -999.2500:NULL Value
~CURVE INFORMATION BLOCK
#MNEM UNIT       ERCB CURVE CODE    CURVE DESCRIPTION
#-----------   ------------------   ----------------------------------
DEPT.M        00 001 00 00         : DEPTH        - DEPTH
ILD .OHMM     00 120 00 00         : RESD         - DEEP RESISTIVITY (DIL)
DPHI.V/V      00 890 00 00         : PHID         - DENSITY POROSITY (LIMESTONE)
NPHI.V/V      00 330 00 00         : PHIN         - NEUTRON POROSITY (LIMESTONE)
GR  .API      00 310 00 00         : GR           - GAMMA RAY
CALI.MM       00 280 01 00         : CAL          - CALIPER
~PARAMETER INFORMATION
#MNEM.UNIT           DATA             DESCRIPTION OF MNEMONIC
#---------         -----------     ------------------------------
GL  .M        678.88               : gl           - GROUND LEVEL ELEVATION
EREF.M        682.54               : kb           - ELEVATION OF DEPTH REFERENCE
DATM.M        682.54               : datum        - DATUM ELEVATION
TDD .M        573                  : tdd          - TOTAL DEPTH DRILLER
RUN .         ONE                  : Run          - RUN NUMBER
ENG .         BILL                 : Engineer     - RECORDING ENGINEER
WIT .         JIM                  : Witness      - WITNESSED BY
MUD .         GEL                  : Mud_type     - MUD TYPE
MATR.         LIMESTONE            : Logunit      - NEUTRON MATRIX
TMAX.C        18                   : BHT          - MAXIMUM RECORDED TEMPERATURE
BHTD.M        572.4                : BHTDEP       - MAXIMUM RECORDED TEMPERATURE
MATR.         1                    : LOGUNIT      - NEUTRON MATRIX
RMT .C        25                   : MDTP         - TEMPERATURE OF MUD
NEUT.         1                    : NEUTRON      - NEUTRON TYPE
RESI.         0                    : RESIST       - RESISTIVITY TYPE
RMC .OHMM     0.25                 : RMC          - RESISTIVITY OF MUD CAKE
RMF .OHMM     0.25                 : RMF          - RESISTIVITY OF MUD FILTRATE
SUFT.C        15                   : SUFT         - SURFACE TEMPERATURE
~A  DEPTH     RESD     PHID     PHIN       GR      CAL
# ...
  481.000    2.058    0.280    0.511   91.894  212.153
  481.250    2.069    0.279    0.528   91.718  215.008
  481.500    2.073    0.285    0.536   90.931  216.541
  481.750    2.088    0.295    0.551   87.891  217.060
  482.000    2.189    0.305    0.540   83.877  216.562
  482.250    2.413    0.298    0.532   84.432  213.323
  482.500    2.747    0.291    0.537   86.509  209.475
  482.750    3.134    0.287    0.517   86.028  207.150
  483.000    3.594    0.283    0.497   82.988  206.144
  483.250    4.084    0.285    0.474   82.386  205.242
  483.500    4.436    0.286    0.460   82.270  205.048
  483.750    4.623    0.286    0.468   81.484  205.161
  484.000    4.827    0.284    0.476   80.150  205.071
  484.250    4.863    0.284    0.470   78.328  204.978
  484.500    4.845    0.284    0.465   77.603  204.989
  484.750    4.826    0.278    0.458   78.279  204.898
  485.000    4.862    0.272    0.452   78.895  205.012
  485.250    4.798    0.273    0.462   79.389  205.224
  485.500    5.029    0.271    0.472   79.274  205.437
  485.750    5.545    0.264    0.481   78.061  205.449
  486.000    6.160    0.264    0.490   73.315  205.559
  486.250    6.767    0.159    0.422   69.727  205.673
  486.500    7.617    0.079    0.254   66.504  205.887
  486.750    8.367    0.022    0.231   66.998  206.811
  487.000    8.687    0.049    0.389   75.900  207.531
  487.250    8.621    0.209    0.451   83.400  208.049
  487.500    7.789    0.246    0.481   84.502  209.380
  487.750    6.971    0.268    0.491   83.290  213.249
  488.000    6.429    0.287    0.500   84.820  217.525
  488.250    5.952    0.307    0.493   86.227  220.784
  488.500    5.377    0.287    0.476   83.979  221.505
  488.750    4.987    0.269    0.458   82.280  215.423
  489.000    4.922    0.257    0.460   81.920  209.950
  489.250    4.867    0.245    0.479   84.729  206.305
  489.500    4.830    0.254    0.478   89.549  207.332
  489.750    4.757    0.267    0.477   93.028  208.154
  490.000    4.721    0.280    0.483   91.450  205.625
  490.250    4.695    0.291    0.495   89.751  204.925
  490.500    4.668    0.236    0.498   87.990  204.732
  490.750    4.703    0.133    0.484   83.305  204.642
  491.000    5.176    0.072    0.427   77.097  204.451
  491.250    5.707    0.046    0.334   72.534  204.257
  491.500    6.234    0.077    0.331   71.870  204.166
  491.750    6.632    0.172    0.369   75.409  204.278
  492.000    6.796    0.222    0.397   71.335  204.288
  492.250    6.619    0.255    0.428   66.467  204.198
  492.500    6.197    0.280    0.461   64.340  204.107
  492.750    5.705    0.298    0.447   66.479  203.913
  493.000    5.311    0.294    0.435   68.253  203.822
  493.250    5.020    0.277    0.427   69.355  203.327
  493.500    4.935    0.262    0.447   64.121  203.234
  493.750    5.105    0.289    0.459   59.193  202.840
  494.000    5.290    0.308    0.447   59.504  202.748
  494.250    5.513    0.312    0.426   70.294  202.758
  494.500    5.735    0.313    0.410   83.399  202.871
  494.750    5.965    0.312    0.412   80.603  203.184
  495.000    6.124    0.312    0.427   76.588  203.400
  495.250    6.193    0.311    0.439   72.635  203.510
  495.500    6.181    0.311    0.421   69.960  203.521
  495.750    6.274    0.311    0.414   68.321  203.532
  496.000    6.441    0.318    0.410   70.338  203.951
  496.250    6.563    0.320    0.416   73.878  204.061
  496.500    6.650    0.309    0.423   77.601  204.478
  496.750    6.700    0.303    0.418   81.506  204.894
  497.000    6.775    0.302    0.408   84.802  205.211
  497.250    6.877    0.294    0.399   87.307  205.423
  497.500    6.903    0.288    0.414   88.044  205.839
  497.750    6.916    0.292    0.426   83.664  205.851
  498.000    6.928    0.292    0.413   76.481  205.758
  498.250    6.876    0.270    0.385   74.903  205.870
  498.500    6.914    0.256    0.365   80.514  205.782
  498.750    6.979    0.244    0.379   80.582  205.892
  499.000    7.045    0.255    0.392   78.151  206.003
  499.250    7.018    0.256    0.393   75.964  206.014
  499.500    7.057    0.258    0.396   73.960  206.330
  499.750    7.110    0.268    0.393   71.955  206.441
  500.000    7.244    0.276    0.399   73.363  206.352
  500.250    7.258    0.281    0.406   78.914  206.159
  500.500    7.298    0.278    0.414   83.611  206.066
  500.750    7.122    0.282    0.425   87.639  205.975
  501.000    7.002    0.289    0.456   89.229  205.987
  501.250    6.832    0.289    0.474   91.855  205.996
  501.500    6.642    0.271    0.406   95.030  205.907
  501.750    6.506    0.253    0.387   98.204  205.815
  502.000    6.505    0.245    0.396  100.525  205.824
  502.250    6.579    0.258    0.406   89.504  205.734
  502.500    6.678    0.268    0.413   83.479  205.642
  502.750    6.779    0.268    0.423   87.080  205.450
  503.000    6.933    0.263    0.409   81.237  205.461
  503.250    7.064    0.261    0.398   73.933  205.675
  503.500    7.144    0.277    0.390   70.953  205.786
  503.750    6.997    0.290    0.384   71.569  205.797
  504.000    6.713    0.292    0.384   72.429  206.011
  504.250    6.526    0.276    0.394   73.165  206.122
  504.500    6.404    0.283    0.406   75.304  206.437
  504.750    6.513    0.298    0.408   79.332  209.190
  505.000    6.725    0.294    0.394   82.627  212.144
  505.250    7.021    0.286    0.388   82.755  212.561
  505.500    7.303    0.277    0.410   79.776  206.682
  505.750    7.414    0.261    0.402   70.826  204.052
  506.000    7.469    0.272    0.389   61.633  203.758
  506.250    7.483    0.298    0.380   56.583  203.769
  506.500    7.468    0.310    0.386   61.403  203.780
  506.750    7.412    0.309    0.381   65.552  203.687
  507.000    7.384    0.294    0.383   67.202  203.496
  507.250    7.411    0.281    0.396   65.929  203.404
  507.500    7.411    0.274    0.405   65.327  203.415
  507.750    7.382    0.269    0.388   67.770  203.429
  508.000    7.368    0.269    0.384   72.894  203.438
  508.250    7.382    0.265    0.397   75.215  203.955
  508.500    7.381    0.258    0.409   75.343  204.270
  508.750    7.339    0.254    0.399   79.067  204.584
  509.000    7.339    0.248    0.385   82.362  204.595
  509.250    7.408    0.248    0.384   70.305  204.607
  509.500    7.421    0.264    0.372   49.475  204.617
  509.750    7.421    0.278    0.357   30.229  204.626
  510.000    7.406    0.288    0.349   28.529  204.739
  510.250    7.254    0.291    0.361   54.977  204.647
  510.500    6.999    0.287    0.390   71.982  204.556
  510.750    6.766    0.384    0.423   67.236  204.365
  511.000    6.528    0.435    0.585   40.557  204.374
  511.250    6.419    0.472    0.587   26.916  204.080
  511.500    6.334    0.425    0.528   19.245  203.988
  511.750    6.239    0.384    0.431   15.657  203.593
  512.000    6.100    0.353    0.400   17.432  202.893
  512.250    5.963    0.330    0.379   19.451  201.989
  512.500    5.841    0.321    0.368   21.708  201.390
  512.750    5.721    0.323    0.364   22.811  200.794
  513.000    5.646    0.325    0.363   23.915  200.396
  513.250    5.582    0.322    0.364   24.468  200.409
  513.500    5.488    0.318    0.368   24.840  200.620
  513.750    5.427    0.321    0.371   24.420  200.531
  514.000    5.355    0.324    0.366   24.000  200.641
  514.250    5.345    0.325    0.356   23.579  200.855
  514.500    5.395    0.318    0.351   24.195  201.171
  514.750    5.446    0.309    0.346   31.208  201.486
  515.000    5.487    0.316    0.354   41.145  201.499
  515.250    5.559    0.321    0.367   50.534  201.608
  515.500    5.601    0.323    0.361   59.191  201.619
  515.750    5.642    0.322    0.365   53.897  201.426
  516.000    5.674    0.322    0.371   48.298  201.335
  516.250    5.749    0.325    0.370   50.132  201.243
  516.500    5.781    0.324    0.378   58.607  201.561
  516.750    5.781    0.325    0.383   63.731  201.874
  517.000    5.791    0.327    0.387   65.444  202.290
  517.250    5.747    0.329    0.397   61.977  202.503
