~VERSION INFORMATION
 VERS.                 2.0:   CWLS LOG ASCII STANDARD -VERSION 2.0
 WRAP.                  NO:   ONE LINE PER DEPTH STEP
~WELL INFORMATION BLOCK
#MNEM.UNIT           DATA                    DESCRIPTION OF MNEMONIC
#---------    -------------------            -------------------------------
# Generated from Intellog Unique Number	CW_79_81/WELL/2471
WELL.         GULF AMOCO HOOLE               : Well_name    - WELL
LOC .         00/10-21-081-24W4/0            : Location     - LOCATION
UWI .         00/10-21-081-24W4/0            : Uwi          - UNIQUE WELL ID
ENTR.         MAX                            : Entered      - ENTERED BY
SRVC.         COMPUTALOG                     : Scn          - SERVICE COMPANY
STRT.M        245                            : top_depth    - START DEPTH
STOP.M        482                            : bot_depth    - STOP DEPTH
STEP.M        0.25                           : increment    - STEP LENGTH
 NULL. -999.2500:NULL Value
~CURVE INFORMATION BLOCK
#MNEM UNIT       ERCB CURVE CODE    CURVE DESCRIPTION
#-----------   ------------------   ----------------------------------
DEPT.M        00 001 00 00         : DEPTH        - DEPTH
ILD .OHMM     00 120 00 00         : RESD         - DEEP RESISTIVITY (DIL)
NPHI.V/V      00 330 00 00         : PHIN         - NEUTRON POROSITY (SANDSTONE)
DPHI.V/V      00 890 00 00         : PHID         - DENSITY POROSITY (SANDSTONE)
GR  .API      00 310 00 00         : GR           - GAMMA RAY
CALI.MM       00 280 01 00         : CAL          - CALIPER
~PARAMETER INFORMATION
#MNEM.UNIT           DATA             DESCRIPTION OF MNEMONIC
#---------         -----------     ------------------------------
GL  .M        596.1                : gl           - GROUND LEVEL ELEVATION
EREF.M        600.35               : kb           - ELEVATION OF DEPTH REFERENCE
DATM.M        596.1                : datum        - DATUM ELEVATION
TDD .M        502                  : tdd          - TOTAL DEPTH DRILLER
RUN .         ONE                  : Run          - RUN NUMBER
ENG .         BILL                 : Engineer     - RECORDING ENGINEER
WIT .         JIM                  : Witness      - WITNESSED BY
MUD .         GEL                  : Mud_type     - MUD TYPE
MATR.         SANDSTONE            : Logunit      - NEUTRON MATRIX
TMAX.C        16                   : BHT          - MAXIMUM RECORDED TEMPERATURE
BHTD.M        502                  : BHTDEP       - MAXIMUM RECORDED TEMPERATURE
MATR.         1                    : LOGUNIT      - NEUTRON MATRIX
RMT .C        14                   : MDTP         - TEMPERATURE OF MUD
NEUT.         1                    : NEUTRON      - NEUTRON TYPE
RESI.         0                    : RESIST       - RESISTIVITY TYPE
RMC .OHMM     4.2                  : RMC          - RESISTIVITY OF MUD CAKE
RMF .OHMM     5.2                  : RMF          - RESISTIVITY OF MUD FILTRATE
SUFT.C        -15                  : SUFT         - SURFACE TEMPERATURE
~A  DEPTH     RESD     PHIN     PHID       GR      CAL
# ...
  427.500   29.818    0.321    0.157   57.164  222.365
  427.750   30.236    0.325    0.175   59.952  222.405
  428.000   31.389    0.303    0.117   57.182  222.806
  428.250   31.594    0.293    0.092   54.763  222.772
  428.500   31.459    0.301    0.069   55.224  222.744
  428.750   30.864    0.318    0.079   57.488  222.716
  429.000   29.844    0.337    0.128   60.712  222.684
  429.250   28.509    0.362    0.205   64.142  222.644
  429.500   28.276    0.380    0.203   63.372  222.615
  429.750   29.301    0.377    0.188   61.192  222.584
  430.000   30.041    0.375    0.181   62.434  222.853
  430.250   29.687    0.376    0.181   65.538  223.222
  430.500   27.442    0.383    0.187   69.003  223.491
  430.750   22.567    0.403    0.202   71.782  223.454
  431.000   19.569    0.408    0.211   73.762  223.425
  431.250   17.637    0.405    0.210   75.184  223.794
  431.500   16.459    0.400    0.206   76.787  224.164
  431.750   15.517    0.398    0.203   78.811  224.730
  432.000   14.688    0.401    0.199   80.594  225.295
  432.250   13.923    0.407    0.189   80.723  225.261
  432.500   13.297    0.409    0.186   81.454  225.228
  432.750   13.000    0.407    0.183   83.355  225.600
  433.000   12.849    0.404    0.172   84.176  225.970
  433.250   12.794    0.400    0.156   84.399  226.141
  433.500   12.787    0.391    0.141   84.141  226.212
  433.750   12.756    0.375    0.137   83.006  226.658
  434.000   12.650    0.362    0.160   82.236  227.043
  434.250   12.551    0.360    0.173   81.497  227.412
  434.500   12.453    0.364    0.173   80.400  227.479
  434.750   12.263    0.373    0.167   80.984  227.444
  435.000   12.011    0.383    0.163   84.267  227.312
  435.250   11.774    0.387    0.174   90.248  226.877
  435.500   11.502    0.379    0.169   90.229  226.845
  435.750   11.246    0.379    0.170   89.490  226.820
  436.000   11.055    0.392    0.166   88.929  226.790
  436.250   10.888    0.406    0.152   88.310  226.756
  436.500   10.744    0.408    0.133   87.633  226.722
  436.750   10.658    0.389    0.123   87.082  226.690
  437.000   10.650    0.391    0.139   86.810  226.654
  437.250   10.567    0.401    0.148   87.992  227.023
  437.500   10.482    0.403    0.152   89.174  227.095
  437.750   10.437    0.397    0.150   89.396  227.265
  438.000   10.430    0.387    0.143   88.837  227.934
  438.250   10.437    0.384    0.148   89.315  229.828
  438.500   10.511    0.374    0.235   91.799  231.467
  438.750   10.580    0.357    0.237   93.461  232.636
  439.000   10.649    0.360    0.202   92.062  231.705
  439.250   10.719    0.369    0.162   91.322  230.071
  439.500   10.751    0.381    0.142   92.083  229.238
  439.750   10.632    0.405    0.164   91.802  230.970
  440.000   10.466    0.424    0.191   89.283  231.769
  440.250   10.158    0.415    0.278   89.503  235.746
  440.500   10.024    0.393    0.286   89.542  240.319
  440.750   10.017    0.374    0.242   89.403  237.688
  441.000    9.990    0.366    0.178   90.047  230.155
  441.250    9.576    0.375    0.155   94.191  230.951
  441.500    9.009    0.384    0.284   98.172  235.088
  441.750    8.938    0.377    0.362   91.672  244.662
  442.000    9.063    0.357    0.376   86.249  253.336
  442.250    9.586    0.342    0.302   82.506  245.100
  442.500   10.655    0.339    0.173   81.405  225.458
  442.750   12.613    0.344    0.095   84.566  221.334
  443.000   14.139    0.348    0.173   86.046  220.881
  443.250   14.131    0.354    0.202   80.745  220.850
  443.500   14.665    0.356    0.224   76.346  220.824
  443.750   15.637    0.352    0.248   62.639  220.793
  444.000   17.104    0.341    0.272   42.208  220.757
  444.250   19.879    0.317    0.282   30.017  220.637
  444.500   22.811    0.314    0.282   27.995  220.191
  444.750   25.566    0.316    0.286   29.897  218.556
  445.000   26.782    0.320    0.291   30.182  217.523
  445.250   26.466    0.323    0.292   30.283  217.295
  445.500   25.077    0.326    0.288   30.922  218.167
  445.750   22.896    0.334    0.286   32.753  220.609
  446.000   21.705    0.331    0.290   35.985  220.997
  446.250   20.452    0.335    0.293   36.927  221.369
  446.500   19.714    0.340    0.294   37.329  221.441
  446.750   19.207    0.345    0.292   37.791  221.410
  447.000   18.814    0.351    0.290   38.554  221.377
  447.250   18.497    0.359    0.292   40.193  221.340
  447.500   18.346    0.366    0.294   43.678  221.311
  447.750   18.203    0.359    0.292   47.259  221.673
  448.000   17.761    0.354    0.288   50.304  221.746
  448.250   17.304    0.350    0.279   53.047  221.919
  448.500   16.825    0.343    0.267   55.368  222.690
  448.750   15.947    0.329    0.276   56.839  226.485
  449.000   15.231    0.335    0.381   57.072  235.629
  449.250   14.891    0.333    0.428   54.892  247.604
  449.500   14.719    0.330    0.430   52.709  253.579
  449.750   14.656    0.330    0.403   51.008  251.148
  450.000   14.752    0.333    0.349   50.331  241.811
  450.250   15.336    0.334    0.251   51.821  230.461
  450.500   16.165    0.331    0.223   54.551  227.930
  450.750   17.486    0.332    0.213   53.092  226.298
  451.000   18.825    0.331    0.246   50.553  225.266
  451.250   20.093    0.329    0.278   47.292  224.234
  451.500   21.249    0.331    0.288   44.452  223.104
  451.750   22.615    0.335    0.279   43.852  222.269
  452.000   24.022    0.330    0.274   43.328  222.236
  452.250   25.254    0.324    0.263   43.551  222.205
  452.500   26.269    0.322    0.257   45.216  222.172
  452.750   27.031    0.325    0.257   47.719  222.338
  453.000   27.561    0.333    0.258   49.620  222.706
  453.250   27.899    0.353    0.249   48.989  223.159
  453.500   27.671    0.359    0.226   50.718  223.547
  453.750   26.659    0.345    0.205   53.583  224.713
  454.000   22.488    0.342    0.176   56.628  227.683
  454.250   17.550    0.350    0.256   62.614  232.255
  454.500   13.423    0.373    0.423   71.240  237.826
  454.750   10.201    0.424    0.516   80.195  244.978
  455.000    9.247    0.449    0.510   85.429  252.874
  455.250    9.172    0.436    0.468   88.532  254.440
  455.500    9.552    0.423    0.427   79.209  250.909
  455.750   10.259    0.407    0.390   69.944  244.075
  456.000   11.479    0.387    0.341   65.182  235.838
  456.250   14.535    0.364    0.244   61.164  227.856
  456.500   16.939    0.354    0.222   60.398  226.160
  456.750   18.854    0.339    0.206   60.616  226.132
  457.000   21.108    0.326    0.191   59.757  226.097
  457.250   23.063    0.305    0.167   58.658  226.264
  457.500   24.136    0.276    0.128   58.338  226.535
  457.750   24.145    0.251    0.071   60.849  226.499
  458.000   23.409    0.249    0.100   65.087  226.473
  458.250   22.224    0.306    0.206   71.071  226.042
  458.500   20.398    0.335    0.245   74.894  225.911
  458.750   18.324    0.352    0.248   77.516  225.866
  459.000   16.476    0.367    0.237   79.238  225.820
  459.250   15.020    0.376    0.225   79.397  225.808
  459.500   14.131    0.376    0.222   77.875  225.779
  459.750   13.515    0.374    0.231   74.979  225.347
  460.000   12.855    0.387    0.369   70.458  224.916
  460.250   11.367    0.415    0.511   64.315  227.688
  460.500    9.509    0.473    0.585   58.652  237.464
  460.750    7.669    0.592    0.576   58.269  268.645
  461.000    6.318    0.588    0.577   61.251  318.647
  461.250    5.910    0.581    0.583   60.750  287.801
  461.500    5.718    0.581    0.569   60.252  293.570
  461.750    5.653    0.536    0.535   60.114  310.151
  462.000    5.680    0.428    0.484   60.816  307.723
  462.250    5.862    0.281    0.398   63.855  250.279
  462.500    6.178    0.301    0.336   68.339  239.406
  462.750    6.542    0.319    0.236   72.406  233.769
  463.000    6.927    0.372    0.239   77.011  231.435
  463.250    7.131    0.434    0.290   79.274  229.604
  463.500    7.087    0.486    0.375   75.954  239.079
  463.750    6.919    0.503    0.518   62.593  283.440
