~VERSION INFORMATION
 VERS.                 2.0:   CWLS LOG ASCII STANDARD -VERSION 2.0
 WRAP.                  NO:   ONE LINE PER DEPTH STEP
~WELL INFORMATION BLOCK
#MNEM.UNIT           DATA                    DESCRIPTION OF MNEMONIC
#---------    -------------------            -------------------------------
# Generated from Intellog Unique Number	CW_79_81/WELL/903
WELL.         11-12-079-25W4                 : Well_name    - WELL
LOC .         00/11-12-079-25W4/0            : Location     - LOCATION
UWI .         00/11-12-079-25W4/0            : Uwi          - UNIQUE WELL ID
ENTR.         MAX                            : Entered      - ENTERED BY
SRVC.         SCHLUMBERGER                   : Scn          - SERVICE COMPANY
STRT.M        240                            : top_depth    - START DEPTH
STOP.M        455                            : bot_depth    - STOP DEPTH
STEP.M        0.25                           : increment    - STEP LENGTH
 NULL. -999.2500:NULL Value
~CURVE INFORMATION BLOCK
#MNEM UNIT       ERCB CURVE CODE    CURVE DESCRIPTION
#-----------   ------------------   ----------------------------------
DEPT.M        00 001 00 00         : DEPTH        - DEPTH
ILD .OHMM     00 120 00 00         : RESD         - DEEP RESISTIVITY (DIL)
NPHI.V/V      00 330 00 00         : PHIN         - NEUTRON POROSITY (SANDSTONE)
DPHI.V/V      00 890 00 00         : PHID         - DENSITY POROSITY (SANDSTONE)
CALI.MM       00 280 01 00         : CAL          - CALIPER
GR  .API      00 310 00 00         : GR           - GAMMA RAY
~PARAMETER INFORMATION
#MNEM.UNIT           DATA             DESCRIPTION OF MNEMONIC
#---------         -----------     ------------------------------
GL  .M        559.5                : gl           - GROUND LEVEL ELEVATION
EREF.M        563                  : kb           - ELEVATION OF DEPTH REFERENCE
DATM.M        559.5                : datum        - DATUM ELEVATION
TDD .M        455                  : tdd          - TOTAL DEPTH DRILLER
RUN .         ONE                  : Run          - RUN NUMBER
ENG .         BILL                 : Engineer     - RECORDING ENGINEER
WIT .         JIM                  : Witness      - WITNESSED BY
MUD .         GEL                  : Mud_type     - MUD TYPE
MATR.         SANDSTONE            : Logunit      - NEUTRON MATRIX
TMAX.C        27.2                 : BHT          - MAXIMUM RECORDED TEMPERATURE
BHTD.M        455                  : BHTDEP       - MAXIMUM RECORDED TEMPERATURE
RMT .C        12.2                 : MDTP         - TEMPERATURE OF MUD
MUDD.KG/M     1080                 : MWT          - MUD DENSITY
NEUT.         1                    : NEUTRON      - NEUTRON TYPE
RESI.         0                    : RESIST       - RESISTIVITY TYPE
RM  .OHMM     5.14                 : RM           - RESISTIVITY OF MUD
RMC .OHMM     0                    : RMC          - RESISTIVITY OF MUD CAKE
RMF .OHMM     5.24                 : RMF          - RESISTIVITY OF MUD FILTRATE
SUFT.C        -20                  : SUFT         - SURFACE TEMPERATURE
~A  DEPTH     RESD     PHIN     PHID      CAL       GR
# ...
  349.500    8.320    0.411    0.203  241.749   88.693
  349.750    7.661    0.422    0.217  241.285   89.020
  350.000    7.455    0.423    0.231  241.333   88.143
  350.250    7.528    0.410    0.229  240.870   86.972
  350.500    7.672    0.403    0.220  240.913   87.901
  350.750    7.746    0.414    0.223  240.454   87.629
  351.000    7.821    0.422    0.224  240.497   87.952
  351.250    7.821    0.415    0.221  241.548   89.184
  351.500    7.757    0.407    0.222  242.093   89.207
  351.750    7.761    0.416    0.226  242.632   88.327
  352.000    7.836    0.447    0.228  243.181   86.251
  352.250    8.441    0.471    0.222  242.728   84.168
  352.500    9.175    0.432    0.214  241.268   83.592
  352.750   10.160    0.396    0.204  241.812   83.922
  353.000    9.797    0.377    0.213  242.857   85.151
  353.250    8.936    0.411    0.217  244.399   89.084
  353.500    7.367    0.431    0.213  243.946   86.710
  353.750    7.234    0.428    0.212  238.976   85.526
  354.000    7.240    0.439    0.210  239.526   85.254
  354.250    7.241    0.453    0.203  244.075   87.085
  354.500    7.244    0.445    0.194  244.619   86.506
  354.750    7.244    0.448    0.195  243.654   85.328
  355.000    7.320    0.446    0.206  243.703   89.271
  355.250    7.321    0.447    0.212  244.743   92.301
  355.500    7.192    0.444    0.216  246.295   95.037
  355.750    7.397    0.429    0.224  247.837   91.149
  356.000    7.893    0.415    0.232  248.381   84.859
  356.250   10.039    0.434    0.228  246.430   78.870
  356.500   12.078    0.437    0.227  243.955   76.489
  356.750   16.384    0.415    0.219  241.993   77.722
  357.000   19.713    0.404    0.210  241.540   78.646
  357.250   22.651    0.388    0.206  241.578   77.770
  357.500   23.952    0.379    0.202  241.632   77.799
  357.750   24.860    0.373    0.199  240.176   76.618
  358.000   25.102    0.385    0.200  238.204   76.043
  358.250   23.113    0.397    0.215  237.244   76.977
  358.500   16.436    0.396    0.230  235.789   79.704
  358.750   11.368    0.388    0.229  235.837   84.241
  359.000    9.813    0.391    0.218  237.880   88.180
  359.250    9.119    0.408    0.194  237.416   90.612
  359.500    8.874    0.434    0.174  234.958   90.340
  359.750    8.878    0.408    0.128  234.996   86.453
  360.000    8.882    0.361    0.133  241.054   85.880
  360.250    9.052    0.345    0.163  243.609   90.414
  360.500    9.052    0.389    0.181  243.646   95.854
  360.750    9.060    0.409    0.187  243.188   97.089
  361.000    9.063    0.410    0.185  242.735   95.003
  361.250    8.985    0.412    0.189  241.781   84.502
  361.500    8.906    0.417    0.202  240.822   84.234
  361.750    8.992    0.425    0.213  240.363   85.757
  362.000    9.164    0.436    0.202  240.401   87.587
  362.250    9.254    0.423    0.185  239.943   84.605
  362.500    9.173    0.397    0.171  239.991   85.533
  362.750    9.009    0.397    0.167  239.032   91.280
  363.000    9.097    0.411    0.186  238.579   95.817
  363.250    9.186    0.402    0.204  241.619   94.339
  363.500    9.361    0.393    0.210  244.168   92.557
  363.750    9.365    0.392    0.194  243.208   91.982
  364.000    9.369    0.400    0.198  243.758   92.011
  364.250    9.202    0.418    0.203  244.302   92.040
  364.500    9.206    0.405    0.208  244.847   92.360
  364.750    9.296    0.404    0.211  244.895   93.592
  365.000    9.300    0.421    0.199  244.927   95.419
  365.250    9.304    0.438    0.191  245.477   98.760
  365.500    9.395    0.418    0.196  246.533   99.985
  365.750    9.399    0.402    0.189  246.064   92.489
  366.000    9.403    0.404    0.191  244.102   86.803
  366.250    8.819    0.414    0.197  241.644   90.435
  366.500    8.426    0.400    0.209  242.690   96.483
  366.750    8.199    0.408    0.203  243.234   96.512
  367.000    8.279    0.433    0.201  242.776   96.838
  367.250    8.836    0.431    0.198  242.312   97.459
  367.500   10.829    0.424    0.199  241.854   97.184
  367.750   13.644    0.426    0.208  239.903   94.506
  368.000   17.034    0.435    0.250  238.436   90.923
  368.250   23.755    0.455    0.243  237.472   84.329
  368.500   37.010    0.471    0.205  237.019   77.735
  368.750   58.191    0.461    0.130  238.064   68.738
  369.000   76.783    0.387    0.046  240.614   59.740
  369.250   95.869    0.208   -0.002  241.163   58.266
  369.500   89.909    0.168    0.005  240.198   62.502
  369.750   59.382    0.152    0.004  240.247   61.325
  370.000   43.817    0.170    0.061  240.284   59.242
  370.250   34.170    0.303    0.163  240.834   59.268
  370.500   30.885    0.390    0.210  240.877   68.320
  370.750   28.700    0.385    0.226  240.920   74.662
  371.000   27.673    0.362    0.231  239.961   76.492
  371.250   26.931    0.340    0.208  240.499   75.315
  371.500   25.967    0.352    0.178  242.553   75.942
  371.750   24.806    0.390    0.202  244.105   81.084
  372.000   23.265    0.418    0.231  244.148   83.513
  372.250   22.023    0.436    0.236  243.178   84.444
  372.500   21.632    0.423    0.218  242.218   82.969
  372.750   21.440    0.433    0.223  241.259   82.391
  373.000   21.440    0.443    0.234  240.806   82.122
  373.250   21.463    0.434    0.238  240.849   82.442
  373.500   21.872    0.427    0.235  240.887   81.866
  373.750   22.288    0.421    0.229  240.930   82.801
  374.000   23.567    0.414    0.217  240.973   83.723
  374.250   25.619    0.408    0.213  242.029   83.451
  374.500   28.369    0.396    0.214  243.069   81.976
  374.750   28.645    0.376    0.206  244.120   81.397
  375.000   26.695    0.371    0.173  240.419   80.038
  375.250   24.102    0.357    0.172  239.891   82.127
  375.500   20.203    0.375    0.205  240.365   86.308
  375.750   18.072    0.405    0.209  240.842   91.689
  376.000   17.250    0.422    0.208  241.316   88.076
  376.250   17.247    0.404    0.209  240.287   83.262
  376.500   17.731    0.402    0.217  240.265   85.647
  376.750   18.399    0.417    0.227  240.233   88.627
  377.000   18.395    0.418    0.226  239.707   90.712
  377.250   17.723    0.415    0.230  239.185   95.194
  377.500   16.452    0.420    0.225  239.159   93.977
  377.750   14.853    0.417    0.216  240.133   92.764
  378.000   14.178    0.414    0.220  241.603   92.749
  378.250   13.533    0.415    0.219  241.574   93.929
  378.500   13.282    0.424    0.207  241.052   94.813
  378.750   13.528    0.430    0.206  240.529   92.701
  379.000   13.653    0.428    0.214  240.504   92.385
  379.250   14.036    0.415    0.208  240.475   95.967
  379.500   14.164    0.419    0.201  240.949  100.746
  379.750   14.162    0.441    0.213  241.426  100.733
  380.000   14.029    0.439    0.227  241.393   96.221
  380.250   13.642    0.423    0.227  241.371   95.004
  380.500   13.143    0.422    0.212  241.345   97.089
  380.750   12.661    0.408    0.210  241.313  100.671
  381.000   12.427    0.408    0.216  240.794  100.356
  381.250   12.310    0.412    0.215  240.768  100.938
  381.500   12.195    0.405    0.212  240.236  101.524
  381.750   12.306    0.409    0.209  240.214  101.209
  382.000   12.419    0.414    0.203  240.191   95.795
  382.250   12.416    0.414    0.190  240.665   95.778
  382.500   12.415    0.412    0.188  240.636   98.760
  382.750   12.413    0.418    0.199  240.611  100.246
  383.000   12.296    0.424    0.198  241.578   96.933
  383.250   12.181    0.429    0.202  242.055   93.916
  383.500   11.955    0.428    0.207  242.532   94.204
  383.750   11.953    0.420    0.208  242.006   96.886
  384.000   12.175    0.409    0.207  240.981   98.368
  384.250   13.607    0.405    0.203  239.953   96.554
  384.500   14.518    0.408    0.196  239.431   93.842
  384.750   14.787    0.402    0.177  239.905   88.129
  385.000   14.648    0.379    0.165  241.375   88.114
  385.250   14.644    0.391    0.167  243.847   92.595
  385.500   14.374    0.403    0.167  244.824   97.376
  385.750   13.849    0.416    0.167  244.798  100.055
