~VERSION INFORMATION
 VERS.                 2.0:   CWLS LOG ASCII STANDARD -VERSION 2.0
 WRAP.                  NO:   ONE LINE PER DEPTH STEP
~WELL INFORMATION BLOCK
#MNEM.UNIT           DATA                    DESCRIPTION OF MNEMONIC
#---------    -------------------            -------------------------------
# Generated from Intellog Unique Number	CW_82_90/WELL/702
WELL.         10-14-082-19W4                 : Well_name    - WELL
LOC .         00/10-14-082-19W4/0            : Location     - LOCATION
UWI .         00/10-14-082-19W400            : Uwi          - UNIQUE WELL ID
ENTR.         JAYE                           : Entered      - ENTERED BY
SRVC.         COMPUTALOG                     : Scn          - SERVICE COMPANY
DATE.         FEB 13 77                      : Date         - LOG DATE
STRT.M        155.448                        : top_depth    - START DEPTH
STOP.M        344.448                        : bot_depth    - STOP DEPTH
STEP.M        0.25                           : increment    - STEP LENGTH
 NULL. -999.2500:NULL Value
~CURVE INFORMATION BLOCK
#MNEM UNIT       ERCB CURVE CODE    CURVE DESCRIPTION
#-----------   ------------------   ----------------------------------
DEPT.M        00 001 00 00         : DEPTH        - DEPTH
CALI.MM       00 280 01 00         : CAL          - CALIPER
GR  .API      00 310 00 00         : GR           - GAMMA RAY
NPHI.V/V      00 330 00 00         : PHIN         - NEUTRON POROSITY (SANDSTONE)
DPHI.V/V      00 890 00 00         : PHID         - DENSITY POROSITY (SANDSTONE)
COND.MMHO                          : COND         - DEEP CONDUCTIVITY (DIL)
ILD .OHMM     00 120 00 00         : RESD         - DEEP RESISTIVITY (DIL)
~PARAMETER INFORMATION
#MNEM.UNIT           DATA             DESCRIPTION OF MNEMONIC
#---------         -----------     ------------------------------
GL  .M        573.024              : gl           - GROUND LEVEL ELEVATION
EREF.M        576.682              : kb           - ELEVATION OF DEPTH REFERENCE
DATM.M        573.024              : datum        - DATUM ELEVATION
TDD .M        347.472              : tdd          - TOTAL DEPTH DRILLER
RUN .         ONE                  : Run          - RUN NUMBER
ENG .         KING                 : Engineer     - RECORDING ENGINEER
WIT .         CARS                 : Witness      - WITNESSED BY
BASE.         MEDICINE HAT         : Branch       - HOME BASE OF LOGGING UNIT
MUD .         GEL                  : Mud_type     - MUD TYPE
MATR.         SANDSTONE            : Logunit      - NEUTRON MATRIX
TMAX.C        17.7778              : BHT          - MAXIMUM RECORDED TEMPERATURE
BHTD.M        347.472              : BHTDEP       - MAXIMUM RECORDED TEMPERATURE
RMT .C        17.7778              : MDTP         - TEMPERATURE OF MUD
MUDD.KG/M     9100                 : MWT          - MUD DENSITY
NEUT.         0                    : NEUTRON      - NEUTRON TYPE
RESI.         0                    : RESIST       - RESISTIVITY TYPE
RM  .OHMM     9.5                  : RM           - RESISTIVITY OF MUD
RMC .OHMM     0                    : RMC          - RESISTIVITY OF MUD CAKE
RMF .OHMM     0                    : RMF          - RESISTIVITY OF MUD FILTRATE
SUFT.C        4                    : SUFT         - SURFACE TEMPERATURE
~A  DEPTH      CAL       GR     PHIN     PHID     COND     RESD
  155.448  165.525  146.066    0.556    0.247  665.909    2.990
  155.698  165.964  146.140    0.571    0.254  664.169    3.031
  155.948  166.708  150.077    0.575    0.258  663.632    3.074
  156.198  167.453  144.088    0.591    0.258  663.391    3.116
  156.448  167.994  142.570    0.560    0.263  663.462    3.159
  156.698  168.434  142.951    0.587    0.263  663.326    3.124
  156.948  168.667  149.703    0.580    0.249  662.583    3.049
  157.198  168.900  146.533    0.567    0.250  662.549    2.974
  157.448  169.331  145.933    0.580    0.258  662.414    2.901
  157.698  169.877  144.600    0.597    0.260  663.582    2.904
  157.948  169.898  148.289    0.626    0.266  664.645    2.907
  158.198  169.925  142.486    0.626    0.265  666.007    3.028
  158.448  169.644  133.496    0.588    0.261  666.875    3.108
  158.698  169.257  135.347    0.555    0.256  665.137    3.189
  158.948  168.971  139.282    0.550    0.246  658.991    3.232
  159.198  168.486  137.031    0.557    0.251  657.758    3.235
  159.448  168.202  131.960    0.543    0.253  657.420    3.238
  159.698  167.920  128.851    0.551    0.265  654.580    3.242
  159.948  167.835  125.373    0.524    0.264  647.933    3.517
  160.198  168.381  125.206    0.517    0.255  640.288    3.675
  160.448  168.819  126.813    0.515    0.245  633.646    3.912
  160.698  169.050  129.152    0.507    0.253  629.909    4.031
  160.948  168.969  129.657    0.487    0.254  625.666    4.308
  161.198  168.171  125.505    0.498    0.250  627.331    4.466
  161.448  166.855  124.173    0.517    0.262  627.996    4.779
  161.698  164.719  122.656    0.502    0.274  622.054    5.598
  161.948  161.759  116.606    0.476    0.298  607.202    7.154
  162.198  160.031   94.878    0.468    0.325  591.348    9.603
  162.448  159.236   87.053    0.450    0.346  576.394   16.749
  162.698  158.954   83.944    0.438    0.359  557.633   18.111
  162.948  159.284   81.570    0.423    0.359  543.684   18.697
  163.198  159.312   80.114    0.429    0.369  529.729   19.127
  163.448  159.128   80.310    0.429    0.372  524.088   19.169
  163.698  158.849   83.143    0.426    0.372  522.743   19.251
  163.948  158.879   90.199    0.441    0.376  522.310   19.410
  164.198  158.690   90.275    0.443    0.372  522.669   19.491
  164.448  158.511   89.126    0.435    0.370  522.640   19.455
  164.698  158.539   87.486    0.436    0.370  522.505   19.225
  164.948  158.567   88.051    0.430    0.371  521.946   19.036
  165.198  158.692   87.210    0.454    0.368  522.319   18.923
  165.448  158.714   85.079    0.451    0.365  522.495   18.692
  165.698  159.056   81.785    0.427    0.359  523.259   18.113
  165.948  159.284   78.677    0.465    0.345  524.624   17.263
  166.198  159.622   78.815    0.471    0.338  525.091   16.645
  166.448  159.648   89.055    0.463    0.345  526.053   16.454
  166.698  159.872   89.684    0.455    0.359  526.621   16.420
  166.948  160.003   91.352    0.438    0.353  527.285   16.501
  167.198  160.025   92.222    0.455    0.350  527.047   16.270
  167.448  160.366   90.338    0.428    0.355  527.010   15.342
  167.698  160.694   88.333    0.440    0.347  527.177   13.405
  167.948  161.340   88.589    0.471    0.335  529.141   10.225
  168.198  161.778   88.910    0.466    0.328  534.113    7.783
  168.448  162.421   97.620    0.486    0.328  545.991    6.350
  168.698  162.549   97.267    0.545    0.300  562.374    6.083
  168.948  161.441   96.791    0.551    0.288  569.445    6.202
  169.198  160.748   98.153    0.505    0.266  572.710    6.904
  169.448  160.051  111.765    0.477    0.269  578.281    8.305
  169.698  159.663  123.477    0.477    0.270  581.752   11.918
  169.948  159.172  133.597    0.471    0.294  572.094   12.465
  170.198  159.096  129.876    0.443    0.305  561.948   13.245
  170.448  159.021  134.299    0.434    0.314  551.908   13.559
  170.698  158.840  123.779    0.466    0.320  542.161   13.912
  170.948  159.068   99.294    0.424    0.331  537.719   14.498
  171.198  159.197   93.306    0.410    0.331  535.874   15.277
  171.448  159.328   90.014    0.430    0.320  533.532   15.864
  171.698  159.557   77.593    0.386    0.311  533.504   16.138
  171.948  159.382   72.892    0.359    0.332  534.470   16.569
  172.198  159.504   79.030    0.343    0.319  532.026   16.339
  172.448  159.943   89.886    0.374    0.304  527.785   14.635
  172.698  160.895  107.907    0.455    0.297  526.748   13.202
  172.948  162.056  126.050    0.482    0.251  527.918   11.730
  173.198  162.700  124.350    0.459    0.204  534.886   10.452
  173.448  162.620  123.506    0.462    0.217  539.661    8.709
  173.698  161.207  122.235    0.477    0.217  546.427    8.053
  173.948  160.713  118.512    0.467    0.208  551.703    8.405
  174.198  160.431  114.056    0.474    0.228  558.370    9.146
  174.448  160.149  110.763    0.459    0.263  560.937   10.314
  174.698  159.660   89.278    0.444    0.298  558.492   11.288
  174.948  159.477   88.741    0.410    0.313  553.758   12.184
  175.198  159.193   84.101    0.396    0.334  548.719   14.789
  175.448  158.394   81.175    0.416    0.347  543.573   17.160
  175.698  158.319   73.166    0.384    0.352  537.028   17.901
  175.948  158.343   77.283    0.381    0.344  531.790   17.944
  176.198  158.163   79.688    0.445    0.327  527.444   17.520
  176.448  157.981   86.744    0.429    0.320  527.313   16.785
  176.698  157.805   91.781    0.413    0.301  529.072   15.508
  176.948  157.414   95.531    0.399    0.278  529.941   14.735
  177.198  157.749   88.684    0.390    0.246  530.206   14.079
  177.448  159.216   89.251    0.420    0.219  530.662   13.461
  177.698  160.585   97.105    0.411    0.252  530.930   13.037
  177.948  161.226   97.180    0.404    0.320  532.297   12.847
  178.198  161.666   99.400    0.429    0.307  534.266   12.890
  178.448  161.483   99.413    0.428    0.320  536.830   13.087
  178.698  161.305   97.773    0.458    0.324  536.993   13.245
  178.948  161.226   99.258    0.463    0.322  536.757   13.326
  179.198  161.352  108.339    0.472    0.318  537.122   12.864
  179.448  161.791  113.373    0.442    0.311  537.791   11.586
  179.698  163.463  128.883    0.448    0.272  540.455    8.872
  179.948  169.667  133.858    0.481    0.262  543.927    7.517
  180.198  172.784  143.182    0.504    0.251  552.201    6.511
  180.448  168.280  145.156    0.540    0.257  567.980    6.515
  180.698  164.699  142.660    0.461    0.262  573.353    6.945
  180.948  165.135  141.204    0.450    0.258  575.412    7.492
  181.198  170.208  131.174    0.437    0.251  574.378    8.155
  181.448  177.031  132.535    0.461    0.258  567.536    8.741
  181.698  176.130  138.307    0.471    0.265  557.885    9.443
  181.948  172.859  139.607    0.484    0.242  552.745    9.951
  182.198  171.236  137.479    0.485    0.231  550.209   10.304
  182.448  168.688  139.022    0.455    0.239  547.665   10.424
  182.698  166.653  140.690    0.447    0.243  547.532   10.583
  182.948  164.931  135.438    0.440    0.250  547.698   10.664
  183.198  164.749  131.898    0.438    0.257  547.950   10.550
  183.448  165.080  131.178    0.455    0.248  548.025   10.205
  183.698  166.961  139.031    0.450    0.235  548.190    9.704
  183.948  169.150  136.231    0.470    0.236  550.054    9.241
  184.198  170.925  145.125    0.480    0.238  552.818    8.701
  184.448  173.010  144.832    0.471    0.237  555.587    8.162
  184.698  173.244  149.745    0.445    0.224  557.955    7.893
  184.948  172.959  151.659    0.449    0.216  561.622    7.586
  185.198  173.705  147.017    0.511    0.212  564.991    7.240
  185.448  172.186  144.337    0.494    0.207  566.957    6.933
  185.698  170.153  152.313    0.493    0.217  569.725    6.625
  185.948  170.590  164.699    0.549    0.221  570.785    6.163
  186.198  171.956  165.328    0.554    0.206  575.356    5.584
  186.448  172.392  162.586    0.571    0.189  585.534    5.160
