~VERSION INFORMATION
 VERS.                 2.0:   CWLS LOG ASCII STANDARD -VERSION 2.0
 WRAP.                  NO:   ONE LINE PER DEPTH STEP
~WELL INFORMATION BLOCK
#MNEM.UNIT           DATA                    DESCRIPTION OF MNEMONIC
#---------    -------------------            -------------------------------
# Generated from Intellog Unique Number	CW_82_90/WELL/3445
WELL.         DOME MINK                      : Well_name    - WELL
LOC .         00/10-35-088-22W4/0            : Location     - LOCATION
UWI .         00/10-35-088-22W4/0            : Uwi          - UNIQUE WELL ID
ENTR.         MAX                            : Entered      - ENTERED BY
SRVC.         WESTERN ATLAS                  : Scn          - SERVICE COMPANY
STRT.M        50                             : top_depth    - START DEPTH
STOP.M        252                            : bot_depth    - STOP DEPTH
STEP.M        0.25                           : increment    - STEP LENGTH
 NULL. -999.2500:NULL Value
~CURVE INFORMATION BLOCK
#MNEM UNIT       ERCB CURVE CODE    CURVE DESCRIPTION
#-----------   ------------------   ----------------------------------
DEPT.M        00 001 00 00         : DEPTH        - DEPTH
ILD .OHMM     00 120 00 00         : RESD         - DEEP RESISTIVITY (DIL)
NPHI.V/V      00 330 00 00         : PHIN         - NEUTRON POROSITY (SANDSTONE)
DPHI.V/V      00 890 00 00         : PHID         - DENSITY POROSITY (SANDSTONE)
CALI.MM       00 280 01 00         : CAL          - CALIPER
GR  .API      00 310 00 00         : GR           - GAMMA RAY
~PARAMETER INFORMATION
#MNEM.UNIT           DATA             DESCRIPTION OF MNEMONIC
#---------         -----------     ------------------------------
GL  .M        516.7                : gl           - GROUND LEVEL ELEVATION
EREF.M        520                  : kb           - ELEVATION OF DEPTH REFERENCE
DATM.M        516.7                : datum        - DATUM ELEVATION
TDD .M        252                  : tdd          - TOTAL DEPTH DRILLER
RUN .         ONE                  : Run          - RUN NUMBER
ENG .         BILL                 : Engineer     - RECORDING ENGINEER
WIT .         JIM                  : Witness      - WITNESSED BY
MUD .         GEL                  : Mud_type     - MUD TYPE
MATR.         SANDSTONE            : Logunit      - NEUTRON MATRIX
TMAX.C        20                   : BHT          - MAXIMUM RECORDED TEMPERATURE
BHTD.M        252                  : BHTDEP       - MAXIMUM RECORDED TEMPERATURE
MATR.         1                    : LOGUNIT      - NEUTRON MATRIX
RMT .C        18                   : MDTP         - TEMPERATURE OF MUD
NEUT.         1                    : NEUTRON      - NEUTRON TYPE
RESI.         0                    : RESIST       - RESISTIVITY TYPE
RMC .OHMM     5.4                  : RMC          - RESISTIVITY OF MUD CAKE
RMF .OHMM     4.5                  : RMF          - RESISTIVITY OF MUD FILTRATE
SUFT.C        -15                  : SUFT         - SURFACE TEMPERATURE
~A  DEPTH     RESD     PHIN     PHID      CAL       GR
# ...
  123.000    7.570    0.446    0.283  231.533   75.798
  123.250    8.001    0.429    0.284  231.509   78.169
  123.500    8.942    0.400    0.291  231.478   79.944
  123.750    9.541    0.393    0.282  231.454   79.030
  124.000   10.084    0.376    0.290  231.918   76.624
  124.250   10.172    0.373    0.304  231.894   76.013
  124.500    9.702    0.392    0.311  231.860   77.191
  124.750    9.084    0.451    0.311  231.833   79.860
  125.000    8.192    0.469    0.313  231.812   81.637
  125.250    7.599    0.469    0.321  231.781   84.006
  125.500    7.114    0.458    0.328  231.751   85.785
  125.750    6.849    0.446    0.346  231.730   87.857
  126.000    6.910    0.432    0.367  231.703   86.945
  126.250    7.581    0.415    0.383  231.676   81.257
  126.500    9.045    0.392    0.397  231.140   59.440
  126.750   12.767    0.386    0.402  230.622   46.882
  127.000   19.235    0.393    0.399  230.595   36.711
  127.250   28.982    0.370    0.391  230.568   34.605
  127.500   39.776    0.350    0.385  230.540   35.186
  127.750   44.458    0.365    0.387  231.509   36.658
  128.000   44.434    0.421    0.389  231.972   38.135
  128.250   43.584    0.418    0.395  232.449   39.616
  128.500   42.749    0.409    0.406  232.419   42.287
  128.750   41.930    0.409    0.407  232.388   40.773
  129.000   41.522    0.418    0.403  232.364   39.865
  129.250   41.494    0.410    0.400  231.839   39.847
  129.500   41.472    0.398    0.400  231.812   39.534
  129.750   41.830    0.388    0.405  231.785   39.215
  130.000   42.193    0.382    0.427  230.264   38.904
  130.250   42.178    0.374    0.433  228.243   39.182
  130.500   42.544    0.363    0.434  227.227   39.464
  130.750   43.722    0.367    0.419  226.699   40.346
  131.000   45.361    0.384    0.391  227.169   41.221
  131.250   47.494    0.382    0.338  228.134   41.507
  131.500   49.736    0.369    0.306  229.105   41.489
  131.750   53.057    0.353    0.272  231.065   41.475
  132.000   55.041    0.347    0.276  234.518   41.160
  132.250   55.008    0.350    0.303  235.493   40.245
  132.500   53.462    0.366    0.361  235.960   40.530
  132.750   50.991    0.417    0.413  235.929   41.708
  133.000   49.553    0.428    0.412  234.914   42.884
  133.250   49.527    0.379    0.387  233.393   42.869
  133.500   52.838    0.269    0.365  234.358   41.657
  133.750   63.047    0.260    0.277  237.317   39.550
  134.000   69.165    0.288    0.396  240.279   39.235
  134.250   56.298    0.367    0.462  243.238   42.503
  134.500   49.838    0.428    0.460  246.193   45.174
  134.750   47.097    0.426    0.448  248.153   47.246
  135.000   45.766    0.343    0.436  248.122   47.530
  135.250   49.286    0.290    0.412  245.112   46.915
  135.500   55.608    0.256    0.383  238.118   44.810
  135.750   74.212    0.191    0.246  232.619   40.910
  136.000  167.007    0.134    0.137  227.118   37.312
  136.250  408.720    0.118    0.025  227.087   33.412
  136.500  945.889    0.122    0.037  229.050   30.407
  136.750  981.043    0.133    0.054  230.022   29.199
  137.000  989.866    0.131    0.062  229.984   28.285
  137.250  998.544    0.133    0.084  229.964   29.465
  137.500 1026.270    0.148    0.118  229.439   31.537
  137.750  396.009    0.179    0.164  228.910   32.715
  138.000  224.009    0.242    0.372  228.389   34.488
  138.250  126.714    0.315    0.435  228.856   35.670
  138.500   75.106    0.364    0.433  232.813   38.337
  138.750   60.003    0.373    0.430  237.262   40.413
  139.000   47.048    0.363    0.444  237.732   43.683
  139.250   42.040    0.388    0.445  237.211   45.160
  139.500   40.470    0.408    0.433  237.678   43.352
  139.750   40.451    0.392    0.417  241.628   41.540
  140.000   40.424    0.383    0.403  244.093   43.014
  140.250   40.025    0.384    0.397  245.559   43.599
  140.500   39.632    0.402    0.398  246.530   42.685
  140.750   39.238    0.397    0.415  248.991   42.671
  141.000   39.214    0.385    0.414  252.444   42.654
  141.250   38.827    0.373    0.410  256.896   44.131
  141.500   38.443    0.362    0.403  254.875   45.010
  141.750   37.707    0.359    0.397  244.897   44.992
  142.000   36.990    0.373    0.417  234.916   43.184
  142.250   36.622    0.382    0.428  229.408   42.272
  142.500   36.258    0.402    0.420  228.886   43.151
  142.750   35.241    0.400    0.409  229.360   45.227
  143.000   36.214    0.392    0.398  229.333   46.399
  143.250   36.192    0.386    0.388  229.299   46.685
  143.500   32.951    0.386    0.379  229.275   48.461
  143.750   25.839    0.404    0.369  229.742   51.430
  144.000   22.661    0.417    0.352  229.718   56.192
  144.250   17.604    0.433    0.336  229.186   66.629
  144.500   14.329    0.433    0.330  229.166   74.973
  144.750   11.994    0.421    0.334  229.636   77.344
  145.000   10.134    0.418    0.328  230.106   77.031
  145.250    8.403    0.431    0.318  230.570   80.598
  145.500    7.166    0.445    0.301  230.543   86.553
  145.750    6.524    0.476    0.305  230.025   94.002
  146.000    5.938    0.466    0.318  229.493   97.569
  146.250    5.612    0.451    0.321  228.964   96.956
  146.500    5.404    0.432    0.322  228.944   96.939
  146.750    5.300    0.419    0.321  228.917   97.516
  147.000    5.297    0.405    0.321  228.886   96.606
  147.250    5.394    0.396    0.320  228.862   93.902
  147.500    5.544    0.412    0.322  229.332   93.587
  147.750    5.805    0.440    0.324  230.301   93.272
  148.000    6.135    0.448    0.324  230.273   89.374
  148.250    6.485    0.444    0.323  231.238   86.071
  148.500    6.665    0.439    0.316  231.214   85.756
  148.750    6.537    0.441    0.306  232.179   88.429
  149.000    6.293    0.459    0.297  232.155   91.098
  149.250    6.117    0.464    0.298  232.128   90.779
  149.500    6.170    0.440    0.305  232.097   89.273
  149.750    6.644    0.411    0.303  232.070   87.465
  150.000    7.221    0.398    0.295  232.042   87.447
  150.250    7.997    0.393    0.285  232.012   86.535
  150.500    8.774    0.384    0.276  231.490   85.027
  150.750   10.086    0.375    0.271  230.965   80.831
  151.000   11.812    0.381    0.307  230.440   75.439
  151.250   13.579    0.392    0.336  229.915   73.926
  151.500   15.464    0.398    0.353  228.886   76.298
  151.750   16.808    0.395    0.349  228.368   76.879
  152.000   13.304    0.384    0.333  229.336   75.969
  152.250   10.144    0.456    0.306  230.304   78.043
  152.500    7.807    0.472    0.282  231.265   81.610
  152.750    6.596    0.447    0.255  231.241   85.177
  153.000    5.678    0.434    0.244  231.210   90.235
  153.250    5.267    0.434    0.253  231.183   90.817
  153.500    4.930    0.457    0.281  231.657   90.202
  153.750    4.836    0.477    0.297  231.630   92.875
  154.000    4.744    0.479    0.294  231.602   97.935
  154.250    4.653    0.472    0.282  231.575  104.488
  154.500    4.608    0.470    0.280  231.541  101.784
  154.750    4.562    0.467    0.279  231.520   99.377
  155.000    4.559    0.459    0.273  231.987  100.258
  155.250    4.730    0.430    0.272  231.957  102.929
  155.500    4.816    0.424    0.280  232.427  104.705
  155.750    4.813    0.442    0.294  232.400  104.987
  156.000    4.633    0.455    0.306  232.373  103.475
  156.250    4.378    0.464    0.321  232.345   98.084
  156.500    4.255    0.469    0.328  232.315   96.274
  156.750    4.135    0.451    0.326  232.291   93.871
  157.000    4.019    0.413    0.322  232.765   91.466
  157.250    3.979    0.401    0.318  232.737   88.463
  157.500    4.325    0.396    0.312  233.204   86.655
  157.750    4.701    0.416    0.307  233.177   83.653
  158.000    5.304    0.438    0.300  233.143   80.945
  158.250    5.873    0.424    0.295  233.122   80.630
  158.500    6.504    0.400    0.287  232.601   80.912
  158.750    7.070    0.390    0.279  232.567   80.896
  159.000    7.902    0.391    0.268  232.543   80.581
  159.250    8.509    0.369    0.242  232.512   79.368
