~VERSION INFORMATION
 VERS.                 2.0:   CWLS LOG ASCII STANDARD -VERSION 2.0
 WRAP.                  NO:   ONE LINE PER DEPTH STEP
~WELL INFORMATION BLOCK
#MNEM.UNIT           DATA                    DESCRIPTION OF MNEMONIC
#---------    -------------------            -------------------------------
# Generated from Intellog Unique Number	CW_82_90/WELL/903
WELL.         10-24-083-19W4                 : Well_name    - WELL
LOC .         00/10-24-083-19W4/0            : Location     - LOCATION
UWI .         00/10-24-083-19W400            : Uwi          - UNIQUE WELL ID
ENTR.         JAYE                           : Entered      - ENTERED BY
SRVC.         SCHLUMBERGER                   : Scn          - SERVICE COMPANY
DATE.         20 JAN 80                      : Date         - LOG DATE
STRT.M        95                             : top_depth    - START DEPTH
STOP.M        311                            : bot_depth    - STOP DEPTH
STEP.M        0.25                           : increment    - STEP LENGTH
 NULL. -999.2500:NULL Value
~CURVE INFORMATION BLOCK
#MNEM UNIT       ERCB CURVE CODE    CURVE DESCRIPTION
#-----------   ------------------   ----------------------------------
DEPT.M        00 001 00 00         : DEPTH        - DEPTH
CALI.MM       00 280 01 00         : CAL          - CALIPER
GR  .API      00 310 00 00         : GR           - GAMMA RAY
NPHI.V/V      00 330 00 00         : PHIN         - NEUTRON POROSITY (SANDSTONE)
DPHI.V/V      00 890 00 00         : PHID         - DENSITY POROSITY (SANDSTONE)
ILD .OHMM     00 120 00 00         : RESD         - DEEP RESISTIVITY (DIL)
~PARAMETER INFORMATION
#MNEM.UNIT           DATA             DESCRIPTION OF MNEMONIC
#---------         -----------     ------------------------------
GL  .M        567.28               : gl           - GROUND LEVEL ELEVATION
EREF.M        570.48               : kb           - ELEVATION OF DEPTH REFERENCE
DATM.M        567.28               : datum        - DATUM ELEVATION
TDD .M        314                  : tdd          - TOTAL DEPTH DRILLER
RUN .         ONE                  : Run          - RUN NUMBER
ENG .         MIDDLETON            : Engineer     - RECORDING ENGINEER
WIT .         COLLET               : Witness      - WITNESSED BY
BASE.         EDMONTON             : Branch       - HOME BASE OF LOGGING UNIT
MUD .         GEL                  : Mud_type     - MUD TYPE
MATR.         SANDSTONE            : Logunit      - NEUTRON MATRIX
TMAX.C        29                   : BHT          - MAXIMUM RECORDED TEMPERATURE
BHTD.M        314                  : BHTDEP       - MAXIMUM RECORDED TEMPERATURE
RMT .C        11.1                 : MDTP         - TEMPERATURE OF MUD
MUDD.KG/M     1125                 : MWT          - MUD DENSITY
NEUT.         1                    : NEUTRON      - NEUTRON TYPE
RESI.         0                    : RESIST       - RESISTIVITY TYPE
RM  .OHMM     4.12                 : RM           - RESISTIVITY OF MUD
RMC .OHMM     0                    : RMC          - RESISTIVITY OF MUD CAKE
RMF .OHMM     16.7                 : RMF          - RESISTIVITY OF MUD FILTRATE
SUFT.C        0                    : SUFT         - SURFACE TEMPERATURE
~A  DEPTH      CAL       GR     PHIN     PHID     RESD
# ...
  204.500  224.241   57.318    0.440   -0.397   16.961
  204.750  224.434   56.877    0.451   -0.387   15.338
  205.000  224.317   55.631    0.454   -0.361   14.672
  205.250  224.198   53.148    0.445   -0.285   13.895
  205.500  224.184   50.541    0.442   -0.283   13.399
  205.750  223.862   51.461    0.442   -0.282   13.614
  206.000  223.847   53.555    0.447   -0.288   14.055
  206.250  223.832   52.001    0.448   -0.295   14.598
  206.500  223.405   50.816    0.425   -0.316   14.713
  206.750  222.876   52.229    0.381   -0.336   14.620
  207.000  222.346   53.706    0.396   -0.341   14.560
  207.250  221.094   55.306    0.440   -0.268   14.268
  207.500  219.738   56.844    0.437   -0.276   13.897
  207.750  219.208   57.577    0.425   -0.280   13.536
  208.000  220.123   57.506    0.424   -0.275   13.290
  208.250  220.519   57.558    0.435   -0.268   13.129
  208.500  221.843   57.860    0.446   -0.269   12.996
  208.750  223.069   58.533    0.450   -0.271   12.889
  209.000  223.364   59.450    0.450   -0.275   12.757
  209.250  222.422   59.876    0.447   -0.281   12.678
  209.500  220.243   60.362    0.417   -0.289   12.600
  209.750  217.546   60.477    0.419   -0.285   12.396
  210.000  216.396   59.848    0.429   -0.279   12.319
  210.250  216.483   59.346    0.447   -0.276   12.292
  210.500  217.708   59.523    0.454   -0.275   12.290
  210.750  219.135   60.565    0.453   -0.291   12.262
  211.000  220.878   61.795    0.447   -0.272   12.285
  211.250  223.440   62.652    0.442   -0.279   12.183
  211.500  223.838   62.024    0.447   -0.278   12.132
  211.750  226.505   62.697    0.456   -0.265   12.105
  212.000  226.179   58.543    0.466   -0.268   12.125
  212.250  225.751   57.977    0.471   -0.287   12.100
  212.500  225.121   58.711    0.426   -0.293   12.098
  212.750  224.382   59.753    0.416   -0.297   12.169
  213.000  223.752   60.303    0.410   -0.295   11.851
  213.250  223.427   60.786    0.418   -0.293   11.708
  213.500  223.311   60.406    0.436   -0.290   11.473
  213.750  223.605   60.832    0.440   -0.295   11.473
  214.000  224.621   61.011    0.443   -0.295   11.331
  214.250  225.225   60.816    0.447   -0.291   11.374
  214.500  225.417   59.259    0.445   -0.286   11.441
  214.750  225.506   57.891    0.432   -0.276   11.437
  215.000  225.181   56.521    0.422   -0.284   11.505
  215.250  224.034   56.947    0.415   -0.294   11.595
  215.500  223.193   58.111    0.408   -0.285   11.755
  215.750  223.179   58.968    0.407   -0.280   11.755
  216.000  223.267   59.394    0.414   -0.283   11.823
  216.250  223.870   59.634    0.428   -0.283   11.820
  216.500  224.061   59.191    0.434   -0.287   11.722
  216.750  224.051   58.873    0.433   -0.294   11.674
  217.000  223.621   59.050    0.426   -0.296   11.625
  217.250  223.608   59.599    0.438   -0.296   11.553
  217.500  223.595   59.652    0.447   -0.296   11.251
  217.750  221.725   59.828    0.450   -0.300   11.183
  218.000  218.618   60.563    0.446   -0.311   10.936
  218.250  216.542   61.852    0.424   -0.322   10.936
  218.500  215.494   63.143    0.419   -0.327   10.007
  218.750  218.674   64.557    0.443   -0.325    9.886
  219.000  221.343   67.023    0.445   -0.316    9.649
  219.250  224.421   67.447    0.442   -0.325    9.210
  219.500  225.742   69.665    0.431   -0.336    9.154
  219.750  226.039   71.264    0.422   -0.336    9.245
  220.000  226.028   70.576    0.418   -0.324    9.544
  220.250  225.189   67.784    0.414   -0.311    9.736
  220.500  223.628   66.166    0.429   -0.310    9.910
  220.750  221.552   66.095    0.453   -0.318    9.969
  221.000  220.094   66.335    0.467   -0.326    9.969
  221.250  218.530   65.954    0.470   -0.330   10.268
  221.500  217.797   65.327    0.468   -0.313   10.267
  221.750  217.885   65.690    0.476   -0.313   10.142
  222.000  217.769   67.166    0.482   -0.316    9.625
  222.250  219.298   69.569    0.488   -0.319    7.701
  222.500  220.212   71.539    0.487   -0.329    7.531
  222.750  221.745   73.696    0.476   -0.340    6.160
  223.000  223.585   75.977    0.448   -0.353    5.650
  223.250  225.222   77.390    0.395   -0.397    5.099
  223.500  227.063   78.989    0.380   -0.429    4.743
  223.750  230.759   82.260    0.363   -0.466    4.341
  224.000  236.209   91.653    0.396   -0.448    3.949
  224.250  242.690   98.078    0.420   -0.403    3.710
  224.500  244.220  105.057    0.473   -0.403    3.628
  224.750  242.661  104.925    0.499   -0.389    3.686
  225.000  246.044  107.020    0.520   -0.392    3.860
  225.250  246.341  110.105    0.526   -0.401    4.148
  225.500  242.824  108.673    0.509   -0.396    4.326
  225.750  234.562  104.395    0.505   -0.389    4.621
  226.000  229.185  100.182    0.498   -0.382    4.819
  226.250  226.080   96.647    0.482   -0.371    5.210
  226.500  221.217   91.566    0.466   -0.366    5.852
  226.750  222.130   90.321    0.444   -0.366    6.774
  227.000  223.047   89.755    0.435   -0.368    7.857
  227.250  219.939   89.499    0.428   -0.367    8.861
  227.500  218.276   88.934    0.422   -0.363    9.241
  227.750  223.824   87.936    0.422   -0.381    9.369
  228.000  229.999   87.307    0.432   -0.388    9.348
  228.250  234.623   87.051    0.453   -0.392    9.365
  228.500  236.568   86.795    0.450   -0.398    9.420
  228.750  237.275   86.973    0.446   -0.407    9.494
  229.000  234.991   87.273    0.463   -0.406    9.568
  229.250  232.813   87.697    0.454   -0.395    9.740
  229.500  230.117   87.874    0.448   -0.402    9.837
  229.750  227.112   87.433    0.448   -0.382    9.894
  230.000  225.656   87.362    0.469   -0.381    9.972
  230.250  223.988   88.281    0.472   -0.376   10.071
  230.500  223.151   88.519    0.466   -0.377   10.088
  230.750  222.724   88.325    0.460   -0.386    9.926
  231.000  223.329   88.133    0.457   -0.385    9.344
  231.250  225.583   88.186    0.453   -0.386    8.885
  231.500  227.734   90.094    0.448   -0.393    8.330
  231.750  230.811   93.115    0.443   -0.398    8.295
  232.000  234.406   94.839    0.432   -0.381    8.633
  232.250  236.659   92.975    0.418   -0.358    9.112
  232.500  235.512   83.565    0.404   -0.368    9.579
  232.750  233.434   82.009    0.398   -0.369   10.110
  233.000  231.978   84.043    0.398   -0.373   10.543
  233.250  230.004   87.806    0.411   -0.378   10.712
  233.500  228.648   87.736    0.421   -0.381   10.709
  233.750  228.018   86.057    0.422   -0.369   10.411
  234.000  227.384   85.182    0.421   -0.358    9.839
  234.250  227.366   86.906    0.418   -0.366    9.226
  234.500  227.146   88.135    0.448   -0.383    8.529
  234.750  227.339   85.403    0.462   -0.378    7.885
  235.000  227.532   85.520    0.484   -0.347    7.483
  235.250  226.900   86.376    0.489   -0.365    7.187
  235.500  225.133   87.481    0.481   -0.347    7.043
  235.750  224.087   87.288    0.468   -0.344    6.915
  236.000  223.351   84.988    0.458   -0.350    6.886
  236.250  223.333   83.930    0.484   -0.360    6.857
  236.500  223.941   83.055    0.490   -0.310    6.842
  236.750  224.851   82.119    0.472   -0.315    6.745
  237.000  225.457   80.872    0.456   -0.334    6.689
  237.250  225.958   81.483    0.447   -0.340    6.451
  237.500  226.563   85.370    0.450   -0.343    6.158
  237.750  227.580   85.794    0.477   -0.345    5.751
  238.000  229.625   86.282    0.492   -0.322    4.907
  238.250  232.190   89.552    0.489   -0.321    4.220
  238.500  233.412   91.087    0.474   -0.328    4.070
  238.750  232.676   90.089    0.480   -0.330    4.321
  239.000  231.527   88.412    0.489   -0.328    4.653
  239.250  230.587   84.259    0.500   -0.326    5.376
  239.500  229.230   81.342    0.488   -0.323    6.400
  239.750  228.908   79.726    0.469   -0.326    7.261
  240.000  228.377   78.480    0.446   -0.334    7.851
  240.250  228.157   77.791    0.443   -0.364    8.625
  240.500  227.522   78.401    0.441   -0.381    9.477
  240.750  226.993   80.743    0.437   -0.403    9.824
