~VERSION INFORMATION
 VERS.                 2.0:   CWLS LOG ASCII STANDARD -VERSION 2.0
 WRAP.                  NO:   ONE LINE PER DEPTH STEP
~WELL INFORMATION BLOCK
#MNEM.UNIT           DATA                    DESCRIPTION OF MNEMONIC
#---------    -------------------            -------------------------------
# Generated from Intellog Unique Number	CX_WELLS/WELL/3030
WELL.         LACANA                         : Well_name    - WELL
LOC .         00/10-03-082-13W4/0            : Location     - LOCATION
UWI .         00/10-03-082-13W400            : Uwi          - UNIQUE WELL ID
ENTR.         T                              : Entered      - ENTERED BY
SRVC.         SCHLUMBERGER                   : Scn          - SERVICE COMPANY
STRT.M        225                            : top_depth    - START DEPTH
STOP.M        457                            : bot_depth    - STOP DEPTH
STEP.M        0.25                           : increment    - STEP LENGTH
 NULL. -999.2500:NULL Value
~CURVE INFORMATION BLOCK
#MNEM UNIT       ERCB CURVE CODE    CURVE DESCRIPTION
#-----------   ------------------   ----------------------------------
DEPT.M        00 001 00 00         : DEPTH        - DEPTH
GR  .API      00 310 00 00         : GR           - GAMMA RAY
NPHI.V/V      00 330 00 00         : PHIN         - NEUTRON POROSITY (SANDSTONE)
DPHI.V/V      00 890 00 00         : PHID         - DENSITY POROSITY (SANDSTONE)
ILD .OHMM     00 120 00 00         : RESD         - DEEP RESISTIVITY (OTHER)
~PARAMETER INFORMATION
#MNEM.UNIT           DATA             DESCRIPTION OF MNEMONIC
#---------         -----------     ------------------------------
GL  .M        666.6                : gl           - GROUND LEVEL ELEVATION
EREF.M        669.8                : kb           - ELEVATION OF DEPTH REFERENCE
DATM.M        669.8                : datum        - DATUM ELEVATION
TDD .M        468                  : tdd          - TOTAL DEPTH DRILLER
RUN .         ONE                  : Run          - RUN NUMBER
ENG .         BILL                 : Engineer     - RECORDING ENGINEER
WIT .         JIM                  : Witness      - WITNESSED BY
MUD .         GEL                  : Mud_type     - MUD TYPE
MATR.         SANDSTONE            : Logunit      - NEUTRON MATRIX
TMAX.C        20                   : BHT          - MAXIMUM RECORDED TEMPERATURE
BHTD.M        468                  : BHTDEP       - MAXIMUM RECORDED TEMPERATURE
MATR.         1                    : LOGUNIT      - NEUTRON MATRIX
RMT .C        20                   : MDTP         - TEMPERATURE OF MUD
NEUT.         1                    : NEUTRON      - NEUTRON TYPE
RESI.         2.5                  : RESIST       - RESISTIVITY TYPE
RMC .OHMM     3.1                  : RMC          - RESISTIVITY OF MUD CAKE
RMF .OHMM     2.5                  : RMF          - RESISTIVITY OF MUD FILTRATE
SUFT.C        2                    : SUFT         - SURFACE TEMPERATURE
~A  DEPTH       GR     PHIN     PHID     RESD
# ...
  399.000  104.788    0.437    0.199    4.217
  399.250  106.629    0.434    0.201    4.215
  399.500  106.617    0.412    0.203    4.133
  399.750  106.607    0.414    0.209    4.130
  400.000  106.598    0.417    0.214    4.048
  400.250  106.590    0.420    0.219    4.047
  400.500  107.198    0.424    0.217    4.120
  400.750  108.417    0.425    0.212    4.524
  401.000  109.022    0.423    0.193    4.784
  401.250  109.634    0.418    0.189    5.156
  401.500  108.390    0.409    0.187    5.990
  401.750   94.811    0.390    0.203    6.577
  402.000   84.932    0.374    0.217    7.221
  402.250   82.455    0.374    0.223    7.495
  402.500   82.443    0.378    0.216    7.924
  402.750   82.431    0.378    0.210    8.223
  403.000   81.188    0.375    0.205    8.372
  403.250   78.711    0.374    0.205    8.366
  403.500   75.619    0.374    0.210    8.519
  403.750   73.759    0.373    0.212    8.515
  404.000   77.451    0.368    0.213    8.836
  404.250   81.757    0.357    0.216    8.998
  404.500   78.663    0.349    0.220    9.159
  404.750   76.188    0.346    0.221    9.327
  405.000   71.859    0.346    0.222    9.322
  405.250   71.844    0.347    0.221    9.317
  405.500   73.690    0.348    0.216    9.486
  405.750   78.615    0.352    0.213    9.660
  406.000   79.222    0.355    0.212    9.835
  406.250   77.359    0.357    0.217    9.828
  406.500   76.733    0.358    0.218    9.821
  406.750   81.044    0.361    0.218   10.383
  407.000   86.586    0.363    0.221   10.577
  407.250   90.894    0.364    0.225   11.182
  407.500   98.281    0.364    0.230   11.604
  407.750  101.975    0.360    0.225   12.272
  408.000  106.281    0.354    0.214   13.476
  408.250  106.274    0.350    0.214   15.658
  408.500  101.327    0.350    0.243   19.617
  408.750   89.598    0.360    0.253   24.120
  409.000   87.123    0.366    0.268   29.102
  409.250   81.562    0.355    0.264   36.461
  409.500   75.382    0.344    0.257   33.147
  409.750   74.755    0.346    0.256   30.145
  410.000   75.363    0.350    0.248   29.015
  410.250   74.736    0.346    0.243   26.387
  410.500   73.491    0.341    0.230   23.993
  410.750   73.481    0.333    0.220   22.662
  411.000   74.088    0.332    0.209   21.401
  411.250   75.929    0.334    0.201   20.203
  411.500   78.387    0.338    0.204   19.439
  411.750   80.228    0.340    0.204   19.070
  412.000   81.449    0.344    0.202   18.700
  412.250   82.674    0.344    0.201   18.335
  412.500   85.129    0.343    0.202   17.977
  412.750   86.355    0.342    0.202   17.968
  413.000   87.579    0.342    0.203   17.952
  413.250   86.336    0.342    0.204   18.280
  413.500   85.093    0.339    0.207   18.969
  413.750   86.319    0.337    0.218   20.062
  414.000   88.158    0.334    0.244   22.875
  414.250   86.298    0.331    0.265   25.596
  414.500   76.419    0.311    0.277   29.185
  414.750   68.391    0.281    0.311   33.911
  415.000   66.528    0.240    0.333   40.915
  415.250   66.518    0.207    0.339   49.366
  415.500   65.275    0.252    0.322   52.201
  415.750   63.415    0.286    0.325   47.473
  416.000   62.172    0.315    0.327   42.368
  416.250   64.630    0.332    0.254   37.811
  416.500   68.321    0.348    0.227   34.381
  416.750   72.012    0.362    0.197   31.267
  417.000   78.785    0.360    0.248   28.976
  417.250   80.010    0.342    0.229   26.848
  417.500   68.899    0.300    0.218   27.855
  417.750   63.338    0.277    0.254   29.460
  418.000   58.392    0.259    0.266   31.750
  418.250   56.534    0.244    0.292   36.891
  418.500   54.055    0.227    0.304   45.349
  418.750   52.192    0.205    0.318   50.752
  419.000   50.951    0.194    0.335   56.788
  419.250   49.089    0.209    0.325   60.039
  419.500   48.465    0.303    0.306   54.592
  419.750   45.988    0.330    0.291   50.592
  420.000   50.296    0.342    0.288   46.885
  420.250   60.773    0.349    0.290   43.450
  420.500   68.782    0.353    0.290   40.274
  420.750   68.155    0.357    0.290   38.033
  421.000   59.508    0.360    0.290   33.937
  421.250   55.178    0.358    0.277   31.450
  421.500   60.105    0.354    0.265   28.063
  421.750   65.645    0.343    0.260   26.007
  422.000   69.339    0.341    0.253   23.647
  422.250   74.881    0.346    0.249   22.765
  422.500   78.570    0.348    0.247   21.903
  422.750   82.263    0.348    0.240   20.681
  423.000   87.188    0.350    0.226   20.670
  423.250   92.113    0.349    0.211   20.263
  423.500   97.655    0.346    0.203   20.252
  423.750  101.961    0.346    0.205   20.242
  424.000  105.650    0.348    0.212   21.396
  424.250  101.937    0.354    0.220   21.796
  424.500  100.699    0.358    0.230   23.044
  424.750   96.371    0.360    0.226   23.916
  425.000   90.810    0.365    0.224   24.813
  425.250   89.562    0.369    0.221   24.782
  425.500   89.555    0.367    0.223   24.774
  425.750   90.165    0.364    0.224   24.756
  426.000   90.148    0.360    0.224   24.735
  426.250   89.526    0.358    0.224   24.256
  426.500   89.514    0.350    0.219   23.350
  426.750   89.507    0.347    0.211   20.839
  427.000   93.813    0.342    0.196   18.952
  427.250   93.189    0.342    0.195   19.659
  427.500   66.036    0.342    0.201   21.587
  427.750   60.475    0.343    0.207   23.703
  428.000   63.547    0.344    0.211   25.541
  428.250   66.624    0.342    0.217   26.508
  428.500   67.229    0.339    0.229   26.489
  428.750   64.138    0.347    0.254   27.483
  429.000   61.661    0.357    0.259   29.066
  429.250   57.331    0.358    0.265   31.905
  429.500   57.322    0.354    0.268   33.119
  429.750   60.394    0.349    0.272   36.360
  430.000   62.856    0.347    0.264   33.690
  430.250   66.545    0.342    0.237   31.221
  430.500   70.234    0.340    0.200   28.399
  430.750   73.311    0.335    0.186   25.827
  431.000   73.918    0.334    0.188   23.934
  431.250   70.825    0.330    0.194   21.763
  431.500   66.492    0.329    0.201   22.161
  431.750   65.871    0.332    0.210   23.438
  432.000   65.244    0.331    0.220   26.217
  432.250   65.235    0.329    0.222   27.722
  432.500   65.842    0.323    0.225   26.180
  432.750   67.680    0.319    0.225   23.809
  433.000   71.989    0.320    0.221   23.352
  433.250   77.531    0.324    0.184   22.053
  433.500   84.923    0.331    0.154   20.437
  433.750   87.997    0.335    0.136   20.811
  434.000   81.820    0.341    0.163   22.006
  434.250   78.726    0.346    0.197   21.166
  434.500   83.648    0.347    0.215   20.764
  434.750   85.489    0.346    0.227   20.742
  435.000   80.547    0.345    0.238   20.731
  435.250   74.367    0.340    0.251   20.720
  435.500   71.273    0.339    0.256   21.099
  435.750   71.881    0.335    0.226   19.926
  436.000   77.423    0.333    0.177   17.779
  436.250   86.049    0.330    0.157   16.166
  436.500   84.186    0.329    0.151   15.270
  436.750   81.095    0.327    0.160   14.974
  437.000   78.615    0.324    0.169   14.684
  437.250   80.454    0.324    0.171   14.674
  437.500   81.680    0.323    0.164   14.943
  437.750   83.521    0.323    0.156   14.929
  438.000   89.058    0.327    0.147   14.922
  438.250   87.203    0.327    0.136   14.909
  438.500   85.338    0.323    0.137   14.620
  438.750   84.717    0.321    0.141   14.607
  439.000   84.705    0.316    0.144   14.597
  439.250   84.697    0.315    0.150   14.867
  439.500   80.984    0.323    0.176   16.629
  439.750   77.888    0.333    0.206   17.262
  440.000   75.411    0.342    0.224   18.600
  440.250   72.320    0.345    0.228   19.668
  440.500   66.759    0.344    0.228   22.415
  440.750   66.130    0.342    0.231   23.271
  441.000   66.123    0.341    0.240   24.608
  441.250   64.260    0.342    0.244   27.530
  441.500   61.784    0.343    0.254   30.799
  441.750   57.456    0.346    0.266   32.573
  442.000   53.746    0.347    0.281   37.134
  442.250   50.650    0.348    0.270   41.558
