~VERSION INFORMATION
 VERS.                 2.0:   CWLS LOG ASCII STANDARD -VERSION 2.0
 WRAP.                  NO:   ONE LINE PER DEPTH STEP
~WELL INFORMATION BLOCK
#MNEM.UNIT           DATA                    DESCRIPTION OF MNEMONIC
#---------    -------------------            -------------------------------
# Generated from Intellog Unique Number	CS_67_68/WELL/2204
WELL.         11-05-067-07W4                 : Well_name    - WELL
LOC .         00/11-05-067-07W4/0            : Location     - LOCATION
UWI .         00/11-05-067-07W4/0            : Uwi          - UNIQUE WELL ID
ENTR.         SP                             : Entered      - ENTERED BY
SRVC.         SCHLUMBERGER                   : Scn          - SERVICE COMPANY
STRT.M        315                            : top_depth    - START DEPTH
STOP.M        540                            : bot_depth    - STOP DEPTH
STEP.M        0.25                           : increment    - STEP LENGTH
 NULL. -999.2500:NULL Value
~CURVE INFORMATION BLOCK
#MNEM UNIT       ERCB CURVE CODE    CURVE DESCRIPTION
#-----------   ------------------   ----------------------------------
DEPT.M        00 001 00 00         : DEPTH        - DEPTH
ILD .OHMM     00 120 00 00         : RESD         - DEEP RESISTIVITY (DIL)
DPHI.V/V      00 890 00 00         : PHID         - DENSITY POROSITY (LIMESTONE)
NPHI.V/V      00 330 00 00         : PHIN         - NEUTRON POROSITY (LIMESTONE)
GR  .API      00 310 00 00         : GR           - GAMMA RAY
CALI.MM       00 280 01 00         : CAL          - CALIPER
~PARAMETER INFORMATION
#MNEM.UNIT           DATA             DESCRIPTION OF MNEMONIC
#---------         -----------     ------------------------------
GL  .M        621.33               : gl           - GROUND LEVEL ELEVATION
EREF.M        625.23               : kb           - ELEVATION OF DEPTH REFERENCE
DATM.M        625.23               : datum        - DATUM ELEVATION
TDD .M        550                  : tdd          - TOTAL DEPTH DRILLER
RUN .         ONE                  : Run          - RUN NUMBER
ENG .         BILL                 : Engineer     - RECORDING ENGINEER
WIT .         JIM                  : Witness      - WITNESSED BY
MUD .         GEL                  : Mud_type     - MUD TYPE
MATR.         LIMESTONE            : Logunit      - NEUTRON MATRIX
TMAX.C        25                   : BHT          - MAXIMUM RECORDED TEMPERATURE
BHTD.M        549.5                : BHTDEP       - MAXIMUM RECORDED TEMPERATURE
MATR.         1                    : LOGUNIT      - NEUTRON MATRIX
RMT .C        25                   : MDTP         - TEMPERATURE OF MUD
NEUT.         1                    : NEUTRON      - NEUTRON TYPE
RESI.         0                    : RESIST       - RESISTIVITY TYPE
RMC .OHMM     0.25                 : RMC          - RESISTIVITY OF MUD CAKE
RMF .OHMM     0.25                 : RMF          - RESISTIVITY OF MUD FILTRATE
SUFT.C        15                   : SUFT         - SURFACE TEMPERATURE
~A  DEPTH     RESD     PHID     PHIN       GR      CAL
# ...
  424.500    4.454    0.290    0.445   61.587  158.325
  424.750    4.341    0.291    0.429   59.109  158.376
  425.000    4.286    0.301    0.425   59.388  158.330
  425.250    3.984    0.309    0.433   60.639  158.175
  425.500    3.725    0.316    0.441   63.539  157.921
  425.750    3.589    0.312    0.433   66.500  158.064
  426.000    3.558    0.303    0.433   63.903  158.122
  426.250    3.533    0.302    0.434   64.117  158.170
  426.500    3.516    0.312    0.428   64.574  158.117
  426.750    3.518    0.322    0.436   64.727  158.268
  427.000    3.520    0.329    0.446   64.513  158.518
  427.250    3.535    0.332    0.455   63.504  158.874
  427.500    3.538    0.331    0.461   61.700  159.235
  427.750    3.526    0.330    0.460   60.874  159.481
  428.000    3.456    0.331    0.456   60.907  159.434
  428.250    3.362    0.331    0.455   63.188  159.077
  428.500    3.004    0.332    0.447   64.324  158.617
  428.750    2.629    0.345    0.454   65.455  158.257
  429.000    2.711    0.347    0.472   64.872  158.004
  429.250    2.849    0.337    0.480   66.548  157.848
  429.500    2.994    0.334    0.482   68.903  158.310
  429.750    3.159    0.338    0.442   71.191  159.884
  430.000    3.313    0.339    0.419   72.871  164.308
  430.250    3.483    0.345    0.478   76.560  175.048
  430.500    3.585    0.368    0.561   80.012  188.638
  430.750    3.683    0.383    0.577   82.546  209.043
  431.000    3.777    0.412    0.562   84.712  211.537
  431.250    3.895    0.374    0.525   85.051  188.885
  431.500    4.017    0.347    0.509   85.445  182.934
  431.750    4.119    0.276    0.493   86.148  177.587
  432.000    4.192    0.247    0.495   87.950  171.838
  432.250    4.234    0.239    0.497   89.507  166.999
  432.500    4.286    0.237    0.482   90.693  164.402
  432.750    4.378    0.242    0.468   91.397  162.827
  433.000    4.465    0.246    0.482   91.855  162.260
  433.250    4.502    0.242    0.481   91.824  162.103
  433.500    4.495    0.236    0.470   91.611  162.049
  433.750    4.323    0.227    0.460   92.800  161.896
  434.000    3.602    0.220    0.462   94.293  161.854
  434.250    3.088    0.223    0.453   94.814  161.687
  434.500    2.657    0.225    0.437   94.232  161.843
  434.750    2.352    0.219    0.457   90.600  161.903
  435.000    2.228    0.231    0.478   88.428  162.356
  435.250    2.139    0.237    0.477   91.687  162.715
  435.500    2.116    0.218    0.503   94.528  171.200
  435.750    2.097    0.227    0.543   96.274  176.041
  436.000    2.098    0.311    0.567   98.319  180.677
  436.250    2.128    0.306    0.556   98.596  172.278
  436.500    2.165    0.287    0.529   96.855  166.927
  436.750    2.242    0.283    0.559   95.479  170.732
  437.000    2.277    0.286    0.584   97.831  173.641
  437.250    2.296    0.289    0.586  101.159  176.642
  437.500    2.311    0.290    0.599  102.227  179.945
  437.750    2.299    0.288    0.612  102.134  182.850
  438.000    2.362    0.286    0.600  101.675  185.754
  438.250    2.662    0.282    0.580  100.971  187.332
  438.500    3.115    0.293    0.569   96.115  185.649
  438.750    3.611    0.307    0.566   92.910  183.552
  439.000    4.179    0.308    0.591   91.411  183.003
  439.250    4.665    0.299    0.599   91.197  183.765
  439.500    5.159    0.291    0.584   91.474  185.950
  439.750    5.578    0.283    0.566   91.561  187.022
  440.000    6.042    0.312    0.518   90.984  174.755
  440.250    6.458    0.235    0.509   89.058  164.831
  440.500    6.788    0.220    0.482   88.416  154.905
  440.750    6.856    0.221    0.451   88.629  152.304
  441.000    6.458    0.223    0.433   86.524  153.362
  441.250    5.781    0.226    0.437   84.046  153.834
  441.500    5.324    0.220    0.430   80.354  154.388
  441.750    5.053    0.192    0.398   73.482  154.836
  442.000    4.878    0.093    0.293   67.834  155.103
  442.250    4.701    0.111    0.343   75.862  155.557
  442.500    4.607    0.170    0.396   80.473  155.812
  442.750    4.515    0.209    0.429   82.088  156.780
  443.000    4.467    0.211    0.447   82.484  158.964
  443.250    4.521    0.223    0.453   83.372  161.964
  443.500    4.601    0.212    0.440   84.562  164.050
  443.750    4.656    0.200    0.442   86.547  166.326
  444.000    4.748    0.188    0.445   88.162  167.818
  444.250    4.823    0.193    0.449   89.109  168.885
  444.500    4.946    0.197    0.448   88.894  167.408
  444.750    5.149    0.196    0.448   87.765  166.533
  445.000    5.391    0.194    0.477   87.062  168.425
  445.250    5.698    0.199    0.512   87.514  173.767
  445.500    6.183    0.218    0.503   88.281  178.393
  445.750    6.736    0.234    0.484   89.349  182.315
  446.000    7.534    0.216    0.470   89.563  174.728
  446.250    8.363    0.214    0.462   89.102  170.908
  446.500    9.301    0.222    0.465   88.280  168.005
  446.750   10.306    0.225    0.477   86.782  164.991
  447.000   10.954    0.229    0.482   86.140  163.116
  447.250   11.447    0.254    0.484   86.294  161.131
  447.500   11.917    0.263    0.485   85.163  160.466
  447.750   12.596    0.270    0.489   78.045  160.517
  448.000   13.566    0.279    0.488   72.703  160.663
  448.250   14.475    0.285    0.480   71.756  160.725
  448.500   15.300    0.281    0.469   72.458  160.670
  448.750   15.747    0.274    0.461   65.281  160.617
  449.000   16.057    0.226    0.453   60.178  160.263
  449.250   15.917    0.215    0.458   60.150  160.213
  449.500   14.629    0.219    0.465   62.501  159.754
  449.750   12.008    0.256    0.473   62.959  159.384
  450.000   10.215    0.281    0.472   65.186  159.240
  450.250    8.889    0.296    0.458   68.210  158.979
  450.500    7.379    0.292    0.448   70.377  158.830
  450.750    6.056    0.286    0.476   66.862  158.461
  451.000    4.850    0.282    0.498   68.726  158.422
  451.250    3.588    0.277    0.480   71.870  158.061
  451.500    2.731    0.278    0.461   73.611  157.812
  451.750    2.431    0.288    0.456   73.638  157.555
  452.000    2.569    0.290    0.470   74.097  157.395
  452.250    2.773    0.293    0.469   74.798  157.858
  452.500    2.908    0.295    0.458   75.620  159.436
  452.750    3.068    0.304    0.503   75.654  163.453
  453.000    3.164    0.314    0.562   74.826  168.999
  453.250    3.190    0.320    0.579   73.821  172.409
  453.500    3.115    0.321    0.547   72.319  167.663
  453.750    3.035    0.321    0.528   72.108  165.078
  454.000    2.936    0.322    0.502   72.628  162.585
  454.250    2.888    0.326    0.511   72.957  160.895
  454.500    2.863    0.323    0.517   73.233  160.337
  454.750    2.848    0.321    0.519   73.938  159.973
  455.000    2.797    0.318    0.508   75.982  160.034
  455.250    2.767    0.324    0.500   77.480  159.981
  455.500    2.774    0.314    0.502   74.577  160.337
  455.750    2.734    0.294    0.493   72.469  160.273
  456.000    2.721    0.268    0.485   72.803  160.236
  456.250    2.717    0.241    0.478   73.687  160.170
  456.500    2.698    0.209    0.467   75.063  160.128
  456.750    2.670    0.238    0.474   75.766  159.767
  457.000    2.666    0.266    0.481   78.542  159.617
  457.250    2.638    0.284    0.488   80.585  159.563
  457.500    2.610    0.302    0.483   81.167  159.314
  457.750    2.577    0.299    0.485   78.815  159.348
  458.000    2.526    0.287    0.492   77.257  159.312
  458.250    2.438    0.276    0.497   76.800  159.054
  458.500    2.572    0.269    0.500   79.145  159.000
  458.750    2.714    0.262    0.493   81.868  159.049
  459.000    2.777    0.271    0.501   85.928  159.202
  459.250    2.925    0.278    0.528   85.530  160.473
  459.500    3.016    0.288    0.534   83.298  163.576
  459.750    3.046    0.286    0.521   81.497  166.988
  460.000    3.172    0.273    0.515   80.000  169.685
  460.250    3.296    0.280    0.515   80.154  169.123
  460.500    3.386    0.288    0.521   82.017  167.444
  460.750    3.486    0.292    0.535   84.730  166.068
