~VERSION INFORMATION
 VERS.                 2.0:   CWLS LOG ASCII STANDARD -VERSION 2.0
 WRAP.                  NO:   ONE LINE PER DEPTH STEP
~WELL INFORMATION BLOCK
#MNEM.UNIT           DATA                    DESCRIPTION OF MNEMONIC
#---------    -------------------            -------------------------------
# Generated from Intellog Unique Number	CW_70_72/WELL/3028
NULL.         -999.25                        : NULL_VALUE
WELL.         SULPETRO ET AL MITSUE 11-10    : Well_name    - WELL              
LOC .         11-10-070-05W5                 : Location     - LOCATION          
UWI .         00/11-10-070-05W5/0            : Uwi          - UNIQUE WELL ID    
ENTR.         JAYE                           : Entered      - ENTERED BY        
SRVC.         SCHLUMBERGER                   : Scn          - SERVICE COMPANY   
DATE.         4 FEB 79                       : Date         - LOG DATE          
STRT.M        680                            : top_depth    - START DEPTH       
STOP.M        905                            : bot_depth    - STOP DEPTH        
STEP.M        0.25                           : increment    - STEP LENGTH       
~CURVE INFORMATION BLOCK
#MNEM UNIT       ERCB CURVE CODE    CURVE DESCRIPTION
#-----------   ------------------   ----------------------------------
DEPT.M        00 001 00 00         : DEPTH        - DEPTH                       
CALI.MM       00 280 01 00         : CAL          - CALIPER                     
ILD .OHMM     00 120 00 00         : RESD         - DEEP RESISTIVITY (DIL)      
GR  .API      00 310 00 00         : GR           - GAMMA RAY                   
NPHI.V/V      00 330 00 00         : PHIN         - NEUTRON POROSITY (SANDSTONE)
DPHI.V/V      00 890 00 00         : PHID         - DENSITY POROSITY (SANDSTONE)
~PARAMETER INFORMATION       
#MNEM.UNIT           DATA             DESCRIPTION OF MNEMONIC
#---------         -----------     ------------------------------
GL  .M        785.2                : gl           - GROUND LEVEL ELEVATION      
EREF.M        788.2                : kb           - ELEVATION OF DEPTH REFERENCE
DATM.M        785.2                : datum        - DATUM ELEVATION             
TDD .M        931                  : tdd          - TOTAL DEPTH DRILLER         
RUN .         ONE                  : Run          - RUN NUMBER                  
ENG .         RIVOLLIER            : Engineer     - RECORDING ENGINEER          
WIT .         TRUNK                : Witness      - WITNESSED BY                
BASE.         EDM                  : Branch       - HOME BASE OF LOGGING UNIT   
MUD .         GEL                  : Mud_type     - MUD TYPE                    
MATR.         SANDSTONE            : Logunit      - NEUTRON MATRIX              
TMAX.C        0                    : BHT          - MAXIMUM RECORDED TEMPERATURE
BHTD.M        931                  : BHTDEP       - MAXIMUM RECORDED TEMPERATURE
RMT .C        11                   : MDTP         - TEMPERATURE OF MUD          
MUDD.KG/M     1102                 : MWT          - MUD DENSITY                 
NEUT.         1                    : NEUTRON      - NEUTRON TYPE                
RESI.         0                    : RESIST       - RESISTIVITY TYPE            
RM  .OHMM     5.96                 : RM           - RESISTIVITY OF MUD          
RMC .OHMM     0.25                 : RMC          - RESISTIVITY OF MUD CAKE     
RMF .OHMM     7.48                 : RMF          - RESISTIVITY OF MUD FILTRATE 
SUFT.C        0                    : SUFT         - SURFACE TEMPERATURE         
~A  DEPTH      CAL     RESD       GR     PHIN     PHID
  680.000  175.620    1.859  105.702    0.538    0.212
  680.250  175.844    1.899  104.725    0.547    0.207
  680.500  176.784    1.937  103.196    0.549    0.213
  680.750  177.725    1.990  106.477    0.526    0.216
  681.000  178.460    2.023  108.032    0.543    0.208
  681.250  179.300    2.029  107.179    0.535    0.211
  681.500  180.035    2.034  105.833    0.517    0.202
  681.750  180.566    2.032  104.302    0.500    0.187
  682.000  180.890    2.019  103.637    0.508    0.178
  682.250  181.319    2.006  103.217    0.530    0.187
  682.500  181.852    1.997  102.364    0.528    0.170
  682.750  183.203    2.002  100.030    0.521    0.182
  683.000  185.988    2.016   97.698    0.519    0.183
  683.250  189.589    2.044   99.252    0.482    0.177
  683.500  182.538    2.065  100.683    0.485    0.188
  683.750  181.841    2.079   99.955    0.495    0.196
  684.000  182.370    2.101   97.930    0.500    0.199
  684.250  183.516    2.135   97.633    0.507    0.206
  684.500  185.586    2.185  100.360    0.503    0.213
  684.750  186.320    2.246  100.742    0.504    0.222
  685.000  186.750    2.307   97.421    0.517    0.224
  685.250  186.976    2.389   94.595    0.514    0.206
  685.500  186.889    2.427   94.114    0.489    0.195
  685.750  186.498    2.393   95.235    0.454    0.209
  686.000  186.003    2.325   95.556    0.446    0.184
  686.250  185.509    2.284   95.013    0.451    0.191
  686.500  185.221    2.278   94.592    0.447    0.226
  686.750  185.549    2.301   93.432    0.455    0.196
  687.000  186.283    2.330   91.530    0.465    0.207
  687.250  187.427    2.350   85.680    0.480    0.219
  687.500  189.292    2.361   78.103    0.496    0.244
  687.750  186.132    2.394   70.648    0.411    0.166
  688.000  171.397    2.419   67.821    0.387    0.225
  688.250  164.344    2.421   68.265    0.397    0.246
  688.500  163.031    2.442   80.494    0.413    0.231
  688.750  163.972    2.225   83.591    0.429    0.224
  689.000  167.271    2.199   82.926    0.454    0.207
  689.250  172.923    2.180   78.000    0.482    0.245
  689.500  178.269    2.154   70.793    0.501    0.286
  689.750  181.669    2.132   63.893    0.487    0.309
  690.000  177.179    2.118   56.439    0.415    0.298
  690.250  163.263    2.132   56.203    0.394    0.288
  690.500  159.186    2.146   59.856    0.393    0.278
  690.750  158.894    2.205   63.262    0.412    0.258
  691.000  159.119    2.262   67.222    0.429    0.236
  691.250  160.878    2.342   69.147    0.449    0.264
  691.500  164.791    2.456   65.272    0.449    0.304
  691.750  163.989    2.567   61.396    0.417    0.304
  692.000  159.706    2.584   58.262    0.393    0.241
  692.250  158.595    2.543   55.989    0.364    0.172
  692.500  158.619    2.485   54.829    0.321    0.132
  692.750  158.428    2.404   56.694    0.342    0.199
  693.000  158.245    2.389   59.234    0.368    0.243
  693.250  158.057    2.459   61.034    0.398    0.252
  693.500  158.073    2.541   62.959    0.408    0.264
  693.750  158.094    2.641   68.217    0.418    0.242
  694.000  158.930    2.729   73.226    0.437    0.200
  694.250  160.896    2.815   75.150    0.455    0.178
  694.500  166.449    2.882   73.681    0.470    0.198
  694.750  166.363    2.945   78.629    0.466    0.232
  695.000  162.902    3.003   75.619    0.441    0.251
  695.250  161.073    3.023   73.346    0.397    0.266
  695.500  159.557    3.020   72.247    0.389    0.225
  695.750  159.062    3.006   74.728    0.379    0.199
  696.000  159.390    2.855   80.602    0.390    0.187
  696.250  160.021    2.727   83.823    0.411    0.216
  696.500  161.475    2.490   86.056    0.418    0.233
  696.750  163.030    2.291   87.918    0.425    0.203
  697.000  164.276    2.112   90.706    0.443    0.128
  697.250  166.653    1.943   96.271    0.458    0.122
  697.500  169.846    1.839  104.366    0.466    0.201
  697.750  176.322    1.800  107.033    0.506    0.227
  698.000  182.999    1.938  106.674    0.520    0.194
  698.250  189.166    2.111  102.304    0.515    0.196
  698.500  188.262    2.473   99.107    0.473    0.192
  698.750  188.998    2.864   99.428    0.456    0.211
  699.000  186.249    2.846   91.233    0.447    0.245
  699.250  187.190    2.678   84.210    0.422    0.259
  699.500  180.855    2.414   76.508    0.392    0.248
  699.750  169.399    2.163   67.573    0.385    0.254
  700.000  163.167    2.078   60.612    0.381    0.270
  700.250  160.319    2.095   54.083    0.369    0.277
  700.500  159.515    2.206   48.665    0.363    0.291
  700.750  158.100    2.323   45.963    0.370    0.263
  701.000  156.789    2.437   45.974    0.365    0.253
  701.250  156.396    2.499   45.677    0.361    0.242
  701.500  156.619    2.419   45.999    0.363    0.222
  701.750  156.945    2.200   46.564    0.369    0.227
  702.000  157.477    2.036   46.144    0.378    0.269
  702.250  157.601    1.916   41.158    0.388    0.300
  702.500  157.921    1.878   37.837    0.388    0.309
  702.750  158.248    1.880   37.355    0.393    0.300
  703.000  158.368    1.936   39.652    0.394    0.303
  703.250  158.491    1.974   42.377    0.384    0.301
  703.500  158.308    1.939   47.635    0.360    0.263
  703.750  158.019    1.870   54.742    0.362    0.197
  704.000  158.035    1.743   60.677    0.373    0.135
  704.250  157.950    1.662   60.196    0.387    0.153
  704.500  157.762    1.633   52.310    0.389    0.171
  704.750  157.781    1.665   50.038    0.399    0.231
  705.000  157.801    1.753   55.664    0.390    0.293
  705.250  157.613    1.849   61.785    0.406    0.276
  705.500  157.120    2.014   71.115    0.409    0.286
  705.750  157.548    2.316   80.939    0.406    0.288
  706.000  159.308    2.985   88.107    0.433    0.260
  706.250  162.299    3.381   91.574    0.481    0.341
  706.500  170.513    3.494   86.156    0.525    0.391
  706.750  175.964    3.400   83.268    0.558    0.416
  707.000  172.190    3.309   86.056    0.516    0.274
  707.250  169.956    3.312   84.587    0.404    0.275
  707.500  169.667    3.366   83.056    0.399    0.275
  707.750  170.505    3.478   82.081    0.404    0.265
  708.000  171.343    3.669   83.327    0.425    0.272
  708.250  171.874    4.011   86.485    0.452    0.287
  708.500  173.124    4.467   86.497    0.471    0.314
  708.750  173.857    4.739   78.734    0.550    0.411
  709.000  173.569    4.450   73.564    0.583    0.501
  709.250  172.665    3.878   72.156    0.604    0.518
  709.500  172.480    3.367   73.772    0.625    0.462
  709.750  173.522    2.917   79.707    0.597    0.417
  710.000  182.148    2.518   90.764    0.610    0.375
  710.250  191.490    2.219   92.258    0.576    0.304
  710.500  198.784    2.046   90.293    0.587    0.285
  710.750  202.081    2.029   90.182    0.603    0.271
  711.000  201.486    2.069   90.256    0.592    0.263
  711.250  200.070    2.122   86.936    0.566    0.249
  711.500  192.710    2.176   85.466    0.570    0.204
  711.750  182.277    2.178   92.266    0.547    0.121
  712.000  172.665    2.148   96.474    0.580    0.241
  712.250  182.211    2.086   95.313    0.598    0.282
  712.500  190.940    2.019   93.288    0.607    0.304
  712.750  197.823    1.958   90.585    0.585    0.276
  713.000  194.973    1.888   89.794    0.569    0.240
  713.250  190.687    1.844   91.905    0.611    0.245
  713.500  198.698    1.825   95.001    0.607    0.266
  713.750  207.734    1.824   99.394    0.581    0.281
  714.000  208.266    1.839   96.752    0.561    0.250
  714.250  203.059    1.862   95.839    0.521    0.275
  714.500  200.003    1.878   98.134    0.525    0.237
  714.750  201.251    1.908   99.626    0.554    0.260
  715.000  203.729    1.935  100.318    0.567    0.263
  715.250  201.391    1.962  100.329    0.556    0.263
  715.500  200.998    2.086  100.156    0.558    0.275
  715.750  206.857    2.340   98.254    0.551    0.279
  716.000  212.410    2.612   99.379    0.542    0.273
  716.250  207.306    2.882   99.944    0.547    0.284
