~V
VERS. 2.00: Ver 2.00
WRAP. NO:
VEND. PRIZM:GeoGraphix
~W
STRT.M 63.0000:START DEPTH
STOP.M 270.0000:STOP DEPTH
STEP.M 0.3000:STEP
NULL. -999.2500:NULL VALUE
WELL. 00/11-34-083-05W4/0 :WELL
COMP. :COMPANY
UWI. 00_11-34-083-05W4_0:UNIQUE WELL ID
FLD. :FIELD
CNTY. :COUNTY
STAT. :STATE
CTRY. :COUNTRY
PDAT. :PERMANENT DATUM
LMF. :LOG MEASURED FROM
DMF. :DRILLING MEASURED FROM
LOC1. :LOCATION LINE 1
LOC2. :LOCATION LINE 2
LOC3. :LOCATION LINE 3
SEC. :SECTION
TWP. :TOWNSHIP
RAN. :RANGE
SRVC. :Logging Company
BASE. :Logging Unit Location
ENG. :Logging Engineer
WITN. :Witnessed By
RUN. :Run No.
MUD_TYPE. :Type Fluid in Hole
MUDS. :Source of Mud Sample
RMFS. :Source of Mud Filtrate
RMCS. :Source of Mud Cake
LOC. :LOCATION
DATE. :LOG DATE
~C
DEPT.M :DEPTH
PHID. :Density Pososity
NPHI. :NPHI
RHOB.KGM3 :Bulk Density
GR.API :GR
ILD.Ohmm :ILD
~P
EKB. -999.2500:ELEVATION OF KELLY BUSHING
EDF. -999.2500:ELEVATION OF DRILLING FLOOR
EGL. -999.2500:ELEVATION OF GROUND LEVEL
EPD. -999.2500:ELEVATION OF PERMANENT DATUM
APD. -999.2500:LMF DISTANCE ABOVE PERMANENT DATUM
LAT. -999.2500:LATITUDE OF WELL LOCATION
LONG. -999.2500:LONGITUDE OF WELL LOCATION
TDD. -999.2500:Total Depth Driller
TDL. -999.2500:Total Depth Logger
LCSG1. -999.2500:Depth of Casing from Logger
CSIZE. -999.2500:Casing Size
CWT. -999.2500:Casing Weight
BS. -999.2500:Bit Size
TLI. 63.0000:Top Logged Interval
BLI. 270.0000:Bottom Logged Interval
MRT. 0.0000:Maximum Recorded Temperature
WMUD. -999.2500:Drilling Mud Density
DFV. -999.2500:Drilling Mud Viscosity
PH. -999.2500:Drilling Mud pH
DFL. -999.2500:Drilling Mud Fluid Loss
RM. -999.2500:Resistivity of Drilling Fluid
RMT. -999.2500:Measured Temp. of Drilling Fluid
RMF. -999.2500:Resistivity of Drilling Fluid Filtrate
RMFT. -999.2500:Measured Temp. of Drilling Fluid Filtrate
RMC. -999.2500:Resistivity of Mud Cake
RMCT. -999.2500:Measured Temp. of Mud Cake
PHImax.V/V 0.3900:Maximum allowable Porosity
RwBnd.OHMM 0.1500:Bound Water Resistivity
RhoHy.KG/MT 1000.0000:Hydrocarbon Bulk density
SwCutoff.V/V 0.7000:Water Saturation Cutoff
PHINsh.V/V 0.4800:New Description
Rw.OHMM 1.0000:Formation Water Resistivity
Rshl.OHMM 5.0000:Resistivity shale
Trw.DEGC 25.0000:Rw measured at Lab conditions
ShaleCutoff.V/V 0.4000:New Description
GRcln.API 45.0000:Gamma Ray clean
RhoM.KG/MT 2650.0000:Bulk Density Matrix
GRshl.API 90.0000:Gamma Ray shale
m. 2.0000:Archie "m"
n. 2.0000:Archie "n"
GasTol.V/V 0.0500:Gas Tollerance
BHTemp.DEGC 25.0000:Bottom Hole Temperature
BHTDepth.M 1000.0000:Bottom Hole Depth
PHIDsh.US/MT 0.1800:New Description
a. 1.0000:Archie "a"
Gas Tol.V/V 0.0500:Gas Tollerance
RhoF.KG/MT 1000.0000:Bulk Density Fluid
RhoShl.KG/MT 2300.0000:Bulk Density Shale
TarCutoff.V/V 0.0300:New Description
SurfTemp.DEGC 10.0000:New Description
HIshl.V/V 0.4000:Neutron Hydrogen Index shale
NULL. -999.2500:
~A
# ...
  171.0000     0.2954     0.4230  2162.5483    87.9168     2.5601 
  171.3000     0.2803     0.4376  2187.4368    93.2825     2.6569 
  171.6000     0.2736     0.4532  2198.5586    97.4092     2.8166 
  171.9000     0.2691     0.4665  2205.9365    97.4038     2.9764 
  172.2000     0.2655     0.4592  2211.9434    95.9317     3.1423 
  172.5000     0.2718     0.4563  2201.4792    93.3204     3.3096 
  172.8000     0.2756     0.4616  2195.2974    95.7745     3.4769 
  173.1000     0.2711     0.4290  2202.7195    99.4760     3.4851 
  173.4000     0.2586     0.4145  2223.2935   102.1395     3.4873 
  173.7000     0.2384     0.4072  2256.6299   102.4882     3.4474 
  174.0000     0.2245     0.3992  2279.5330    99.8185     3.3709 
  174.3000     0.2337     0.4045  2264.3984    96.8545     3.2426 
  174.6000     0.2940     0.4174  2164.8582    95.3566     2.8522 
  174.9000     0.3144     0.4305  2131.1809    93.3354     2.4270 
  175.2000     0.3358     0.4837  2095.8530    91.0456     2.1157 
  175.5000     0.3419     0.5309  2085.8350    85.3255     2.0160 
  175.8000     0.3381     0.5073  2092.1934    83.3245     1.9163 
  176.1000     0.3314     0.4863  2103.2017    85.0030     1.9995 
  176.4000     0.3139     0.5019  2132.0508    87.2022     2.2184 
  176.7000     0.2869     0.4924  2176.6575    86.1481     2.4410 
  177.0000     0.2834     0.4325  2182.4153    84.7299     2.6702 
  177.3000     0.2705     0.4245  2203.6936    84.7389     2.8995 
  177.6000     0.2593     0.4320  2222.2051    87.2072     3.0871 
  177.9000     0.2674     0.4370  2208.7917    90.3233     3.1951 
  178.2000     0.2668     0.4330  2209.8203    93.4852     3.3031 
  178.5000     0.2642     0.4326  2214.0227    93.4277     3.4111 
  178.8000     0.2708     0.4233  2203.1006    92.0708     3.3788 
  179.1000     0.2633     0.4223  2215.4915    95.7307     3.2983 
  179.4000     0.2485     0.4351  2239.9504    97.3106     3.1939 
  179.7000     0.2453     0.4588  2245.1799    95.0022     3.0499 
  180.0000     0.2730     0.4578  2199.5559    92.5699     2.9059 
  180.3000     0.2793     0.4507  2189.2297    94.1216     2.7619 
  180.6000     0.2823     0.4506  2184.1931    93.6519     2.6828 
  180.9000     0.2854     0.4672  2179.0620    99.4655     2.6039 
  181.2000     0.2894     0.4745  2172.4993    99.4206     2.5310 
  181.5000     0.2853     0.4662  2179.3215    96.6855     2.5673 
  181.8000     0.2825     0.4513  2183.8318    97.9331     2.6036 
  182.1000     0.2841     0.4531  2181.2859   101.6781     2.6363 
  182.4000     0.2856     0.4579  2178.7402   103.1691     2.6483 
  182.7000     0.2858     0.4752  2178.3625   101.6043     2.6603 
  183.0000     0.2859     0.4925  2178.2041   101.0220     2.6722 
  183.3000     0.2860     0.4899  2178.1399   101.7570     2.6715 
  183.6000     0.2841     0.4755  2181.1533   101.1169     2.6527 
  183.9000     0.2823     0.4758  2184.1667    99.3814     2.6340 
  184.2000     0.2794     0.4660  2188.9673    96.9381     2.6700 
  184.5000     0.2741     0.4499  2197.7969    93.9336     2.8456 
  184.8000     0.2768     0.4276  2193.3220    91.9117     3.0211 
  185.1000     0.2939     0.4189  2165.0173    93.3540     3.1980 
  185.4000     0.2804     0.4262  2187.2742    96.5845     3.3763 
  185.7000     0.2762     0.4460  2194.2458    98.3713     3.3997 
  186.0000     0.2714     0.4597  2202.1907    98.7896     3.4347 
  186.3000     0.2174     0.4374  2291.3115    92.0927     3.7135 
  186.6000     0.1448     0.3803  2411.0942    86.6137     4.0625 
  186.9000     0.1737     0.3792  2363.4150    89.0806     4.4356 
  187.2000     0.2443     0.3590  2246.9280    83.1763     4.7569 
  187.5000     0.2770     0.3304  2192.9658    80.4852     5.0742 
  187.8000     0.3082     0.3303  2141.4097    83.8885     5.2787 
  188.1000     0.3026     0.3553  2150.7048    86.5729     5.4919 
  188.4000     0.3617     0.3582  2053.1125    72.3342     5.7948 
  188.7000     0.3649     0.2339  2047.9534    62.8251     6.3909 
  189.0000     0.3542     0.2278  2065.5796    57.4884     7.5534 
  189.3000     0.3402     0.2337  2088.7490    54.4437     8.8872 
  189.6000     0.3327     0.2356  2101.0840    57.0778    10.1737 
  189.9000     0.3618     0.2321  2053.0730    60.7580    10.8970 
  190.2000     0.3626     0.2569  2051.6675    65.9101    10.1126 
  190.5000     0.2983     0.2849  2157.8687    75.7271     9.2464 
  190.8000     0.2917     0.3177  2168.6792   102.7184     8.2917 
  191.1000     0.3383     0.2838  2091.8142    91.0149     7.6061 
  191.4000     0.3537     0.2663  2066.3987    79.6184     7.8751 
  191.7000     0.3716     0.2471  2036.8605    73.6642     8.5373 
  192.0000     0.3866     0.2401  2012.0905    72.1977     9.3403 
  192.3000     0.3450     0.2615  2080.8171    73.4727    10.0354 
  192.6000     0.3075     0.2984  2142.5618    77.6807     8.9364 
  192.9000     0.2991     0.3220  2156.4851    86.6033     7.8374 
  193.2000     0.3096     0.3190  2139.2344    82.7205     6.8531 
  193.5000     0.3164     0.3057  2127.9871    85.8071     5.9419 
  193.8000     0.2930     0.3366  2166.5110    94.6087     5.4951 
  194.1000     0.2778     0.3597  2191.6223   101.5138     5.1282 
  194.4000     0.2977     0.3109  2158.7888    94.0104     4.9513 
  194.7000     0.3132     0.2660  2133.2981    79.6887     4.9213 
  195.0000     0.3139     0.2369  2132.0959    71.3448     5.5361 
  195.3000     0.3288     0.1927  2107.5493    74.6438     6.2238 
  195.6000     0.3468     0.1307  2077.7505    66.2148     7.1122 
  195.9000     0.3781     0.1230  2026.0956    61.4927     8.4101 
  196.2000     0.3702     0.1661  2039.1649    72.0319    12.1106 
  196.5000     0.2986     0.2523  2157.3323    86.5544    11.1659 
  196.8000     0.2916     0.2106  2168.9392    87.3098     8.5464 
  197.1000     0.3609     0.1612  2054.5396    73.9166     7.4785 
  197.4000     0.3831     0.1700  2017.9233    69.9524     7.0732 
  197.7000     0.3361     0.2207  2095.3870    73.9455     6.8665 
  198.0000     0.3141     0.2336  2131.7644    79.7675     6.7954 
  198.3000     0.3086     0.2327  2140.8567    81.9017     6.9017 
  198.6000     0.3033     0.2343  2149.5671    78.5637     7.0649 
  198.9000     0.2956     0.2404  2162.2136    81.9769     6.8962 
  199.2000     0.3679     0.1949  2042.9227    83.1772     6.4914 
  199.5000     0.3884     0.1469  2009.0665    64.0378     6.1440 
  199.8000     0.3845     0.1431  2015.6104    65.5737     7.0006 
  200.1000     0.3811     0.1596  2021.2236    70.0683     7.8208 
  200.4000     0.3772     0.1693  2027.6125    71.6166     8.5479 
  200.7000     0.3767     0.1758  2028.4176    73.3369     9.0854 
  201.0000     0.3855     0.1100  2013.8678    75.6443     9.0460 
  201.3000     0.4050     0.1046  1981.8308    75.6664     8.1284 
  201.6000     0.4244     0.2033  1949.7938    81.9327     7.1135 
  201.9000     0.3387     0.2553  2091.1462    89.4680     6.1653 
  202.2000     0.2809     0.1859  2186.4575    82.7737     5.8381 
  202.5000     0.3530     0.1262  2067.5176    69.4214     6.1905 
  202.8000     0.3849     0.1664  2014.9581    73.3719     7.0938 
  203.1000     0.2827     0.2560  2183.4814    87.6040     6.8945 
  203.4000     0.2739     0.3104  2198.1367   100.6399     5.4187 
  203.7000     0.2886     0.3331  2173.7788    87.6729     3.4553 
  204.0000     0.3037     0.3390  2148.8706    75.6552     2.2000 
  204.3000     0.3176     0.3342  2125.9131    59.2689     1.7000 
  204.6000     0.3271     0.3300  2110.3633    48.6567     1.4287 
  204.9000     0.3344     0.3365  2098.1987    42.2986     1.2296 
  205.2000     0.3411     0.3434  2087.1338    39.8996     1.1427 
  205.5000     0.3452     0.3364  2080.3809    37.6339     1.0866 
  205.8000     0.3461     0.3582  2078.8535    36.4091     1.0785 
  206.1000     0.3497     0.3842  2073.0576    36.2717     1.0704 
  206.4000     0.3553     0.3870  2063.7832    36.7487     1.0675 
  206.7000     0.3546     0.3885  2064.9812    37.5064     1.0690 
