~VERSION INFORMATION
 VERS.                 2.0:   CWLS LOG ASCII STANDARD -VERSION 2.0
 WRAP.                  NO:   ONE LINE PER DEPTH STEP
~WELL INFORMATION BLOCK
#MNEM.UNIT           DATA                    DESCRIPTION OF MNEMONIC
#---------    -------------------            -------------------------------
# Generated from Intellog Unique Number	CS_73_76/WELL/852
WELL.         WAINCO OIL & GAS LIMITED       : Well_name    - WELL
LOC .         00/11-31-073-12W4/0            : Location     - LOCATION
UWI .         00/11-31-073-12W4/0            : Uwi          - UNIQUE WELL ID
ENTR.         SP                             : Entered      - ENTERED BY
SRVC.         SCHLUMBERGER                   : Scn          - SERVICE COMPANY
STRT.M        295                            : top_depth    - START DEPTH
STOP.M        513                            : bot_depth    - STOP DEPTH
STEP.M        0.25                           : increment    - STEP LENGTH
 NULL. -999.2500:NULL Value
~CURVE INFORMATION BLOCK
#MNEM UNIT       ERCB CURVE CODE    CURVE DESCRIPTION
#-----------   ------------------   ----------------------------------
DEPT.M        00 001 00 00         : DEPTH        - DEPTH
ILD .OHMM     00 120 00 00         : RESD         - DEEP RESISTIVITY (DIL)
DPHI.V/V      00 890 00 00         : PHID         - DENSITY POROSITY (LIMESTONE)
NPHI.V/V      00 330 00 00         : PHIN         - NEUTRON POROSITY (LIMESTONE)
GR  .API      00 310 00 00         : GR           - GAMMA RAY
~PARAMETER INFORMATION
#MNEM.UNIT           DATA             DESCRIPTION OF MNEMONIC
#---------         -----------     ------------------------------
GL  .M        657                  : gl           - GROUND LEVEL ELEVATION
EREF.M        660                  : kb           - ELEVATION OF DEPTH REFERENCE
DATM.M        657                  : datum        - DATUM ELEVATION
TDD .M        524                  : tdd          - TOTAL DEPTH DRILLER
RUN .         ONE                  : Run          - RUN NUMBER
ENG .         BILL                 : Engineer     - RECORDING ENGINEER
WIT .         JIM                  : Witness      - WITNESSED BY
MUD .         GEL                  : Mud_type     - MUD TYPE
MATR.         LIMESTONE            : Logunit      - NEUTRON MATRIX
TMAX.C        13                   : BHT          - MAXIMUM RECORDED TEMPERATURE
BHTD.M        524                  : BHTDEP       - MAXIMUM RECORDED TEMPERATURE
MATR.         1                    : LOGUNIT      - NEUTRON MATRIX
RMT .C        25                   : MDTP         - TEMPERATURE OF MUD
NEUT.         1                    : NEUTRON      - NEUTRON TYPE
RESI.         0                    : RESIST       - RESISTIVITY TYPE
RMC .OHMM     0.25                 : RMC          - RESISTIVITY OF MUD CAKE
RMF .OHMM     0.25                 : RMF          - RESISTIVITY OF MUD FILTRATE
SUFT.C        15                   : SUFT         - SURFACE TEMPERATURE
~A  DEPTH     RESD     PHID     PHIN       GR
# ...
  469.000    8.620    0.235    0.409   69.174
  469.250    8.623    0.245    0.414   72.209
  469.500    8.627    0.240    0.418   76.454
  469.750    8.471    0.228    0.417   79.486
  470.000    8.013    0.224    0.412   81.306
  470.250    7.720    0.234    0.414   83.734
  470.500    7.579    0.235    0.412   85.557
  470.750    7.304    0.230    0.411   86.778
  471.000    7.170    0.228    0.409   87.998
  471.250    7.174    0.222    0.411   89.215
  471.500    7.312    0.208    0.414   91.037
  471.750    7.317    0.205    0.429   91.655
  472.000    7.319    0.211    0.435   92.266
  472.250    7.188    0.213    0.445   92.879
  472.500    7.057    0.222    0.457   94.708
  472.750    7.059    0.214    0.460   94.711
  473.000    6.931    0.199    0.452   96.537
  473.250    6.555    0.183    0.448   98.364
  473.500    6.558    0.169    0.447   99.580
  473.750    6.560    0.161    0.449  102.008
  474.000    6.563    0.171    0.453  102.620
  474.250    6.691    0.179    0.450  103.838
  474.500    6.949    0.195    0.440  103.847
  474.750    7.496    0.216    0.430  100.227
  475.000    8.084    0.244    0.422   91.163
  475.250    8.717    0.259    0.408   80.890
  475.500    9.227    0.269    0.393   76.061
  475.750    9.583    0.267    0.387   73.650
  476.000    9.956    0.241    0.380   76.081
  476.250   10.148    0.225    0.386   76.692
  476.500    9.966    0.207    0.387   76.099
  476.750    9.971    0.190    0.387   74.903
  477.000    9.976    0.206    0.387   74.912
  477.250    9.980    0.221    0.383   74.314
  477.500   10.172    0.234    0.380   73.715
  477.750   10.370    0.234    0.375   73.118
  478.000   10.374    0.228    0.376   72.521
  478.250   10.575    0.223    0.381   72.532
  478.500   10.579    0.219    0.383   73.147
  478.750   10.787    0.217    0.405   74.969
  479.000   10.790    0.213    0.409   74.372
  479.250   10.794    0.219    0.410   71.961
  479.500   10.601    0.226    0.410   71.973
  479.750   10.604    0.242    0.406   73.189
  480.000   10.608    0.244    0.394   75.016
  480.250   10.614    0.237    0.379   76.233
  480.500   10.818    0.231    0.369   72.009
  480.750   11.030    0.233    0.362   66.573
  481.000   11.242    0.237    0.358   60.534
  481.250   11.677    0.243    0.361   54.495
  481.500   12.595    0.266    0.377   50.270
  481.750   13.081    0.283    0.382   54.512
  482.000   13.590    0.276    0.385   58.151
  482.250   13.853    0.270    0.384   59.974
  482.500   13.348    0.264    0.384   63.613
  482.750   11.492    0.254    0.394   69.673
  483.000    9.710    0.252    0.419   72.701
  483.250    8.360    0.242    0.452   83.599
  483.500    6.677    0.160    0.512   92.679
  483.750    5.537    0.133    0.536  100.553
  484.000    4.857    0.113    0.556  103.585
  484.250    4.593    0.101    0.552  101.175
  484.500    5.048    0.113    0.501   89.693
  484.750    5.547    0.238    0.439   78.210
  485.000    6.570    0.259    0.400   68.541
  485.250    8.081    0.274    0.357   61.896
  485.500   10.127    0.288    0.333   47.994
  485.750   11.996    0.295    0.334   38.326
  486.000   14.480    0.291    0.351   43.777
  486.250   16.520    0.299    0.361   51.047
  486.500   17.816    0.296    0.372   57.106
  486.750   18.506    0.293    0.385   58.322
  487.000   18.517    0.294    0.394   59.540
  487.250   18.522    0.294    0.400   57.734
  487.500   17.848    0.287    0.403   58.350
  487.750   16.880    0.286    0.405   60.175
  488.000   15.964    0.294    0.411   65.024
  488.250   15.381    0.301    0.414   67.449
  488.500   14.013    0.295    0.415   70.482
  488.750   13.499    0.286    0.415   71.700
  489.000   12.528    0.273    0.413   73.526
  489.250   11.411    0.266    0.409   74.741
  489.500   10.201    0.255    0.404   77.774
  489.750    9.292    0.241    0.402   83.228
  490.000    8.623    0.229    0.400   89.891
  490.250    7.855    0.210    0.403   96.554
  490.500    7.568    0.185    0.413  100.795
  490.750    6.894    0.174    0.413  105.643
  491.000    6.642    0.171    0.418  105.651
  491.250    6.283    0.163    0.423   99.009
  491.500    6.168    0.163    0.427   96.598
  491.750    5.943    0.163    0.431   97.817
  492.000    5.945    0.166    0.430  100.246
  492.250    5.839    0.175    0.426  102.672
  492.500    5.840    0.197    0.412  102.077
  492.750    5.953    0.209    0.394   93.017
  493.000    6.184    0.214    0.386   84.556
  493.250    6.795    0.220    0.373   73.073
  493.500    7.192    0.240    0.366   75.499
  493.750    7.612    0.231    0.359   82.162
  494.000    7.617    0.220    0.357   87.616
  494.250    7.477    0.214    0.357   88.228
  494.500    7.342    0.200    0.357   83.398
  494.750    7.209    0.191    0.353   75.545
  495.000    7.214    0.190    0.344   68.299
  495.250    7.353    0.178    0.338   65.885
  495.500    7.356    0.162    0.335   63.477
  495.750    7.640    0.173    0.321   60.460
  496.000    7.936    0.192    0.318   56.840
  496.250    8.399    0.224    0.325   56.244
  496.500    9.059    0.258    0.364   58.674
  496.750    9.234    0.288    0.383   62.310
  497.000    8.571    0.282    0.397   73.207
  497.250    7.955    0.275    0.406   87.128
  497.500    7.664    0.264    0.428   96.814
  497.750    7.248    0.243    0.437  100.450
  498.000    6.855    0.221    0.436  105.299
  498.250    6.729    0.197    0.420  105.308
  498.500    6.608    0.184    0.411   99.269
  498.750    6.737    0.176    0.403   90.815
  499.000    6.997    0.170    0.394   88.403
  499.250    7.133    0.165    0.388   85.991
  499.500    7.272    0.188    0.386   83.580
  499.750    7.412    0.202    0.385   81.772
  500.000    7.556    0.209    0.382   83.601
  500.250    7.704    0.207    0.377   84.212
  500.500    7.706    0.192    0.374   84.219
  500.750    7.711    0.170    0.384   82.416
  501.000    7.569    0.172    0.385   78.193
  501.250    7.432    0.186    0.379   76.383
  501.500    7.161    0.194    0.374   71.554
  501.750    6.647    0.208    0.376   66.725
  502.000    6.405    0.227    0.387   64.919
  502.250    6.171    0.230    0.393   67.348
  502.500    5.947    0.225    0.393   72.196
  502.750    5.839    0.221    0.387   74.625
  503.000    5.842    0.206    0.383   75.237
  503.250    5.844    0.203    0.379   75.251
  503.500    5.848    0.212    0.375   74.655
  503.750    5.849    0.215    0.383   74.662
  504.000    5.853    0.217    0.390   74.069
  504.250    5.856    0.211    0.395   74.680
  504.500    5.859    0.209    0.396   74.686
  504.750    5.860    0.203    0.400   75.909
  505.000    5.974    0.198    0.401   76.519
  505.250    5.977    0.192    0.397   77.133
  505.500    6.094    0.185    0.381   74.722
  505.750    6.096    0.184    0.368   71.102
  506.000    6.098    0.177    0.346   68.692
  506.250    6.101    0.173    0.334   69.912
  506.500    6.103    0.166    0.333   70.526
  506.750    6.107    0.160    0.335   69.930
  507.000    6.109    0.159    0.336   71.756
  507.250    6.227    0.160    0.335   72.971
  507.500    6.348    0.159    0.324   74.795
  507.750    6.720    0.159    0.294   72.385
  508.000    7.384    0.140    0.251   66.953
  508.250    8.114    0.116    0.229   61.517
  508.500    8.750    0.048    0.212   53.057
  508.750   10.173    0.000    0.180   43.993
  509.000   11.607    0.000    0.160   42.793
  509.250   12.283    0.000    0.154   46.430
  509.500   13.001    0.005    0.155   48.860
  509.750   13.506    0.011    0.157   49.472
  510.000   13.512    0.000    0.158   46.457
  510.250   13.773    0.000    0.145   42.837
  510.500   13.779    0.000    0.128   38.613
  510.750   13.788    0.000    0.116   34.388
  511.000   14.053    0.000    0.107   32.582
  511.250   14.062    0.000    0.099   31.384
  511.500   14.066    0.000    0.101   34.419
  511.750   14.075    0.016    0.111   35.636
  512.000   14.078    0.023    0.119   36.247
  512.250   13.823    0.022    0.132   36.259
