~VERSION INFORMATION
 VERS.                 2.0:   CWLS LOG ASCII STANDARD -VERSION 2.0
 WRAP.                  NO:   ONE LINE PER DEPTH STEP
~WELL INFORMATION BLOCK
#MNEM.UNIT           DATA                    DESCRIPTION OF MNEMONIC
#---------    -------------------            -------------------------------
# Generated from Intellog Unique Number	CW_73_75/WELL/2742
WELL.         SUNCOR MITSUE 10-20            : Well_name    - WELL
LOC .         00/10-20-073-04W5/0            : Location     - LOCATION
UWI .         00/10-20-073-04W5/0            : Uwi          - UNIQUE WELL ID
ENTR.         JAYE                           : Entered      - ENTERED BY
SRVC.         SCHLUMBERGER                   : Scn          - SERVICE COMPANY
DATE.         28 JAN 81                      : Date         - LOG DATE
STRT.M        350                            : top_depth    - START DEPTH
STOP.M        565                            : bot_depth    - STOP DEPTH
STEP.M        0.25                           : increment    - STEP LENGTH
 NULL. -999.2500:NULL Value
~CURVE INFORMATION BLOCK
#MNEM UNIT       ERCB CURVE CODE    CURVE DESCRIPTION
#-----------   ------------------   ----------------------------------
DEPT.M        00 001 00 00         : DEPTH        - DEPTH
DPHI.V/V      00 890 00 00         : PHID         - DENSITY POROSITY (SANDSTONE)
NPHI.V/V      00 330 00 00         : PHIN         - NEUTRON POROSITY (SANDSTONE)
GR  .API      00 310 00 00         : GR           - GAMMA RAY
CALI.MM       00 280 01 00         : CAL          - CALIPER
ILD .OHMM     00 120 00 00         : RESD         - DEEP RESISTIVITY (DIL)
~PARAMETER INFORMATION
#MNEM.UNIT           DATA             DESCRIPTION OF MNEMONIC
#---------         -----------     ------------------------------
GL  .M        582.23               : gl           - GROUND LEVEL ELEVATION
EREF.M        586.56               : kb           - ELEVATION OF DEPTH REFERENCE
DATM.M        582.23               : datum        - DATUM ELEVATION
TDD .M        1628                 : tdd          - TOTAL DEPTH DRILLER
RUN .         ONE                  : Run          - RUN NUMBER
MUD .         GEL CHEM             : Mud_type     - MUD TYPE
MATR.         SANDSTONE            : Logunit      - NEUTRON MATRIX
TMAX.C        46.4                 : BHT          - MAXIMUM RECORDED TEMPERATURE
BHTD.M        1626.5               : BHTDEP       - MAXIMUM RECORDED TEMPERATURE
RMT .C        15                   : MDTP         - TEMPERATURE OF MUD
MUDD.KG/M     0                    : MWT          - MUD DENSITY
NEUT.         1                    : NEUTRON      - NEUTRON TYPE
RESI.         0                    : RESIST       - RESISTIVITY TYPE
RM  .OHMM     1.7                  : RM           - RESISTIVITY OF MUD
RMC .OHMM     0                    : RMC          - RESISTIVITY OF MUD CAKE
RMF .OHMM     1.28                 : RMF          - RESISTIVITY OF MUD FILTRATE
SUFT.C        0                    : SUFT         - SURFACE TEMPERATURE
~A  DEPTH     PHID     PHIN       GR      CAL     RESD
# ...
  423.000    0.298    0.460   66.046  214.720    5.937
  423.250    0.298    0.462   73.794  215.794    5.843
  423.500    0.309    0.457   71.634  216.659    5.706
  423.750    0.317    0.452   66.669  217.524    5.799
  424.000    0.321    0.460   63.201  218.496    5.894
  424.250    0.322    0.468   62.912  219.259    5.967
  424.500    0.325    0.476   61.934  220.021    5.996
  424.750    0.327    0.476   61.832  220.579    5.991
  425.000    0.325    0.471   62.038  220.814    5.984
  425.250    0.319    0.479   61.747  220.743    5.980
  425.500    0.314    0.437   62.827  220.372    5.997
  425.750    0.319    0.431   63.719  220.086    6.026
  426.000    0.326    0.426   62.681  219.704    6.042
  426.250    0.324    0.419   60.956  219.116    6.071
  426.500    0.318    0.413   61.666  218.736    6.089
  426.750    0.307    0.427   62.744  218.151    6.071
  427.000    0.303    0.433   64.451  218.079    6.043
  427.250    0.282    0.447   65.778  218.008    6.096
  427.500    0.191    0.425   66.920  217.630    6.241
  427.750    0.089    0.208   61.144  217.354    6.651
  428.000    0.051    0.169   53.064  217.286    7.305
  428.250    0.041    0.164   56.512  217.941    7.917
  428.500    0.030    0.161   54.538  214.652    8.930
  428.750    0.030    0.156   49.137  207.104   10.601
  429.000    0.029    0.150   47.852  207.972   12.681
  429.250    0.023    0.144   50.550  209.977   15.023
  429.500    0.016    0.135   48.764  207.727   18.452
  429.750    0.046    0.161   49.845  210.985   17.784
  430.000    0.164    0.231   54.102  213.821   15.183
  430.250    0.273    0.395   59.920  218.530   13.110
  430.500    0.304    0.448   62.062  223.137   11.024
  430.750    0.295    0.456   62.829  227.947    9.375
  431.000    0.292    0.437   64.469  232.033    7.869
  431.250    0.299    0.413   66.362  235.288    6.730
  431.500    0.300    0.420   65.322  237.298    5.768
  431.750    0.289    0.441   64.656  238.891    5.192
  432.000    0.283    0.451   66.610  240.483    5.014
  432.250    0.294    0.437   68.625  241.140    4.990
  432.500    0.304    0.419   65.094  241.070    5.072
  432.750    0.304    0.395   66.611  241.213    5.213
  433.000    0.296    0.388   71.554  241.876    5.318
  433.250    0.288    0.419   75.501  242.842    5.354
  433.500    0.277    0.444   72.406  244.954    5.288
  433.750    0.259    0.442   73.737  247.172    5.165
  434.000    0.227    0.433   76.318  248.965    5.015
  434.250    0.208    0.425   78.202  252.327    4.871
  434.500    0.209    0.427   75.856  254.648    4.776
  434.750    0.232    0.419   72.510  256.033    4.744
  435.000    0.242    0.414   73.281  257.105    4.694
  435.250    0.237    0.410   75.917  258.593    4.681
  435.500    0.255    0.403   75.690  261.020    4.676
  435.750    0.248    0.419   76.084  262.609    4.629
  436.000    0.233    0.439   79.781  264.306    4.590
  436.250    0.212    0.440   80.986  266.417    4.586
  436.500    0.197    0.436   81.132  268.840    4.582
  436.750    0.191    0.414   80.967  270.746    4.569
  437.000    0.190    0.397   80.304  272.243    4.521
  437.250    0.198    0.423   81.448  273.003    4.474
  437.500    0.211    0.422   82.587  273.663    4.454
  437.750    0.226    0.413   80.678  273.797    4.586
  438.000    0.236    0.411   77.706  273.935    4.723
  438.250    0.232    0.407   74.422  274.803    4.800
  438.500    0.233    0.409   73.699  275.356    4.777
  438.750    0.229    0.414   76.710  275.595    4.684
  439.000    0.223    0.407   80.157  275.633    4.583
  439.250    0.224    0.426   80.739  275.873    4.544
  439.500    0.228    0.426   80.385  276.328    4.489
  439.750    0.234    0.412   80.531  276.567    4.468
  440.000    0.235    0.393   81.923  276.599    4.464
  440.250    0.224    0.415   82.504  277.051    4.493
  440.500    0.202    0.441   82.837  277.293    4.567
  440.750    0.184    0.410   79.741  277.119    4.721
  441.000    0.201    0.389   75.402  268.948    5.156
  441.250    0.226    0.406   71.932  259.322    5.620
  441.500    0.248    0.406   69.334  250.943    6.255
  441.750    0.263    0.393   66.367  250.258    6.793
  442.000    0.282    0.405   65.701  250.288    6.982
  442.250    0.286    0.425   65.845  249.597    6.990
  442.500    0.273    0.428   65.866  248.700    6.878
  442.750    0.260    0.421   65.702  247.795    6.730
  443.000    0.243    0.398   65.097  246.381    6.648
  443.250    0.254    0.401   63.499  245.585    6.833
  443.500    0.286    0.398   60.091  244.578    7.199
  443.750    0.306    0.390   55.251  243.675    7.585
  444.000    0.315    0.392   56.954  242.776    7.737
  444.250    0.316    0.406   57.847  242.192    7.686
  444.500    0.298    0.410   58.804  242.120    7.535
  444.750    0.277    0.397   60.945  242.155    7.318
  445.000    0.301    0.395   62.523  241.770    7.188
  445.250    0.301    0.407   64.599  241.809    7.020
  445.500    0.292    0.408   66.489  241.740    6.894
  445.750    0.287    0.407   60.901  241.774    6.823
  446.000    0.281    0.404   61.234  241.813    6.766
  446.250    0.274    0.394   67.799  241.950    6.721
  446.500    0.275    0.422   72.493  241.979    6.728
  446.750    0.269    0.451   78.933  241.811    6.773
  447.000    0.262    0.476   80.139  241.638    6.817
  447.250    0.265    0.469   69.567  241.567    6.799
  447.500    0.283    0.414   64.163  241.915    6.716
  447.750    0.301    0.401   67.799  242.464    6.510
  448.000    0.310    0.424   67.197  243.434    6.333
  448.250    0.298    0.416   67.218  246.068    6.035
  448.500    0.284    0.404   72.724  250.567    5.729
  448.750    0.274    0.427   78.603  256.419    5.438
  449.000    0.268    0.465   81.551  260.194    5.142
  449.250    0.264    0.458   77.086  261.792    4.938
  449.500    0.268    0.444   72.497  262.653    4.841
  449.750    0.267    0.429   72.080  263.728    4.799
  450.000    0.253    0.418   75.280  264.597    4.759
  450.250    0.242    0.463   73.429  265.560    4.746
  450.500    0.245    0.454   73.016  266.944    4.879
  450.750    0.263    0.426   74.784  268.434    4.977
  451.000    0.267    0.417   76.671  270.131    5.010
  451.250    0.256    0.433   77.565  271.935    4.997
  451.500    0.249    0.422   78.397  273.735    4.992
  451.750    0.262    0.409   79.475  275.747    5.006
  452.000    0.278    0.410   79.310  277.230    5.020
  452.250    0.272    0.411   78.273  279.342    5.035
  452.500    0.251    0.396   77.295  282.391    5.059
  452.750    0.256    0.394   75.258  283.672    5.122
  453.000    0.246    0.410   73.223  285.163    5.136
  453.250    0.236    0.421   75.175  285.822    5.200
  453.500    0.233    0.417   78.376  286.476    5.305
  453.750    0.239    0.413   77.711  286.925    5.340
  454.000    0.235    0.414   73.307  286.860    5.366
  454.250    0.230    0.409   73.078  286.476    5.321
  454.500    0.216    0.425   74.409  286.303    5.295
  454.750    0.207    0.407   75.053  286.548    5.271
  455.000    0.210    0.391   73.141  286.580    5.247
  455.250    0.221    0.420   70.669  286.928    5.222
  455.500    0.235    0.444   71.876  280.729    5.148
  455.750    0.239    0.455   77.255  277.128    5.095
  456.000    0.245    0.445   82.136  277.268    5.052
  456.250    0.244    0.440   78.542  279.379    5.086
  456.500    0.232    0.453   74.824  282.740    5.139
  456.750    0.219    0.439   77.463  284.537    5.303
  457.000    0.219    0.421   76.610  282.909    5.450
  457.250    0.228    0.404   70.586  278.169    5.624
  457.500    0.247    0.404   72.540  272.491    5.716
  457.750    0.267    0.417   72.435  266.606    5.743
  458.000    0.263    0.424   69.153  262.171    5.717
  458.250    0.253    0.435   70.981  258.883    5.657
  458.500    0.257    0.451   75.429  258.917    5.535
  458.750    0.243    0.466   79.126  261.964    5.315
  459.000    0.210    0.451   83.323  265.428    5.131
  459.250    0.201    0.413   84.900  268.995    4.955
