~VERSION INFORMATION
 VERS.                 2.0:   CWLS LOG ASCII STANDARD -VERSION 2.0
 WRAP.                  NO:   ONE LINE PER DEPTH STEP
~WELL INFORMATION BLOCK
#MNEM.UNIT           DATA                    DESCRIPTION OF MNEMONIC
#---------    -------------------            -------------------------------
# Generated from Intellog Unique Number	CX_WELLS/WELL/3301
WELL.         ANDERSON ET AL NEWBY           : Well_name    - WELL
LOC .         00/10-35-084-05W4/0            : Location     - LOCATION
UWI .         00/10-35-084-05W400            : Uwi          - UNIQUE WELL ID
ENTR.         T                              : Entered      - ENTERED BY
SRVC.         SCHLUMBERGER                   : Scn          - SERVICE COMPANY
STRT.M        80                             : top_depth    - START DEPTH
STOP.M        330                            : bot_depth    - STOP DEPTH
STEP.M        0.25                           : increment    - STEP LENGTH
 NULL. -999.2500:NULL Value
~CURVE INFORMATION BLOCK
#MNEM UNIT       ERCB CURVE CODE    CURVE DESCRIPTION
#-----------   ------------------   ----------------------------------
DEPT.M        00 001 00 00         : DEPTH        - DEPTH
GR  .API      00 310 00 00         : GR           - GAMMA RAY
NPHI.V/V      00 330 00 00         : PHIN         - NEUTRON POROSITY (SANDSTONE)
DPHI.V/V      00 890 00 00         : PHID         - DENSITY POROSITY (SANDSTONE)
ILD .OHMM     00 120 00 00         : RESD         - DEEP RESISTIVITY (DIL)
~PARAMETER INFORMATION
#MNEM.UNIT           DATA             DESCRIPTION OF MNEMONIC
#---------         -----------     ------------------------------
GL  .M        470                  : gl           - GROUND LEVEL ELEVATION
EREF.M        474                  : kb           - ELEVATION OF DEPTH REFERENCE
DATM.M        474                  : datum        - DATUM ELEVATION
TDD .M        345                  : tdd          - TOTAL DEPTH DRILLER
RUN .         ONE                  : Run          - RUN NUMBER
ENG .         BILL                 : Engineer     - RECORDING ENGINEER
WIT .         JIM                  : Witness      - WITNESSED BY
MUD .         GEL                  : Mud_type     - MUD TYPE
MATR.         SANDSTONE            : Logunit      - NEUTRON MATRIX
TMAX.C        21                   : BHT          - MAXIMUM RECORDED TEMPERATURE
BHTD.M        345                  : BHTDEP       - MAXIMUM RECORDED TEMPERATURE
MATR.         1                    : LOGUNIT      - NEUTRON MATRIX
RMT .C        20                   : MDTP         - TEMPERATURE OF MUD
NEUT.         1                    : NEUTRON      - NEUTRON TYPE
RESI.         4                    : RESIST       - RESISTIVITY TYPE
RMC .OHMM     3.3                  : RMC          - RESISTIVITY OF MUD CAKE
RMF .OHMM     3.3                  : RMF          - RESISTIVITY OF MUD FILTRATE
SUFT.C        4                    : SUFT         - SURFACE TEMPERATURE
~A  DEPTH       GR     PHIN     PHID     RESD
   80.000   67.031    0.422    0.342   29.374
   80.250   65.234    0.414    0.347   28.344
   80.500   63.437    0.412    0.345   27.842
   80.750   64.713    0.411    0.344   27.366
   81.000   67.833    0.412    0.344   26.882
   81.250   69.121    0.417    0.341   26.422
   81.500   67.950    0.421    0.341   26.446
   81.750   66.755    0.429    0.341   26.010
   82.000   66.176    0.441    0.341   26.018
   82.250   65.608    0.446    0.342   26.050
   82.500   65.666    0.441    0.347   26.098
   82.750   65.098    0.437    0.353   26.114
   83.000   65.145    0.432    0.358   26.154
   83.250   64.577    0.432    0.348   25.699
   83.500   64.009    0.432    0.342   25.738
   83.750   63.441    0.436    0.342   25.283
   84.000   61.029    0.445    0.350   23.942
   84.250   58.003    0.449    0.360   23.526
   84.500   54.373    0.442    0.356   22.271
   84.750   50.732    0.435    0.350   21.877
   85.000   50.153    0.420    0.353   21.084
   85.250   50.199    0.421    0.361   20.332
   85.500   51.487    0.422    0.370   20.357
   85.750   52.148    0.422    0.385   21.174
   86.000   51.580    0.428    0.395   21.194
   86.250   52.242    0.429    0.390   20.831
   86.500   57.206    0.412    0.382   20.469
   86.750   60.940    0.394    0.370   20.107
   87.000   61.602    0.408    0.354   19.769
   87.250   59.804    0.414    0.350   20.162
   87.500   58.622    0.408    0.350   20.563
   87.750   57.439    0.401    0.356   20.979
   88.000   55.039    0.401    0.359   21.814
   88.250   52.024    0.405    0.356   22.255
   88.500   52.685    0.409    0.349   22.712
   88.750   56.432    0.415    0.343   22.732
   89.000   57.070    0.419    0.343   23.192
   89.250   59.575    0.422    0.347   23.220
   89.500   61.477    0.423    0.348   22.823
   89.750   63.368    0.423    0.346   22.426
   90.000   63.426    0.420    0.343   22.029
   90.250   62.858    0.415    0.343   20.861
   90.500   62.893    0.418    0.344   20.492
   90.750   62.940    0.426    0.345   19.767
   91.000   63.613    0.430    0.345   19.791
   91.250   62.431    0.428    0.345   20.185
   91.500   60.019    0.423    0.344   20.983
   91.750   58.221    0.410    0.348   21.406
   92.000   57.665    0.382    0.347   21.433
   92.250   58.303    0.376    0.347   21.459
   92.500   60.229    0.385    0.345   21.092
   92.750   61.481    0.399    0.346   20.346
   93.000   62.758    0.413    0.352   19.980
   93.250   62.804    0.423    0.349   18.914
   93.500   61.622    0.414    0.349   18.938
   93.750   60.451    0.414    0.346   18.961
   94.000   59.883    0.415    0.345   18.984
   94.250   58.074    0.416    0.344   19.007
   94.500   55.047    0.417    0.344   18.682
   94.750   55.094    0.421    0.344   18.369
   95.000   58.237    0.427    0.344   18.038
   95.250   59.513    0.432    0.343   17.730
   95.500   60.778    0.435    0.342   17.740
   95.750   60.221    0.430    0.343   17.432
   96.000   58.424    0.428    0.352   17.464
   96.250   57.856    0.431    0.357   17.491
   96.500   57.903    0.434    0.366   17.506
   96.750   59.179    0.440    0.362   17.523
   97.000   59.214    0.435    0.353   17.544
   97.250   61.128    0.420    0.349   17.239
   97.500   63.019    0.412    0.349   16.629
   97.750   64.295    0.418    0.358   16.041
   98.000   63.112    0.422    0.365   16.051
   98.250   60.700    0.423    0.355   16.070
   98.500   61.350    0.423    0.345   16.410
   98.750   62.023    0.422    0.348   16.420
   99.000   59.611    0.426    0.357   16.752
   99.250   55.958    0.429    0.373   16.777
   99.500   52.317    0.430    0.389   16.485
   99.750   48.061    0.426    0.429   15.307
  100.000   46.879    0.421    0.448   12.470
  100.250   52.457    0.425    0.411   10.541
  100.500   65.423    0.428    0.331    8.916
  100.750   75.304    0.434    0.301    8.435
  101.000   85.197    0.442    0.305    8.289
  101.250   88.317    0.454    0.316    8.299
  101.500   84.073    0.466    0.311    8.309
  101.750   85.349    0.475    0.297    9.138
  102.000   87.842    0.436    0.283   10.836
  102.250   88.504    0.408    0.250   13.090
  102.500   86.718    0.341    0.079   16.118
  102.750   79.992    0.320    0.052   17.390
  103.000   71.434    0.173    0.013   18.426
  103.250   64.719    0.171    0.031   18.111
  103.500   59.246    0.196    0.054   17.465
  103.750   59.281    0.223    0.148   16.529
  104.000   63.027    0.270    0.334   16.236
  104.250   68.617    0.335    0.333   15.954
  104.500   70.508    0.451    0.330   15.973
  104.750   71.784    0.456    0.329   15.696
  105.000   73.072    0.461    0.323   15.427
  105.250   73.710    0.471    0.321   14.877
  105.500   75.600    0.468    0.321   14.351
  105.750   78.744    0.461    0.324   14.360
  106.000   79.405    0.458    0.328   14.114
  106.250   79.452    0.456    0.330   13.611
  106.500   79.498    0.454    0.323   13.129
  106.750   80.171    0.453    0.311   12.665
  107.000   80.809    0.451    0.302   12.437
  107.250   84.544    0.451    0.296   11.125
  107.500   90.749    0.453    0.285    8.565
  107.750   95.724    0.456    0.282    6.975
  108.000   99.471    0.463    0.282    5.682
  108.250  101.338    0.472    0.282    5.178
  108.500  102.637    0.485    0.283    4.378
  108.750  102.684    0.506    0.287    3.703
  109.000  103.345    0.516    0.287    3.440
  109.250  103.392    0.495    0.283    3.317
  109.500  100.980    0.479    0.283    3.258
  109.750   97.954    0.470    0.285    3.263
  110.000   96.771    0.481    0.289    3.393
  110.250   98.650    0.506    0.284    3.525
  110.500  102.385    0.524    0.281    3.806
  110.750  101.214    0.551    0.281    4.186
  111.000  101.260    0.523    0.285    4.603
  111.250  101.933    0.497    0.292    5.063
  111.500  100.136    0.489    0.297    5.675
  111.750   96.483    0.473    0.298    6.359
  112.000   90.998    0.454    0.301    6.991
  112.250   86.742    0.442    0.315    7.691
  112.500   81.872    0.432    0.328    7.849
  112.750   76.990    0.439    0.329    8.005
  113.000   71.505    0.444    0.332    8.321
  113.250   66.634    0.433    0.334    8.817
  113.500   61.764    0.422    0.336    9.339
  113.750   58.737    0.418    0.340    9.525
  114.000   57.566    0.415    0.335    9.717
  114.250   56.372    0.408    0.320   10.105
  114.500   55.816    0.399    0.160   10.507
  114.750   54.645    0.373    0.208   10.523
  115.000   54.077    0.352    0.295   10.142
  115.250   54.112    0.327    0.329    9.423
  115.500   54.170    0.360    0.337    8.752
  115.750   54.217    0.391    0.337    8.931
  116.000   55.493    0.403    0.336    8.937
  116.250   59.216    0.422    0.336    9.117
  116.500   70.953    0.427    0.334    9.304
  116.750   70.999    0.431    0.331    9.142
  117.000   69.817    0.434    0.329    8.983
  117.250   66.187    0.426    0.325    8.827
  117.500   65.005    0.415    0.321    8.838
  117.750   66.895    0.414    0.317    8.851
  118.000   68.171    0.420    0.318    8.859
  118.250   67.603    0.426    0.324    8.873
  118.500   66.421    0.434    0.331    8.884
  118.750   65.238    0.438    0.335    8.569
  119.000   62.826    0.434    0.334    8.420
  119.250   61.656    0.433    0.331    8.271
  119.500   62.317    0.428    0.330    8.127
  119.750   62.364    0.423    0.331    8.137
  120.000   62.399    0.424    0.332    8.147
  120.250   62.445    0.429    0.335    8.157
  120.500   63.118    0.432    0.336    8.322
  120.750   63.165    0.433    0.341    8.337
  121.000   63.826    0.442    0.339    8.187
  121.250   65.102    0.449    0.335    8.050
  121.500   65.161    0.449    0.334    7.905
  121.750   65.207    0.438    0.338    7.770
  122.000   64.628    0.425    0.334    7.927
  122.250   63.457    0.412    0.329    8.396
  122.500   62.263    0.394    0.285    9.409
  122.750   61.080    0.324    0.228   11.154
  123.000   56.824    0.256    0.072   15.960
  123.250   52.580    0.190   -0.034   21.176
