~VERSION INFORMATION
 VERS.                 2.0:   CWLS LOG ASCII STANDARD -VERSION 2.0
 WRAP.                  NO:   ONE LINE PER DEPTH STEP
~WELL INFORMATION BLOCK
#MNEM.UNIT           DATA                    DESCRIPTION OF MNEMONIC
#---------    -------------------            -------------------------------
# Generated from Intellog Unique Number	CW_73_75/WELL/1045
WELL.         L56 ET AL MARTIN 11-28         : Well_name    - WELL
LOC .         00/11-28-074-23W4/0            : Location     - LOCATION
UWI .         00/11-28-074-23W4/0            : Uwi          - UNIQUE WELL ID
ENTR.         JAYE                           : Entered      - ENTERED BY
SRVC.         SCHLUMBERGER                   : Scn          - SERVICE COMPANY
DATE.         1 JAN 76                       : Date         - LOG DATE
STRT.M        396.24                         : top_depth    - START DEPTH
STOP.M        624.74                         : bot_depth    - STOP DEPTH
STEP.M        0.25                           : increment    - STEP LENGTH
 NULL. -999.2500:NULL Value
~CURVE INFORMATION BLOCK
#MNEM UNIT       ERCB CURVE CODE    CURVE DESCRIPTION
#-----------   ------------------   ----------------------------------
DEPT.M        00 001 00 00         : DEPTH        - DEPTH
ILD .OHMM     00 120 00 00         : RESD         - DEEP RESISTIVITY (DIL)
DPHI.V/V      00 890 00 00         : PHID         - DENSITY POROSITY (SANDSTONE)
NPHI.V/V      00 330 00 00         : PHIN         - NEUTRON POROSITY (SANDSTONE)
GR  .API      00 310 00 00         : GR           - GAMMA RAY
CALI.MM       00 280 01 00         : CAL          - CALIPER
~PARAMETER INFORMATION
#MNEM.UNIT           DATA             DESCRIPTION OF MNEMONIC
#---------         -----------     ------------------------------
GL  .M        691.896              : gl           - GROUND LEVEL ELEVATION
EREF.M        695.249              : kb           - ELEVATION OF DEPTH REFERENCE
DATM.M        691.896              : datum        - DATUM ELEVATION
TDD .M        636.422              : tdd          - TOTAL DEPTH DRILLER
RUN .         ONE                  : Run          - RUN NUMBER
MATR.         SANDSTONE            : Logunit      - NEUTRON MATRIX
TMAX.C        22.2222              : BHT          - MAXIMUM RECORDED TEMPERATURE
BHTD.M        637.032              : BHTDEP       - MAXIMUM RECORDED TEMPERATURE
RMT .C        26.6667              : MDTP         - TEMPERATURE OF MUD
MUDD.KG/M     0                    : MWT          - MUD DENSITY
NEUT.         1                    : NEUTRON      - NEUTRON TYPE
RESI.         0                    : RESIST       - RESISTIVITY TYPE
RM  .OHMM     1.11                 : RM           - RESISTIVITY OF MUD
RMC .OHMM     0                    : RMC          - RESISTIVITY OF MUD CAKE
RMF .OHMM     1.02                 : RMF          - RESISTIVITY OF MUD FILTRATE
SUFT.C        -17.7778             : SUFT         - SURFACE TEMPERATURE
~A  DEPTH     RESD     PHID     PHIN       GR      CAL
# ...
  469.240    3.973    0.218    0.455   89.199  158.322
  469.490    3.982    0.213    0.461   88.566  156.429
  469.740    3.983    0.205    0.477   86.962  158.977
  469.990    4.006    0.218    0.476   85.233  160.075
  470.240    4.036    0.221    0.466   85.456  159.731
  470.490    4.060    0.213    0.457   83.543  159.800
  470.740    4.076    0.216    0.449   81.998  159.973
  470.990    4.099    0.212    0.456   87.589  160.351
  471.240    4.123    0.197    0.465   87.996  160.623
  471.490    4.155    0.194    0.440   84.437  160.585
  471.740    4.156    0.208    0.449   80.451  160.139
  471.990    4.172    0.199    0.473   79.453  159.380
  472.240    4.212    0.266    0.500   81.873  158.724
  472.490    4.275    0.293    0.466   75.447  158.072
  472.740    4.354    0.278    0.458   75.975  157.415
  472.990    4.501    0.249    0.458   78.942  156.449
  473.240    4.619    0.216    0.446   78.312  155.591
  473.490    4.783    0.214    0.433   77.011  155.347
  473.740    4.934    0.184    0.395   76.441  156.239
  473.990    5.138    0.129    0.334   67.574  157.448
  474.240    5.330    0.096    0.300   60.111  159.891
  474.490    5.713    0.128    0.317   62.348  160.267
  474.740    6.421    0.156    0.390   67.574  158.787
  474.990    7.720    0.191    0.420   74.628  156.789
  475.240    7.994    0.204    0.434   75.950  155.206
  475.490    7.710    0.186    0.393   70.499  154.236
  475.740    6.802    0.143    0.342   65.050  154.308
  475.990    6.212    0.100    0.314   58.502  158.405
  476.240    5.981    0.049    0.268   53.905  158.164
  476.490    6.435    0.002    0.247   50.348  155.235
  476.740    7.624    0.040    0.249   49.716  154.166
  476.990    9.166    0.062    0.278   54.027  153.717
  477.240    9.988    0.079    0.305   66.267  153.162
  477.490   10.083    0.139    0.395   78.385  153.439
  477.740    9.242    0.175    0.435   83.915  154.128
  477.990    7.720    0.215    0.448   87.555  153.061
  478.240    6.749    0.225    0.437   88.388  151.887
  478.490    5.607    0.201    0.428   83.120  151.439
  478.740    4.574    0.205    0.426   81.514  151.817
  478.990    4.388    0.191    0.445   82.836  152.714
  479.240    4.381    0.198    0.445   83.486  153.812
  479.490    4.398    0.207    0.447   81.024  155.223
  479.740    4.424    0.199    0.443   82.834  156.529
  479.990    4.449    0.216    0.437   86.716  157.013
  480.240    4.483    0.224    0.463   87.609  157.186
  480.490    4.501    0.220    0.458   86.736  157.457
  480.740    4.519    0.221    0.445   84.579  156.804
  480.990    4.537    0.237    0.433   82.669  155.633
  481.240    4.571    0.278    0.423   74.778  153.429
  481.490    4.648    0.306    0.373   61.642  152.255
  481.740    4.973    0.291    0.381   55.644  152.223
  481.990    5.529    0.266    0.404   55.805  152.183
  482.240    6.271    0.246    0.409   53.467  152.250
  482.490    7.539    0.260    0.436   50.640  153.046
  482.740    8.535    0.277    0.477   50.557  155.694
  482.990    9.200    0.278    0.460   53.710  156.591
  483.240    9.372    0.274    0.463   56.860  156.243
  483.490    9.239    0.277    0.478   56.777  154.971
  483.740    8.783    0.285    0.446   56.026  152.663
  483.990    8.243    0.287    0.433   56.919  150.458
  484.240    7.528    0.296    0.436   57.144  150.524
  484.490    7.001    0.282    0.441   55.170  154.210
  484.740    6.394    0.285    0.437   55.393  155.205
  484.990    5.861    0.281    0.443   57.020  156.102
  485.240    5.481    0.276    0.455   52.912  156.064
  485.490    5.296    0.265    0.466   47.583  156.030
  485.740    5.297    0.270    0.445   45.854  155.581
  485.990    5.566    0.266    0.427   45.161  151.209
  486.240    5.923    0.248    0.417   42.395  149.000
  486.490    6.023    0.255    0.424   42.681  148.241
  486.740    5.841    0.257    0.443   45.771  148.209
  486.990    5.523    0.250    0.438   47.581  148.485
  487.240    5.250    0.262    0.420   46.645  149.689
  487.490    5.082    0.271    0.408   44.671  151.615
  487.740    4.840    0.268    0.411   44.466  153.128
  487.990    4.676    0.272    0.422   44.995  154.439
  488.240    4.462    0.271    0.426   45.036  155.435
  488.490    4.319    0.268    0.418   45.626  155.398
  488.740    4.158    0.269    0.409   48.594  153.609
  488.990    4.047    0.270    0.404   46.744  150.166
  489.240    3.890    0.271    0.424   47.638  149.819
  489.490    3.828    0.265    0.410   48.102  150.403
  489.740    3.794    0.279    0.400   47.411  151.608
  489.990    3.754    0.288    0.413   47.880  153.122
  490.240    3.728    0.278    0.423   49.689  155.049
  490.490    3.709    0.274    0.431   53.207  156.565
  490.740    3.683    0.270    0.463   56.906  157.872
  490.990    3.664    0.261    0.437   57.555  158.247
  491.240    3.665    0.276    0.417   57.475  158.213
  491.490    3.660    0.273    0.429   57.390  158.076
  491.740    3.674    0.272    0.438   57.675  158.038
  491.990    3.702    0.259    0.426   58.387  157.799
  492.240    3.737    0.269    0.408   59.465  157.143
  492.490    3.772    0.256    0.414   60.237  155.763
  492.740    3.829    0.257    0.439   59.483  153.144
  492.990    3.872    0.262    0.444   59.463  151.770
  493.240    3.916    0.270    0.460   59.993  151.422
  493.490    3.967    0.269    0.464   60.825  151.593
  493.740    4.034    0.261    0.452   61.353  152.387
  493.990    4.021    0.253    0.435   61.515  152.662
  494.240    3.949    0.269    0.425   61.370  152.832
  494.490    3.900    0.247    0.461   61.108  152.592
  494.740    3.845    0.254    0.462   60.416  152.141
  494.990    3.832    0.262    0.443   59.969  151.899
  495.240    3.869    0.230    0.435   60.678  152.690
  495.490    3.977    0.207    0.449   61.878  154.825
  495.740    4.036    0.207    0.445   64.542  155.924
  495.990    3.979    0.234    0.438   70.073  156.406
  496.240    3.880    0.255    0.453   80.117  156.786
  496.490    3.784    0.267    0.459   79.546  156.751
  496.740    3.737    0.256    0.444   78.306  156.716
  496.990    3.738    0.214    0.442   83.043  156.266
  497.240    3.836    0.242    0.452   88.329  155.508
  497.490    4.097    0.239    0.446   86.601  155.472
  497.740    4.242    0.201    0.453   84.018  155.748
  497.990    4.099    0.181    0.454   84.484  155.921
  498.240    3.940    0.180    0.448   86.293  158.570
  498.490    3.877    0.198    0.448   88.224  162.044
  498.740    3.942    0.205    0.469   90.583  163.045
  498.990    4.030    0.199    0.478   92.149  163.420
  499.240    4.143    0.202    0.463   87.430  162.248
  499.490    4.236    0.196    0.452   85.824  160.046
  499.740    4.284    0.192    0.446   85.986  158.458
  499.990    4.301    0.205    0.434   87.916  157.289
  500.240    4.326    0.229    0.448   88.870  156.944
  500.490    4.327    0.210    0.459   88.669  157.632
  500.740    4.305    0.208    0.453   86.634  158.424
  500.990    4.275    0.202    0.435   83.564  159.831
  501.240    4.207    0.197    0.437   86.898  160.729
  501.490    4.139    0.181    0.444   85.657  161.624
  501.740    4.103    0.199    0.464   83.256  161.899
  501.990    4.089    0.220    0.473   81.040  160.414
  502.240    4.106    0.263    0.459   75.713  158.936
  502.490    4.175    0.302    0.439   68.555  157.864
  502.740    4.237    0.309    0.438   60.116  157.311
  502.990    4.223    0.306    0.434   58.630  156.864
  503.240    4.096    0.304    0.423   61.659  156.831
  503.490    3.879    0.279    0.430   63.713  156.998
  503.740    3.721    0.258    0.429   60.947  157.068
  503.990    3.589    0.226    0.372   55.619  156.928
  504.240    3.506    0.157    0.319   50.902  156.894
  504.490    3.469    0.096    0.277   50.209  156.655
  504.740    3.625    0.143    0.312   54.276  156.207
  504.990    3.865    0.197    0.417   57.610  154.827
  505.240    4.181    0.293    0.407   57.040  153.450
  505.490    4.734    0.274    0.412   56.714  152.898
