~VERSION INFORMATION
 VERS.                 2.0:   CWLS LOG ASCII STANDARD -VERSION 2.0
 WRAP.                  NO:   ONE LINE PER DEPTH STEP
~WELL INFORMATION BLOCK
#MNEM.UNIT           DATA                    DESCRIPTION OF MNEMONIC
#---------    -------------------            -------------------------------
# Generated from Intellog Unique Number	CW_70_72/WELL/1071
NULL.         -999.25                        : NULL_VALUE
WELL.         SCEPTER ET AL FRANCIS 15-20    : Well_name    - WELL              
LOC .         15-20-072-21W4                 : Location     - LOCATION          
UWI .         00/15-20-072-21W4/0            : Uwi          - UNIQUE WELL ID    
ENTR.         JAYE                           : Entered      - ENTERED BY        
SRVC.         WESTERN ATLAS                  : Scn          - SERVICE COMPANY   
DATE.         20 FEB 88                      : Date         - LOG DATE          
STRT.M        345                            : top_depth    - START DEPTH       
STOP.M        544                            : bot_depth    - STOP DEPTH        
STEP.M        0.25                           : increment    - STEP LENGTH       
~CURVE INFORMATION BLOCK
#MNEM UNIT       ERCB CURVE CODE    CURVE DESCRIPTION
#-----------   ------------------   ----------------------------------
DEPT.M        00 001 00 00         : DEPTH        - DEPTH                       
DPHI.V/V      00 890 00 00         : PHID         - DENSITY POROSITY (SANDSTONE)
NPHI.V/V      00 330 00 00         : PHIN         - NEUTRON POROSITY (SANDSTONE)
GR  .API      00 310 00 00         : GR           - GAMMA RAY                   
CALI.MM       00 280 01 00         : CAL          - CALIPER                     
ILD .OHMM     00 120 00 00         : RESD         - DEEP RESISTIVITY (DIL)      
~PARAMETER INFORMATION       
#MNEM.UNIT           DATA             DESCRIPTION OF MNEMONIC
#---------         -----------     ------------------------------
GL  .M        620.4                : gl           - GROUND LEVEL ELEVATION      
EREF.M        624                  : kb           - ELEVATION OF DEPTH REFERENCE
DATM.M        620.4                : datum        - DATUM ELEVATION             
TDD .M        547                  : tdd          - TOTAL DEPTH DRILLER         
RUN .         ONE                  : Run          - RUN NUMBER                  
ENG .         HUTCHEON             : Engineer     - RECORDING ENGINEER          
WIT .         TALLMAN              : Witness      - WITNESSED BY                
BASE.         SLAVE LAKE           : Branch       - HOME BASE OF LOGGING UNIT   
MUD .         GEL CHEM             : Mud_type     - MUD TYPE                    
MATR.         SANDSTONE            : Logunit      - NEUTRON MATRIX              
TMAX.C        24                   : BHT          - MAXIMUM RECORDED TEMPERATURE
BHTD.M        548.6                : BHTDEP       - MAXIMUM RECORDED TEMPERATURE
RMT .C        15                   : MDTP         - TEMPERATURE OF MUD          
MUDD.KG/M     1030                 : MWT          - MUD DENSITY                 
NEUT.         1                    : NEUTRON      - NEUTRON TYPE                
RESI.         0                    : RESIST       - RESISTIVITY TYPE            
RM  .OHMM     3.6                  : RM           - RESISTIVITY OF MUD          
RMC .OHMM     4                    : RMC          - RESISTIVITY OF MUD CAKE     
RMF .OHMM     3.5                  : RMF          - RESISTIVITY OF MUD FILTRATE 
SUFT.C        0                    : SUFT         - SURFACE TEMPERATURE         
~A  DEPTH     PHID     PHIN       GR      CAL     RESD
# ...
  418.000    0.343    0.422   43.622  204.492    4.101
  418.250    0.351    0.420   42.995  204.367    4.093
  418.500    0.360    0.401   40.719  203.626    4.084
  418.750    0.371    0.386   39.419  203.392    4.081
  419.000    0.359    0.387   39.400  203.972    4.087
  419.250    0.352    0.389   40.057  204.557    4.077
  419.500    0.347    0.386   41.748  204.935    4.083
  419.750    0.345    0.387   43.197  204.999    4.077
  420.000    0.346    0.385   44.156  204.671    4.061
  420.250    0.347    0.378   44.565  204.238    4.047
  420.500    0.348    0.376   45.647  203.901    4.025
  420.750    0.347    0.381   44.348  203.465    4.039
  421.000    0.345    0.388   44.453  203.132    4.057
  421.250    0.343    0.394   42.422  203.106    4.069
  421.500    0.344    0.398   42.893  203.585    4.083
  421.750    0.336    0.403   45.988  203.965    4.095
  422.000    0.339    0.408   47.130  203.932    4.079
  422.250    0.350    0.408   44.916  203.706    4.176
  422.500    0.347    0.407   42.761  203.266    4.201
  422.750    0.339    0.407   43.050  203.238    4.246
  423.000    0.335    0.403   43.706  203.307    4.307
  423.250    0.334    0.401   45.824  203.383    4.343
  423.500    0.331    0.412   49.223  203.562    4.387
  423.750    0.336    0.403   52.564  203.222    4.394
  424.000    0.335    0.398   49.068  202.781    4.467
  424.250    0.330    0.402   47.951  202.349    4.607
  424.500    0.320    0.399   50.436  201.916    4.714
  424.750    0.312    0.403   52.739  201.886    4.846
  425.000    0.311    0.409   52.417  201.865    4.991
  425.250    0.317    0.408   54.414  201.832    5.032
  425.500    0.321    0.402   54.945  201.901    5.067
  425.750    0.321    0.396   54.502  202.080    5.064
  426.000    0.312    0.392   52.896  202.157    5.070
  426.250    0.306    0.389   52.209  202.026    5.058
  426.500    0.311    0.390   56.525  201.690    4.965
  426.750    0.314    0.397   58.460  201.661    4.880
  427.000    0.310    0.395   59.542  200.918    4.835
  427.250    0.258    0.396   66.726  200.180    4.860
  427.500    0.225    0.408   76.290  198.932    5.095
  427.750    0.218    0.412   75.662  197.477    5.333
  428.000    0.236    0.418   69.053  196.942    5.591
  428.250    0.244    0.420   70.502  196.811    5.842
  428.500    0.255    0.416   67.860  196.883    5.733
  428.750    0.275    0.408   69.430  197.062    5.484
  429.000    0.307    0.399   66.117  198.353    5.252
  429.250    0.305    0.396   63.657  199.537    5.014
  429.500    0.300    0.394   67.486  199.926    4.885
  429.750    0.292    0.380   67.712  200.506    4.838
  430.000    0.282    0.372   65.313  201.088    4.845
  430.250    0.266    0.396   63.956  201.670    4.897
  430.500    0.267    0.410   59.301  191.875    4.929
  430.750    0.250    0.400   60.322  182.896    4.974
  431.000    0.324    0.397   64.087  185.613    5.000
  431.250    0.320    0.442   67.915  195.148    5.006
  431.500    0.321    0.420   65.091  208.138    4.984
  431.750    0.314    0.431   58.788  217.263    4.909
  432.000    0.322    0.417   60.295  213.162    4.853
  432.250    0.329    0.390   61.622  213.134    4.817
  432.500    0.343    0.407   61.297  213.816    4.788
  432.750    0.319    0.426   61.100  214.297    4.738
  433.000    0.319    0.407   59.676  214.679    4.725
  433.250    0.319    0.398   59.966  215.155    4.730
  433.500    0.323    0.400   59.766  215.534    4.727
  433.750    0.325    0.392   59.992  215.709    4.725
  434.000    0.334    0.366   61.685  215.681    4.733
  434.250    0.334    0.358   63.621  215.554    4.738
  434.500    0.330    0.378   69.035  215.524    4.732
  434.750    0.399    0.407   71.093  220.989    4.735
  435.000    0.442    0.432   66.010  216.383    4.743
  435.250    0.351    0.456   62.880  212.591    4.704
  435.500    0.337    0.495   58.958  211.948    4.676
  435.750    0.316    0.432   58.511  211.313    4.726
  436.000    0.242    0.384   62.401  210.469    4.838
  436.250    0.207    0.376   75.871  210.438    5.101
  436.500    0.194    0.377   82.933  210.718    5.550
  436.750    0.214    0.389   83.770  213.230    5.981
  437.000    0.221    0.402   82.228  215.237    6.252
  437.250    0.211    0.383   80.561  215.005    6.307
  437.500    0.200    0.377   79.202  214.774    6.279
  437.750    0.198    0.382   78.454  215.558    6.206
  438.000    0.201    0.398   79.963  216.442    5.849
  438.250    0.207    0.406   82.263  218.044    5.371
  438.500    0.204    0.403   83.710  224.219    4.737
  438.750    0.264    0.410   87.295  236.294    4.064
  439.000    0.347    0.423   88.620  254.065    3.430
  439.250    0.312    0.447   87.565  229.018    2.997
  439.500    0.230    0.460   84.741  216.478    3.023
  439.750    0.198    0.462   85.273  219.804    3.176
  440.000    0.230    0.452   85.255  230.659    3.481
  440.250    0.245    0.443   84.812  215.067    3.801
  440.500    0.225    0.430   83.635  210.463    4.181
  440.750    0.221    0.421   81.847  210.639    4.482
  441.000    0.217    0.397   80.607  210.911    4.752
  441.250    0.204    0.371   81.386  211.289    4.991
  441.500    0.228    0.360   84.664  211.771    5.082
  441.750    0.239    0.424   82.998  212.242    4.942
  442.000    0.271    0.413   79.442  212.530    4.735
  442.250    0.301    0.378   71.005  212.901    4.446
  442.500    0.321    0.373   64.884  212.973    4.114
  442.750    0.326    0.381   62.243  213.250    3.955
  443.000    0.329    0.386   64.362  213.429    3.775
  443.250    0.337    0.387   63.000  213.506    3.725
  443.500    0.343    0.395   62.497  213.475    3.815
  443.750    0.333    0.414   58.330  213.346    3.986
  444.000    0.238    0.430   62.158  213.214    4.311
  444.250    0.183    0.442   70.135  213.490    4.994
  444.500    0.181    0.457   80.858  214.278    5.045
  444.750    0.210    0.478   85.173  217.298    4.410
  445.000    0.253    0.499   81.740  228.867    3.742
  445.250    0.332    0.525   77.328  256.096    3.169
  445.500    0.349    0.544   74.260  274.682    2.915
  445.750    0.439    0.537   68.506  250.241    2.762
  446.000    0.443    0.528   64.033  221.633    2.904
  446.250    0.340    0.480   65.420  206.551    3.021
  446.500    0.287    0.402   68.272  203.468    3.275
  446.750    0.268    0.384   63.433  203.341    3.556
  447.000    0.260    0.390   59.815  204.431    3.737
  447.250    0.273    0.392   57.296  206.229    3.859
  447.500    0.291    0.387   58.805  207.525    3.900
  447.750    0.292    0.380   61.838  208.411    3.907
  448.000    0.292    0.373   64.384  208.379    3.856
  448.250    0.298    0.357   64.917  208.458    3.763
  448.500    0.312    0.345   61.970  208.626    3.658
  448.750    0.323    0.347   56.765  208.690    3.537
  449.000    0.326    0.358   50.401  208.772    3.451
  449.250    0.325    0.365   50.385  208.648    3.326
  449.500    0.326    0.366   51.099  208.509    3.228
  449.750    0.328    0.374   50.044  208.381    3.174
  450.000    0.326    0.390   53.201  208.352    3.138
  450.250    0.329    0.389   54.037  208.321    3.119
  450.500    0.330    0.386   52.678  208.403    3.165
  450.750    0.322    0.385   55.957  208.767    3.215
  451.000    0.309    0.385   61.065  209.047    3.274
  451.250    0.293    0.388   55.557  209.215    3.316
  451.500    0.305    0.393   57.431  209.202    3.342
  451.750    0.307    0.394   62.845  209.268    3.391
  452.000    0.310    0.391   64.963  209.239    3.466
  452.250    0.314    0.383   66.350  209.320    3.601
  452.500    0.311    0.384   69.568  209.583    3.795
  452.750    0.304    0.381   67.598  209.256    4.206
  453.000    0.308    0.366   65.628  208.930    5.017
  453.250    0.257    0.349   62.559  208.800    6.243
  453.500    0.120    0.270   55.341  205.823    8.150
  453.750    0.056    0.211   53.187  208.026   10.876
  454.000    0.122    0.247   57.015  207.899   10.811
  454.250    0.256    0.304   59.195  207.770    7.845
