~VERSION INFORMATION
 VERS.                 2.0:   CWLS LOG ASCII STANDARD -VERSION 2.0
 WRAP.                  NO:   ONE LINE PER DEPTH STEP
~WELL INFORMATION BLOCK
#MNEM.UNIT           DATA                    DESCRIPTION OF MNEMONIC
#---------    -------------------            -------------------------------
# Generated from Intellog Unique Number	CW_82_90/WELL/877
WELL.         TEXEX TEXCAN MUSKWA 10-17-084- : Well_name    - WELL
LOC .         00/10-17-084-25W4/0            : Location     - LOCATION
UWI .         00/10-17-084-25W4/0            : Uwi          - UNIQUE WELL ID
ENTR.         JAYE                           : Entered      - ENTERED BY
SRVC.         SCHLUMBERGER                   : Scn          - SERVICE COMPANY
DATE.         23 JAN 76                      : Date         - LOG DATE
STRT.F        650                            : top_depth    - START DEPTH
STOP.F        1320.11                        : bot_depth    - STOP DEPTH
STEP.F        0.82                           : increment    - STEP LENGTH
 NULL. -999.2500:NULL Value
~CURVE INFORMATION BLOCK
#MNEM UNIT       ERCB CURVE CODE    CURVE DESCRIPTION
#-----------   ------------------   ----------------------------------
DEPT.F        00 001 00 00         : DEPTH        - DEPTH
GR  .API      00 310 00 00         : GR           - GAMMA RAY
NPHI.V/V      00 330 00 00         : PHIN         - NEUTRON POROSITY (SANDSTONE)
DPHI.V/V      00 890 00 00         : PHID         - DENSITY POROSITY (SANDSTONE)
ILD .OHMM     00 120 00 00         : RESD         - DEEP RESISTIVITY (DLL)
~PARAMETER INFORMATION
#MNEM.UNIT           DATA             DESCRIPTION OF MNEMONIC
#---------         -----------     ------------------------------
GL  .M        543.154              : gl           - GROUND LEVEL ELEVATION
EREF.M        546.811              : kb           - ELEVATION OF DEPTH REFERENCE
DATM.M        543.154              : datum        - DATUM ELEVATION
TDD .M        388.62               : tdd          - TOTAL DEPTH DRILLER
RUN .         ONE                  : Run          - RUN NUMBER
ENG .         SKOWORODKO           : Engineer     - RECORDING ENGINEER
WIT .         NICOUD &YANITSKI     : Witness      - WITNESSED BY
BASE.         EDMONTON             : Branch       - HOME BASE OF LOGGING UNIT
MATR.         SANDSTONE            : Logunit      - NEUTRON MATRIX
TMAX.F        75                   : BHT          - MAXIMUM RECORDED TEMPERATURE
BHTD.F        1340                 : BHTDEP       - MAXIMUM RECORDED TEMPERATURE
RMT .F        55                   : MDTP         - TEMPERATURE OF MUD
MUDD.LB/G     0                    : MWT          - MUD DENSITY
NEUT.         0                    : NEUTRON      - NEUTRON TYPE
RESI.         1                    : RESIST       - RESISTIVITY TYPE
RM  .OHMM     6.15                 : RM           - RESISTIVITY OF MUD
RMC .OHMM     0                    : RMC          - RESISTIVITY OF MUD CAKE
RMF .OHMM     6.1                  : RMF          - RESISTIVITY OF MUD FILTRATE
SUFT.F        4                    : SUFT         - SURFACE TEMPERATURE
~A  DEPTH       GR     PHIN     PHID     RESD
# ...
  792.717   85.546    0.520    0.263    3.920
  793.537   84.304    0.524    0.269    3.920
  794.357   82.450    0.526    0.276    3.921
  795.177   79.975    0.534    0.287    3.851
  795.997   78.736    0.535    0.297    3.852
  796.818   78.108    0.535    0.312    3.853
  797.638   77.477    0.529    0.300    3.854
  798.458   76.235    0.510    0.287    3.925
  799.278   75.608    0.504    0.295    4.147
  800.098   71.906    0.495    0.305    4.626
  800.919   65.743    0.465    0.316    5.451
  801.739   60.812    0.430    0.286    6.660
  802.559   55.878    0.389    0.259    8.288
  803.379   54.021    0.338    0.206   11.092
  804.199   52.776    0.282    0.140   18.471
  805.020   51.533    0.226    0.086   32.481
  805.840   50.902    0.219    0.056   38.974
  806.660   50.275    0.208    0.058   44.280
  807.480   50.265    0.199    0.063   48.511
  808.301   50.252    0.186    0.064   52.191
  809.121   50.854    0.184    0.064   53.155
  809.941   52.685    0.183    0.065   56.150
  810.761   53.287    0.183    0.067   57.193
  811.581   53.268    0.185    0.069   56.178
  812.402   53.867    0.185    0.074   54.181
  813.222   54.475    0.193    0.082   50.386
  814.042   56.306    0.226    0.096   46.855
  814.862   59.367    0.292    0.136   38.361
  815.682   63.654    0.327    0.185   30.841
  816.503   68.556    0.387    0.301   23.908
  817.323   71.617    0.458    0.317   18.199
  818.143   71.604    0.471    0.317   15.173
  818.963   71.595    0.476    0.318   13.120
  819.783   70.961    0.479    0.320   13.123
  820.604   70.948    0.484    0.321   13.127
  821.424   70.938    0.490    0.321   13.130
  822.244   70.925    0.501    0.320   13.132
  823.064   70.906    0.511    0.317   12.898
  823.885   70.896    0.521    0.315   12.899
  824.705   70.880    0.519    0.312   12.441
  825.525   70.871    0.516    0.311   12.221
  826.345   70.855    0.487    0.309   12.002
  827.165   70.842    0.487    0.309   12.005
  827.986   70.826    0.488    0.308   11.790
  828.806   70.810    0.483    0.305   11.793
  829.626   70.800    0.465    0.301   11.796
  830.446   70.790    0.465    0.297   11.585
  831.266   71.386    0.466    0.292   11.587
  832.087   71.376    0.470    0.288   11.380
  832.907   72.586    0.472    0.281   11.178
  833.727   73.191    0.477    0.281   10.979
  834.547   74.408    0.479    0.283   10.783
  835.367   76.239    0.485    0.276   10.400
  836.188   78.071    0.482    0.266   10.030
  837.008   79.899    0.482    0.255    9.674
  837.828   81.734    0.489    0.240    8.996
  838.648   84.791    0.499    0.229    7.779
  839.469   88.463    0.504    0.239    6.726
  840.289   90.913    0.499    0.251    5.608
  841.109   94.588    0.500    0.256    5.311
  841.929   94.576    0.505    0.260    5.030
  842.749   92.104    0.518    0.259    5.031
  843.570   87.781    0.505    0.277    5.032
  844.390   85.313    0.502    0.291    5.033
  845.210   83.456    0.512    0.287    4.854
  846.030   82.828    0.530    0.293    4.681
  846.850   85.268    0.567    0.308    4.354
  847.671   87.102    0.580    0.321    4.276
  848.491   89.545    0.582    0.328    4.124
  849.311   91.991    0.573    0.294    4.051
  850.131   91.364    0.538    0.288    4.202
  850.951   89.507    0.538    0.289    4.688
  851.772   87.035    0.534    0.282    5.230
  852.592   84.563    0.527    0.275    5.942
  853.412   82.091    0.524    0.263    7.001
  854.232   78.383    0.519    0.262    7.810
  855.052   77.141    0.506    0.276    8.556
  855.873   75.284    0.502    0.328    9.373
  856.693   73.430    0.495    0.333    9.901
  857.513   70.959    0.490    0.328   10.460
  858.333   72.169    0.483    0.335   10.850
  859.154   72.771    0.485    0.327   11.051
  859.974   71.528    0.492    0.309   10.278
  860.794   70.283    0.487    0.326    9.912
  861.614   69.655    0.477    0.298    9.387
  862.434   70.257    0.473    0.285    9.390
  863.255   70.859    0.472    0.274    9.392
  864.075   71.464    0.469    0.302    9.224
  864.895   72.677    0.458    0.315    9.059
  865.715   73.276    0.454    0.328    9.062
  866.535   73.266    0.463    0.331    9.063
  867.356   73.250    0.484    0.328    9.065
  868.176   73.237    0.501    0.325    8.431
  868.996   73.839    0.507    0.316    8.280
  869.816   74.438    0.489    0.291    7.986
  870.636   76.269    0.472    0.273    7.702
  871.457   76.874    0.473    0.263    7.033
  872.277   78.091    0.478    0.265    6.541
  873.097   81.146    0.477    0.263    5.355
  873.917   82.974    0.493    0.254    4.980
  874.738   83.582    0.504    0.285    4.981
  875.558   83.563    0.481    0.273    4.893
  876.378   83.556    0.498    0.260    4.805
  877.198   83.537    0.522    0.288    4.469
  878.018   82.295    0.529    0.319    4.232
  878.839   80.438    0.498    0.338    4.636
  879.659   77.966    0.463    0.340    5.079
  880.479   76.109    0.443    0.308    5.877
  881.299   76.096    0.467    0.286    6.924
  882.119   78.539    0.471    0.310    7.315
  882.940   79.759    0.464    0.285    7.184
  883.760   82.816    0.466    0.265    6.804
  884.580   84.033    0.471    0.263    6.683
  885.400   82.791    0.477    0.259    6.563
  886.220   82.163    0.483    0.266    6.686
  887.041   82.150    0.483    0.285    6.810
  887.861   80.901    0.481    0.280    6.936
  888.681   79.659    0.464    0.277    7.065
  889.501   78.420    0.454    0.279    7.463
  890.322   75.948    0.444    0.279    8.029
  891.142   71.014    0.381    0.277    8.957
  891.962   66.080    0.331    0.184    9.812
  892.782   62.997    0.269    0.054   10.749
  893.602   65.443    0.367    0.045   11.564
  894.423   70.348    0.432    0.089   12.216
  895.243   78.942    0.466    0.104   11.155
  896.063   83.843    0.484    0.165   10.003
  896.883   81.986    0.461    0.271    8.808
  897.703   80.126    0.438    0.237    7.616
  898.524   79.499    0.404    0.200    7.213
  899.344   80.104    0.449    0.176    6.957
  900.164   80.702    0.465    0.221    6.239
  900.984   81.919    0.484    0.224    5.802
  901.804   84.365    0.490    0.216    5.595
  902.625   88.040    0.459    0.202    5.299
  903.445   91.101    0.459    0.193    5.300
  904.265   91.697    0.475    0.195    5.206
  905.085   91.069    0.476    0.199    5.207
  905.906   89.209    0.483    0.201    5.114
  906.726   89.203    0.496    0.201    5.023
  907.546   89.804    0.493    0.200    5.024
  908.366   91.633    0.472    0.200    5.025
  909.186   92.846    0.470    0.202    5.026
  910.007   93.451    0.469    0.207    5.027
  910.827   90.976    0.466    0.210    5.215
  911.647   90.349    0.466    0.221    5.409
  912.467   90.332    0.467    0.218    5.611
  913.287   90.320    0.471    0.221    5.927
  914.108   90.921    0.477    0.221    6.148
  914.928   92.135    0.484    0.217    6.262
  915.748   92.125    0.466    0.212    6.264
  916.568   92.727    0.457    0.222    6.265
  917.388   93.329    0.464    0.217    6.266
  918.209   94.546    0.475    0.212    6.155
  919.029   94.533    0.477    0.215    6.156
  919.849   91.443    0.484    0.236    6.158
  920.669   90.815    0.489    0.224    6.159
  921.490   95.106    0.498    0.221    6.160
  922.310   98.167    0.504    0.222    6.161
  923.130   95.074    0.505    0.225    6.163
  923.950   94.440    0.477    0.227    6.164
  924.770   94.430    0.478    0.228    6.165
  925.591   94.424    0.482    0.230    6.280
  926.411   94.411    0.487    0.227    6.281
  927.231   90.091    0.489    0.208    6.282
  928.051   86.387    0.490    0.201    6.399
  928.871   83.915    0.492    0.212    6.519
  929.692   83.902    0.497    0.222    6.519
  930.512   85.119    0.495    0.219    6.641
  931.332   81.415    0.411    0.216    7.144
  932.152   74.639    0.383    0.221    7.970
  932.972   70.327    0.331    0.156    8.891
  933.793   67.234    0.327    0.123    9.565
  934.613   72.142    0.419    0.135    9.743
