~VERSION INFORMATION
 VERS.                 2.0:   CWLS LOG ASCII STANDARD -VERSION 2.0
 WRAP.                  NO:   ONE LINE PER DEPTH STEP
~WELL INFORMATION BLOCK
#MNEM.UNIT           DATA                    DESCRIPTION OF MNEMONIC
#---------    -------------------            -------------------------------
# Generated from Intellog Unique Number	CS_71_72/WELL/928
WELL.         ET AL IPIATIK                  : Well_name    - WELL
LOC .         00/16-34-071-10W4/0            : Location     - LOCATION
UWI .         00/16-34-071-10W4/0            : Uwi          - UNIQUE WELL ID
ENTR.         SP                             : Entered      - ENTERED BY
SRVC.         SCHLUMBERGER                   : Scn          - SERVICE COMPANY
STRT.M        310                            : top_depth    - START DEPTH
STOP.M        518                            : bot_depth    - STOP DEPTH
STEP.M        0.25                           : increment    - STEP LENGTH
 NULL. -999.2500:NULL Value
~CURVE INFORMATION BLOCK
#MNEM UNIT       ERCB CURVE CODE    CURVE DESCRIPTION
#-----------   ------------------   ----------------------------------
DEPT.M        00 001 00 00         : DEPTH        - DEPTH
ILD .OHMM     00 120 00 00         : RESD         - DEEP RESISTIVITY (DIL)
DPHI.V/V      00 890 00 00         : PHID         - DENSITY POROSITY (LIMESTONE)
NPHI.V/V      00 330 00 00         : PHIN         - NEUTRON POROSITY (LIMESTONE)
GR  .API      00 310 00 00         : GR           - GAMMA RAY
~PARAMETER INFORMATION
#MNEM.UNIT           DATA             DESCRIPTION OF MNEMONIC
#---------         -----------     ------------------------------
GL  .M        658.64               : gl           - GROUND LEVEL ELEVATION
EREF.M        662.14               : kb           - ELEVATION OF DEPTH REFERENCE
DATM.M        653.64               : datum        - DATUM ELEVATION
TDD .M        523                  : tdd          - TOTAL DEPTH DRILLER
RUN .         ONE                  : Run          - RUN NUMBER
ENG .         BILL                 : Engineer     - RECORDING ENGINEER
WIT .         JIM                  : Witness      - WITNESSED BY
MUD .         GEL                  : Mud_type     - MUD TYPE
MATR.         LIMESTONE            : Logunit      - NEUTRON MATRIX
TMAX.C        24                   : BHT          - MAXIMUM RECORDED TEMPERATURE
BHTD.M        523                  : BHTDEP       - MAXIMUM RECORDED TEMPERATURE
MATR.         1                    : LOGUNIT      - NEUTRON MATRIX
RMT .C        25                   : MDTP         - TEMPERATURE OF MUD
NEUT.         1                    : NEUTRON      - NEUTRON TYPE
RESI.         0                    : RESIST       - RESISTIVITY TYPE
RMC .OHMM     0.25                 : RMC          - RESISTIVITY OF MUD CAKE
RMF .OHMM     0.25                 : RMF          - RESISTIVITY OF MUD FILTRATE
SUFT.C        15                   : SUFT         - SURFACE TEMPERATURE
~A  DEPTH     RESD     PHID     PHIN       GR
  310.000    2.600    0.248    0.495  103.694
  310.250    2.513    0.234    0.497  102.779
  310.500    2.480    0.225    0.491  101.926
  310.750    2.498    0.216    0.520  103.193
  311.000    2.559    0.209    0.552  105.188
  311.250    2.636    0.206    0.531  106.092
  311.500    2.705    0.204    0.490  105.420
  311.750    2.787    0.205    0.472  101.778
  312.000    2.930    0.206    0.477   98.016
  312.250    2.996    0.208    0.474   96.496
  312.500    3.187    0.210    0.461   99.157
  312.750    3.364    0.205    0.451  100.788
  313.000    3.557    0.200    0.442  101.025
  313.250    3.672    0.195    0.446  101.626
  313.500    3.726    0.192    0.454  101.863
  313.750    3.725    0.193    0.442  101.434
  314.000    3.601    0.200    0.447  102.155
  314.250    3.448    0.206    0.461  102.393
  314.500    3.295    0.210    0.474  102.873
  314.750    3.091    0.215    0.456  104.685
  315.000    2.960    0.219    0.479  106.195
  315.250    2.850    0.209    0.497  106.856
  315.500    2.808    0.206    0.518  105.943
  315.750    2.823    0.210    0.466  100.604
  316.000    2.881    0.214    0.445   96.781
  316.250    2.918    0.219    0.476   95.867
  316.500    2.939    0.223    0.490   97.922
  316.750    2.938    0.218    0.495   99.735
  317.000    2.938    0.216    0.479  100.518
  317.250    2.948    0.217    0.456  100.391
  317.500    2.964    0.217    0.465   98.204
  317.750    3.030    0.216    0.481   93.350
  318.000    3.116    0.214    0.437   91.405
  318.250    3.240    0.217    0.428   91.400
  318.500    3.270    0.224    0.450   93.092
  318.750    3.251    0.231    0.465   95.086
  319.000    3.190    0.240    0.480   96.111
  319.250    3.136    0.201    0.493   96.107
  319.500    3.297    0.163    0.470   95.192
  319.750    3.600    0.158    0.442   93.248
  320.000    3.990    0.155    0.423   90.091
  320.250    4.339    0.195    0.407   92.328
  320.500    4.755    0.210    0.400   98.384
  320.750    5.038    0.203    0.407  103.711
  321.000    5.210    0.194    0.416  106.494
  321.250    5.278    0.190    0.408  108.428
  321.500    5.316    0.189    0.411  108.059
  321.750    5.476    0.213    0.414  102.842
  322.000    5.846    0.221    0.391   90.898
  322.250    6.217    0.237    0.374   79.681
  322.500    6.562    0.249    0.362   71.252
  322.750    6.824    0.258    0.353   65.125
  323.000    7.030    0.267    0.370   72.271
  323.250    7.201    0.274    0.380   75.660
  323.500    7.322    0.284    0.380   72.746
  323.750    7.417    0.307    0.369   65.407
  324.000    7.387    0.327    0.362   58.614
  324.250    7.180    0.324    0.366   52.851
  324.500    6.914    0.312    0.380   52.846
  324.750    6.722    0.295    0.387   58.053
  325.000    6.412    0.285    0.379   61.078
  325.250    6.244    0.277    0.389   63.133
  325.500    6.184    0.280    0.377   64.643
  325.750    6.218    0.286    0.372   64.578
  326.000    6.274    0.274    0.385   62.511
  326.250    6.333    0.282    0.394   59.598
  326.500    6.439    0.280    0.389   55.168
  326.750    6.547    0.288    0.378   50.860
  327.000    6.731    0.300    0.369   46.976
  327.250    6.831    0.303    0.371   43.395
  327.500    6.933    0.299    0.372   40.784
  327.750    7.022    0.295    0.371   38.900
  328.000    7.127    0.293    0.366   40.652
  328.250    7.287    0.289    0.368   53.071
  328.500    7.409    0.282    0.375   65.126
  328.750    7.505    0.274    0.381   70.818
  329.000    7.588    0.263    0.377   71.903
  329.250    7.628    0.263    0.376   56.686
  329.500    7.598    0.273    0.378   41.773
  329.750    7.497    0.277    0.377   35.283
  330.000    7.246    0.285    0.372   40.913
  330.250    7.084    0.295    0.369   47.029
  330.500    6.911    0.292    0.372   53.507
  330.750    6.820    0.293    0.381   57.442
  331.000    6.729    0.286    0.387   62.406
  331.250    6.728    0.275    0.388   67.008
  331.500    6.776    0.265    0.384   72.093
  331.750    6.762    0.252    0.384   75.300
  332.000    6.660    0.233    0.386   80.143
  332.250    6.425    0.215    0.392   86.379
  332.500    6.107    0.186    0.404   90.981
  332.750    5.815    0.148    0.421   96.672
  333.000    5.294    0.114    0.444  101.213
  333.250    4.747    0.092    0.443  106.904
  333.500    4.330    0.146    0.437  111.263
  333.750    3.964    0.169    0.455  114.833
  334.000    3.670    0.178    0.487  118.585
  334.250    3.404    0.186    0.482  121.792
  334.500    3.229    0.191    0.550  124.635
  334.750    3.063    0.193    0.609  126.630
  335.000    2.983    0.207    0.563  113.170
  335.250    3.344    0.219    0.474   99.832
  335.500    3.862    0.226    0.448   90.918
  335.750    4.834    0.222    0.432   84.125
  336.000    5.774    0.209    0.414   78.181
  336.250    6.936    0.199    0.412   77.873
  336.500    8.223    0.222    0.413   81.443
  336.750    9.338    0.234    0.408   83.680
  337.000    9.913    0.243    0.406   84.705
  337.250    9.891    0.249    0.406   86.094
  337.500    9.472    0.254    0.409   90.028
  337.750    8.769    0.247    0.421   94.750
  338.000    8.104    0.233    0.438   99.593
  338.250    7.377    0.206    0.447  103.830
  338.500    6.741    0.190    0.440  109.885
  338.750    6.171    0.179    0.423  116.910
  339.000    5.586    0.170    0.413  121.269
  339.250    5.260    0.173    0.433  125.081
  339.500    4.815    0.179    0.413  127.137
  339.750    4.707    0.183    0.420  129.434
  340.000    4.559    0.186    0.440  130.157
  340.250    4.431    0.198    0.455  126.878
  340.500    4.340    0.208    0.467  125.722
  340.750    4.347    0.214    0.465  126.686
  341.000    4.386    0.204    0.454  127.287
  341.250    4.834    0.196    0.441  125.100
  341.500    5.851    0.226    0.427  114.126
  341.750    6.731    0.254    0.417  101.090
  342.000    7.460    0.299    0.427   90.418
  342.250    8.160    0.321    0.438   85.080
  342.500    8.598    0.334    0.425   81.439
  342.750    9.024    0.334    0.410   77.009
  343.000    9.227    0.324    0.397   78.459
  343.250    9.277    0.319    0.389   84.149
  343.500    9.205    0.306    0.388   88.145
  343.750    8.848    0.287    0.389   92.078
  344.000    8.268    0.262    0.391   94.860
  344.250    7.742    0.253    0.402   94.068
  344.500    7.497    0.260    0.411   88.184
  344.750    7.315    0.265    0.408   81.815
  345.000    7.522    0.262    0.395   77.629
  345.250    7.954    0.272    0.387   73.745
  345.500    8.210    0.274    0.383   77.194
  345.750    8.457    0.285    0.383   82.946
  346.000    8.567    0.286    0.389   88.819
  346.250    8.532    0.289    0.394   92.754
  346.500    8.419    0.275    0.386   97.293
  346.750    8.184    0.258    0.371  100.197
  347.000    7.896    0.244    0.372  102.495
  347.250    7.604    0.233    0.386  103.702
  347.500    7.267    0.222    0.392  104.606
  347.750    7.064    0.218    0.394  102.237
  348.000    7.023    0.239    0.398   97.080
  348.250    7.496    0.258    0.403   91.136
  348.500    8.017    0.270    0.421   85.433
  348.750    8.574    0.284    0.441   83.247
  349.000    8.916    0.282    0.436   81.060
  349.250    9.186    0.276    0.421   80.934
  349.500    9.463    0.284    0.410   80.503
  349.750    9.730    0.286    0.403   79.529
  350.000    9.893    0.285    0.408   78.676
  350.250   10.059    0.292    0.415   78.245
  350.500   10.112    0.291    0.405   78.482
  350.750   10.016    0.282    0.404   79.023
  351.000    9.754    0.280    0.423   79.502
  351.250    9.341    0.279    0.439   79.861
  351.500    8.978    0.281    0.424   80.643
  351.750    8.743    0.291    0.413   81.972
  352.000    8.643    0.291    0.420   86.451
  352.250    8.481    0.287    0.422   89.718
  352.500    8.290    0.290    0.415   90.987
  352.750    8.180    0.295    0.411   90.557
  353.000    8.102    0.296    0.407   87.582
  353.250    7.979    0.293    0.412   89.577
