~VERSION INFORMATION
 VERS.                 2.0:   CWLS LOG ASCII STANDARD -VERSION 2.0
 WRAP.                  NO:   ONE LINE PER DEPTH STEP
~WELL INFORMATION BLOCK
#MNEM.UNIT           DATA                    DESCRIPTION OF MNEMONIC
#---------    -------------------            -------------------------------
# Generated from Intellog Unique Number	CW_76_78/WELL/2577
WELL.         10-19-078-25W4                 : Well_name    - WELL
LOC .         00/10-19-078-25W4/0            : Location     - LOCATION
UWI .         00/10-19-078-25W4/0            : Uwi          - UNIQUE WELL ID
ENTR.         MAX                            : Entered      - ENTERED BY
SRVC.         COMPUTALOG                     : Scn          - SERVICE COMPANY
STRT.M        270                            : top_depth    - START DEPTH
STOP.M        500                            : bot_depth    - STOP DEPTH
STEP.M        0.25                           : increment    - STEP LENGTH
 NULL. -999.2500:NULL Value
~CURVE INFORMATION BLOCK
#MNEM UNIT       ERCB CURVE CODE    CURVE DESCRIPTION
#-----------   ------------------   ----------------------------------
DEPT.M        00 001 00 00         : DEPTH        - DEPTH
ILD .OHMM     00 120 00 00         : RESD         - DEEP RESISTIVITY (DIL)
NPHI.V/V      00 330 00 00         : PHIN         - NEUTRON POROSITY (SANDSTONE)
DPHI.V/V      00 890 00 00         : PHID         - DENSITY POROSITY (SANDSTONE)
CALI.MM       00 280 01 00         : CAL          - CALIPER
GR  .API      00 310 00 00         : GR           - GAMMA RAY
~PARAMETER INFORMATION
#MNEM.UNIT           DATA             DESCRIPTION OF MNEMONIC
#---------         -----------     ------------------------------
GL  .M        581.86               : gl           - GROUND LEVEL ELEVATION
EREF.M        586.11               : kb           - ELEVATION OF DEPTH REFERENCE
DATM.M        581.86               : datum        - DATUM ELEVATION
TDD .M        501                  : tdd          - TOTAL DEPTH DRILLER
RUN .         ONE                  : Run          - RUN NUMBER
ENG .         BILL                 : Engineer     - RECORDING ENGINEER
WIT .         JIM                  : Witness      - WITNESSED BY
MUD .         GEL                  : Mud_type     - MUD TYPE
MATR.         SANDSTONE            : Logunit      - NEUTRON MATRIX
TMAX.C        18                   : BHT          - MAXIMUM RECORDED TEMPERATURE
BHTD.M        501                  : BHTDEP       - MAXIMUM RECORDED TEMPERATURE
RMT .C        16                   : MDTP         - TEMPERATURE OF MUD
MUDD.KG/M     1100                 : MWT          - MUD DENSITY
NEUT.         1                    : NEUTRON      - NEUTRON TYPE
RESI.         0                    : RESIST       - RESISTIVITY TYPE
RM  .OHMM     4.4                  : RM           - RESISTIVITY OF MUD
RMC .OHMM     4.1                  : RMC          - RESISTIVITY OF MUD CAKE
RMF .OHMM     5.4                  : RMF          - RESISTIVITY OF MUD FILTRATE
SUFT.C        -10                  : SUFT         - SURFACE TEMPERATURE
~A  DEPTH     RESD     PHIN     PHID      CAL       GR
# ...
  416.000   13.778    0.328    0.186  219.068   96.764
  416.250   13.541    0.419    0.180  219.079   93.487
  416.500   13.429    0.406    0.183  219.094   91.406
  416.750   13.686    0.379    0.193  218.611   95.296
  417.000   14.871    0.333    0.197  217.636   94.708
  417.250   16.304    0.337    0.196  217.647   97.405
  417.500   17.076    0.401    0.200  217.165   90.245
  417.750   17.246    0.399    0.194  216.685   94.436
  418.000   16.642    0.341    0.190  216.685   96.537
  418.250   15.914    0.377    0.187  216.712   92.963
  418.500   14.675    0.408    0.171  214.737   94.168
  418.750   13.905    0.386    0.163  213.757   97.161
  419.000   13.662    0.349    0.179  213.274  101.652
  419.250   13.307    0.358    0.191  212.791  100.765
  419.500   13.195    0.381    0.197  212.308   96.591
  419.750   13.204    0.341    0.192  211.825   89.132
  420.000   13.338    0.321    0.167  210.846   91.232
  420.250   13.351    0.384    0.167  209.370   90.645
  420.500   13.360    0.362    0.166  208.883   93.342
  420.750   13.248    0.348    0.157  208.412   99.325
  421.000   13.248    0.362    0.159  207.422  104.412
  421.250   13.034    0.394    0.171  205.941   99.940
  421.500   12.689    0.427    0.186  204.962   99.651
  421.750   12.469    0.391    0.188  204.478  100.557
  422.000   12.143    0.375    0.173  204.495  100.566
  422.250   12.042    0.361    0.155  205.011  101.470
  422.500   11.944    0.347    0.162  205.022  112.233
  422.750   12.172    0.331    0.170  204.541  105.372
  423.000   12.637    0.324    0.165  204.057   98.212
  423.250   13.238    0.335    0.153  204.083   95.832
  423.500   13.738    0.344    0.152  203.589   94.349
  423.750   14.658    0.368    0.160  203.604   91.967
  424.000   14.668    0.375    0.163  203.604   91.979
  424.250   14.545    0.367    0.160  203.639   98.257
  424.500   14.164    0.363    0.151  203.654  101.552
  424.750   13.062    0.346    0.146  203.665  107.237
  425.000   12.150    0.327    0.149  204.180  117.401
  425.250   11.305    0.363    0.151  204.195  126.371
  425.500   11.009    0.386    0.147  204.208  118.017
  425.750   11.018    0.350    0.123  204.227   88.457
  426.000   11.229    0.314    0.133  204.240   90.854
  426.250   11.765    0.325    0.162  204.253   97.434
  426.500   12.550    0.314    0.162  204.770  101.027
  426.750   13.884    0.398    0.169  205.282   91.181
  427.000   16.077    0.460    0.179  205.297   87.605
  427.250   21.739    0.455    0.192  205.812   84.626
  427.500   26.588    0.382    0.136  206.325   80.752
  427.750   30.509    0.299    0.073  206.338   67.619
  428.000   40.141    0.162    0.018  205.855   59.563
  428.250   49.095    0.189    0.052  204.375   57.780
  428.500   54.825    0.281    0.200  203.394   64.660
  428.750   53.384    0.344    0.266  202.911   67.657
  429.000   48.325    0.438    0.273  203.430   77.223
  429.250   42.182    0.452    0.242  203.939   83.804
  429.500   37.158    0.419    0.210  203.954   70.371
  429.750   32.736    0.355    0.161  203.474   67.095
  430.000   30.455    0.306    0.149  203.488   68.896
  430.250   26.343    0.323    0.183  203.501   75.775
  430.500   22.997    0.394    0.193  203.516   87.435
  430.750   22.599    0.432    0.167  204.528  100.286
  431.000   23.242    0.432    0.143  206.532   96.711
  431.250   24.796    0.389    0.116  209.538   83.279
  431.500   26.691    0.370    0.146  209.055   74.626
  431.750   29.002    0.438    0.215  207.575   73.442
  432.000   29.833    0.429    0.237  207.103   80.320
  432.250   29.580    0.381    0.223  206.609   84.808
  432.500   28.806    0.349    0.207  206.130   90.493
  432.750   27.294    0.362    0.194  206.145   88.412
  433.000   25.862    0.343    0.178  206.156   83.642
  433.250   23.844    0.423    0.154  206.156   80.365
  433.500   21.591    0.342    0.139  206.195   78.283
  433.750   20.088    0.294    0.092  206.703   77.396
  434.000   19.205    0.349    0.150  207.215   79.794
  434.250   16.463    0.375    0.174  207.232   88.465
  434.500   15.319    0.414    0.176  207.245   95.644
  434.750   14.250    0.420    0.166  207.262   95.057
  435.000   13.141    0.385    0.166  207.273   94.766
  435.250   12.794    0.369    0.166  207.788   99.255
  435.500   12.691    0.365    0.151  207.805  102.251
  435.750   12.701    0.359    0.168  207.820  106.442
  436.000   13.062    0.375    0.179  207.839   91.815
  436.250   13.557    0.364    0.177  207.839   84.058
  436.500   14.200    0.351    0.180  207.863   94.822
  436.750   14.473    0.353    0.170  207.880   96.323
  437.000   14.486    0.365    0.175  207.904   99.618
  437.250   14.375    0.390    0.162  208.407  104.705
  437.500   14.120    0.378    0.151  208.421   95.156
  437.750   13.750    0.378    0.153  208.436   97.255
  438.000   13.759    0.397    0.164  207.958   99.056
  438.250   13.898    0.390    0.165  207.475   97.572
  438.500   14.035    0.391    0.172  205.997   97.283
  438.750   14.308    0.394    0.184  205.014   96.395
  439.000   14.448    0.374    0.197  204.530   97.301
  439.250   14.860    0.403    0.158  203.051   85.661
  439.500   15.284    0.318    0.101  201.575   72.527
  439.750   15.284    0.265    0.160  200.592   72.537
  440.000   15.182    0.323    0.168  200.111   85.390
  440.250   14.912    0.373    0.168  200.126   97.047
  440.500   14.522    0.412    0.152  202.134   98.251
  440.750   14.268    0.384    0.129  205.138  102.143
  441.000   13.896    0.356    0.158  206.145  103.048
  441.250   13.532    0.361    0.173  206.162   92.904
  441.500   13.179    0.337    0.173  205.679   91.121
  441.750   12.832    0.328    0.156  205.679   93.518
  442.000   12.832    0.352    0.168  205.213  100.398
  442.250   12.398    0.365    0.170  205.724   99.809
  442.500   12.068    0.380    0.152  205.724  101.014
  442.750   12.078    0.386    0.149  205.761  100.126
  443.000   12.199    0.374    0.144  206.270   99.537
  443.250   12.432    0.351    0.131  206.281   97.755
  443.500   12.558    0.344    0.126  206.281   97.465
  443.750   12.453    0.348    0.152  206.313  100.162
  444.000   12.127    0.363    0.170  206.328  100.470
  444.250   11.810    0.371    0.176  206.343  100.480
  444.500   11.712    0.360    0.163  206.358  103.774
  444.750   12.157    0.325    0.147  205.875  105.276
  445.000   13.328    0.313    0.174  205.890   96.923
  445.250   16.601    0.323    0.137  205.409   90.359
  445.500   19.577    0.273    0.059  205.424   76.330
  445.750   22.463    0.285    0.137  205.441   77.534
  446.000   26.983    0.323    0.191  205.452   85.010
  446.250   27.756    0.345    0.202  205.469   92.489
  446.500   28.030    0.355    0.186  205.486   89.511
  446.750   28.566    0.391    0.156  204.999   83.545
  447.000   29.115    0.354    0.138  205.016   74.892
  447.250   31.346    0.362    0.116  204.535   67.435
  447.500   33.741    0.357    0.069  204.550   75.507
  447.750   38.369    0.306    0.057  204.563   78.503
  448.000   42.069    0.277    0.153  204.580   58.500
  448.250   41.342    0.311    0.177  204.095   58.810
  448.500   37.088    0.345    0.200  203.614   60.907
  448.750   32.374    0.370    0.195  203.629   65.098
  449.000   29.043    0.384    0.170  203.642   85.720
  449.250   24.891    0.367    0.145  203.669   77.363
  449.500   23.801    0.324    0.134  203.672   68.711
  449.750   22.147    0.316    0.138  204.191   70.811
  450.000   20.604    0.356    0.143  204.202   74.404
  450.250   18.651    0.402    0.172  204.217   77.698
  450.500   16.885    0.378    0.172  204.232   95.928
  450.750   15.426    0.339    0.151  204.232   89.963
  451.000   14.886    0.365    0.139  204.264   91.168
  451.250   14.366    0.353    0.146  204.277   96.255
  451.500   13.864    0.341    0.128  204.294   97.458
  451.750   13.501    0.347    0.140  203.313   92.986
  452.000   12.910    0.346    0.142  202.834   99.567
  452.250   12.231    0.333    0.148  202.849  102.562
