~VERSION INFORMATION
 VERS.                 2.0:   CWLS LOG ASCII STANDARD -VERSION 2.0
 WRAP.                  NO:   ONE LINE PER DEPTH STEP
~WELL INFORMATION BLOCK
#MNEM.UNIT           DATA                    DESCRIPTION OF MNEMONIC
#---------    -------------------            -------------------------------
# Generated from Intellog Unique Number	CS_77_79/WELL/1002
WELL.         MAYNARD ET AL THORNBURY        : Well_name    - WELL
LOC .         00/11-29-079-11W4/0            : Location     - LOCATION
UWI .         00/11-29-079-11W4/0            : Uwi          - UNIQUE WELL ID
ENTR.         JHS                            : Entered      - ENTERED BY
SRVC.         SCHLUMBERGER                   : Scn          - SERVICE COMPANY
STRT.M        250                            : top_depth    - START DEPTH
STOP.M        495                            : bot_depth    - STOP DEPTH
STEP.M        0.25                           : increment    - STEP LENGTH
 NULL. -999.2500:NULL Value
~CURVE INFORMATION BLOCK
#MNEM UNIT       ERCB CURVE CODE    CURVE DESCRIPTION
#-----------   ------------------   ----------------------------------
DEPT.M        00 001 00 00         : DEPTH        - DEPTH
DPHI.V/V      00 890 00 00         : PHID         - DENSITY POROSITY (LIMESTONE)
NPHI.V/V      00 330 00 00         : PHIN         - NEUTRON POROSITY (LIMESTONE)
GR  .API      00 310 00 00         : GR           - GAMMA RAY
ILD .OHMM     00 120 00 00         : RESD         - DEEP RESISTIVITY (DIL)
RHOB.KG/M3    00 350 00 00         : DENS         - BULK DENSITY
~PARAMETER INFORMATION
#MNEM.UNIT           DATA             DESCRIPTION OF MNEMONIC
#---------         -----------     ------------------------------
GL  .M        690.19               : gl           - GROUND LEVEL ELEVATION
EREF.M        693.39               : kb           - ELEVATION OF DEPTH REFERENCE
DATM.M        693.39               : datum        - DATUM ELEVATION
TDD .M        500                  : tdd          - TOTAL DEPTH DRILLER
RUN .         ONE                  : Run          - RUN NUMBER
ENG .         BILL                 : Engineer     - RECORDING ENGINEER
WIT .         JIM                  : Witness      - WITNESSED BY
MUD .         GEL                  : Mud_type     - MUD TYPE
MATR.         LIMESTONE            : Logunit      - NEUTRON MATRIX
TMAX.C        22                   : BHT          - MAXIMUM RECORDED TEMPERATURE
BHTD.M        500                  : BHTDEP       - MAXIMUM RECORDED TEMPERATURE
MATR.         1                    : LOGUNIT      - NEUTRON MATRIX
RMT .C        25                   : MDTP         - TEMPERATURE OF MUD
NEUT.         1                    : NEUTRON      - NEUTRON TYPE
RESI.         0                    : RESIST       - RESISTIVITY TYPE
RMC .OHMM     0.25                 : RMC          - RESISTIVITY OF MUD CAKE
RMF .OHMM     0.25                 : RMF          - RESISTIVITY OF MUD FILTRATE
SUFT.C        15                   : SUFT         - SURFACE TEMPERATURE
~A  DEPTH     PHID     PHIN       GR     RESD     DENS
  250.000    0.244    0.535  107.144    3.458    0.000
  250.250    0.249    0.535  104.718    3.461    0.000
  250.500    0.260    0.542   98.629    3.385    0.000
  250.750    0.271    0.557   97.432    3.225    0.000
  251.000    0.267    0.595  100.527    3.146    0.000
  251.250    0.257    0.607  103.009    2.986    0.000
  251.500    0.261    0.616  103.039    2.909    0.000
  251.750    0.270    0.618  103.676    2.914    0.000
  252.000    0.266    0.614  106.159    2.919    0.000
  252.250    0.267    0.583  110.479    2.924    0.000
  252.500    0.263    0.553  110.503    2.929    0.000
  252.750    0.229    0.545   96.452    2.934    0.000
  253.000    0.203    0.539   93.428    2.855    0.000
  253.250    0.207    0.535   94.685    2.942    0.000
  253.500    0.204    0.550   97.778    2.946    0.000
  253.750    0.240    0.567  102.087    2.951    0.000
  254.000    0.274    0.571  107.627    3.039    0.000
  254.250    0.271    0.577  104.595    3.042    0.000
  254.500    0.266    0.580  105.855    3.212    0.000
  254.750    0.263    0.566  105.889    3.300    0.000
  255.000    0.270    0.562  104.687    3.469    0.000
  255.250    0.275    0.564  104.720    3.556    0.000
  255.500    0.272    0.574  104.748    3.642    0.000
  255.750    0.265    0.573  102.950    3.728    0.000
  256.000    0.260    0.565  103.594    3.817    0.000
  256.250    0.260    0.553  105.451    3.903    0.000
  256.500    0.272    0.546  105.482    3.907    0.000
  256.750    0.273    0.546  104.903    3.913    0.000
  257.000    0.278    0.543  101.875    4.000    0.000
  257.250    0.274    0.541   98.839    4.085    0.000
  257.500    0.268    0.552   98.260    4.173    0.000
  257.750    0.269    0.554   99.516    4.260    0.000
  258.000    0.259    0.548  101.383    4.264    0.000
  258.250    0.250    0.549  104.475    4.270    0.000
  258.500    0.247    0.561  108.787    4.192    0.000
  258.750    0.241    0.571  116.783    4.197    0.000
  259.000    0.249    0.576  117.419    4.118    0.000
  259.250    0.260    0.582  114.392    4.041    0.000
  259.500    0.266    0.589  108.300    3.963    0.000
  259.750    0.259    0.582  102.206    3.886    0.000
  260.000    0.244    0.567   97.346    3.891    0.000
  260.250    0.239    0.547  103.495    4.060    0.000
  260.500    0.238    0.537  103.522    4.147    0.000
  260.750    0.244    0.524  106.009    4.399    0.000
  261.000    0.250    0.509  105.422    4.649    0.000
  261.250    0.261    0.503  103.007    5.066    0.000
  261.500    0.271    0.497  102.426    5.235    0.000
  261.750    0.272    0.485  101.227    5.322    0.000
  262.000    0.265    0.450   97.588    5.409    0.000
  262.250    0.239    0.433   89.657    5.414    0.000
  262.500    0.215    0.425   74.993    5.418    0.000
  262.750    0.204    0.435   77.474    5.588    0.000
  263.000    0.194    0.462   89.138    5.839    0.000
  263.250    0.205    0.491   98.961    6.255    0.000
  263.500    0.219    0.489  102.668    7.658    0.000
  263.750    0.221    0.449  100.249    9.803    0.000
  264.000    0.219    0.389   94.160   16.397    0.000
  264.250    0.225    0.295   86.228   25.467    0.000
  264.500    0.253    0.242   73.401   41.093    0.000
  264.750    0.360    0.196   44.048   91.147    0.000
  265.000    0.401    0.153   36.731  173.159    0.000
  265.250    0.416    0.121   33.703  189.614    0.000
  265.500    0.400    0.103   36.796  180.653    0.000
  265.750    0.388    0.098   41.725  161.037    0.000
  266.000    0.387    0.103   42.366  134.872    0.000
  266.250    0.400    0.116   41.171  112.798    0.000
  266.500    0.400    0.138   39.977   97.287    0.000
  266.750    0.412    0.159   41.231   72.755    0.000
  267.000    0.413    0.175   46.158   55.603    0.000
  267.250    0.414    0.188   48.032   43.371    0.000
  267.500    0.420    0.198   48.669   28.675    0.000
  267.750    0.430    0.215   50.536   20.540    0.000
  268.000    0.420    0.240   52.404   17.314    0.000
  268.250    0.407    0.288   56.108   14.925    0.000
  268.500    0.424    0.335   61.646   14.976    0.000
  268.750    0.438    0.436   67.194   15.855    0.000
  269.000    0.410    0.452   69.062   19.185    0.000
  269.250    0.395    0.346   68.479   24.977    0.000
  269.500    0.340    0.302   66.670   29.953    0.000
  269.750    0.314    0.269   61.190   34.928    0.000
  270.000    0.348    0.247   52.036   38.260    0.000
  270.250    0.371    0.231   44.720   37.509    0.000
  270.500    0.385    0.227   41.079   32.643    0.000
  270.750    0.368    0.238   39.889   26.962    0.000
  271.000    0.358    0.283   42.362   23.739    0.000
  271.250    0.343    0.315   48.520   19.242    0.000
  271.500    0.332    0.347   49.167   18.259    0.000
  271.750    0.322    0.366   49.192   16.865    0.000
  272.000    0.312    0.386   51.669   16.129    0.000
  272.250    0.310    0.406   57.820   15.393    0.000
  272.500    0.294    0.423   72.544   15.234    0.000
  272.750    0.285    0.436   78.087   15.321    0.000
  273.000    0.284    0.445   78.731   15.654    0.000
  273.250    0.308    0.437   76.927   15.988    0.000
  273.500    0.335    0.427   73.289   16.404    0.000
  273.750    0.332    0.436   72.698   16.738    0.000
  274.000    0.318    0.440   73.963   16.497    0.000
  274.250    0.308    0.430   73.994   16.253    0.000
  274.500    0.324    0.431   72.792   15.764    0.000
  274.750    0.317    0.428   72.823   15.193    0.000
  275.000    0.321    0.427   74.686   14.209    0.000
  275.250    0.330    0.434   80.227   12.075    0.000
  275.500    0.307    0.444   86.991   11.668    0.000
  275.750    0.282    0.451   94.368   11.673    0.000
  276.000    0.239    0.444   98.073   12.253    0.000
  276.250    0.230    0.419   91.981   13.987    0.000
  276.500    0.248    0.407   87.118   15.143    0.000
  276.750    0.284    0.404   98.780   16.465    0.000
  277.000    0.303    0.411  103.095   17.539    0.000
  277.250    0.310    0.425  106.186   18.284    0.000
  277.500    0.327    0.434  106.221   18.784    0.000
  277.750    0.371    0.440   95.225   18.871    0.000
  278.000    0.378    0.437   83.629   18.546    0.000
  278.250    0.361    0.438   83.660   18.139    0.000
  278.500    0.346    0.447   86.749   17.732    0.000
  278.750    0.339    0.446   87.393   17.244    0.000
  279.000    0.328    0.443   84.971   16.918    0.000
  279.250    0.331    0.446   87.451   16.512    0.000
  279.500    0.327    0.446   86.869   16.187    0.000
  279.750    0.319    0.437   90.575   15.862    0.000
  280.000    0.315    0.433   94.276   15.373    0.000
  280.250    0.303    0.432  100.432   14.637    0.000
  280.500    0.298    0.427  103.521   13.654    0.000
  280.750    0.294    0.427  104.166   12.589    0.000
  281.000    0.275    0.437  107.256   11.935    0.000
  281.250    0.260    0.445  103.004   11.446    0.000
  281.500    0.249    0.447   99.980   11.039    0.000
  281.750    0.241    0.449  103.065   10.550    0.000
  282.000    0.235    0.447  101.254    9.732    0.000
  282.250    0.222    0.447   98.232    9.078    0.000
  282.500    0.204    0.452  100.091    8.507    0.000
  282.750    0.187    0.462   99.514    7.771    0.000
  283.000    0.174    0.479  105.051    7.282    0.000
  283.250    0.165    0.501  108.146    6.957    0.000
  283.500    0.165    0.517  107.560    6.715    0.000
  283.750    0.177    0.529  112.488    6.555    0.000
  284.000    0.195    0.530  118.028    6.396    0.000
  284.250    0.209    0.524  123.569    6.071    0.000
  284.500    0.211    0.509  122.381    5.583    0.000
  284.750    0.195    0.503  120.576    5.176    0.000
  285.000    0.191    0.504  123.671    4.932    0.000
  285.250    0.185    0.523  124.916    4.607    0.000
  285.500    0.204    0.543  128.008    4.284    0.000
  285.750    0.206    0.570  127.426    4.041    0.000
  286.000    0.203    0.605  124.405    3.799    0.000
  286.250    0.190    0.614  124.429    3.639    0.000
