~VERSION INFORMATION
 VERS.                 2.0:   CWLS LOG ASCII STANDARD -VERSION 2.0
 WRAP.                  NO:   ONE LINE PER DEPTH STEP
~WELL INFORMATION BLOCK
#MNEM.UNIT           DATA                    DESCRIPTION OF MNEMONIC
#---------    -------------------            -------------------------------
# Generated from Intellog Unique Number	CW_82_90/WELL/3078
WELL.         11-24-087-23W4                 : Well_name    - WELL
LOC .         00/11-24-087-23W4/0            : Location     - LOCATION
UWI .         00/11-24-087-23W4/0            : Uwi          - UNIQUE WELL ID
ENTR.         MAX                            : Entered      - ENTERED BY
SRVC.         WESTERN ATLAS                  : Scn          - SERVICE COMPANY
STRT.M        121.92                         : top_depth    - START DEPTH
STOP.M        345.67                         : bot_depth    - STOP DEPTH
STEP.M        0.25                           : increment    - STEP LENGTH
 NULL. -999.2500:NULL Value
~CURVE INFORMATION BLOCK
#MNEM UNIT       ERCB CURVE CODE    CURVE DESCRIPTION
#-----------   ------------------   ----------------------------------
DEPT.M        00 001 00 00         : DEPTH        - DEPTH
ILD .OHMM     00 120 00 00         : RESD         - DEEP RESISTIVITY (DIL)
NPHI.V/V      00 330 00 00         : PHIN         - NEUTRON POROSITY (SANDSTONE)
DPHI.V/V      00 890 00 00         : PHID         - DENSITY POROSITY (SANDSTONE)
CALI.MM       00 280 01 00         : CAL          - CALIPER
GR  .API      00 310 00 00         : GR           - GAMMA RAY
~PARAMETER INFORMATION
#MNEM.UNIT           DATA             DESCRIPTION OF MNEMONIC
#---------         -----------     ------------------------------
GL  .M        539.496              : gl           - GROUND LEVEL ELEVATION
EREF.M        542.239              : kb           - ELEVATION OF DEPTH REFERENCE
DATM.M        539.496              : datum        - DATUM ELEVATION
TDD .M        319.126              : tdd          - TOTAL DEPTH DRILLER
RUN .         ONE                  : Run          - RUN NUMBER
ENG .         BILL                 : Engineer     - RECORDING ENGINEER
WIT .         JIM                  : Witness      - WITNESSED BY
MUD .         GEL                  : Mud_type     - MUD TYPE
MATR.         SANDSTONE            : Logunit      - NEUTRON MATRIX
TMAX.C        21.6667              : BHT          - MAXIMUM RECORDED TEMPERATURE
BHTD.M        319.126              : BHTDEP       - MAXIMUM RECORDED TEMPERATURE
MATR.         1                    : LOGUNIT      - NEUTRON MATRIX
RMT .C        20                   : MDTP         - TEMPERATURE OF MUD
NEUT.         1                    : NEUTRON      - NEUTRON TYPE
RESI.         0                    : RESIST       - RESISTIVITY TYPE
RMC .OHMM     5.2                  : RMC          - RESISTIVITY OF MUD CAKE
RMF .OHMM     5                    : RMF          - RESISTIVITY OF MUD FILTRATE
SUFT.C        -18.3333             : SUFT         - SURFACE TEMPERATURE
~A  DEPTH     RESD     PHIN     PHID      CAL       GR
# ...
  231.420    8.053    0.415    0.197  207.450  109.250
  231.670    8.050    0.396    0.200  208.427  110.127
  231.920    8.047    0.381    0.225  208.390  110.707
  232.170    8.045    0.376    0.224  208.867  111.282
  232.420    8.117    0.407    0.214  210.353  111.560
  232.670    8.189    0.416    0.209  210.321  110.639
  232.920    8.262    0.417    0.203  209.771  109.422
  233.170    8.260    0.408    0.202  206.685  108.802
  233.420    8.257    0.398    0.197  202.058  109.978
  233.670    8.179    0.414    0.197  201.516  111.157
  233.920    7.738    0.415    0.197  201.475  109.042
  234.170    7.254    0.407    0.197  205.511  111.113
  234.420    6.927    0.396    0.193  208.024  110.494
  234.670    6.925    0.387    0.193  207.983  109.276
  234.920    7.116    0.381    0.192  208.455  110.447
  235.170    7.380    0.371    0.189  208.414  112.224
  235.420    7.654    0.390    0.183  208.891  110.707
  235.670    8.084    0.396    0.176  208.859  109.492
  235.920    8.462    0.413    0.169  209.327  110.366
  236.170    8.775    0.433    0.176  210.309  112.143
  236.420    9.100    0.397    0.227  211.794  115.114
  236.670    9.612    0.404    0.237  212.781  115.094
  236.920   10.248    0.400    0.240  212.230  115.369
  237.170   11.229    0.389    0.238  211.685  113.850
  237.420   12.305    0.391    0.222  212.153  110.239
  237.670   13.118    0.387    0.208  211.102  106.029
  237.920   13.114    0.379    0.142  207.498  100.027
  238.170   12.637    0.367    0.118  205.430   89.830
  238.420   11.316    0.354    0.140  203.866   85.321
  238.670    9.328    0.352    0.177  201.280   87.993
  238.920    7.691    0.358    0.192  199.198   95.752
  239.170    6.823    0.413    0.233  198.157  105.006
  239.420    6.759    0.398    0.243  198.120  110.668
  239.670    7.271    0.377    0.236  199.602  110.049
  239.920    7.896    0.378    0.211  200.578  109.133
  240.170    8.573    0.390    0.210  201.060   98.640
  240.420    9.568    0.392    0.245  202.546   92.632
  240.670   10.877    0.395    0.281  203.523   84.832
  240.920   12.029    0.401    0.303  204.004   78.528
  241.170   12.591    0.398    0.304  204.477   73.418
  241.420   13.546    0.393    0.307  204.440   74.295
  241.670   13.919    0.388    0.312  204.404   74.274
  241.920   14.044    0.380    0.315  203.853   74.550
  242.170   14.040    0.370    0.313  203.803   76.327
  242.420   14.035    0.372    0.312  203.780   74.212
  242.670   13.902    0.375    0.312  203.734   75.088
  242.920   13.645    0.366    0.304  203.707   75.663
  243.170   13.641    0.390    0.244  204.679   73.246
  243.420   13.889    0.387    0.178  205.161   74.126
  243.670   13.758    0.366    0.239  204.102   77.693
  243.920   13.628    0.372    0.305  204.070   75.578
  244.170   14.133    0.384    0.307  204.028   75.856
  244.420   14.930    0.369    0.306  203.987   78.229
  244.670   15.770    0.358    0.294  203.951   80.903
  244.920   16.966    0.347    0.240  204.418   82.379
  245.170   17.758    0.315    0.215  204.382   79.964
  245.420   18.416    0.279    0.052  204.345   76.951
  245.670   18.241    0.320    0.119  204.822   74.532
  245.920   17.579    0.367    0.180  204.272   76.309
  246.170   15.597    0.383    0.295  203.736   81.674
  246.420   13.711    0.371    0.300  202.676   82.249
  246.670   13.213    0.365    0.286  201.113   83.727
  246.920   13.454    0.356    0.269  200.058   90.288
  247.170   14.342    0.345    0.256  200.530   91.763
  247.420   15.573    0.335    0.247  203.039   90.546
  247.670   17.222    0.324    0.231  204.011   90.525
  247.920   18.358    0.304    0.201  203.470   90.205
  248.170   18.186    0.294    0.045  202.415   91.079
  248.420   17.206    0.258    0.073  201.861   93.153
  248.670   15.406    0.345    0.216  200.815   96.127
  248.920   13.298    0.366    0.221  201.283  101.192
  249.170   12.016    0.372    0.208  205.323  105.660
  249.420   11.265    0.374    0.212  208.845  108.628
  249.670   10.856    0.380    0.210  208.300  110.405
  249.920   10.853    0.392    0.208  209.281  113.676
  250.170   10.850    0.385    0.208  210.772  114.847
  250.420   10.845    0.391    0.203  211.244  115.424
  250.670   10.843    0.384    0.206  211.212  113.908
  250.920   10.938    0.385    0.202  209.644  113.291
  251.170   11.036    0.387    0.196  207.566  111.774
  251.420   10.932    0.382    0.160  205.494  111.454
  251.670   10.632    0.377    0.140  202.912  115.323
  251.920   10.925    0.375    0.139  204.402  123.082
  252.170   11.331    0.386    0.199  205.388  128.444
  252.420   11.644    0.387    0.216  204.843  124.237
  252.670   12.299    0.360    0.236  201.229  116.135
  252.920   12.873    0.339    0.231  200.693  111.626
  253.170   13.473    0.352    0.222  200.147  108.613
  253.420   13.973    0.364    0.231  200.110  106.794
  253.670   14.228    0.363    0.223  200.065  109.469
  253.920   14.755    0.364    0.196  200.033  109.448
  254.170   15.301    0.364    0.186  199.991  108.829
  254.420   15.019    0.361    0.184  199.964  108.803
  254.670   14.472    0.360    0.204  199.918  108.782
  254.920   14.206    0.363    0.235  199.882  109.659
  255.170   13.688    0.368    0.236  200.359  111.132
  255.420   13.191    0.370    0.234  201.340  112.313
  255.670   12.711    0.376    0.229  202.312  114.085
  255.920   12.363    0.378    0.218  203.303  115.859
  256.170   11.913    0.376    0.209  204.794  115.542
  256.420   11.692    0.372    0.205  205.766  116.117
  256.670   11.690    0.368    0.200  205.225  117.594
  256.920   11.579    0.367    0.205  203.152  117.272
  257.170   11.575    0.372    0.221  201.066  113.960
  257.420   11.572    0.378    0.224  201.038  110.346
  257.670   11.568    0.383    0.228  201.006  108.832
  257.920   11.251    0.401    0.232  201.478  109.706
  258.170   10.354    0.409    0.235  202.460  109.386
  258.420    9.979    0.394    0.238  204.969  114.753
  258.670    9.705    0.406    0.234  206.964  118.919
  258.920    9.526    0.414    0.220  206.422  121.294
  259.170    7.435    0.398    0.231  200.976  111.752
  259.420    6.598    0.395    0.246  199.933  107.269
  259.670    5.697    0.366    0.222  198.884  105.461
  259.920    5.009    0.401    0.157  198.328  108.702
  260.170    4.652    0.387    0.075  198.296  109.275
  260.420    4.690    0.396    0.193  198.752  111.327
  260.670    4.994    0.405    0.236  198.705  110.411
  260.920    5.466    0.390    0.234  198.658  110.389
  261.170    5.983    0.408    0.225  198.123  110.361
  261.420    6.729    0.420    0.197  197.577  104.392
  261.670    7.233    0.394    0.140  197.535   99.018
  261.920    8.060    0.357    0.089  197.488   95.427
  262.170    8.822    0.357    0.155  197.441   93.916
  262.420    8.976    0.366    0.213  197.907  100.132
  262.670    8.969    0.355    0.199  197.362   97.433
  262.920    9.292    0.359    0.182  194.290   95.622
  263.170    9.368    0.352    0.230  194.253  101.835
  263.420    9.360    0.383    0.231  195.222  100.921
  263.670    9.182    0.391    0.223  195.180   99.410
  263.920    9.091    0.379    0.200  198.152   97.602
  264.170    8.835    0.405    0.131  202.141  102.927
  264.420    8.670    0.405    0.174  203.609  109.143
  264.670    8.199    0.407    0.192  203.567  111.790
  264.920    8.118    0.413    0.185  204.017  110.279
  265.170    8.035    0.429    0.178  204.489  110.845
  265.420    8.029    0.428    0.202  204.945  111.418
  265.670    8.319    0.441    0.220  202.890  112.582
  265.920    8.465    0.412    0.219  201.836  115.829
  266.170    8.852    0.412    0.211  204.813  120.856
  266.420    9.255    0.417    0.205  208.299  119.937
  266.670    9.947    0.416    0.210  203.225  112.482
  266.920   10.985    0.389    0.221  198.150  106.514
  267.170   12.356    0.354    0.231  196.598  102.919
  267.420   13.900    0.341    0.230  197.557   99.629
  267.670   16.214    0.325    0.225  196.504   96.332
