~VERSION INFORMATION
 VERS.                 2.0:   CWLS LOG ASCII STANDARD -VERSION 2.0
 WRAP.                  NO:   ONE LINE PER DEPTH STEP
~WELL INFORMATION BLOCK
#MNEM.UNIT           DATA                    DESCRIPTION OF MNEMONIC
#---------    -------------------            -------------------------------
# Generated from Intellog Unique Number	CW_82_90/WELL/3440
WELL.         TEXACO CORN LAKE               : Well_name    - WELL
LOC .         00/10-21-088-25W4/0            : Location     - LOCATION
UWI .         00/10-21-088-25W4/0            : Uwi          - UNIQUE WELL ID
ENTR.         MAX                            : Entered      - ENTERED BY
SRVC.         SCHLUMBERGER                   : Scn          - SERVICE COMPANY
STRT.M        260                            : top_depth    - START DEPTH
STOP.M        462                            : bot_depth    - STOP DEPTH
STEP.M        0.25                           : increment    - STEP LENGTH
 NULL. -999.2500:NULL Value
~CURVE INFORMATION BLOCK
#MNEM UNIT       ERCB CURVE CODE    CURVE DESCRIPTION
#-----------   ------------------   ----------------------------------
DEPT.M        00 001 00 00         : DEPTH        - DEPTH
ILD .OHMM     00 120 00 00         : RESD         - DEEP RESISTIVITY (DIL)
NPHI.V/V      00 330 00 00         : PHIN         - NEUTRON POROSITY (SANDSTONE)
DPHI.V/V      00 890 00 00         : PHID         - DENSITY POROSITY (SANDSTONE)
CALI.MM       00 280 01 00         : CAL          - CALIPER
GR  .API      00 310 00 00         : GR           - GAMMA RAY
~PARAMETER INFORMATION
#MNEM.UNIT           DATA             DESCRIPTION OF MNEMONIC
#---------         -----------     ------------------------------
GL  .M        659.7                : gl           - GROUND LEVEL ELEVATION
EREF.M        663                  : kb           - ELEVATION OF DEPTH REFERENCE
DATM.M        659.7                : datum        - DATUM ELEVATION
TDD .M        465.5                : tdd          - TOTAL DEPTH DRILLER
RUN .         ONE                  : Run          - RUN NUMBER
ENG .         BILL                 : Engineer     - RECORDING ENGINEER
WIT .         JIM                  : Witness      - WITNESSED BY
MUD .         GEL                  : Mud_type     - MUD TYPE
MATR.         SANDSTONE            : Logunit      - NEUTRON MATRIX
TMAX.C        33.4                 : BHT          - MAXIMUM RECORDED TEMPERATURE
BHTD.M        465.5                : BHTDEP       - MAXIMUM RECORDED TEMPERATURE
MATR.         1                    : LOGUNIT      - NEUTRON MATRIX
RMT .C        15.6                 : MDTP         - TEMPERATURE OF MUD
NEUT.         1                    : NEUTRON      - NEUTRON TYPE
RESI.         0                    : RESIST       - RESISTIVITY TYPE
RMC .OHMM     2.17                 : RMC          - RESISTIVITY OF MUD CAKE
RMF .OHMM     2.17                 : RMF          - RESISTIVITY OF MUD FILTRATE
SUFT.C        -5                   : SUFT         - SURFACE TEMPERATURE
~A  DEPTH     RESD     PHIN     PHID      CAL       GR
# ...
  369.500    5.421    0.513    0.302  222.343   92.024
  369.750    5.082    0.526    0.286  222.362   93.525
  370.000    4.765    0.507    0.286  222.382   95.618
  370.250    4.264    0.518    0.308  222.894   99.200
  370.500    3.677    0.548    0.313  223.906  102.186
  370.750    3.291    0.604    0.308  228.886  105.174
  371.000    2.973    0.623    0.314  228.409  106.079
  371.250    2.686    0.652    0.327  226.941  108.174
  371.500    2.565    0.646    0.342  228.944  110.564
  371.750    2.639    0.639    0.332  230.949  113.254
  372.000    2.740    0.647    0.311  232.952  115.946
  372.250    2.980    0.634    0.318  233.961  116.550
  372.500    3.395    0.622    0.334  234.972  112.099
  372.750    3.868    0.510    0.325  234.002  106.160
  373.000    4.325    0.504    0.310  229.558  104.982
  373.250    4.661    0.519    0.322  228.090  106.780
  373.500    4.707    0.532    0.294  226.625  109.170
  373.750    4.665    0.532    0.306  229.123  112.157
  374.000    4.667    0.550    0.304  230.134  114.252
  374.250    4.757    0.558    0.256  229.160  112.184
  374.500    5.031    0.567    0.242  226.204  110.411
  374.750    5.224    0.560    0.245  224.736  108.634
  375.000    5.105    0.482    0.257  221.016  106.649
  375.250    5.160    0.452    0.189  220.590  102.555
  375.500    5.075    0.460    0.198  224.111  102.299
  375.750    4.946    0.473    0.229  227.623   99.086
  376.000    4.690    0.484    0.267  225.229   91.748
  376.250    4.654    0.491    0.286  224.795   86.467
  376.500    4.620    0.488    0.291  219.948   82.673
  376.750    4.543    0.477    0.275  217.546   81.822
  377.000    4.468    0.474    0.290  217.120   81.867
  377.250    4.356    0.458    0.321  217.688   82.788
  377.500    4.284    0.452    0.334  217.279   85.196
  377.750    4.292    0.461    0.332  216.837   90.256
  378.000    4.260    0.463    0.315  216.912   96.203
  378.250    4.150    0.489    0.295  216.970  100.673
  378.500    3.863    0.503    0.287  217.045  104.562
  378.750    3.404    0.524    0.286  217.596  104.302
  379.000    3.000    0.540    0.279  222.093  106.129
  379.250    2.742    0.591    0.290  230.536  108.812
  379.500    2.698    0.583    0.312  232.088  113.588
  379.750    2.829    0.580    0.319  231.662  109.783
  380.000    2.993    0.594    0.308  231.237  104.803
  380.250    3.378    0.560    0.299  230.820  100.999
  380.500    3.810    0.527    0.287  228.409   96.018
  380.750    4.338    0.493    0.321  220.108   95.468
  381.000    4.592    0.475    0.322  219.682   98.166
  381.250    4.558    0.487    0.316  219.265  101.164
  381.500    4.204    0.514    0.311  218.840  103.567
  381.750    3.913    0.526    0.303  218.898  105.379
  382.000    3.922    0.549    0.312  220.450  107.191
  382.250    4.111    0.575    0.337  222.970  108.117
  382.500    4.682    0.586    0.337  225.523  106.680
  382.750    5.479    0.550    0.242  221.635  101.404
  383.000    6.069    0.511    0.218  220.233   95.538
  383.250    6.192    0.484    0.209  221.768   94.992
  383.500    6.375    0.458    0.189  222.328   95.328
  383.750    7.131    0.424    0.168  221.919   92.410
  384.000    7.753    0.392    0.138  221.969   85.957
  384.250    8.668    0.348    0.106  222.044   80.671
  384.500    9.431    0.289    0.074  221.610   75.396
  384.750    8.943    0.262    0.061  221.185   76.617
  385.000    7.664    0.297    0.116  220.759   85.232
  385.250    6.878    0.387    0.172  220.342   92.059
  385.500    6.462    0.428    0.211  220.418   99.192
  385.750    6.128    0.441    0.225  220.484  102.776
  386.000    5.917    0.468    0.236  220.059  107.257
  386.250    5.663    0.468    0.235  219.625  109.069
  386.500    5.568    0.463    0.241  220.184  108.813
  386.750    5.577    0.468    0.236  221.235  107.076
  387.000    5.692    0.477    0.228  221.794  105.935
  387.250    5.702    0.470    0.244  221.870  105.980
  387.500    5.818    0.474    0.240  221.945  105.430
  387.750    5.988    0.480    0.232  222.495  105.465
  388.000    5.785    0.483    0.212  222.562  106.100
  388.250    5.739    0.487    0.214  222.629  106.431
  388.500    5.750    0.491    0.223  223.188  106.476
  388.750    5.551    0.492    0.215  224.748  107.702
  389.000    5.217    0.474    0.218  225.799  107.152
  389.250    4.855    0.474    0.224  228.319  106.892
  389.500    4.646    0.502    0.222  230.855  107.232
  389.750    4.446    0.526    0.209  232.899  108.458
  390.000    4.333    0.537    0.217  231.481  108.789
  390.250    4.461    0.492    0.211  228.102  109.119
  390.500    5.080    0.461    0.210  231.615  110.931
  390.750    5.528    0.453    0.227  234.626  112.458
  391.000    5.639    0.453    0.237  238.139  109.545
  391.250    5.750    0.459    0.237  242.143  109.285
  391.500    5.868    0.468    0.242  238.281  110.806
  391.750    5.932    0.475    0.250  233.909  111.142
  392.000    6.108    0.484    0.231  228.561  109.995
  392.250    6.523    0.496    0.214  224.198  105.901
  392.500    7.029    0.482    0.192  219.852  101.216
  392.750    8.077    0.431    0.127  219.410   95.344
  393.000    9.368    0.349    0.088  218.984   85.934
  393.250   10.767    0.297    0.070  221.521   81.849
  393.500   11.498    0.260    0.096  222.572   81.879
  393.750   11.309    0.260    0.145  223.640   90.189
  394.000    9.345    0.351    0.181  224.190   99.094
  394.250    6.733    0.394    0.206  226.226  105.040
  394.500    6.155    0.421    0.234  228.754  109.220
  394.750    5.891    0.459    0.249  226.351  110.737
  395.000    5.952    0.460    0.248  222.973  110.486
  395.250    6.244    0.450    0.241  225.017  110.226
  395.500    6.253    0.478    0.238  223.123  109.971
  395.750    6.038    0.482    0.238  221.713  109.716
  396.000    5.832    0.458    0.239  221.271  108.574
  396.250    5.737    0.447    0.247  220.854  106.847
  396.500    5.591    0.447    0.254  218.960  103.339
  396.750    5.348    0.449    0.251  218.034  101.321
  397.000    5.261    0.463    0.228  218.109  100.761
  397.250    5.269    0.477    0.215  218.168   98.148
  397.500    5.326    0.489    0.203  217.742   95.820
  397.750    5.287    0.459    0.183  217.817   92.322
  398.000    5.248    0.406    0.209  217.876   92.952
  398.250    5.210    0.422    0.262  217.959   97.122
  398.500    5.413    0.457    0.284  218.010   99.540
  398.750    5.780    0.460    0.290  218.569  100.160
  399.000    6.462    0.438    0.286  219.136  101.387
  399.250    7.496    0.432    0.263  219.211   99.355
  399.500    8.533    0.417    0.213  219.770   92.602
  399.750   10.267    0.397    0.152  220.321   81.710
  400.000   11.802    0.338    0.059  221.389   77.325
  400.250   11.928    0.243    0.081  222.432   80.318
  400.500   11.204    0.281    0.105  222.982   85.970
  400.750    9.432    0.358    0.142  224.033   95.756
  401.000    8.086    0.395    0.171  225.093  103.194
  401.250    7.323    0.430    0.208  226.136  108.545
  401.500    6.883    0.462    0.217  228.180  112.124
  401.750    6.830    0.482    0.212  228.247  109.807
  402.000    6.656    0.497    0.230  229.306  107.184
  402.250    6.546    0.498    0.262  227.404  105.452
  402.500    6.678    0.457    0.249  226.979  108.455
  402.750    6.939    0.406    0.226  229.498  112.625
  403.000    7.279    0.424    0.223  236.456  116.504
  403.250    7.491    0.472    0.221  241.462  113.596
  403.500    7.573    0.495    0.215  239.568  111.874
  403.750    7.451    0.505    0.207  235.188  110.723
  404.000    7.328    0.454    0.191  228.865  110.768
  404.250    7.206    0.421    0.168  227.939  113.471
  404.500    7.021    0.416    0.154  227.038  115.568
  404.750    6.971    0.436    0.181  227.096  119.743
  405.000    6.919    0.446    0.235  229.616  121.850
  405.250    7.061    0.450    0.216  237.066  124.258
  405.500    6.879    0.454    0.233  242.080  123.422
  405.750    6.642    0.457    0.223  236.223  122.566
