~VERSION INFORMATION
 VERS.                 2.0:   CWLS LOG ASCII STANDARD -VERSION 2.0
 WRAP.                  NO:   ONE LINE PER DEPTH STEP
~WELL INFORMATION BLOCK
#MNEM.UNIT           DATA                    DESCRIPTION OF MNEMONIC
#---------    -------------------            -------------------------------
# Generated from Intellog Unique Number	CW_73_75/WELL/2741
WELL.         TRICENT ER AL MITSUE 10-17     : Well_name    - WELL
LOC .         00/10-17-073-04W5/0            : Location     - LOCATION
UWI .         00/10-17-073-04W5/0            : Uwi          - UNIQUE WELL ID
ENTR.         JAYE                           : Entered      - ENTERED BY
SRVC.         SCHLUMBERGER                   : Scn          - SERVICE COMPANY
DATE.         14 MAR 80                      : Date         - LOG DATE
STRT.M        365                            : top_depth    - START DEPTH
STOP.M        595                            : bot_depth    - STOP DEPTH
STEP.M        0.25                           : increment    - STEP LENGTH
 NULL. -999.2500:NULL Value
~CURVE INFORMATION BLOCK
#MNEM UNIT       ERCB CURVE CODE    CURVE DESCRIPTION
#-----------   ------------------   ----------------------------------
DEPT.M        00 001 00 00         : DEPTH        - DEPTH
DPHI.V/V      00 890 00 00         : PHID         - DENSITY POROSITY (SANDSTONE)
NPHI.V/V      00 330 00 00         : PHIN         - NEUTRON POROSITY (SANDSTONE)
GR  .API      00 310 00 00         : GR           - GAMMA RAY
CALI.MM       00 280 01 00         : CAL          - CALIPER
ILD .OHMM     00 120 00 00         : RESD         - DEEP RESISTIVITY (DIL)
~PARAMETER INFORMATION
#MNEM.UNIT           DATA             DESCRIPTION OF MNEMONIC
#---------         -----------     ------------------------------
GL  .M        580.4                : gl           - GROUND LEVEL ELEVATION
EREF.M        585                  : kb           - ELEVATION OF DEPTH REFERENCE
DATM.M        580.4                : datum        - DATUM ELEVATION
TDD .M        1650                 : tdd          - TOTAL DEPTH DRILLER
RUN .         ONE                  : Run          - RUN NUMBER
ENG .         HOOK                 : Engineer     - RECORDING ENGINEER
WIT .         ZBIOI                : Witness      - WITNESSED BY
BASE.         5720                 : Branch       - HOME BASE OF LOGGING UNIT
MUD .         GEL CHEM             : Mud_type     - MUD TYPE
MATR.         SANDSTONE            : Logunit      - NEUTRON MATRIX
TMAX.C        48                   : BHT          - MAXIMUM RECORDED TEMPERATURE
BHTD.M        1651                 : BHTDEP       - MAXIMUM RECORDED TEMPERATURE
RMT .C        20                   : MDTP         - TEMPERATURE OF MUD
MUDD.KG/M     1070                 : MWT          - MUD DENSITY
NEUT.         1                    : NEUTRON      - NEUTRON TYPE
RESI.         0                    : RESIST       - RESISTIVITY TYPE
RM  .OHMM     1.18                 : RM           - RESISTIVITY OF MUD
RMC .OHMM     0                    : RMC          - RESISTIVITY OF MUD CAKE
RMF .OHMM     0.616                : RMF          - RESISTIVITY OF MUD FILTRATE
SUFT.C        0                    : SUFT         - SURFACE TEMPERATURE
~A  DEPTH     PHID     PHIN       GR      CAL     RESD
# ...
  511.000    0.241    0.441   81.145  287.481    5.418
  511.250    0.249    0.432   80.932  285.685    5.479
  511.500    0.236    0.418   84.061  287.076    5.563
  511.750    0.224    0.430   86.445  288.475    5.627
  512.000    0.215    0.450   88.584  288.735    5.597
  512.250    0.211    0.441   88.432  289.207    5.404
  512.500    0.223    0.428   87.968  289.360    5.324
  512.750    0.221    0.433   87.572  289.316    5.267
  513.000    0.216    0.440   87.356  289.167    5.256
  513.250    0.211    0.451   86.834  288.301    5.317
  513.500    0.213    0.453   87.669  288.036    5.409
  513.750    0.218    0.443   89.559  287.371    5.491
  514.000    0.221    0.427   89.100  286.705    5.607
  514.250    0.225    0.423   87.274  285.212    5.779
  514.500    0.227    0.437   85.450  284.239    6.037
  514.750    0.231    0.457   85.111  282.538    6.150
  515.000    0.235    0.464   85.270  281.146    6.246
  515.250    0.245    0.457   86.481  278.832    6.259
  515.500    0.247    0.447   88.555  275.171    6.133
  515.750    0.215    0.442   90.878  276.363    5.963
  516.000    0.207    0.440   93.513  279.107    5.734
  516.250    0.200    0.482   95.774  279.264    5.545
  516.500    0.188    0.487   95.934  278.190    5.343
  516.750    0.187    0.480   93.364  277.724    5.147
  517.000    0.187    0.470   90.612  276.437    5.005
  517.250    0.180    0.463   92.689  274.425    4.914
  517.500    0.194    0.448   94.022  270.873    4.917
  517.750    0.222    0.437   95.048  268.145    4.961
  518.000    0.233    0.443   96.626  265.104    5.152
  518.250    0.245    0.481  101.305  261.134    5.493
  518.500    0.239    0.469  104.246  256.751    5.945
  518.750    0.240    0.454   92.517  250.722    6.567
  519.000    0.241    0.444   80.664  247.373    7.132
  519.250    0.242    0.439   76.922  247.527    7.491
  519.500    0.241    0.437   79.375  248.520    7.450
  519.750    0.236    0.427   82.313  248.470    6.837
  520.000    0.225    0.419   85.565  249.655    6.145
  520.250    0.208    0.406   87.706  252.291    5.554
  520.500    0.192    0.408   88.110  257.094    5.244
  520.750    0.177    0.423   87.961  261.283    5.138
  521.000    0.198    0.436   87.743  265.770    5.072
  521.250    0.186    0.434   88.767  270.987    5.054
  521.500    0.206    0.425   90.347  275.067    4.961
  521.750    0.206    0.428   91.994  277.285    4.861
  522.000    0.198    0.443   93.942  277.755    4.779
  522.250    0.195    0.451   95.771  275.129    4.648
  522.500    0.187    0.448   97.104  275.186    4.572
  522.750    0.181    0.453   95.593  277.921    4.514
  523.000    0.209    0.450   91.787  277.773    4.463
  523.250    0.207    0.451   90.580  278.137    4.407
  523.500    0.230    0.435   93.647  280.872    4.391
  523.750    0.224    0.431   94.547  281.034    4.516
  524.000    0.207    0.439   93.775  280.990    4.620
  524.250    0.207    0.436   94.367  280.215    4.717
  524.500    0.208    0.423   97.001  281.514    4.718
  524.750    0.200    0.441   97.347  281.772    4.623
  525.000    0.207    0.461   96.016  281.415    4.521
  525.250    0.196    0.456   95.186  281.371    4.341
  525.500    0.188    0.454   94.596  281.940    4.190
  525.750    0.184    0.459   93.458  283.544    3.968
  526.000    0.198    0.482   92.434  286.794    3.739
  526.250    0.213    0.493   89.622  292.939    3.602
  526.500    0.235    0.483   89.160  288.764    3.557
  526.750    0.254    0.465   91.729  300.171    3.576
  527.000    0.254    0.454   93.931  301.153    3.700
  527.250    0.216    0.448   94.397  282.945    3.849
  527.500    0.202    0.445   94.060  284.140    4.064
  527.750    0.191    0.439   94.096  286.358    4.407
  528.000    0.175    0.432   94.496  287.038    4.639
  528.250    0.181    0.431   93.727  287.616    4.699
  528.500    0.194    0.430   91.657  287.351    4.781
  528.750    0.196    0.432   90.327  287.720    4.836
  529.000    0.197    0.413   87.511  287.053    4.883
  529.250    0.201    0.401   83.582  284.425    4.939
  529.500    0.206    0.396   83.615  286.646    5.015
  529.750    0.204    0.402   89.344  291.550    5.082
  530.000    0.199    0.408   92.164  292.435    5.064
  530.250    0.203    0.413   91.887  293.622    5.047
  530.500    0.207    0.413   89.261  294.814    5.030
  530.750    0.200    0.411   87.744  295.189    5.010
  531.000    0.193    0.408   87.161  295.852    4.966
  531.250    0.192    0.400   86.513  296.424    4.909
  531.500    0.195    0.412   85.863  297.619    4.830
  531.750    0.208    0.427   85.528  298.809    4.812
  532.000    0.216    0.433   85.003  300.203    4.868
  532.250    0.228    0.431   84.231  300.259    4.979
  532.500    0.246    0.442   83.274  300.213    5.200
  532.750    0.260    0.473   82.011  300.473    5.360
  533.000    0.276    0.494   80.682  301.258    5.452
  533.250    0.293    0.521   79.474  301.621    5.474
  533.500    0.319    0.545   79.138  302.910    5.157
  533.750    0.362    0.485   80.655  309.156    4.705
  534.000    0.388    0.464   86.631  322.730    4.498
  534.250    0.295    0.453   91.493  335.576    4.543
  534.500    0.181    0.444   89.978  356.063    4.560
  534.750    0.175    0.415   87.600  340.645    4.605
  535.000    0.206    0.386   86.083  323.674    4.684
  535.250    0.210    0.393   85.807  306.710    4.792
  535.500    0.187    0.418   85.039  310.166    4.938
  535.750    0.204    0.448   84.886  312.288    5.033
  536.000    0.231    0.468   84.483  313.473    5.052
  536.250    0.298    0.491   83.465  314.355    5.101
  536.500    0.358    0.503   80.900  315.133    5.036
  536.750    0.446    0.517   78.516  324.269    4.916
  537.000    0.485    0.528   76.696  341.555    4.773
  537.250    0.464    0.520   78.461  367.407    4.607
  537.500    0.423    0.504   82.517  361.890    4.471
  537.750    0.399    0.482   84.593  358.024    4.298
  538.000    0.360    0.456   84.008  344.975    4.157
  538.250    0.294    0.441   81.317  333.167    4.127
  538.500    0.202    0.422   78.442  322.288    4.174
  538.750    0.217    0.424   74.514  316.977    4.385
  539.000    0.219    0.392   72.010  314.762    4.578
  539.250    0.215    0.378   72.476  311.928    4.936
  539.500    0.203    0.368   72.635  312.709    5.442
  539.750    0.206    0.378   72.294  311.426    6.070
  540.000    0.215    0.393   71.213  309.524    6.630
  540.250    0.227    0.401   69.764  307.413    7.160
  540.500    0.239    0.411   67.379  305.810    8.090
  540.750    0.241    0.421   63.884  303.288    8.836
  541.000    0.235    0.430   60.390  302.106    9.159
  541.250    0.238    0.421   63.273  300.106    8.710
  541.500    0.236    0.410   67.638  297.581    8.204
  541.750    0.231    0.405   72.752  295.677    7.599
  542.000    0.223    0.403   72.784  293.968    7.309
  542.250    0.213    0.414   71.266  292.581    7.323
  542.500    0.217    0.422   70.743  291.097    7.506
  542.750    0.226    0.420   69.790  290.112    7.855
  543.000    0.231    0.414   69.017  289.346    8.184
  543.250    0.224    0.396   70.037  288.574    8.466
  543.500    0.199    0.386   70.629  286.978    8.580
  543.750    0.179    0.391   70.848  286.621    8.599
  544.000    0.156    0.395   70.633  287.399    8.714
  544.250    0.154    0.373   71.786  288.595    8.784
  544.500    0.163    0.359   72.742  288.750    8.851
  544.750    0.163    0.349   74.264  288.808    8.870
  545.000    0.162    0.348   76.215  288.452    8.854
  545.250    0.160    0.360   79.717  287.063    8.762
  545.500    0.157    0.366   82.228  285.878    8.711
  545.750    0.166    0.359   83.746  284.383    8.600
  546.000    0.183    0.370   85.327  283.102    8.455
  546.250    0.190    0.394   87.402  281.814    8.179
  546.500    0.205    0.414   89.850  280.733    7.907
  546.750    0.228    0.424   92.236  280.170    7.314
  547.000    0.266    0.469   93.136  280.429    6.977
  547.250    0.293    0.507   94.034  280.795    6.477
