~VERSION INFORMATION
 VERS.                 2.0:   CWLS LOG ASCII STANDARD -VERSION 2.0
 WRAP.                  NO:   ONE LINE PER DEPTH STEP
~WELL INFORMATION BLOCK
#MNEM.UNIT           DATA                    DESCRIPTION OF MNEMONIC
#---------    -------------------            -------------------------------
# Generated from Intellog Unique Number	CW_82_90/WELL/903
WELL.         10-24-083-19W4                 : Well_name    - WELL
LOC .         00/10-24-083-19W4/0            : Location     - LOCATION
UWI .         00/10-24-083-19W400            : Uwi          - UNIQUE WELL ID
ENTR.         JAYE                           : Entered      - ENTERED BY
SRVC.         SCHLUMBERGER                   : Scn          - SERVICE COMPANY
DATE.         20 JAN 80                      : Date         - LOG DATE
STRT.M        95                             : top_depth    - START DEPTH
STOP.M        311                            : bot_depth    - STOP DEPTH
STEP.M        0.25                           : increment    - STEP LENGTH
 NULL. -999.2500:NULL Value
~CURVE INFORMATION BLOCK
#MNEM UNIT       ERCB CURVE CODE    CURVE DESCRIPTION
#-----------   ------------------   ----------------------------------
DEPT.M        00 001 00 00         : DEPTH        - DEPTH
CALI.MM       00 280 01 00         : CAL          - CALIPER
GR  .API      00 310 00 00         : GR           - GAMMA RAY
NPHI.V/V      00 330 00 00         : PHIN         - NEUTRON POROSITY (SANDSTONE)
DPHI.V/V      00 890 00 00         : PHID         - DENSITY POROSITY (SANDSTONE)
ILD .OHMM     00 120 00 00         : RESD         - DEEP RESISTIVITY (DIL)
~PARAMETER INFORMATION
#MNEM.UNIT           DATA             DESCRIPTION OF MNEMONIC
#---------         -----------     ------------------------------
GL  .M        567.28               : gl           - GROUND LEVEL ELEVATION
EREF.M        570.48               : kb           - ELEVATION OF DEPTH REFERENCE
DATM.M        567.28               : datum        - DATUM ELEVATION
TDD .M        314                  : tdd          - TOTAL DEPTH DRILLER
RUN .         ONE                  : Run          - RUN NUMBER
ENG .         MIDDLETON            : Engineer     - RECORDING ENGINEER
WIT .         COLLET               : Witness      - WITNESSED BY
BASE.         EDMONTON             : Branch       - HOME BASE OF LOGGING UNIT
MUD .         GEL                  : Mud_type     - MUD TYPE
MATR.         SANDSTONE            : Logunit      - NEUTRON MATRIX
TMAX.C        29                   : BHT          - MAXIMUM RECORDED TEMPERATURE
BHTD.M        314                  : BHTDEP       - MAXIMUM RECORDED TEMPERATURE
RMT .C        11.1                 : MDTP         - TEMPERATURE OF MUD
MUDD.KG/M     1125                 : MWT          - MUD DENSITY
NEUT.         1                    : NEUTRON      - NEUTRON TYPE
RESI.         0                    : RESIST       - RESISTIVITY TYPE
RM  .OHMM     4.12                 : RM           - RESISTIVITY OF MUD
RMC .OHMM     0                    : RMC          - RESISTIVITY OF MUD CAKE
RMF .OHMM     16.7                 : RMF          - RESISTIVITY OF MUD FILTRATE
SUFT.C        0                    : SUFT         - SURFACE TEMPERATURE
~A  DEPTH      CAL       GR     PHIN     PHID     RESD
   95.000  239.946  116.102    0.482   -0.385    4.390
   95.250  242.715  114.916    0.478   -0.377    4.328
   95.500  243.524  114.783    0.472   -0.382    4.336
   95.750  245.262  114.591    0.476   -0.382    4.309
   96.000  246.795  114.580    0.484   -0.383    4.334
   96.250  249.358  114.450    0.512   -0.375    4.350
   96.500  250.170  114.565    0.514   -0.371    4.358
   96.750  249.330  115.298    0.510   -0.358    4.340
   97.000  247.667  114.424    0.504   -0.364    4.374
   97.250  246.312  112.559    0.501   -0.358    4.516
   97.500  244.749  110.325    0.502   -0.373    4.579
   97.750  243.189  110.129    0.500   -0.365    4.708
   98.000  240.596  110.925    0.497   -0.349    4.707
   98.250  238.625  109.123    0.491   -0.354    4.744
   98.500  236.652  102.929    0.474   -0.362    4.849
   98.750  235.605   91.540    0.446   -0.379    5.026
   99.000  236.313   75.758    0.421   -0.360    5.445
   99.250  237.743   59.913    0.348   -0.350    6.043
   99.500  241.440   51.555    0.303   -0.324   16.952
   99.750  244.723   43.443    0.297   -0.318   25.116
  100.000  246.049   41.826    0.320   -0.319   30.083
  100.250  242.221   38.969    0.344   -0.239   37.355
  100.500  241.897   37.169    0.362   -0.226   41.126
  100.750  243.532   35.119    0.354   -0.244   43.059
  101.000  244.649   33.069    0.339   -0.270   41.109
  101.250  248.758   31.206    0.347   -0.257   34.239
  101.500  252.044   28.228    0.312   -0.284   28.120
  101.750  255.331   27.722    0.315   -0.288   26.631
  102.000  263.769   28.210    0.323   -0.276   26.840
  102.250  267.054   29.003    0.333   -0.284   28.728
  102.500  253.638   29.244    0.335   -0.304   29.423
  102.750  248.057   29.233    0.328   -0.301   29.774
  103.000  251.753   28.669    0.323   -0.308   30.006
  103.250  259.676   26.680    0.322   -0.307   29.761
  103.500  260.487   25.190    0.322   -0.288   29.163
  103.750  261.811   23.755    0.318   -0.297   30.352
  104.000  262.519   22.634    0.299   -0.298   32.229
  104.250  263.329   22.503    0.305   -0.313   31.581
  104.500  270.429   22.619    0.332   -0.323   30.211
  104.750  287.733   20.259    0.339   -0.318   28.155
  105.000  289.162   21.609    0.353   -0.305   27.151
  105.250  279.767   22.715    0.357   -0.287   26.875
  105.500  266.144   23.263    0.345   -0.310   27.086
  105.750  248.605   23.318    0.330   -0.316   31.733
  106.000  223.024   23.432    0.325   -0.325   38.622
  106.250  216.410   24.165    0.324   -0.336   41.925
  106.500  231.446   26.012    0.347   -0.324   43.898
  106.750  235.867   26.188    0.346   -0.315   44.599
  107.000  230.078   25.624    0.334   -0.314   43.008
  107.250  225.734   25.616    0.331   -0.299   41.556
  107.500  229.531   27.154    0.367   -0.284   40.234
  107.750  231.681   29.001    0.370   -0.274   37.799
  108.000  233.213   31.403    0.364   -0.290   35.583
  108.250  236.295   33.993    0.352   -0.294   32.569
  108.500  241.023   36.212    0.350   -0.298   28.695
  108.750  245.957   38.307    0.359   -0.299   24.729
  109.000  248.622   44.668    0.371   -0.308   21.831
  109.250  246.856   50.104    0.381   -0.317   18.074
  109.500  239.831   59.558    0.400   -0.329   15.328
  109.750  231.673   66.910    0.417   -0.349   13.183
  110.000  232.998   72.841    0.433   -0.342   10.719
  110.250  227.211   79.017    0.441   -0.337    9.090
  110.500  234.205   84.079    0.461   -0.342    7.977
  110.750  237.491   85.927    0.486   -0.336    7.028
  111.000  233.869   84.867    0.493   -0.334    6.180
  111.250  228.596   87.454    0.490   -0.325    5.272
  111.500  228.065   89.613    0.493   -0.344    4.599
  111.750  230.836   93.316    0.507   -0.351    4.142
  112.000  233.396   94.173    0.501   -0.351    3.694
  112.250  234.828   91.752    0.490   -0.354    3.484
  112.500  235.841   93.166    0.492   -0.355    3.407
  112.750  236.239   96.247    0.519   -0.357    3.420
  113.000  235.609   96.797    0.519   -0.359    3.468
  113.250  233.635   96.480    0.493   -0.358    3.523
  113.500  230.731   94.799    0.468   -0.367    3.601
  113.750  230.720   95.780    0.473   -0.361    3.593
  114.000  233.902   98.432    0.485   -0.346    3.592
  114.250  236.670  101.640    0.493   -0.343    3.549
  114.500  238.715  102.311    0.492   -0.337    3.513
  114.750  239.116  102.919    0.487   -0.339    3.442
  115.000  237.967  103.591    0.485   -0.355    3.359
  115.250  238.365  103.957    0.495   -0.360    3.259
  115.500  241.340  104.564    0.502   -0.351    3.136
  115.750  253.285  104.497    0.498   -0.351    3.086
  116.000  254.405  103.188    0.485   -0.339    3.012
  116.250  244.184  101.137    0.518   -0.325    2.934
  116.500  239.014   99.274    0.523   -0.315    2.886
  116.750  235.392   97.595    0.522   -0.318    2.840
  117.000  239.500   96.412    0.524   -0.322    2.805
  117.250  244.331   95.661    0.525   -0.321    2.765
  117.500  242.978   93.735    0.511   -0.319    2.748
  117.750  248.426   90.199    0.546   -0.312    2.759
  118.000  246.452   86.975    0.548   -0.305    2.786
  118.250  240.873   82.142    0.535   -0.297    2.842
  118.500  233.743   76.628    0.492   -0.312    3.390
  118.750  228.060   69.135    0.454   -0.321    4.599
  119.000  220.725   59.599    0.421   -0.317    5.791
  119.250  216.691   57.241    0.403   -0.339    7.105
  119.500  218.119   55.623    0.401   -0.359    8.770
  119.750  219.034   53.265    0.379   -0.389    9.483
  120.000  220.254   52.082    0.366   -0.406    9.311
  120.250  219.933   54.051    0.430   -0.380    8.907
  120.500  219.712   57.569    0.453   -0.335    8.520
  120.750  220.523   59.602    0.449   -0.315    7.940
  121.000  219.888   61.694    0.443   -0.328    7.445
  121.250  220.697   63.357    0.440   -0.352    6.910
  121.500  221.406   67.060    0.430   -0.370    6.799
  121.750  221.392   69.401    0.441   -0.372    6.649
  122.000  221.687   70.630    0.455   -0.349    6.581
  122.250  221.466   70.127    0.453   -0.338    6.515
  122.500  221.862   69.191    0.451   -0.336    6.409
  122.750  222.468   71.222    0.453   -0.334    6.256
  123.000  223.278   72.576    0.452   -0.335    6.093
  123.250  223.675   72.814    0.449   -0.326    5.971
  123.500  225.001   71.011    0.444   -0.334    5.922
  123.750  225.606   71.250    0.438   -0.328    5.921
  124.000  227.034   72.170    0.437   -0.328    6.040
  124.250  228.257   73.274    0.430   -0.329    5.990
  124.500  230.511   74.008    0.441   -0.322    5.870
  124.750  233.693   76.783    0.466   -0.324    5.740
  125.000  243.163   78.011    0.480   -0.325    5.558
  125.250  253.973   80.229    0.486   -0.340    5.359
  125.500  254.989   81.520    0.489   -0.333    5.065
  125.750  246.211   83.428    0.489   -0.323    4.797
  126.000  256.816   84.100    0.484   -0.328    4.471
  126.250  267.006   87.184    0.471   -0.316    3.987
  126.500  266.066   90.083    0.471   -0.326    3.701
  126.750  262.030   91.187    0.475   -0.347    3.491
  127.000  265.622   91.117    0.494   -0.357    3.359
  127.250  265.095   88.943    0.497   -0.352    3.272
  127.500  254.152   84.914    0.493   -0.331    3.311
  127.750  246.817   83.174    0.488   -0.333    3.391
  128.000  241.547   82.174    0.458   -0.350    3.652
  128.250  234.932   81.610    0.456   -0.348    3.785
  128.500  232.446   81.105    0.467   -0.337    3.846
  128.750  231.709   86.108    0.515   -0.335    3.457
  129.000  230.149   94.077    0.545   -0.317    3.089
  129.250  234.052   96.174    0.557   -0.297    2.657
  129.500  241.562   96.969    0.548   -0.306    2.496
  129.750  236.910   94.237    0.536   -0.314    2.461
  130.000  235.246   92.807    0.560   -0.297    2.416
  130.250  247.706   92.116    0.556   -0.315    2.411
  130.500  245.936   92.419    0.549   -0.318    2.425
  130.750  238.088   93.400    0.528   -0.319    2.405
  131.000  232.096   94.071    0.535   -0.329    2.400
  131.250  233.110   93.506    0.531   -0.316    2.399
