~VERSION INFORMATION
 VERS.                 2.0:   CWLS LOG ASCII STANDARD -VERSION 2.0
 WRAP.                  NO:   ONE LINE PER DEPTH STEP
~WELL INFORMATION BLOCK
#MNEM.UNIT           DATA                    DESCRIPTION OF MNEMONIC
#---------    -------------------            -------------------------------
# Generated from Intellog Unique Number	CS_77_79/WELL/976
WELL.         HOME OIL COMPANY               : Well_name    - WELL
LOC .         00/10-29-077-07W4/0            : Location     - LOCATION
UWI .         00/10-29-077-07W4/0            : Uwi          - UNIQUE WELL ID
ENTR.         SP                             : Entered      - ENTERED BY
SRVC.         SCHLUMBERGER                   : Scn          - SERVICE COMPANY
STRT.M        124.968                        : top_depth    - START DEPTH
STOP.M        350.218                        : bot_depth    - STOP DEPTH
STEP.M        0.25                           : increment    - STEP LENGTH
 NULL. -999.2500:NULL Value
~CURVE INFORMATION BLOCK
#MNEM UNIT       ERCB CURVE CODE    CURVE DESCRIPTION
#-----------   ------------------   ----------------------------------
DEPT.M        00 001 00 00         : DEPTH        - DEPTH
GR  .API      00 310 00 00         : GR           - GAMMA RAY
DPHI.V/V      00 890 00 00         : PHID         - DENSITY POROSITY (SANDSTONE)
NPHI.V/V      00 330 00 00         : PHIN         - NEUTRON POROSITY (SANDSTONE)
ILD .OHMM     00 120 00 00         : RESD         - DEEP RESISTIVITY (DIL)
~PARAMETER INFORMATION
#MNEM.UNIT           DATA             DESCRIPTION OF MNEMONIC
#---------         -----------     ------------------------------
GL  .M        552.054              : gl           - GROUND LEVEL ELEVATION
EREF.M        555.315              : kb           - ELEVATION OF DEPTH REFERENCE
DATM.M        552.054              : datum        - DATUM ELEVATION
TDD .M        377.038              : tdd          - TOTAL DEPTH DRILLER
RUN .         ONE                  : Run          - RUN NUMBER
ENG .         BILL                 : Engineer     - RECORDING ENGINEER
WIT .         JIM                  : Witness      - WITNESSED BY
MUD .         GEL                  : Mud_type     - MUD TYPE
MATR.         SANDSTONE            : Logunit      - NEUTRON MATRIX
TMAX.C        12.2222              : BHT          - MAXIMUM RECORDED TEMPERATURE
BHTD.M        377.038              : BHTDEP       - MAXIMUM RECORDED TEMPERATURE
MATR.         1                    : LOGUNIT      - NEUTRON MATRIX
RMT .C        25                   : MDTP         - TEMPERATURE OF MUD
NEUT.         1                    : NEUTRON      - NEUTRON TYPE
RESI.         0                    : RESIST       - RESISTIVITY TYPE
RMC .OHMM     0.25                 : RMC          - RESISTIVITY OF MUD CAKE
RMF .OHMM     0.25                 : RMF          - RESISTIVITY OF MUD FILTRATE
SUFT.C        15                   : SUFT         - SURFACE TEMPERATURE
~A  DEPTH       GR     PHID     PHIN     RESD
# ...
  168.468  104.727    0.285    0.394    9.699
  168.718  112.338    0.265    0.416    9.266
  168.968  115.938    0.261    0.436    8.556
  169.218  119.211    0.264    0.452    8.056
  169.468  117.529    0.241    0.463    7.580
  169.718  116.787    0.231    0.474    7.192
  169.968  115.545    0.238    0.481    7.139
  170.218  114.516    0.237    0.478    7.036
  170.468  113.480    0.216    0.476    7.101
  170.718  112.340    0.230    0.479    7.335
  170.968  109.396    0.238    0.486    7.573
  171.218  105.435    0.268    0.468    7.932
  171.468  100.836    0.258    0.432    8.529
  171.718  100.298    0.257    0.416    9.227
  171.968  103.912    0.252    0.422    9.560
  172.218  111.531    0.241    0.426   10.078
  172.468  121.214    0.230    0.446    9.952
  172.718  122.676    0.249    0.463    9.652
  172.968  122.880    0.256    0.478    9.360
  173.218  112.631    0.249    0.486    9.056
  173.468  106.188    0.263    0.491    9.257
  173.718   99.330    0.273    0.492    9.864
  173.968   95.656    0.283    0.479   10.692
  174.218   93.485    0.290    0.459   11.565
  174.468   94.607    0.281    0.466   12.356
  174.718   97.073    0.275    0.475   12.518
  174.968  100.475    0.274    0.479   12.393
  175.218  104.961    0.284    0.487   12.206
  175.468  103.436    0.301    0.492   11.944
  175.718   97.199    0.311    0.467   11.975
  175.968   98.123    0.313    0.430   11.984
  176.218   99.709    0.298    0.420   12.032
  176.468  100.180    0.290    0.405   12.236
  176.718   98.680    0.291    0.423   11.640
  176.968   92.910    0.297    0.440   12.818
  177.218   82.439    0.306    0.456   13.789
  177.468   71.583    0.317    0.459   15.764
  177.718   59.238    0.338    0.453   17.639
  177.968   51.103    0.351    0.422   21.108
  178.218   42.967    0.351    0.401   22.746
  178.468   43.810    0.341    0.399   24.493
  178.718   43.387    0.327    0.395   24.236
  178.968   49.161    0.280    0.395   22.955
  179.218   53.895    0.271    0.400   22.726
  179.468   58.212    0.293    0.431   23.587
  179.718   61.175    0.321    0.445   24.601
  179.968   65.260    0.336    0.457   34.823
  180.218   68.008    0.334    0.456   33.202
  180.468   74.737    0.310    0.453   22.945
  180.718   81.014    0.265    0.444   12.876
  180.968   89.067    0.257    0.448    9.862
  181.218   98.639    0.267    0.477    7.926
  181.468   87.475    0.285    0.497    6.944
  181.718   77.668    0.298    0.475    8.293
  181.968   70.156    0.309    0.452   11.649
  182.218   60.543    0.321    0.426   16.417
  182.468   58.949    0.323    0.410   20.096
  182.718   60.950    0.317    0.396   21.575
  182.968   61.350    0.308    0.399   21.068
  183.218   59.763    0.307    0.405   22.105
  183.468   60.854    0.325    0.412   21.649
  183.718   60.498    0.326    0.429   21.438
  183.968   58.513    0.322    0.438   21.237
  184.218   58.496    0.322    0.439   21.222
  184.468   59.143    0.324    0.434   21.057
  184.718   59.735    0.322    0.426   21.266
  184.968   60.090    0.313    0.420   21.175
  185.218   61.161    0.326    0.418   22.288
  185.468   60.918    0.325    0.417   22.499
  185.718   60.515    0.320    0.417   23.805
  185.968   62.401    0.329    0.414   24.212
  186.218   63.779    0.333    0.409   24.693
  186.468   65.749    0.336    0.410   24.677
  186.718   66.866    0.337    0.420   25.235
  186.968   64.671    0.324    0.421   25.631
  187.218   64.403    0.337    0.415   25.874
  187.468   65.046    0.347    0.412   26.738
  187.718   66.461    0.333    0.409   27.975
  187.968   68.720    0.334    0.406   28.783
  188.218   69.780    0.335    0.399   29.353
  188.468   68.672    0.338    0.396   29.660
  188.718   69.395    0.358    0.404   30.504
  188.968   69.716    0.346    0.416   31.028
  189.218   68.410    0.340    0.425   31.644
  189.468   70.630    0.346    0.426   32.311
  189.718   71.939    0.351    0.435   32.831
  189.968   73.004    0.357    0.436   32.918
  190.218   73.181    0.354    0.441   32.995
  190.468   71.055    0.353    0.449   33.576
  190.718   69.785    0.356    0.450   33.324
  190.968   67.714    0.354    0.446   32.966
  191.218   66.558    0.354    0.443   32.971
  191.468   65.712    0.368    0.440   33.027
  191.718   68.315    0.376    0.438   32.391
  191.968   69.058    0.368    0.446   32.470
  192.218   67.467    0.358    0.453   31.734
  192.468   67.066    0.354    0.448   31.849
  192.718   67.962    0.362    0.429   31.242
  192.968   69.652    0.362    0.415   30.633
  193.218   70.184    0.351    0.423   30.195
  193.468   68.672    0.361    0.445   30.183
  193.718   65.641    0.359    0.449   29.531
  193.968   64.732    0.358    0.434   29.637
  194.218   64.776    0.355    0.430   28.980
  194.468   65.783    0.352    0.440   29.045
  194.718   67.792    0.356    0.439   29.040
  194.968   68.650    0.352    0.438   28.912
  195.218   67.577    0.357    0.439   28.538
  195.468   65.837    0.366    0.441   29.222
  195.718   65.655    0.371    0.449   29.778
  195.968   66.219    0.362    0.454   29.236
  196.218   66.593    0.359    0.454   29.206
  196.468   66.111    0.356    0.452   28.564
  196.718   65.641    0.358    0.449   28.151
  196.968   64.678    0.356    0.451   27.860
  197.218   64.382    0.354    0.444   27.541
  197.468   64.375    0.352    0.438   27.008
  197.718   64.535    0.351    0.444   26.899
  197.968   64.936    0.349    0.460   26.575
  198.218   65.309    0.349    0.460   26.634
  198.468   65.406    0.356    0.456   26.048
  198.718   63.790    0.361    0.463   26.112
  198.968   61.535    0.360    0.465   26.105
  199.218   58.622    0.356    0.459   26.048
  199.468   57.667    0.345    0.448   25.634
  199.718   57.805    0.350    0.437   25.699
  199.968   58.773    0.350    0.434   25.162
  200.218   59.216    0.348    0.447   25.205
  200.468   59.319    0.358    0.463   25.197
  200.718   59.321    0.355    0.464   25.204
  200.968   59.300    0.349    0.448   24.725
  201.218   59.264    0.347    0.441   24.765
  201.468   59.837    0.359    0.442   24.768
  201.718   61.919    0.364    0.450   24.501
  201.968   62.357    0.353    0.457   24.360
  202.218   62.895    0.348    0.451   23.954
  202.468   61.798    0.353    0.450   23.373
  202.718   62.253    0.353    0.465   23.934
  202.968   62.656    0.350    0.474   23.893
  203.218   62.084    0.348    0.478   23.729
  203.468   60.406    0.352    0.470   23.485
  203.718   62.428    0.357    0.462   23.531
  203.968   64.308    0.363    0.460   23.014
  204.218   63.334    0.364    0.454   23.068
  204.468   59.936    0.359    0.451   23.121
  204.718   59.690    0.356    0.455   22.607
  204.968   59.663    0.357    0.452   22.684
  205.218   59.951    0.354    0.445   22.256
  205.468   61.043    0.350    0.440   21.807
  205.718   62.605    0.348    0.432   21.859
  205.968   62.914    0.346    0.433   21.903
  206.218   62.412    0.345    0.448   21.447
  206.468   62.699    0.345    0.450   21.140
  206.718   65.064    0.346    0.454   20.817
  206.968   68.109    0.346    0.456   17.391
  207.218   74.057    0.334    0.459   14.843
  207.468   80.666    0.245    0.465   12.226
  207.718   86.586    0.090    0.469    9.829
  207.968   85.064    0.095    0.462    8.369
  208.218   83.024    0.113    0.433    7.122
  208.468   89.721    0.190    0.389    6.642
  208.718   96.076    0.237    0.406    6.431
  208.968  101.892    0.251    0.420    6.219
  209.218  101.810    0.258    0.441    5.651
  209.468  102.869    0.237    0.455    5.306
  209.718  104.142    0.253    0.453    4.989
  209.968  105.596    0.241    0.460    4.764
  210.218  106.698    0.245    0.479    4.520
  210.468  107.691    0.251    0.501    4.395
  210.718  108.394    0.257    0.499    4.079
  210.968  106.442    0.254    0.513    3.797
  211.218  102.359    0.249    0.530    3.586
  211.468   99.587    0.247    0.535    3.373
  211.718   99.427    0.243    0.535    3.268
