~VERSION INFORMATION
 VERS.                 2.0:   CWLS LOG ASCII STANDARD -VERSION 2.0
 WRAP.                  NO:   ONE LINE PER DEPTH STEP
~WELL INFORMATION BLOCK
#MNEM.UNIT           DATA                    DESCRIPTION OF MNEMONIC
#---------    -------------------            -------------------------------
# Generated from Intellog Unique Number	CW_82_90/WELL/3072
WELL.         10-08-086-22W4                 : Well_name    - WELL
LOC .         00/10-08-086-22W4/0            : Location     - LOCATION
UWI .         00/10-08-086-22W4/0            : Uwi          - UNIQUE WELL ID
ENTR.         MAX                            : Entered      - ENTERED BY
SRVC.         SCHLUMBERGER                   : Scn          - SERVICE COMPANY
STRT.M        167.64                         : top_depth    - START DEPTH
STOP.M        373.39                         : bot_depth    - STOP DEPTH
STEP.M        0.25                           : increment    - STEP LENGTH
 NULL. -999.2500:NULL Value
~CURVE INFORMATION BLOCK
#MNEM UNIT       ERCB CURVE CODE    CURVE DESCRIPTION
#-----------   ------------------   ----------------------------------
DEPT.M        00 001 00 00         : DEPTH        - DEPTH
GR  .API      00 310 00 00         : GR           - GAMMA RAY
ILD .OHMM     00 120 00 00         : RESD         - DEEP RESISTIVITY (DIL)
NPHI.V/V      00 330 00 00         : PHIN         - NEUTRON POROSITY (SANDSTONE)
DPHI.V/V      00 890 00 00         : PHID         - DENSITY POROSITY (SANDSTONE)
CALI.MM       00 280 01 00         : CAL          - CALIPER
~PARAMETER INFORMATION
#MNEM.UNIT           DATA             DESCRIPTION OF MNEMONIC
#---------         -----------     ------------------------------
GL  .M        576.925              : gl           - GROUND LEVEL ELEVATION
EREF.M        580.187              : kb           - ELEVATION OF DEPTH REFERENCE
DATM.M        576.925              : datum        - DATUM ELEVATION
TDD .M        373.075              : tdd          - TOTAL DEPTH DRILLER
RUN .         ONE                  : Run          - RUN NUMBER
ENG .         BILL                 : Engineer     - RECORDING ENGINEER
WIT .         JIM                  : Witness      - WITNESSED BY
MUD .         GEL                  : Mud_type     - MUD TYPE
MATR.         SANDSTONE            : Logunit      - NEUTRON MATRIX
TMAX.C        20.5556              : BHT          - MAXIMUM RECORDED TEMPERATURE
BHTD.M        373.075              : BHTDEP       - MAXIMUM RECORDED TEMPERATURE
MATR.         1                    : LOGUNIT      - NEUTRON MATRIX
RMT .C        6.66667              : MDTP         - TEMPERATURE OF MUD
NEUT.         1                    : NEUTRON      - NEUTRON TYPE
RESI.         0                    : RESIST       - RESISTIVITY TYPE
RMC .OHMM     5.5                  : RMC          - RESISTIVITY OF MUD CAKE
RMF .OHMM     3.23                 : RMF          - RESISTIVITY OF MUD FILTRATE
SUFT.C        -15                  : SUFT         - SURFACE TEMPERATURE
~A  DEPTH       GR     RESD     PHIN     PHID      CAL
  167.640  105.351    3.518    0.581    0.261  169.775
  167.890  104.487    3.455    0.595    0.260  169.283
  168.140  104.196    3.362    0.576    0.255  169.276
  168.390  107.062    3.331    0.586    0.251  168.784
  168.640  111.365    3.301    0.598    0.252  169.749
  168.890  115.380    3.301    0.598    0.258  172.173
  169.140  117.098    3.361    0.599    0.261  174.110
  169.390  114.798    3.548    0.599    0.256  173.134
  169.640  105.607    3.919    0.598    0.244  170.210
  169.890  102.160    4.869    0.543    0.251  168.260
  170.140   90.961    6.683    0.463    0.258  167.766
  170.390   78.039    9.340    0.443    0.248  167.761
  170.640   77.174   12.141    0.465    0.236  167.267
  170.890   80.327   13.290    0.493    0.257  164.830
  171.140   82.908   13.779    0.518    0.315  162.881
  171.390   81.181   13.654    0.517    0.312  159.957
  171.640   80.317   13.652    0.495    0.315  158.006
  171.890   81.461   13.775    0.479    0.297  157.027
  172.140   82.605   13.899    0.513    0.283  157.020
  172.390   82.314   13.283    0.537    0.314  157.986
  172.640   82.023   12.243    0.522    0.319  157.981
  172.890   82.881    9.332    0.518    0.315  158.459
  173.140   84.599    7.048    0.522    0.298  158.939
  173.390   86.605    5.372    0.553    0.266  159.906
  173.640   89.185    4.819    0.587    0.246  163.301
  173.890   93.774    4.442    0.598    0.272  167.183
  174.140  100.086    4.283    0.590    0.277  169.122
  174.390  102.378    4.401    0.553    0.269  169.116
  174.640   99.504    4.817    0.536    0.252  167.651
  174.890   96.342    5.178    0.521    0.246  169.102
  175.140   94.904    5.617    0.508    0.243  172.984
  175.390   91.454    6.149    0.537    0.239  173.465
  175.640   88.293    7.106    0.551    0.281  171.514
  175.890   84.845    8.671    0.551    0.300  167.618
  176.140   77.952   11.374    0.531    0.308  165.182
  176.390   71.058   14.521    0.509    0.326  161.286
  176.640   62.156   19.573    0.485    0.344  160.308
  176.890   55.837   22.015    0.481    0.366  158.843
  177.140   51.526   20.850    0.496    0.375  158.350
  177.390   50.374   19.925    0.491    0.359  158.829
  177.640   51.519   19.566    0.488    0.352  158.823
  177.890   56.395   19.743    0.488    0.357  158.332
  178.140   60.697   20.843    0.504    0.369  157.839
  178.390   56.675   22.609    0.496    0.378  157.833
  178.640   54.374   26.607    0.491    0.361  158.312
  178.890   53.222   29.124    0.485    0.361  158.792
  179.140   53.218   31.026    0.483    0.362  158.785
  179.390   54.937   31.305    0.492    0.365  158.777
  179.640   57.229   31.020    0.507    0.369  158.287
  179.890   59.521   30.738    0.516    0.374  157.308
  180.140   60.093   31.015    0.513    0.376  157.302
  180.390   60.376   31.294    0.498    0.368  157.295
  180.640   59.511   31.576    0.495    0.366  157.288
  180.890   59.507   31.288    0.510    0.365  157.768
  181.140   60.077   30.448    0.511    0.364  157.762
  181.390   60.935   29.363    0.502    0.362  157.755
  181.640   61.792   28.574    0.505    0.357  157.747
  181.890   62.076   28.572    0.507    0.344  157.742
  182.140   60.062   28.569    0.491    0.342  157.736
  182.390   57.188   28.055    0.482    0.349  157.729
  182.640   54.887   27.301    0.476    0.352  157.723
  182.890   54.883   26.567    0.479    0.349  157.230
  183.140   55.741   25.853    0.484    0.353  156.738
  183.390   57.459   25.388    0.488    0.354  156.731
  183.640   58.603   24.482    0.496    0.353  157.211
  183.890   57.738   24.042    0.501    0.352  157.690
  184.140   56.013   23.823    0.493    0.349  157.684
  184.390   52.851   23.821    0.482    0.344  157.677
  184.640   53.134   24.475    0.476    0.337  157.670
  184.890   54.566   27.034    0.469    0.330  157.179
  185.140   53.701   31.527    0.455    0.323  156.686
  185.390   49.392   37.779    0.436    0.303  156.680
  185.640   43.646   46.939    0.353    0.209  157.160
  185.890   41.633   64.424    0.173    0.097  157.640
  186.140   46.222   61.014    0.246    0.067  157.632
  186.390   48.802   54.731    0.403    0.166  157.626
  186.640   46.789   49.991    0.449    0.324  157.619
  186.890   43.627   43.642    0.465    0.354  157.613
  187.140   43.049   40.225    0.488    0.353  157.606
  187.390   43.332   39.143    0.498    0.347  157.115
  187.640   43.325   39.496    0.495    0.343  157.108
  187.890   43.612   39.493    0.488    0.339  157.587
  188.140   43.895   39.490    0.482    0.335  157.581
  188.390   43.605   39.486    0.473    0.338  157.573
  188.640   44.175   39.483    0.466    0.346  157.569
  188.890   44.458   39.480    0.472    0.346  157.562
  189.140   44.741   39.476    0.483    0.349  157.556
  189.390   44.450   39.831    0.487    0.355  158.035
  189.640   43.585   40.190    0.490    0.355  158.027
  189.890   43.295   40.186    0.473    0.356  158.022
  190.140   43.290   40.548    0.465    0.356  158.015
  190.390   43.574   40.544    0.460    0.355  158.009
  190.640   44.145   40.541    0.468    0.354  158.489
  190.890   44.428   40.173    0.477    0.350  158.967
  191.140   44.137   40.169    0.481    0.346  159.447
  191.390   42.410   39.089    0.490    0.341  159.442
  191.640   41.833   38.385    0.494    0.340  159.436
  191.890   43.264   38.036    0.478    0.343  159.428
  192.140   45.557   37.350    0.470    0.345  159.423
  192.390   47.276   36.678    0.460    0.346  158.442
  192.640   50.428   35.371    0.459    0.346  157.952
  192.890   53.008   33.197    0.475    0.352  157.459
  193.140   55.589   28.981    0.487    0.354  157.452
  193.390   57.595   24.401    0.484    0.352  157.932
  193.640   59.886   19.635    0.469    0.338  158.410
  193.890   61.319   15.517    0.464    0.332  158.405
  194.140   65.047   12.374    0.476    0.320  158.884
  194.390   72.507   10.901    0.488    0.311  159.363
  194.640   78.531   10.324    0.515    0.283  159.359
  194.890   79.676   10.046    0.515    0.239  159.837
  195.140   75.653   10.416    0.500    0.219  160.318
  195.390   79.094   10.415    0.490    0.252  160.311
  195.640   86.267   10.044    0.503    0.252  160.304
  195.890   83.967    9.774    0.476    0.254  160.783
  196.140   84.824    9.685    0.461    0.298  160.778
  196.390   83.097   10.698    0.505    0.286  160.770
  196.640   75.630   15.786    0.513    0.279  160.765
  196.890   69.598   19.088    0.498    0.282  159.782
  197.140   62.130   27.164    0.484    0.306  162.696
  197.390   60.404   31.678    0.469    0.317  161.232
  197.640   61.836   30.002    0.470    0.317  160.253
  197.890   65.564   22.867    0.476    0.318  160.247
  198.140   68.718   19.253    0.474    0.312  160.239
  198.390   67.566   16.656    0.473    0.294  160.233
  198.640   69.859   14.806    0.483    0.287  160.228
  198.890   74.448   12.926    0.498    0.276  159.733
  199.140   78.176   11.284    0.495    0.277  160.215
  199.390   81.043   10.307    0.482    0.298  161.180
  199.640   87.067    9.940    0.482    0.301  161.174
  199.890   92.231    9.849    0.498    0.286  160.680
  200.140   92.226    9.413    0.505    0.274  161.646
  200.390   89.639    8.996    0.508    0.270  162.612
  200.640   86.764    8.995    0.505    0.289  162.120
  200.890   88.770    9.846    0.503    0.282  161.627
  201.140   88.480   10.876    0.505    0.279  162.106
  201.390   80.151   12.456    0.514    0.294  162.101
  201.640   74.980   14.137    0.523    0.326  161.121
  201.890   62.633   15.900    0.504    0.342  160.143
  202.140   61.194   19.935    0.489    0.356  159.164
  202.390   62.050   24.324    0.489    0.356  159.158
  202.640   66.062   23.457    0.498    0.354  159.639
  202.890   63.478   20.664    0.507    0.345  159.632
  203.140   65.771   15.328    0.506    0.342  159.626
  203.390   69.212   10.769    0.493    0.342  159.618
  203.640   76.098    8.283    0.481    0.326  159.612
  203.890   90.447    6.605    0.497    0.304  160.090
