~VERSION INFORMATION
 VERS.                 2.0:   CWLS LOG ASCII STANDARD -VERSION 2.0
 WRAP.                  NO:   ONE LINE PER DEPTH STEP
~WELL INFORMATION BLOCK
#MNEM.UNIT           DATA                    DESCRIPTION OF MNEMONIC
#---------    -------------------            -------------------------------
# Generated from Intellog Unique Number	CW_76_78/WELL/2584
WELL.         PETROMARK ET AL MARTIN CREEK   : Well_name    - WELL
LOC .         00/11-31-078-05W5/0            : Location     - LOCATION
UWI .         00/11-31-078-05W5/0            : Uwi          - UNIQUE WELL ID
ENTR.         MAX                            : Entered      - ENTERED BY
SRVC.         SCHLUMBERGER                   : Scn          - SERVICE COMPANY
STRT.M        325                            : top_depth    - START DEPTH
STOP.M        570                            : bot_depth    - STOP DEPTH
STEP.M        0.25                           : increment    - STEP LENGTH
 NULL. -999.2500:NULL Value
~CURVE INFORMATION BLOCK
#MNEM UNIT       ERCB CURVE CODE    CURVE DESCRIPTION
#-----------   ------------------   ----------------------------------
DEPT.M        00 001 00 00         : DEPTH        - DEPTH
ILD .OHMM     00 120 00 00         : RESD         - DEEP RESISTIVITY (DIL)
NPHI.V/V      00 330 00 00         : PHIN         - NEUTRON POROSITY (SANDSTONE)
DPHI.V/V      00 890 00 00         : PHID         - DENSITY POROSITY (SANDSTONE)
CALI.MM       00 280 01 00         : CAL          - CALIPER
GR  .API      00 310 00 00         : GR           - GAMMA RAY
~PARAMETER INFORMATION
#MNEM.UNIT           DATA             DESCRIPTION OF MNEMONIC
#---------         -----------     ------------------------------
GL  .M        658.4                : gl           - GROUND LEVEL ELEVATION
EREF.M        662.4                : kb           - ELEVATION OF DEPTH REFERENCE
DATM.M        658.4                : datum        - DATUM ELEVATION
TDD .M        1828                 : tdd          - TOTAL DEPTH DRILLER
RUN .         ONE                  : Run          - RUN NUMBER
ENG .         BILL                 : Engineer     - RECORDING ENGINEER
WIT .         JIM                  : Witness      - WITNESSED BY
MUD .         GEL                  : Mud_type     - MUD TYPE
MATR.         SANDSTONE            : Logunit      - NEUTRON MATRIX
TMAX.C        32                   : BHT          - MAXIMUM RECORDED TEMPERATURE
BHTD.M        1828                 : BHTDEP       - MAXIMUM RECORDED TEMPERATURE
RMT .C        28                   : MDTP         - TEMPERATURE OF MUD
MUDD.KG/M     1170                 : MWT          - MUD DENSITY
NEUT.         1                    : NEUTRON      - NEUTRON TYPE
RESI.         0                    : RESIST       - RESISTIVITY TYPE
RM  .OHMM     0.0926               : RM           - RESISTIVITY OF MUD
RMC .OHMM     0                    : RMC          - RESISTIVITY OF MUD CAKE
RMF .OHMM     0.0867               : RMF          - RESISTIVITY OF MUD FILTRATE
SUFT.C        -20                  : SUFT         - SURFACE TEMPERATURE
~A  DEPTH     RESD     PHIN     PHID      CAL       GR
# ...
  434.500    8.361    0.447    0.293  198.147   58.844
  434.750    8.752    0.464    0.299  198.165   57.994
  435.000    8.521    0.467    0.300  198.165   57.133
  435.250    8.296    0.443    0.295  198.319   56.883
  435.500    8.225    0.417    0.301  198.319   56.022
  435.750    8.302    0.411    0.308  198.510   53.374
  436.000    8.458    0.410    0.314  198.037   52.518
  436.250    8.538    0.412    0.316  198.037   53.760
  436.500    8.777    0.445    0.315  197.719   53.804
  436.750    9.104    0.440    0.300  197.756   52.349
  437.000    8.785    0.448    0.307  197.846   51.494
  437.250    8.634    0.451    0.316  197.919   51.537
  437.500    8.557    0.438    0.318  197.973   51.586
  437.750    8.256    0.425    0.319  198.091   51.929
  438.000    8.260    0.408    0.318  197.628   52.867
  438.250    8.338    0.423    0.314  197.701   54.714
  438.500    8.572    0.437    0.311  198.273   55.651
  438.750    9.136    0.440    0.303  198.355   54.495
  439.000    9.391    0.436    0.303  198.917   52.747
  439.250    9.062    0.442    0.297  199.499   52.795
  439.500    8.743    0.450    0.306  199.562   52.529
  439.750    8.436    0.443    0.313  199.644   52.588
  440.000    8.363    0.430    0.312  199.707   52.621
  440.250    8.754    0.422    0.319  199.789   54.463
  440.500    9.080    0.429    0.318  199.852   54.822
  440.750    9.084    0.439    0.304  200.443   54.261
  441.000    8.925    0.451    0.302  200.515   54.005
  441.250    8.231    0.456    0.295  200.588   54.337
  441.500    7.591    0.453    0.293  200.660   55.280
  441.750    7.259    0.451    0.302  201.232   56.228
  442.000    6.941    0.452    0.321  201.814   58.075
  442.250    6.517    0.448    0.327  202.376   61.109
  442.500    6.288    0.450    0.299  204.438   66.547
  442.750    6.067    0.455    0.268  209.005   76.191
  443.000    5.750    0.465    0.277  207.598   76.234
  443.250    5.598    0.479    0.280  208.660   78.370
  443.500    5.600    0.460    0.275  210.222   81.111
  443.750    5.552    0.460    0.271  212.301   82.358
  444.000    5.656    0.462    0.267  214.390   82.097
  444.250    5.920    0.469    0.264  214.962   80.353
  444.500    5.610    0.468    0.259  214.962   79.193
  444.750    5.562    0.477    0.247  215.588   79.536
  445.000    5.564    0.484    0.238  215.679   81.388
  445.250    5.669    0.473    0.252  215.734   83.219
  445.500    5.827    0.463    0.242  216.306   85.066
  445.750    5.829    0.476    0.254  214.898   81.808
  446.000    5.675    0.471    0.264  211.456   69.559
  446.250    5.234    0.451    0.281  207.034   63.310
  446.500    5.051    0.433    0.287  205.608   63.659
  446.750    5.051    0.410    0.279  205.608   66.704
  447.000    5.055    0.419    0.279  205.263   66.743
  447.250    5.057    0.434    0.283  205.345   68.295
  447.500    5.198    0.459    0.278  205.426   69.832
  447.750    5.441    0.469    0.293  204.981   67.778
  448.000    5.543    0.464    0.305  204.554   63.321
  448.250    5.545    0.451    0.291  204.645   63.669
  448.500    5.598    0.439    0.288  204.709   66.704
  448.750    5.806    0.446    0.302  205.771   71.847
  449.000    6.133    0.456    0.304  207.342   70.692
  449.250    6.596    0.449    0.303  208.413   69.842
  449.500    7.158    0.432    0.298  210.484   69.575
  449.750    8.276    0.413    0.285  211.564   69.020
  450.000   12.484    0.385    0.257  214.086   63.969
  450.250   15.146    0.306    0.160  214.182   61.026
  450.500   20.705    0.261    0.140  213.800   60.470
  450.750   19.969    0.272    0.153  213.853   62.016
  451.000   13.219    0.308    0.197  213.949   61.774
  451.250    8.057    0.354    0.221  212.534   65.133
  451.500    5.792    0.403    0.247  208.118   67.285
  451.750    5.586    0.462    0.294  204.212   69.738
  452.000    5.798    0.487    0.298  203.276   69.502
  452.250    5.798    0.488    0.289  203.361   66.245
  452.500    6.785    0.467    0.282  202.957   65.696
  452.750    7.579    0.431    0.276  200.041   68.149
  453.000    8.945    0.428    0.296  197.626   68.200
  453.250    9.200    0.433    0.283  197.222   67.351
  453.500    8.955    0.430    0.275  197.307   66.496
  453.750    8.480    0.419    0.267  197.404   65.953
  454.000    7.956    0.424    0.278  196.489   65.998
  454.250    7.397    0.427    0.280  196.053   66.963
  454.500    7.133    0.441    0.291  195.148   70.015
  454.750    6.943    0.451    0.286  195.723   68.860
  455.000    7.076    0.448    0.279  199.311   67.710
  455.250    7.016    0.450    0.289  199.407   68.969
  455.500    6.704    0.458    0.296  199.407   69.927
  455.750    6.348    0.462    0.280  199.110   70.572
  456.000    6.066    0.456    0.274  198.685   72.431
  456.250    5.744    0.434    0.291  198.749   73.383
  456.500    5.540    0.433    0.284  199.345   74.334
  456.750    5.543    0.444    0.276  199.442   74.099
  457.000    5.806    0.449    0.285  199.517   72.643
  457.250    5.863    0.444    0.272  201.135   71.787
  457.500    5.707    0.432    0.266  203.189   73.046
  457.750    5.453    0.444    0.255  207.298   75.498
  458.000    5.260    0.446    0.264  205.872   75.243
  458.250    5.215    0.439    0.249  203.957   75.294
  458.500    5.170    0.437    0.252  203.053   76.252
  458.750    5.125    0.444    0.248  205.629   78.711
  459.000    5.081    0.462    0.233  205.714   78.456
  459.250    5.130    0.464    0.228  205.714   76.106
  459.500    5.474    0.418    0.204  206.450   74.056
  459.750    5.840    0.407    0.177  205.982   75.015
  460.000    5.952    0.415    0.204  208.569   75.966
  460.250    5.954    0.429    0.219  218.170   73.923
  460.500    5.691    0.443    0.221  220.267   74.869
  460.750    5.339    0.456    0.236  220.352   78.522
  461.000    5.010    0.448    0.242  220.438   80.080
  461.250    4.966    0.451    0.257  217.522   77.424
  461.500    5.061    0.431    0.265  213.616   73.873
  461.750    5.157    0.434    0.242  214.181   75.125
  462.000    5.305    0.439    0.237  219.769   78.785
  462.250    5.305    0.421    0.225  221.366   82.738
  462.500    5.309    0.421    0.219  221.366   84.890
  462.750    5.313    0.426    0.210  221.559   83.154
  463.000    5.414    0.440    0.219  221.633   82.298
  463.250    5.672    0.431    0.228  222.209   84.457
  463.500    5.727    0.423    0.239  222.294   85.102
  463.750    5.574    0.438    0.253  222.380   82.759
  464.000    5.425    0.437    0.246  222.487   79.802
  464.250    5.378    0.451    0.239  222.083   75.952
  464.500    5.381    0.451    0.244  218.667   74.802
  464.750    5.434    0.414    0.252  210.716   75.454
  465.000    5.588    0.416    0.263  207.800   77.013
  465.250    5.748    0.438    0.258  208.897   79.165
  465.500    5.966    0.440    0.234  208.493   79.523
  465.750    6.365    0.444    0.237  208.089   78.968
  466.000    6.791    0.452    0.254  207.153   78.425
  466.250    6.794    0.468    0.263  203.747   77.276
  466.500    6.553    0.475    0.264  200.821   76.120
  466.750    6.320    0.482    0.280  198.905   72.570
  467.000    6.040    0.485    0.291  197.501   69.620
  467.250    5.615    0.485    0.288  197.587   68.783
  467.500    5.268    0.467    0.276  197.661   69.422
  467.750    5.176    0.467    0.274  197.747   66.478
  468.000    5.421    0.457    0.284  198.844   64.723
  468.250    5.946    0.426    0.295  199.941   64.780
  468.500    5.734    0.438    0.265  200.537   66.332
  468.750    5.380    0.440    0.241  201.602   68.785
  469.000    5.048    0.428    0.225  203.199   71.237
  469.250    4.913    0.417    0.201  206.286   73.090
  469.500    4.961    0.423    0.204  207.872   73.448
  469.750    5.245    0.424    0.225  208.469   74.699
  470.000    5.545    0.428    0.242  209.544   77.158
  470.250    5.970    0.424    0.237  212.141   79.611
  470.500    5.812    0.430    0.226  219.752   79.062
  470.750    5.208    0.426    0.218  220.817   77.012
