~VERSION INFORMATION
 VERS.                 2.0:   CWLS LOG ASCII STANDARD -VERSION 2.0
 WRAP.                  NO:   ONE LINE PER DEPTH STEP
~WELL INFORMATION BLOCK
#MNEM.UNIT           DATA                    DESCRIPTION OF MNEMONIC
#---------    -------------------            -------------------------------
# Generated from Intellog Unique Number	CW_79_81/WELL/222
WELL.         MEGA ET AL MISTAHAE 10-06      : Well_name    - WELL
LOC .         00/10-06-080-01W5/0            : Location     - LOCATION
UWI .         00/10-06-080-01W5/0            : Uwi          - UNIQUE WELL ID
ENTR.         JJ                             : Entered      - ENTERED BY
SRVC.         COMPUTALOG                     : Scn          - SERVICE COMPANY
DATE.         3 MAR 89                       : Date         - LOG DATE
STRT.M        285                            : top_depth    - START DEPTH
STOP.M        535                            : bot_depth    - STOP DEPTH
STEP.M        0.25                           : increment    - STEP LENGTH
 NULL. -999.2500:NULL Value
~CURVE INFORMATION BLOCK
#MNEM UNIT       ERCB CURVE CODE    CURVE DESCRIPTION
#-----------   ------------------   ----------------------------------
DEPT.M        00 001 00 00         : DEPTH        - DEPTH
DPHI.V/V      00 890 00 00         : PHID         - DENSITY POROSITY (SANDSTONE)
NPHI.V/V      00 330 00 00         : PHIN         - NEUTRON POROSITY (SANDSTONE)
GR  .API      00 310 00 00         : GR           - GAMMA RAY
CALI.MM       00 280 01 00         : CAL          - CALIPER
ILD .OHMM     00 120 00 00         : RESD         - DEEP RESISTIVITY (DIL)
~PARAMETER INFORMATION
#MNEM.UNIT           DATA             DESCRIPTION OF MNEMONIC
#---------         -----------     ------------------------------
GL  .M        605                  : gl           - GROUND LEVEL ELEVATION
EREF.M        608.64               : kb           - ELEVATION OF DEPTH REFERENCE
DATM.M        608.64               : datum        - DATUM ELEVATION
TDD .M        555                  : tdd          - TOTAL DEPTH DRILLER
RUN .         ONE                  : Run          - RUN NUMBER
ENG .         GAIR                 : Engineer     - RECORDING ENGINEER
WIT .         STRONG               : Witness      - WITNESSED BY
BASE.         RED DEER             : Branch       - HOME BASE OF LOGGING UNIT
MUD .         GEL CHEM             : Mud_type     - MUD TYPE
MATR.         SANDSTONE            : Logunit      - NEUTRON MATRIX
TMAX.C        37                   : BHT          - MAXIMUM RECORDED TEMPERATURE
BHTD.M        554.9                : BHTDEP       - MAXIMUM RECORDED TEMPERATURE
RMT .C        19                   : MDTP         - TEMPERATURE OF MUD
MUDD.KG/M     1140                 : MWT          - MUD DENSITY
NEUT.         1                    : NEUTRON      - NEUTRON TYPE
RESI.         0                    : RESIST       - RESISTIVITY TYPE
RM  .OHMM     4.1                  : RM           - RESISTIVITY OF MUD
RMC .OHMM     2.8                  : RMC          - RESISTIVITY OF MUD CAKE
RMF .OHMM     4.3                  : RMF          - RESISTIVITY OF MUD FILTRATE
SUFT.C        5                    : SUFT         - SURFACE TEMPERATURE
~A  DEPTH     PHID     PHIN       GR      CAL     RESD
# ...
  431.000    0.098    0.277   59.187  160.678   14.167
  431.250    0.138    0.300   71.320  160.638   13.149
  431.500    0.172    0.333   82.018  162.685   13.273
  431.750    0.199    0.358   87.544  166.180   15.464
  432.000    0.221    0.411   92.138  162.187   19.198
  432.250    0.246    0.421   90.681  160.284   22.203
  432.500    0.258    0.415   84.238  160.142   25.349
  432.750    0.261    0.404   75.672  160.311   28.134
  433.000    0.256    0.387   74.031  160.798   30.824
  433.250    0.250    0.390   76.689  161.478   30.562
  433.500    0.240    0.416   79.783  161.337   30.603
  433.750    0.226    0.419   80.071  161.618   31.891
  434.000    0.230    0.407   75.936  161.689   34.292
  434.250    0.231    0.395   74.789  162.168   32.505
  434.500    0.228    0.384   75.016  163.172   28.101
  434.750    0.220    0.398   77.303  161.990   22.814
  435.000    0.197    0.406   81.395  156.445   17.947
  435.250    0.206    0.397   86.050  156.719   15.008
  435.500    0.214    0.392   91.824  160.321   13.704
  435.750    0.217    0.400   87.001  161.735   14.116
  436.000    0.214    0.418   79.560  162.111   14.656
  436.250    0.203    0.419   83.279  161.975   14.361
  436.500    0.197    0.409   89.365  162.030   13.480
  436.750    0.200    0.398   91.775  162.001   12.446
  437.000    0.200    0.408   91.628  161.647   11.747
  437.250    0.200    0.430   92.104  161.615   11.236
  437.500    0.199    0.433   93.637  161.583   11.029
  437.750    0.197    0.430   96.735  162.051   11.135
  438.000    0.191    0.429   97.084  161.919   11.302
  438.250    0.182    0.429   94.197  162.091   11.474
  438.500    0.198    0.426   91.367  162.161   11.735
  438.750    0.202    0.423   91.595  162.743   12.160
  439.000    0.197    0.430   96.121  161.668   12.673
  439.250    0.193    0.450   99.655  158.721   12.957
  439.500    0.193    0.438   91.591  157.643   13.328
  439.750    0.193    0.431   91.694  157.912   13.499
  440.000    0.191    0.424   96.344  158.400   13.303
  440.250    0.191    0.420   98.317  159.915   13.009
  440.500    0.195    0.432   93.309  162.367   12.748
  440.750    0.187    0.435   89.360  164.002   12.447
  441.000    0.180    0.427   87.529  165.421   12.284
  441.250    0.187    0.415   88.561  165.483   12.240
  441.500    0.193    0.403   91.098  165.332   12.265
  441.750    0.189    0.393   91.512  165.193   12.225
  442.000    0.191    0.406   90.863  165.367   12.225
  442.250    0.199    0.419   90.596  165.329   12.271
  442.500    0.200    0.426   90.324  165.602   12.437
  442.750    0.191    0.423   90.611  165.464   12.669
  443.000    0.183    0.412   91.091  165.224   12.857
  443.250    0.172    0.408   89.884  165.599   13.154
  443.500    0.185    0.417   88.365  166.291   13.401
  443.750    0.194    0.417   86.657  167.404   13.760
  444.000    0.190    0.413   84.830  167.983   14.093
  444.250    0.186    0.403   84.802  167.526   14.656
  444.500    0.188    0.411   85.781  166.872   15.533
  444.750    0.192    0.421   89.251  166.111   16.094
  445.000    0.189    0.433   90.663  165.133   15.738
  445.250    0.185    0.433   88.272  164.474   15.136
  445.500    0.182    0.425   93.611  164.749   14.163
  445.750    0.182    0.417   99.133  165.856   13.387
  446.000    0.177    0.405   96.929  167.067   11.715
  446.250    0.173    0.393   94.227  168.066   11.075
  446.500    0.171    0.402   95.329  168.238   10.593
  446.750    0.170    0.401   96.740  167.884   10.399
  447.000    0.167    0.390   95.969  166.294   10.359
  447.250    0.160    0.384   95.194  165.010   10.229
  447.500    0.160    0.387   97.545  164.558    9.727
  447.750    0.156    0.413  101.448  165.974    9.254
  448.000    0.149    0.393  104.980  170.402    9.257
  448.250    0.157    0.387  113.126  173.278    9.411
  448.500    0.151    0.382  108.614  165.967    9.749
  448.750    0.131    0.376   98.866  164.788   10.445
  449.000    0.123    0.372   93.983  163.704   11.773
  449.250    0.154    0.393   91.716  163.362   13.141
  449.500    0.177    0.397   90.257  163.113   14.314
  449.750    0.174    0.395   87.554  163.386   16.467
  450.000    0.168    0.413   81.522  159.856   18.761
  450.250    0.190    0.410   83.791  159.724   27.737
  450.500    0.201    0.393   91.415  160.190   34.481
  450.750    0.179    0.364   80.835  161.688   41.918
  451.000    0.132    0.346   66.417  164.239   49.823
  451.250    0.135    0.312   60.428  163.049   59.115
  451.500    0.154    0.308   56.996  161.583   66.436
  451.750    0.152    0.324   60.514  164.031   75.660
  452.000    0.072    0.318   61.225  164.377   78.897
  452.250    0.067    0.298   56.309  160.829   72.073
  452.500    0.112    0.288   56.266  160.899   62.240
  452.750    0.131    0.305   58.981  162.925   52.549
  453.000    0.149    0.330   62.695  163.841   41.645
  453.250    0.167    0.360   65.254  163.857   34.904
  453.500    0.176    0.379   68.957  163.931   29.699
  453.750    0.186    0.381   72.158  163.901   25.984
  454.000    0.193    0.389   75.042  163.558   21.938
  454.250    0.201    0.400   80.046  163.066   17.617
  454.500    0.198    0.395   85.970  162.925   15.909
  454.750    0.188    0.386   98.601  162.883   14.264
  455.000    0.174    0.375   94.041  162.833   13.003
  455.250    0.155    0.393   87.877  162.787   11.985
  455.500    0.144    0.427   87.044  163.273   11.030
  455.750    0.154    0.437   90.376  165.602   10.556
  456.000    0.176    0.421   90.284  166.803   10.410
  456.250    0.178    0.416   90.268  164.085   10.595
  456.500    0.172    0.437   91.549  164.951   10.928
  456.750    0.167    0.446   93.813  167.713   11.248
  457.000    0.161    0.440   91.303  165.487   11.622
  457.250    0.161    0.427   86.560  163.083   11.875
  457.500    0.168    0.409   87.283  163.165   11.646
  457.750    0.175    0.403   87.823  163.333   11.250
  458.000    0.173    0.415   88.851  163.799   10.886
  458.250    0.169    0.404   93.283  164.670   10.459
  458.500    0.170    0.395   98.728  165.764   10.160
  458.750    0.167    0.400   99.635  166.349    9.909
  459.000    0.151    0.428   96.555  165.894    9.879
  459.250    0.139    0.440   91.696  165.122    9.887
  459.500    0.155    0.433   90.298  164.778    9.935
  459.750    0.169    0.421   92.644  164.926    9.945
  460.000    0.179    0.410   94.474  165.652    9.897
  460.250    0.183    0.399   91.969  166.907    9.943
  460.500    0.176    0.391   90.442  166.460   10.027
  460.750    0.171    0.393   92.095  164.874   10.001
  461.000    0.166    0.402   92.008  164.625   10.047
  461.250    0.154    0.404   91.856  165.913   10.189
  461.500    0.159    0.400   94.690  166.408   10.628
  461.750    0.168    0.394   94.925  166.250   10.916
  462.000    0.167    0.385   89.300  165.383   11.515
  462.250    0.152    0.373   89.406  164.630   12.280
  462.500    0.147    0.368   93.224  164.002   14.439
  462.750    0.162    0.373   92.087  163.510   16.165
  463.000    0.172    0.364   89.385  163.171   17.962
  463.250    0.190    0.351   86.256  163.038   20.957
  463.500    0.199    0.352   83.290  163.149   23.818
  463.750    0.202    0.359   81.017  163.338   27.430
  464.000    0.189    0.352   78.504  163.197   30.772
  464.250    0.170    0.341   75.429  162.738   34.713
  464.500    0.125    0.324   70.813  162.485   39.081
  464.750    0.099    0.317   65.947  161.816   43.838
  465.000    0.084    0.313   64.189  160.328   49.273
  465.250    0.098    0.314   65.517  159.461   54.053
  465.500    0.114    0.309   68.480  159.625   56.682
  465.750    0.100    0.284   61.123  161.045   57.063
  466.000    0.045    0.264   53.725  162.110   53.398
  466.250    0.023    0.220   51.522  163.009   46.289
  466.500    0.014    0.210   56.903  163.405   39.232
  466.750    0.028    0.219   58.733  163.346   32.754
  467.000    0.049    0.242   55.165  163.383   28.233
  467.250    0.073    0.267   59.994  163.576   23.399
