~VERSION INFORMATION
 VERS.                 2.0:   CWLS LOG ASCII STANDARD -VERSION 2.0
 WRAP.                  NO:   ONE LINE PER DEPTH STEP
~WELL INFORMATION BLOCK
#MNEM.UNIT           DATA                    DESCRIPTION OF MNEMONIC
#---------    -------------------            -------------------------------
# Generated from Intellog Unique Number	CW_76_78/WELL/2575
WELL.         10-09-078-26W4                 : Well_name    - WELL
LOC .         00/10-09-078-26W4/0            : Location     - LOCATION
UWI .         00/10-09-078-26W4/0            : Uwi          - UNIQUE WELL ID
ENTR.         MAX                            : Entered      - ENTERED BY
SRVC.         COMPUTALOG                     : Scn          - SERVICE COMPANY
STRT.M        300                            : top_depth    - START DEPTH
STOP.M        525                            : bot_depth    - STOP DEPTH
STEP.M        0.25                           : increment    - STEP LENGTH
 NULL. -999.2500:NULL Value
~CURVE INFORMATION BLOCK
#MNEM UNIT       ERCB CURVE CODE    CURVE DESCRIPTION
#-----------   ------------------   ----------------------------------
DEPT.M        00 001 00 00         : DEPTH        - DEPTH
ILD .OHMM     00 120 00 00         : RESD         - DEEP RESISTIVITY (DIL)
NPHI.V/V      00 330 00 00         : PHIN         - NEUTRON POROSITY (SANDSTONE)
DPHI.V/V      00 890 00 00         : PHID         - DENSITY POROSITY (SANDSTONE)
CALI.MM       00 280 01 00         : CAL          - CALIPER
GR  .API      00 310 00 00         : GR           - GAMMA RAY
~PARAMETER INFORMATION
#MNEM.UNIT           DATA             DESCRIPTION OF MNEMONIC
#---------         -----------     ------------------------------
GL  .M        595                  : gl           - GROUND LEVEL ELEVATION
EREF.M        598.9                : kb           - ELEVATION OF DEPTH REFERENCE
DATM.M        595                  : datum        - DATUM ELEVATION
TDD .M        524                  : tdd          - TOTAL DEPTH DRILLER
RUN .         ONE                  : Run          - RUN NUMBER
ENG .         BILL                 : Engineer     - RECORDING ENGINEER
WIT .         JIM                  : Witness      - WITNESSED BY
MUD .         GEL                  : Mud_type     - MUD TYPE
MATR.         SANDSTONE            : Logunit      - NEUTRON MATRIX
TMAX.C        18                   : BHT          - MAXIMUM RECORDED TEMPERATURE
BHTD.M        524                  : BHTDEP       - MAXIMUM RECORDED TEMPERATURE
RMT .C        15                   : MDTP         - TEMPERATURE OF MUD
MUDD.KG/M     1090                 : MWT          - MUD DENSITY
NEUT.         1                    : NEUTRON      - NEUTRON TYPE
RESI.         0                    : RESIST       - RESISTIVITY TYPE
RM  .OHMM     7                    : RM           - RESISTIVITY OF MUD
RMC .OHMM     0                    : RMC          - RESISTIVITY OF MUD CAKE
RMF .OHMM     8                    : RMF          - RESISTIVITY OF MUD FILTRATE
SUFT.C        -20                  : SUFT         - SURFACE TEMPERATURE
~A  DEPTH     RESD     PHIN     PHID      CAL       GR
# ...
  482.500   12.182    0.389    0.167  193.901   83.339
  482.750   12.078    0.356    0.178  193.919   87.486
  483.000   11.763    0.350    0.174  193.454   91.342
  483.250   11.351    0.351    0.162  193.486   95.198
  483.500   11.154    0.335    0.150  193.021   89.901
  483.750   11.261    0.315    0.141  193.049   90.511
  484.000   12.002    0.328    0.152  193.074   97.908
  484.250   13.143    0.347    0.154  193.105  104.422
  484.500   17.086    0.378    0.132  193.629   92.921
  484.750   20.663    0.361    0.091  193.657   75.512
  485.000   26.381    0.255    0.036  194.177   68.145
  485.250   29.683    0.225    0.111  194.198   67.869
  485.500   31.350    0.285    0.182  194.230   71.430
  485.750   31.087    0.320    0.177  194.254   75.878
  486.000   31.104    0.367    0.158  194.282   77.370
  486.250   31.688    0.351    0.137  194.310   67.936
  486.500   31.420    0.219    0.098  193.849   64.407
  486.750   29.512    0.178    0.038  193.388   63.833
  487.000   26.498    0.199    0.095  192.928   70.056
  487.250   21.933    0.267    0.137  192.928   75.386
  487.500   19.165    0.318    0.151  192.488   78.652
  487.750   17.840    0.292    0.152  192.512   91.072
  488.000   17.063    0.291    0.163  192.048  101.427
  488.250   16.615    0.294    0.160  192.048  104.695
  488.500   15.892    0.278    0.150  192.107  101.756
  488.750   15.062    0.274    0.150  193.120  100.596
  489.000   14.274    0.306    0.154  193.120  101.497
  489.250   13.050    0.306    0.159  193.172  103.583
  489.500   12.369    0.292    0.162  194.185  105.367
  489.750   12.269    0.283    0.163  194.216  107.454
  490.000   12.161    0.309    0.162  194.740  105.401
  490.250   13.079    0.339    0.162  194.761   89.770
  490.500   14.583    0.360    0.169  195.284   89.487
  490.750   14.723    0.368    0.172  195.316   93.642
  491.000   14.336    0.372    0.168  195.836   91.883
  491.250   14.088    0.360    0.174  196.356   88.061
  491.500   15.290    0.340    0.178  196.384   89.259
  491.750   16.742    0.338    0.163  196.384   94.296
  492.000   15.727    0.337    0.062  196.454   92.836
  492.250   14.119    0.289    0.052  196.468   83.404
  492.500   12.563    0.244    0.057  196.496   82.535
  492.750   11.695    0.260    0.083  196.032   85.208
  493.000   11.388    0.281    0.127  196.056   93.201
  493.250   11.292    0.369    0.166  196.088   95.580
  493.500   11.819    0.413    0.172  196.116   86.442
  493.750   12.150    0.405    0.190  196.144   78.778
  494.000   11.939    0.382    0.224  196.168   57.531
  494.250   11.214    0.376    0.264  196.196   45.144
  494.500    9.888    0.370    0.277  196.224   30.394
  494.750    7.824    0.362    0.287  196.748   26.867
  495.000    7.217    0.320    0.293  196.779   27.179
  495.250    6.658    0.324    0.294  196.807   27.196
  495.500    6.425    0.320    0.297  196.835   26.622
  495.750    6.200    0.336    0.299  196.859   26.346
  496.000    6.093    0.360    0.299  196.887   26.067
  496.250    5.933    0.368    0.299  197.408   26.082
  496.500    5.830    0.353    0.298  197.436   25.803
  496.750    5.781    0.379    0.296  197.463   24.050
  497.000    5.732    0.398    0.295  197.491   21.704
  497.250    5.684    0.388    0.297  197.027   22.312
  497.500    5.687    0.356    0.299  196.566   24.099
  497.750    5.639    0.332    0.297  196.598   25.889
  498.000    5.642    0.335    0.296  196.127   25.313
  498.250    5.645    0.339    0.293  196.127   25.037
  498.500    5.648    0.332    0.292  196.189   24.758
  498.750    5.652    0.310    0.297  195.718   24.480
  499.000    5.655    0.325    0.297  196.734   25.383
  499.250    5.658    0.338    0.291  197.750   26.583
  499.500    5.660    0.344    0.281  198.759   28.076
  499.750    5.663    0.350    0.282  199.279   29.572
  500.000    5.719    0.363    0.287  199.311   30.765
  500.250    5.721    0.358    0.285  199.342   30.784
  500.500    5.777    0.341    0.284  198.878   29.618
  500.750    5.833    0.333    0.286  198.413   29.339
  501.000    5.835    0.338    0.288  197.453   27.584
  501.250    5.839    0.357    0.288  196.005   27.012
  501.500    5.841    0.365    0.287  195.544   27.027
  501.750    5.793    0.359    0.284  195.572   27.044
  502.000    5.795    0.358    0.282  196.085   28.537
  502.250    5.799    0.343    0.281  197.101   29.145
  502.500    5.854    0.348    0.280  197.126   27.980
  502.750    5.857    0.374    0.284  197.157   27.408
  503.000    5.861    0.395    0.291  197.185   29.199
  503.250    5.917    0.369    0.290  197.209   32.167
  503.500    6.028    0.365    0.275  197.737   36.909
  503.750    6.311    0.361    0.271  198.253   38.107
  504.000    6.726    0.356    0.256  198.773   39.603
  504.250    7.232    0.325    0.215  198.805   36.369
  504.500    8.906    0.234    0.112  198.833   35.204
  504.750   10.113    0.202    0.077  198.861   36.697
  505.000   10.209    0.196    0.109  198.885   39.077
  505.250    9.943    0.217    0.147  197.932   41.161
  505.500    9.508    0.260    0.173  196.976   43.245
  505.750    8.615    0.319    0.199  196.512   46.513
  506.000    8.018    0.339    0.256  195.066   49.780
  506.250    7.531    0.337    0.252  194.106   53.929
  506.500    7.402    0.347    0.239  193.146   57.490
  506.750    7.817    0.343    0.254  192.190   60.760
  507.000    8.560    0.328    0.253  191.729   63.725
  507.250    8.960    0.338    0.236  191.265   68.174
  507.500    8.805    0.338    0.166  191.785   72.916
  507.750    8.122    0.342    0.153  191.834   77.658
  508.000    7.425    0.301    0.176  192.337   85.353
  508.250    7.230    0.333    0.181  194.330   95.411
  508.500    7.433    0.347    0.192  196.330  100.744
  508.750    7.851    0.390    0.197  196.851   86.585
  509.000    9.241    0.300    0.201  196.882   73.608
  509.250   11.800    0.279    0.164  196.903   66.836
  509.500   12.575    0.271    0.127  196.934   73.939
  509.750   12.582    0.278    0.133  196.474   81.338
  510.000   11.818    0.297    0.151  196.474   97.303
  510.250   11.405    0.295    0.136  196.533  103.226
  510.500   11.207    0.280    0.120  196.557  107.968
  510.750   11.112    0.282    0.119  196.557  114.484
  511.000   10.821    0.283    0.149  197.109  106.820
  511.250   10.537    0.288    0.159  197.130  103.884
  511.500   10.169    0.289    0.161  197.654   96.222
  511.750    9.993    0.285    0.158  197.699   92.990
  512.000    9.820    0.289    0.153  197.710   93.009
  512.250    9.649    0.292    0.155  197.734  101.293
  512.500    9.397    0.304    0.158  197.766  103.084
  512.750    9.234    0.302    0.161  198.785  104.875
  513.000    9.239    0.308    0.160  198.785  102.822
  513.250    9.584    0.297    0.155  199.333   96.044
  513.500   10.307    0.277    0.150  200.338   96.654
  513.750   10.790    0.306    0.118  200.366   89.878
  514.000    9.862    0.282    0.106  200.890   84.281
  514.250    7.002    0.248    0.122  200.911   83.119
  514.500    5.955    0.220    0.157  201.435   85.203
  514.750    5.852    0.257    0.205  201.955   97.919
  515.000    6.071    0.308    0.169  202.472  105.614
  515.250    6.412    0.482    0.153  202.499  103.268
  515.500    7.022    0.366    0.167  201.054  101.218
  515.750    7.759    0.333    0.181  199.602  105.369
  516.000    8.810    0.337    0.185  198.649  107.453
  516.250    9.735    0.326    0.161  198.185   93.885
  516.500   10.854    0.326    0.142  199.693   74.706
  516.750   12.434    0.403    0.119  200.210   65.862
  517.000   14.504    0.315    0.130  198.764   67.061
  517.250   16.769    0.282    0.157  197.808   73.279
  517.500   16.626    0.285    0.176  197.340   75.659
  517.750   15.476    0.288    0.191  196.876   79.517
  518.000   14.148    0.332    0.206  196.904   81.012
  518.250   12.588    0.332    0.220  197.428   80.141
  518.500   11.101    0.337    0.232  198.440   71.298
  518.750   11.007    0.345    0.241  198.468   70.724
