~VERSION INFORMATION
 VERS.                 2.0:   CWLS LOG ASCII STANDARD -VERSION 2.0
 WRAP.                  NO:   ONE LINE PER DEPTH STEP
~WELL INFORMATION BLOCK
#MNEM.UNIT           DATA                    DESCRIPTION OF MNEMONIC
#---------    -------------------            -------------------------------
# Generated from Intellog Unique Number	CS_77_79/WELL/996
WELL.         NORTHSTAR ET AL THORNBURY      : Well_name    - WELL
LOC .         00/11-18-079-12W4/0            : Location     - LOCATION
UWI .         00/11-18-079-12W4/0            : Uwi          - UNIQUE WELL ID
ENTR.         JHS                            : Entered      - ENTERED BY
SRVC.         SCHLUMBERGER                   : Scn          - SERVICE COMPANY
STRT.M        275                            : top_depth    - START DEPTH
STOP.M        520                            : bot_depth    - STOP DEPTH
STEP.M        0.25                           : increment    - STEP LENGTH
 NULL. -999.2500:NULL Value
~CURVE INFORMATION BLOCK
#MNEM UNIT       ERCB CURVE CODE    CURVE DESCRIPTION
#-----------   ------------------   ----------------------------------
DEPT.M        00 001 00 00         : DEPTH        - DEPTH
DPHI.V/V      00 890 00 00         : PHID         - DENSITY POROSITY (LIMESTONE)
NPHI.V/V      00 330 00 00         : PHIN         - NEUTRON POROSITY (LIMESTONE)
GR  .API      00 310 00 00         : GR           - GAMMA RAY
ILD .OHMM     00 120 00 00         : RESD         - DEEP RESISTIVITY (DIL)
RHOB.KG/M3    00 350 00 00         : DENS         - BULK DENSITY
~PARAMETER INFORMATION
#MNEM.UNIT           DATA             DESCRIPTION OF MNEMONIC
#---------         -----------     ------------------------------
GL  .M        707.3                : gl           - GROUND LEVEL ELEVATION
EREF.M        711.3                : kb           - ELEVATION OF DEPTH REFERENCE
DATM.M        711.3                : datum        - DATUM ELEVATION
TDD .M        526.6                : tdd          - TOTAL DEPTH DRILLER
RUN .         ONE                  : Run          - RUN NUMBER
ENG .         BILL                 : Engineer     - RECORDING ENGINEER
WIT .         JIM                  : Witness      - WITNESSED BY
MUD .         GEL                  : Mud_type     - MUD TYPE
MATR.         LIMESTONE            : Logunit      - NEUTRON MATRIX
TMAX.C        25.1                 : BHT          - MAXIMUM RECORDED TEMPERATURE
BHTD.M        526.6                : BHTDEP       - MAXIMUM RECORDED TEMPERATURE
MATR.         1                    : LOGUNIT      - NEUTRON MATRIX
RMT .C        25                   : MDTP         - TEMPERATURE OF MUD
NEUT.         1                    : NEUTRON      - NEUTRON TYPE
RESI.         0                    : RESIST       - RESISTIVITY TYPE
RMC .OHMM     0.25                 : RMC          - RESISTIVITY OF MUD CAKE
RMF .OHMM     0.25                 : RMF          - RESISTIVITY OF MUD FILTRATE
SUFT.C        15                   : SUFT         - SURFACE TEMPERATURE
~A  DEPTH     PHID     PHIN       GR     RESD     DENS
# ...
  348.000    0.343    0.474   54.868   17.345    0.000
  348.250    0.334    0.467   54.255   17.369    0.000
  348.500    0.334    0.459   56.102   17.377    0.000
  348.750    0.340    0.458   54.875   17.392    0.000
  349.000    0.350    0.455   53.033   17.089    0.000
  349.250    0.336    0.447   56.724   17.112    0.000
  349.500    0.329    0.436   57.341   16.805    0.000
  349.750    0.347    0.440   56.729   16.512    0.000
  350.000    0.346    0.459   53.044   16.523    0.000
  350.250    0.335    0.466   53.046   16.857    0.000
  350.500    0.339    0.464   56.738   16.555    0.000
  350.750    0.357    0.459   57.356   16.573    0.000
  351.000    0.361    0.462   56.128   16.285    0.000
  351.250    0.361    0.475   53.057   15.992    0.000
  351.500    0.352    0.465   52.445   15.712    0.000
  351.750    0.346    0.456   55.521   15.727    0.000
  352.000    0.352    0.458   58.599   15.451    0.000
  352.250    0.372    0.465   59.215   15.459    0.000
  352.500    0.360    0.467   59.218   15.480    0.000
  352.750    0.346    0.461   56.762   15.488    0.000
  353.000    0.324    0.454   54.305   15.508    0.000
  353.250    0.333    0.465   53.078   15.528    0.000
  353.500    0.350    0.482   53.696   15.537    0.000
  353.750    0.347    0.476   51.854   15.548    0.000
  354.000    0.344    0.484   50.627   15.566    0.000
  354.250    0.357    0.480   54.318   15.585    0.000
  354.500    0.353    0.472   56.779   15.594    0.000
  354.750    0.352    0.487   59.242   15.322    0.000
  355.000    0.355    0.472   60.474   15.340    0.000
  355.250    0.350    0.469   61.706   15.347    0.000
  355.500    0.342    0.476   62.322   15.365    0.000
  355.750    0.334    0.467   59.867   15.672    0.000
  356.000    0.329    0.462   56.795   15.688    0.000
  356.250    0.347    0.461   55.568   15.704    0.000
  356.500    0.330    0.451   55.572   16.013    0.000
  356.750    0.333    0.473   55.573   16.030    0.000
  357.000    0.345    0.489   54.347   16.047    0.000
  357.250    0.350    0.481   51.275   16.369    0.000
  357.500    0.357    0.475   44.516   16.689    0.000
  357.750    0.369    0.475   42.060   17.349    0.000
  358.000    0.358    0.457   42.062   17.690    0.000
  358.250    0.346    0.440   41.450   18.043    0.000
  358.500    0.339    0.432   38.994   18.063    0.000
  358.750    0.353    0.419   37.767   18.428    0.000
  359.000    0.344    0.432   38.385   18.439    0.000
  359.250    0.344    0.448   39.617   18.458    0.000
  359.500    0.342    0.462   41.464   18.478    0.000
  359.750    0.335    0.445   42.695   18.491    0.000
  360.000    0.329    0.439   42.698   18.509    0.000
  360.250    0.321    0.433   40.856   18.527    0.000
  360.500    0.320    0.430   38.400   18.202    0.000
  360.750    0.325    0.440   37.788   18.222    0.000
  361.000    0.328    0.444   37.175   18.244    0.000
  361.250    0.331    0.432   37.793   18.253    0.000
  361.500    0.341    0.432   39.640   18.274    0.000
  361.750    0.340    0.438   39.028   18.293    0.000
  362.000    0.324    0.444   36.572   18.652    0.000
  362.250    0.307    0.443   34.730   18.673    0.000
  362.500    0.310    0.428   34.118   18.692    0.000
  362.750    0.339    0.424   34.120   18.711    0.000
  363.000    0.324    0.427   35.352   18.383    0.000
  363.250    0.328    0.422   36.584   18.394    0.000
  363.500    0.330    0.414   35.972   18.416    0.000
  363.750    0.320    0.410   36.589   18.428    0.000
  364.000    0.313    0.411   37.207   18.449    0.000
  364.250    0.335    0.425   38.439   18.470    0.000
  364.500    0.329    0.438   37.212   18.831    0.000
  364.750    0.334    0.445   35.370   18.501    0.000
  365.000    0.340    0.439   34.758   18.521    0.000
  365.250    0.324    0.439   35.990   18.544    0.000
  365.500    0.316    0.446   39.067   18.552    0.000
  365.750    0.331    0.449   40.299   18.231    0.000
  366.000    0.335    0.444   39.688   18.244    0.000
  366.250    0.347    0.450   37.846   18.265    0.000
  366.500    0.334    0.445   36.619   18.282    0.000
  366.750    0.321    0.433   36.622   18.643    0.000
  367.000    0.316    0.427   36.624   18.664    0.000
  367.250    0.335    0.424   36.627   18.680    0.000
  367.500    0.329    0.427   36.629   18.699    0.000
  367.750    0.324    0.430   37.861   19.075    0.000
  368.000    0.320    0.432   40.323   19.095    0.000
  368.250    0.324    0.435   42.785   19.106    0.000
  368.500    0.330    0.428   43.402   19.128    0.000
  368.750    0.330    0.428   44.020   19.511    0.000
  369.000    0.330    0.438   43.407   19.531    0.000
  369.250    0.336    0.431   43.410   19.551    0.000
  369.500    0.341    0.423   44.643   19.563    0.000
  369.750    0.346    0.431   45.259   19.584    0.000
  370.000    0.347    0.429   45.878   19.603    0.000
  370.250    0.346    0.423   45.880   19.255    0.000
  370.500    0.348    0.417   45.882   19.272    0.000
  370.750    0.334    0.413   47.115   18.938    0.000
  371.000    0.324    0.417   47.731   18.605    0.000
  371.250    0.322    0.435   50.193   18.623    0.000
  371.500    0.331    0.442   51.425   18.635    0.000
  371.750    0.340    0.441   50.813   18.307    0.000
  372.000    0.330    0.441   48.972   18.326    0.000
  372.250    0.321    0.441   52.047   18.346    0.000
  372.500    0.326    0.434   52.051   18.364    0.000
  372.750    0.333    0.431   50.209   18.382    0.000
  373.000    0.325    0.439   46.523   18.402    0.000
  373.250    0.320    0.440   44.682   18.411    0.000
  373.500    0.336    0.435   45.299   18.430    0.000
  373.750    0.336    0.434   47.760   18.449    0.000
  374.000    0.336    0.441   50.837   18.467    0.000
  374.250    0.329    0.436   52.070   18.483    0.000
  374.500    0.320    0.435   50.843   18.510    0.000
  374.750    0.320    0.436   50.844   18.518    0.000
  375.000    0.324    0.434   52.692   18.538    0.000
  375.250    0.319    0.441   53.923   18.557    0.000
  375.500    0.310    0.452   55.156   18.229    0.000
  375.750    0.308    0.463   53.930   18.245    0.000
  376.000    0.315    0.456   53.932   18.267    0.000
  376.250    0.309    0.441   55.779   17.949    0.000
  376.500    0.298    0.456   56.396   17.958    0.000
  376.750    0.305    0.447   57.629   17.975    0.000
  377.000    0.324    0.442   57.016   17.662    0.000
  377.250    0.319    0.457   55.174   17.682    0.000
  377.500    0.309    0.468   57.021   17.694    0.000
  377.750    0.314    0.469   59.483   17.382    0.000
  378.000    0.316    0.467   60.100   17.079    0.000
  378.250    0.330    0.468   60.103   17.087    0.000
  378.500    0.328    0.458   61.335   17.432    0.000
  378.750    0.316    0.459   62.567   17.456    0.000
  379.000    0.321    0.464   63.184   17.795    0.000
  379.250    0.332    0.469   61.343   18.149    0.000
  379.500    0.321    0.473   58.888   18.512    0.000
  379.750    0.312    0.453   58.275   18.535    0.000
  380.000    0.327    0.446   57.049   18.545    0.000
  380.250    0.330    0.440   56.435   18.916    0.000
  380.500    0.328    0.447   55.209   18.934    0.000
  380.750    0.333    0.446   56.441   18.953    0.000
  381.000    0.323    0.439   58.288   18.977    0.000
  381.250    0.315    0.435   57.676   18.993    0.000
  381.500    0.323    0.450   57.063   19.009    0.000
  381.750    0.330    0.453   57.067   19.029    0.000
  382.000    0.316    0.448   57.069   19.049    0.000
  382.250    0.300    0.441   58.301   19.066    0.000
  382.500    0.298    0.453   58.918   19.081    0.000
  382.750    0.309    0.463   57.076   19.097    0.000
  383.000    0.315    0.469   53.390   18.763    0.000
  383.250    0.320    0.463   55.239   18.434    0.000
  383.500    0.321    0.462   55.855   17.445    0.000
  383.750    0.312    0.465   58.317   16.198    0.000
  384.000    0.319    0.458   60.778   14.755    0.000
  384.250    0.308    0.456   63.855   11.146    0.000
