~VERSION INFORMATION
 VERS.                 2.0:   CWLS LOG ASCII STANDARD -VERSION 2.0
 WRAP.                  NO:   ONE LINE PER DEPTH STEP
~WELL INFORMATION BLOCK
#MNEM.UNIT           DATA                    DESCRIPTION OF MNEMONIC
#---------    -------------------            -------------------------------
# Generated from Intellog Unique Number	CW_70_72/WELL/1042
NULL.         -999.25                        : NULL_VALUE
WELL.         MIKAS AMOCO MEYER              : Well_name    - WELL              
LOC .         10-26-071-25W4                 : Location     - LOCATION          
UWI .         00/10-26-071-25W4/0            : Uwi          - UNIQUE WELL ID    
ENTR.         JAYE                           : Entered      - ENTERED BY        
SRVC.         SCHLUMBERGER                   : Scn          - SERVICE COMPANY   
DATE.         4 MAR 73                       : Date         - LOG DATE          
STRT.M        374.904                        : top_depth    - START DEPTH       
STOP.M        609.654                        : bot_depth    - STOP DEPTH        
STEP.M        0.25                           : increment    - STEP LENGTH       
~CURVE INFORMATION BLOCK
#MNEM UNIT       ERCB CURVE CODE    CURVE DESCRIPTION
#-----------   ------------------   ----------------------------------
DEPT.M        00 001 00 00         : DEPTH        - DEPTH                       
DPHI.V/V      00 890 00 00         : PHID         - DENSITY POROSITY (SANDSTONE)
NPHI.V/V      00 330 00 00         : PHIN         - NEUTRON POROSITY (SANDSTONE)
GR  .API      00 310 00 00         : GR           - GAMMA RAY                   
CALI.MM       00 280 01 00         : CAL          - CALIPER                     
ILD .OHMM     00 120 00 00         : RESD         - DEEP RESISTIVITY (DIL)      
~PARAMETER INFORMATION       
#MNEM.UNIT           DATA             DESCRIPTION OF MNEMONIC
#---------         -----------     ------------------------------
GL  .M        589.94               : gl           - GROUND LEVEL ELEVATION      
EREF.M        593.75               : kb           - ELEVATION OF DEPTH REFERENCE
DATM.M        589.94               : datum        - DATUM ELEVATION             
TDD .M        667.817              : tdd          - TOTAL DEPTH DRILLER         
RUN .         ONE                  : Run          - RUN NUMBER                  
BASE.         EDM                  : Branch       - HOME BASE OF LOGGING UNIT   
MUD .         GEL CHEM             : Mud_type     - MUD TYPE                    
MATR.         SANDSTONE            : Logunit      - NEUTRON MATRIX              
TMAX.C        28.3333              : BHT          - MAXIMUM RECORDED TEMPERATURE
BHTD.M        667.817              : BHTDEP       - MAXIMUM RECORDED TEMPERATURE
RMT .C        17.7778              : MDTP         - TEMPERATURE OF MUD          
MUDD.KG/M     0                    : MWT          - MUD DENSITY                 
NEUT.         1                    : NEUTRON      - NEUTRON TYPE                
RESI.         0                    : RESIST       - RESISTIVITY TYPE            
RM  .OHMM     3.6                  : RM           - RESISTIVITY OF MUD          
RMC .OHMM     0                    : RMC          - RESISTIVITY OF MUD CAKE     
RMF .OHMM     0                    : RMF          - RESISTIVITY OF MUD FILTRATE 
SUFT.C        0                    : SUFT         - SURFACE TEMPERATURE         
~A  DEPTH     PHID     PHIN       GR      CAL     RESD
  374.904    0.185    0.516   86.139  167.596    1.898
  375.154    0.187    0.568   88.094  168.036    2.189
  375.404    0.195    0.581   89.261  169.095    1.985
  375.654    0.225    0.590   89.461  169.732    1.961
  375.904    0.208    0.585   89.599  170.383    2.064
  376.154    0.233    0.553   89.738  170.715    2.333
  376.404    0.212    0.529   89.758  171.049    2.701
  376.654    0.184    0.495   88.684  168.621    3.185
  376.904    0.152    0.473   86.037  165.780    3.805
  377.154    0.223    0.484   87.749  163.153    4.169
  377.404    0.253    0.477   89.947  162.356    4.323
  377.654    0.249    0.460   91.901  162.491    4.360
  377.904    0.236    0.457   93.674  164.268    4.356
  378.154    0.221    0.476   95.328  165.321    4.386
  378.404    0.206    0.484   96.797  166.275    4.398
  378.654    0.195    0.468   97.359  166.399    4.283
  378.904    0.187    0.448   94.169  165.095    4.103
  379.154    0.164    0.459   91.945  162.459    3.850
  379.404    0.167    0.523   94.265  161.468    3.542
  379.654    0.184    0.550   95.672  161.599    3.312
  379.904    0.166    0.575   96.902  162.043    3.225
  380.154    0.205    0.561   96.740  162.478    3.242
  380.404    0.227    0.519   95.485  162.814    3.299
  380.654    0.229    0.451   93.987  163.459    3.497
  380.904    0.240    0.460   92.070  164.213    3.726
  381.154    0.234    0.459   91.360  164.242    4.002
  381.404    0.224    0.450   91.680  164.788    4.102
  381.654    0.222    0.413   92.305  165.217    4.160
  381.904    0.220    0.420   92.382  165.867    4.180
  382.154    0.208    0.449   92.276  166.300    4.086
  382.404    0.232    0.477   93.081  167.049    3.864
  382.654    0.266    0.482   94.492  167.488    3.606
  382.904    0.266    0.461   96.022  167.825    3.360
  383.154    0.236    0.485   92.592  168.267    3.224
  383.404    0.203    0.522   90.490  168.296    3.300
  383.654    0.202    0.511   89.294  168.125    3.576
  383.904    0.198    0.458   89.496  167.944    3.962
  384.154    0.174    0.408   90.787  167.462    4.389
  384.404    0.124    0.396   91.769  166.670    4.608
  384.654    0.089    0.457   93.238  165.983    4.529
  384.904    0.155    0.493   95.374  165.409    4.299
  385.154    0.187    0.498   99.086  165.323    3.954
  385.404    0.206    0.503  101.524  165.047    3.531
  385.654    0.196    0.516  103.358  165.086    3.207
  385.904    0.190    0.543  101.741  164.901    3.021
  386.154    0.195    0.557  100.487  164.620    3.086
  386.404    0.182    0.527   97.901  164.452    3.344
  386.654    0.180    0.517   95.075  164.273    3.872
  386.904    0.173    0.540   92.308  164.307    4.227
  387.154    0.167    0.554   89.781  164.227    4.373
  387.404    0.177    0.499   85.865  164.365    4.299
  387.654    0.186    0.447   83.036  164.188    4.170
  387.904    0.185    0.450   82.631  164.112    4.078
  388.154    0.194    0.446   86.039  164.147    4.044
  388.404    0.187    0.442   89.386  163.768    4.011
  388.654    0.204    0.428   91.763  163.791    4.031
  388.904    0.207    0.417   91.781  163.409    4.064
  389.154    0.197    0.426   91.135  162.926    4.084
  389.404    0.194    0.430   90.484  162.139    4.073
  389.654    0.189    0.430   88.987  161.963    4.041
  389.904    0.198    0.425   87.010  161.480    3.971
  390.154    0.208    0.413   81.820  161.302    3.804
  390.404    0.202    0.396   78.448  160.821    3.531
  390.654    0.207    0.398   80.950  160.243    3.345
  390.904    0.225    0.403   83.085  159.862    3.134
  391.154    0.235    0.407   85.764  159.684    2.936
  391.404    0.230    0.421   85.782  159.405    2.661
  391.654    0.237    0.414   85.073  159.334    2.408
  391.904    0.251    0.406   85.637  159.363    2.227
  392.154    0.256    0.398   86.863  160.010    2.137
  392.404    0.239    0.415   89.121  160.757    2.054
  392.654    0.251    0.401   91.619  161.604    2.001
  392.904    0.268    0.410   94.785  162.453    1.981
  393.154    0.280    0.431   98.253  163.195    1.975
  393.404    0.285    0.422   99.238  164.252    1.993
  393.654    0.270    0.406   99.015  165.101    2.043
  393.904    0.254    0.390   98.668  166.257    2.122
  394.154    0.255    0.383   98.323  166.704    2.192
  394.404    0.245    0.390   97.618  166.521    2.323
  394.654    0.217    0.406   96.726  165.835    2.578
  394.904    0.190    0.425   95.167  164.739    2.778
  395.154    0.194    0.436   93.308  163.638    3.089
  395.404    0.192    0.432   95.144  162.446    3.416
  395.654    0.188    0.428   97.097  161.751    3.641
  395.904    0.173    0.438   99.415  161.471    3.774
  396.154    0.170    0.456  100.339  161.401    3.906
  396.404    0.164    0.464   99.449  161.124    4.012
  396.654    0.159    0.445   97.045  160.955    4.137
  396.904    0.163    0.432   93.070  160.982    4.111
  397.154    0.183    0.478   88.910  161.012    3.830
  397.404    0.176    0.542   85.475  161.035    3.402
  397.654    0.129    0.576   82.224  160.861    3.055
  397.904    0.134    0.589   79.881  160.890    2.795
  398.154    0.098    0.397   77.053  160.624    2.561
  398.404    0.004    0.344   73.317  160.749    2.408
  398.654    0.038    0.370   71.337  160.775    2.298
  398.904    0.080    0.543   70.509  161.007    2.310
  399.154    0.151    0.563   70.041  161.346    2.368
  399.404    0.168    0.568   68.848  161.888    2.552
  399.654    0.179    0.529   67.836  162.842    2.811
  399.904    0.178    0.533   69.368  164.002    3.091
  400.154    0.153    0.569   72.169  164.440    3.307
  400.404    0.221    0.571   76.061  164.466    3.422
  400.654    0.279    0.522   79.106  164.087    3.477
  400.904    0.284    0.490   80.696  163.198    3.429
  401.154    0.283    0.490   80.895  162.403    3.249
  401.404    0.268    0.506   80.670  161.719    3.134
  401.654    0.266    0.500   81.477  161.542    3.115
  401.904    0.267    0.502   82.279  162.187    3.183
  402.154    0.247    0.507   82.059  163.553    3.186
  402.404    0.257    0.512   81.588  164.600    3.183
  402.654    0.277    0.480   80.035  165.963    3.123
  402.904    0.297    0.472   78.053  166.821    3.075
  403.154    0.296    0.542   74.013  167.055    3.039
  403.404    0.264    0.540   69.189  167.281    3.071
  403.654    0.244    0.498   65.090  167.414    3.149
  403.904    0.218    0.472   60.870  167.551    3.258
  404.154    0.218    0.468   52.959  167.473    3.434
  404.404    0.238    0.460   54.428  167.510    3.694
  404.654    0.234    0.451   58.562  167.334    3.901
  404.904    0.250    0.463   62.878  167.058    4.142
  405.154    0.283    0.488   68.281  166.979    4.414
  405.404    0.233    0.425   73.504  166.903    4.766
  405.654    0.183    0.380   77.396  166.832    5.098
  405.904    0.137    0.337   80.441  166.765    5.700
  406.154    0.126    0.321   82.033  166.485    6.361
  406.404    0.098    0.268   83.502  166.304    7.339
  406.654    0.078    0.273   85.458  165.927    8.326
  406.904    0.144    0.317   85.900  165.242    8.034
  407.154    0.181    0.375   84.766  164.345    5.596
  407.404    0.243    0.415   86.845  163.152    4.525
  407.654    0.295    0.456   88.857  162.764    3.824
  407.904    0.280    0.483   90.450  162.589    3.138
  408.154    0.255    0.487   90.949  162.617    2.756
  408.404    0.234    0.475   91.270  162.963    2.540
  408.654    0.251    0.458   91.650  163.293    2.506
  408.904    0.245    0.461   89.793  164.243    2.574
  409.154    0.218    0.476   88.053  165.410    2.664
  409.404    0.212    0.495   87.587  166.162    2.818
  409.654    0.242    0.515   88.150  166.701    2.927
  409.904    0.229    0.519   89.014  166.825    3.046
  410.154    0.223    0.503   90.062  166.954    3.181
  410.404    0.213    0.488   92.621  166.991    3.347
  410.654    0.240    0.486   94.818  166.813    3.534
  410.904    0.227    0.496   94.047  166.841    3.725
  411.154    0.196    0.480   91.826  166.462    3.870
