~VERSION INFORMATION
 VERS.                 2.0:   CWLS LOG ASCII STANDARD -VERSION 2.0
 WRAP.                  NO:   ONE LINE PER DEPTH STEP
~WELL INFORMATION BLOCK
#MNEM.UNIT           DATA                    DESCRIPTION OF MNEMONIC
#---------    -------------------            -------------------------------
# Generated from Intellog Unique Number	CW_70_72/WELL/1065
NULL.         -999.25                        : NULL_VALUE
WELL.         GAO ET AL CALL 11-36           : Well_name    - WELL              
LOC .         11-36-072-19W4                 : Location     - LOCATION          
UWI .         00/11-36-072-19W4/0            : Uwi          - UNIQUE WELL ID    
ENTR.         JAYE                           : Entered      - ENTERED BY        
SRVC.         SCHLUMBERGER                   : Scn          - SERVICE COMPANY   
DATE.         16 FEB 76                      : Date         - LOG DATE          
STRT.M        344.424                        : top_depth    - START DEPTH       
STOP.M        554.674                        : bot_depth    - STOP DEPTH        
STEP.M        0.25                           : increment    - STEP LENGTH       
~CURVE INFORMATION BLOCK
#MNEM UNIT       ERCB CURVE CODE    CURVE DESCRIPTION
#-----------   ------------------   ----------------------------------
DEPT.M        00 001 00 00         : DEPTH        - DEPTH                       
DPHI.V/V      00 890 00 00         : PHID         - DENSITY POROSITY (SANDSTONE)
NPHI.V/V      00 330 00 00         : PHIN         - NEUTRON POROSITY (SANDSTONE)
GR  .API      00 310 00 00         : GR           - GAMMA RAY                   
CALI.MM       00 280 01 00         : CAL          - CALIPER                     
ILD .OHMM     00 120 00 00         : RESD         - DEEP RESISTIVITY (DLL)      
~PARAMETER INFORMATION       
#MNEM.UNIT           DATA             DESCRIPTION OF MNEMONIC
#---------         -----------     ------------------------------
GL  .M        644.256              : gl           - GROUND LEVEL ELEVATION      
EREF.M        647.395              : kb           - ELEVATION OF DEPTH REFERENCE
DATM.M        644.256              : datum        - DATUM ELEVATION             
TDD .M        571.195              : tdd          - TOTAL DEPTH DRILLER         
RUN .         ONE                  : Run          - RUN NUMBER                  
BASE.         EDM                  : Branch       - HOME BASE OF LOGGING UNIT   
MATR.         SANDSTONE            : Logunit      - NEUTRON MATRIX              
TMAX.C        28.3333              : BHT          - MAXIMUM RECORDED TEMPERATURE
BHTD.M        569.366              : BHTDEP       - MAXIMUM RECORDED TEMPERATURE
RMT .C        16.1111              : MDTP         - TEMPERATURE OF MUD          
MUDD.KG/M     0                    : MWT          - MUD DENSITY                 
NEUT.         1                    : NEUTRON      - NEUTRON TYPE                
RESI.         1                    : RESIST       - RESISTIVITY TYPE            
RM  .OHMM     3.57                 : RM           - RESISTIVITY OF MUD          
RMC .OHMM     0                    : RMC          - RESISTIVITY OF MUD CAKE     
RMF .OHMM     2.89                 : RMF          - RESISTIVITY OF MUD FILTRATE 
SUFT.C        -17.7778             : SUFT         - SURFACE TEMPERATURE         
~A  DEPTH     PHID     PHIN       GR      CAL     RESD
# ...
  453.924    0.334    0.424   66.316  156.145    4.558
  454.174    0.327    0.429   66.313  156.142    4.302
  454.424    0.324    0.437   65.639  156.137    4.122
  454.674    0.334    0.452   65.209  156.237    4.095
  454.924    0.338    0.468   66.978  156.956    4.138
  455.174    0.343    0.447   71.984  157.572    4.195
  455.424    0.335    0.428   74.669  157.879    4.246
  455.674    0.327    0.421   74.178  158.186    4.330
  455.924    0.323    0.421   73.626  158.388    4.399
  456.174    0.325    0.426   73.623  158.384    4.427
  456.424    0.319    0.438   73.193  158.380    4.472
  456.674    0.316    0.433   72.397  158.375    4.494
  456.924    0.317    0.435   72.089  158.371    4.515
  457.174    0.302    0.447   72.514  158.161    4.511
  457.424    0.290    0.458   74.222  157.949    4.542
  457.674    0.311    0.462   76.602  157.739    4.554
  457.924    0.312    0.476   77.454  157.632    4.551
  458.174    0.303    0.470   77.757  158.248    4.531
  458.424    0.294    0.459   77.816  158.658    4.526
  458.674    0.302    0.432   76.714  156.379    4.556
  458.924    0.304    0.459   77.506  153.479    4.595
  459.174    0.300    0.473   77.992  154.302    4.634
  459.424    0.300    0.457   77.379  160.090    4.664
  459.674    0.290    0.456   76.827  160.706    4.644
  459.924    0.279    0.454   79.328  159.771    4.547
  460.174    0.290    0.444   83.418  159.457    4.214
  460.424    0.272    0.431   86.042  159.866    3.928
  460.674    0.236    0.469   90.437  161.207    3.707
  460.924    0.247    0.508   94.221  165.857    3.512
  461.174    0.234    0.510   94.524  179.504    3.333
  461.424    0.230    0.491   98.369  175.674    3.182
  461.674    0.221    0.477  100.321  181.047    3.110
  461.924    0.231    0.499   99.403  178.664    3.165
  462.174    0.245    0.533   99.828  185.073    3.293
  462.424    0.272    0.506   98.177  200.892    3.515
  462.674    0.258    0.489   96.831  188.064    3.821
  462.924    0.259    0.502   97.072  182.785    4.147
  463.174    0.239    0.480   97.620  168.406    4.411
  463.424    0.220    0.449   96.090  162.403    4.857
  463.674    0.229    0.440   96.332  161.365    5.044
  463.924    0.219    0.457   97.429  161.568    5.050
  464.174    0.216    0.468   98.892  162.805    4.990
  464.424    0.236    0.459  100.112  164.662    4.896
  464.674    0.238    0.474  101.086  166.106    4.838
  464.924    0.223    0.466  101.634  177.478    4.791
  465.174    0.229    0.451  102.181  173.027    4.804
  465.424    0.211    0.434  101.812  166.094    4.871
  465.674    0.210    0.463   97.657  162.574    4.949
  465.924    0.202    0.452   91.730  160.812    5.056
  466.174    0.196    0.437   91.483  161.428    5.202
  466.424    0.205    0.427   93.374  162.251    5.323
  466.674    0.232    0.421   96.426  162.557    5.437
  466.924    0.219    0.420   98.683  162.760    5.533
  467.174    0.210    0.455  100.879  163.169    5.560
  467.424    0.219    0.451   97.213  163.372    5.596
  467.674    0.214    0.451   98.309  163.678    5.582
  467.924    0.212    0.451   98.673  163.778    5.578
  468.174    0.212    0.450   97.083  164.084    5.553
  468.424    0.220    0.459   93.172  164.287    5.508
  468.674    0.215    0.442   93.536  164.489    5.453
  468.924    0.221    0.440   96.771  164.692    5.389
  469.174    0.218    0.438   95.852  164.896    5.306
  469.424    0.227    0.424   93.773  164.995    5.235
  469.674    0.237    0.446   94.748  165.404    5.192
  469.924    0.246    0.460   95.723  165.917    5.160
  470.174    0.235    0.449   95.415  166.223    5.128
  470.424    0.230    0.448   95.840  166.426    5.114
  470.674    0.215    0.470  101.701  167.353    5.045
  470.924    0.225    0.466   97.057  168.176    4.940
  471.174    0.232    0.459   96.383  168.483    4.838
  471.424    0.233    0.450   99.556  167.445    4.772
  471.674    0.223    0.447   98.271  167.027    4.707
  471.924    0.217    0.446   94.849  165.161    4.644
  472.174    0.226    0.455   88.922  166.605    4.614
  472.424    0.215    0.469   83.545  165.463    4.552
  472.674    0.209    0.463   81.161  164.011    4.425
  472.924    0.227    0.455   84.762  162.973    4.309
  473.174    0.248    0.448   89.034  162.555    4.227
  473.424    0.276    0.456   89.032  162.965    4.193
  473.674    0.244    0.472   86.281  163.788    4.205
  473.924    0.227    0.453   82.981  164.198    4.187
  474.174    0.266    0.450   79.192  163.263    4.183
  474.424    0.298    0.488   74.975  160.156    4.203
  474.674    0.315    0.468   68.377  155.809    4.177
  474.924    0.318    0.450   66.909  155.805    4.090
  475.174    0.311    0.444   66.845  156.215    4.020
  475.424    0.305    0.450   64.339  157.865    3.995
  475.674    0.298    0.449   62.199  160.653    4.103
  475.924    0.284    0.438   59.815  161.786    4.371
  476.174    0.248    0.413   56.148  161.576    4.841
  476.424    0.227    0.375   56.511  161.882    4.802
  476.674    0.257    0.351   61.029  162.085    4.676
  476.924    0.292    0.385   64.324  162.494    4.496
  477.174    0.302    0.433   64.322  162.697    4.419
  477.424    0.295    0.451   64.320  162.900    4.564
  477.674    0.295    0.460   63.950  161.758    4.881
  477.924    0.295    0.425   63.460  158.962    5.355
  478.174    0.289    0.395   63.580  156.269    6.040
  478.424    0.267    0.383   63.883  155.748    5.649
  478.674    0.238    0.388   62.781  155.536    4.856
  478.924    0.303    0.413   62.595  155.429    4.443
  479.174    0.295    0.434   64.914  155.322    4.141
  479.424    0.305    0.435   68.881  155.318    3.859
  479.674    0.309    0.454   71.749  155.520    3.711
  479.924    0.307    0.451   71.319  155.722    3.633
  480.174    0.307    0.441   68.752  155.719    3.584
  480.424    0.315    0.438   66.795  155.819    3.555
  480.674    0.316    0.451   66.243  155.917    3.552
  480.924    0.314    0.440   67.218  156.120    3.576
  481.174    0.303    0.425   68.192  156.219    3.586
  481.424    0.287    0.451   67.396  156.422    3.597
  481.674    0.319    0.473   67.577  156.523    3.613
  481.924    0.306    0.440   68.124  156.622    3.644
  482.174    0.302    0.432   67.328  156.825    3.668
  482.424    0.296    0.449   66.715  157.234    3.678
  482.674    0.283    0.441   66.529  157.644    3.703
  482.924    0.277    0.431   70.130  159.708    3.706
  483.174    0.310    0.424   70.616  160.635    3.717
  483.424    0.321    0.427   66.705  161.148    3.762
  483.674    0.320    0.429   63.221  161.351    3.781
  483.924    0.318    0.436   63.952  160.830    3.804
  484.174    0.319    0.445   65.110  159.792    3.823
  484.424    0.312    0.453   66.695  157.719    3.813
  484.674    0.302    0.458   70.113  157.198    3.837
  484.924    0.293    0.460   69.073  157.607    3.898
  485.174    0.292    0.451   69.315  159.155    3.953
  485.424    0.301    0.438   72.671  160.909    4.061
  485.674    0.312    0.429   75.906  161.939    4.132
  485.924    0.314    0.440   78.652  162.349    4.122
  486.174    0.319    0.449   77.245  162.758    4.073
  486.424    0.317    0.444   77.120  163.478    3.996
  486.674    0.307    0.437   79.805  164.095    3.956
  486.924    0.281    0.432   79.192  163.677    3.997
  487.174    0.245    0.429   79.739  159.122    4.196
  487.424    0.205    0.419   80.103  158.808    4.638
  487.674    0.163    0.388   76.620  162.010    5.397
  487.924    0.145    0.350   70.571  164.384    5.847
  488.174    0.190    0.395   78.691  163.450    5.091
  488.424    0.220    0.482   89.255  165.721    4.506
  488.674    0.239    0.517   96.765  170.371    3.931
  488.924    0.247    0.503   98.289  172.228    3.745
  489.174    0.239    0.498   99.325  171.603    3.587
  489.424    0.222    0.507  101.277  173.358    3.526
  489.674    0.232    0.509  102.435  171.182    3.453
  489.924    0.224    0.491  103.410  166.731    3.431
  490.174    0.225    0.473  107.988  169.312    3.467
