~VERSION INFORMATION
 VERS.                 2.0:   CWLS LOG ASCII STANDARD -VERSION 2.0
 WRAP.                  NO:   ONE LINE PER DEPTH STEP
~WELL INFORMATION BLOCK
#MNEM.UNIT           DATA                    DESCRIPTION OF MNEMONIC
#---------    -------------------            -------------------------------
# Generated from Intellog Unique Number	CW_70_72/WELL/3309
NULL.         -999.25                        : NULL_VALUE
WELL.         CHEVRON MGSU 1 MITSUE          : Well_name    - WELL              
LOC .         10-17-070-03W5                 : Location     - LOCATION          
UWI .         00/10-17-070-03W5/0            : Uwi          - UNIQUE WELL ID    
ENTR.         CAMPBELL                       : Entered      - ENTERED BY        
SRVC.         SCHLUMBERGER                   : Scn          - SERVICE COMPANY   
DATE.         16 MAR 86                      : Date         - LOG DATE
STRT.M        650                            : top_depth    - START DEPTH       
STOP.M        740                            : bot_depth    - STOP DEPTH        
STEP.M        0.25                           : increment    - STEP LENGTH       
~CURVE INFORMATION BLOCK
#MNEM UNIT       ERCB CURVE CODE    CURVE DESCRIPTION
#-----------   ------------------   ----------------------------------
DEPT.M        00 001 00 00         : DEPTH        - DEPTH                       
CALI.MM       00 280 01 00         : CAL          - CALIPER                     
DELT.US/F     00 520 00 00         : DELT         - SONIC TRAVEL TIME           
ILD .OHMM     00 120 00 00         : RESD         - DEEP RESISTIVITY (DIL)      
LITH.                              : LITH         - LITHOLOGY CODE              
~PARAMETER INFORMATION       
#MNEM.UNIT           DATA             DESCRIPTION OF MNEMONIC
#---------         -----------     ------------------------------
GL  .M        644.5                : gl           - GROUND LEVEL ELEVATION      
EREF.M        650.5                : kb           - ELEVATION OF DEPTH REFERENCE
DATM.M        650.5                : datum        - DATUM ELEVATION             
TDD .M        1761                 : tdd          - TOTAL DEPTH DRILLER         
RUN .         ONE                  : Run          - RUN NUMBER                  
ENG .         ODEGARD              : Engineer     - RECORDING ENGINEER          
WIT .         PACKNOSKI            : Witness      - WITNESSED BY                
MUD .         GEL                  : Mud_type     - MUD TYPE                    
MATR.         SANDSTONE            : Logunit      - NEUTRON MATRIX              
TMAX.C        48                   : BHT          - MAXIMUM RECORDED TEMPERATURE
BHTD.M        1761                 : BHTDEP       - MAXIMUM RECORDED TEMPERATURE
RMT .C        25                   : MDTP         - TEMPERATURE OF MUD          
MUDD.KG/M     1130                 : MWT          - MUD DENSITY                 
NEUT.         1                    : NEUTRON      - NEUTRON TYPE                
RESI.         0                    : RESIST       - RESISTIVITY TYPE            
RM  .OHMM     1.086                : RM           - RESISTIVITY OF MUD          
RMC .OHMM     1.34                 : RMC          - RESISTIVITY OF MUD CAKE     
RMF .OHMM     24.4                 : RMF          - RESISTIVITY OF MUD FILTRATE 
SUFT.C        10                   : SUFT         - SURFACE TEMPERATURE         
~A  DEPTH      CAL     DELT     RESD       GR
  650.000  272.242  292.343    3.755   70.565
  650.250  276.811  320.701    3.399   66.952
  650.500  280.901  342.262    3.283   70.683
  650.750  280.534  342.970    3.198   81.174
  651.000  280.182  347.284    3.264   79.400
  651.250  280.293  352.811    3.457   78.232
  651.500  280.435  357.925    3.529   79.517
  651.750  280.561  351.012    3.533   82.335
  652.000  281.674  352.510    3.573   84.234
  652.250  281.801  350.415    3.580   79.387
  652.500  282.914  344.326    3.620   81.285
  652.750  284.043  340.617    3.496   88.403
  653.000  284.185  345.343    3.312   86.009
  653.250  284.311  348.055    3.258   79.315
  653.500  284.422  347.962    3.324   76.921
  653.750  284.039  347.858    3.239   75.447
  654.000  283.178  348.555    2.987   68.161
  654.250  279.371  348.074    2.755   68.826
  654.500  278.001  346.768    2.734   68.271
  654.750  275.182  340.279    2.922   68.637
  655.000  269.369  338.573    3.210   69.309
  655.250  257.156  343.298    3.464   62.921
  655.500  256.311  344.396    3.566   58.687
  655.750  255.928  341.500    3.706   55.381
  656.000  255.051  344.612    3.612   50.825
  656.250  253.219  341.315    3.587   46.592
  656.500  250.877  337.206    3.528   47.264
  656.750  247.055  339.928    3.533   46.103
  657.000  244.204  340.225    3.540   47.082
  657.250  241.353  338.943    3.546   49.907
  657.500  237.547  332.430    3.587   53.331
  657.750  234.711  306.279    3.626   52.470
  658.000  231.876  270.114    3.734   56.829
  658.250  227.560  294.066    3.918   60.268
  658.500  227.686  315.626    4.072   56.640
  658.750  231.252  294.282    4.235   51.486
  659.000  232.859  198.778    4.319   48.778
  659.250  230.517  217.935    4.249   47.004
  659.500  225.724  254.716    3.846   50.742
  659.750  227.824  282.685    3.418   51.414
  660.000  229.431  256.935    3.123   45.961
  660.250  226.580  236.804    3.043   47.239
  660.500  224.238  293.234    2.938   48.831
  660.750  223.393  337.637    2.863   46.130
  661.000  223.519  337.934    2.765   45.276
  661.250  224.633  337.429    2.720   48.087
  661.500  226.733  343.757    2.724   53.059
  661.750  229.343  347.682    2.679   56.797
  662.000  231.428  348.791    2.659   57.163
  662.250  235.025  346.296    2.592   54.462
  662.500  237.619  344.589    2.549   52.987
  662.750  239.226  347.312    2.530   52.747
  663.000  241.852  352.427    2.535   58.325
  663.250  243.952  353.536    2.539   59.004
  663.500  246.053  348.637    2.544   58.756
  663.750  248.153  344.917    2.572   55.128
  664.000  249.267  345.237    2.625   51.814
  664.250  249.377  345.945    2.582   47.887
  664.500  249.519  349.057    2.587   49.479
  664.750  250.617  351.780    2.616   52.917
  665.000  252.239  346.870    2.669   55.429
  665.250  254.834  319.918    2.723   51.195
  665.500  257.428  301.389    2.754   54.320
  665.750  261.025  338.971    2.784   55.605
  666.000  264.128  348.903    2.816   56.898
  666.250  266.738  344.405    2.847   59.110
  666.500  270.303  336.691    2.905   57.023
  666.750  271.895  351.430    2.910   57.089
  667.000  271.034  360.962    2.916   57.140
  667.250  268.214  362.072    2.894   54.739
  667.500  265.857  348.750    2.900   59.404
  667.750  264.996  357.870    2.932   63.149
  668.000  276.984  356.175    2.937   63.208
  668.250  281.074  358.074    2.942   60.507
  668.500  280.707  358.382    2.976   62.398
  668.750  281.820  354.685    3.066   62.457
  669.000  284.908  347.383    3.099   60.063
  669.250  290.464  336.464    3.133   58.289
  669.500  297.516  323.943    3.139   56.501
  669.750  297.164  326.654    3.145   56.866
  670.000  292.864  340.593    3.150   60.298
  670.250  291.478  349.324    3.128   62.510
  670.500  289.152  349.231    3.048   59.510
  670.750  289.262  348.326    3.053   58.335
  671.000  289.405  348.634    3.060   61.467
  671.250  291.027  348.142    3.009   63.051
  671.500  292.109  350.841    2.987   58.511
  671.750  297.203  353.965    2.992   57.964
  672.000  296.835  355.074    3.026   58.935
  672.250  294.987  350.965    3.030   56.548
  672.500  297.088  349.682    3.037   55.380
  672.750  299.682  349.578    3.042   55.133
  673.000  299.808  349.097    3.021   56.724
  673.250  299.456  350.996    3.026   59.849
  673.500  299.058  351.704    3.030   63.595
  673.750  299.677  348.419    3.036   63.953
  674.000  301.332  347.114    3.042   61.558
  674.250  302.414  347.010    3.075   58.244
  674.500  303.543  344.926    3.081   58.303
  674.750  304.656  342.430    3.087   58.668
  675.000  305.754  348.346    3.093   63.954
  675.250  305.880  345.839    3.127   64.006
  675.500  306.022  343.343    3.192   60.385
  675.750  305.145  341.649    3.258   58.918
  676.000  303.791  340.343    3.355   59.889
  676.250  302.452  339.461    3.454   62.102
  676.500  300.588  338.568    3.591   61.240
  676.750  298.294  334.470    3.803   61.613
  677.000  297.386  327.556    4.064   61.672
  677.250  296.541  321.456    4.302   59.270
  677.500  295.170  300.912    4.728   56.883
  677.750  291.348  264.336    4.778   58.169
  678.000  290.009  294.719    4.656   57.913
  678.250  289.133  301.837    4.665   58.899
  678.500  289.275  304.548    4.808   60.790
  678.750  289.385  303.655    4.770   62.696
  679.000  289.511  295.940    4.523   67.047
  679.250  289.653  294.246    4.407   73.246
  679.500  289.795  306.983    4.415   75.451
  679.750  288.950  320.520    4.588   78.890
  680.000  287.564  336.862    4.860   80.175
  680.250  285.716  326.744    5.051   80.847
  680.500  282.403  321.044    5.153   81.526
  680.750  280.030  322.554    5.611   81.585
  681.000  277.210  325.265    6.221   78.877
  681.250  274.869  319.153    7.290   71.876
  681.500  272.527  272.563    9.027   59.364
  681.750  270.663  251.218    8.797   54.202
  682.000  272.270  238.697    7.130   46.603
  682.250  277.857  275.089    6.220   58.007
  682.500  280.436  292.633    5.426   63.278
  682.750  282.536  301.764    4.868   67.950
  683.000  284.653  307.680    4.613   69.849
  683.250  285.288  319.215    4.581   72.974
  683.500  285.399  325.920    4.545   72.434
  683.750  284.076  321.834    4.311   71.865
  684.000  283.677  322.932    4.563   74.070
  684.250  282.354  322.851    4.743   74.442
  684.500  281.955  318.341    4.753   73.275
  684.750  280.600  314.232    4.760   73.333
  685.000  280.265  318.957    4.682   72.771
  685.250  280.375  326.876    4.605   73.137
  685.500  280.008  329.988    4.530   77.495
  685.750  280.118  331.898    4.497   80.934
  686.000  280.260  330.215    4.587   76.080
  686.250  280.371  327.719    4.681   74.927
  686.500  280.019  328.405    4.733   74.971
  686.750  280.145  331.540    4.657   71.657
  687.000  280.287  330.246    4.497   70.182
  687.250  280.382  322.131    4.382   75.147
  687.500  281.018  315.618    4.597   72.760
  687.750  282.131  331.960    4.867   74.053
  688.000  283.754  321.053    5.106   75.951
  688.250  284.851  300.509    5.357   78.149
  688.500  285.996  300.818    5.620   84.040
  688.750  285.996  315.156    5.736   83.187
  689.000  286.217  314.663    5.907   80.486
  689.250  287.346  304.145    5.918   75.931
  689.500  288.969  300.047    5.819   67.098
  689.750  290.592  290.330    5.620   65.010
  690.000  292.183  298.649    5.329   71.201
  690.250  293.790  311.386    5.049   73.727
  690.500  294.888  310.092    4.655   77.458
  690.750  298.500  322.829    4.215   79.050
  691.000  301.604  333.563    4.145   73.896
  691.250  303.195  353.109    4.153   72.728
  691.500  304.802  359.825    3.690   75.554
  691.750  307.412  363.750    3.160   76.226
  692.000  314.432  380.492    2.514   73.540
  692.250  323.952  407.260    2.075   67.751
  692.500  340.891  468.096    1.697   55.844
  692.750  350.889  567.421    1.363   43.953
  693.000  371.761  619.045    1.353   45.537
  693.250  369.420  650.619    1.356   49.275
