~VERSION INFORMATION
 VERS.                 2.0:   CWLS LOG ASCII STANDARD -VERSION 2.0
 WRAP.                  NO:   ONE LINE PER DEPTH STEP
~WELL INFORMATION BLOCK
#MNEM.UNIT           DATA                    DESCRIPTION OF MNEMONIC
#---------    -------------------            -------------------------------
# Generated from Intellog Unique Number	CS_73_76/WELL/3231
WELL.         10-08-076-05W4                 : Well_name    - WELL
LOC .         00/10-08-076-05W4/0            : Location     - LOCATION
UWI .         00/10-08-076-05W4/0            : Uwi          - UNIQUE WELL ID
ENTR.         SP                             : Entered      - ENTERED BY
SRVC.         SCHLUMBERGER                   : Scn          - SERVICE COMPANY
STRT.M        175                            : top_depth    - START DEPTH
STOP.M        420                            : bot_depth    - STOP DEPTH
STEP.M        0.25                           : increment    - STEP LENGTH
 NULL. -999.2500:NULL Value
~CURVE INFORMATION BLOCK
#MNEM UNIT       ERCB CURVE CODE    CURVE DESCRIPTION
#-----------   ------------------   ----------------------------------
DEPT.M        00 001 00 00         : DEPTH        - DEPTH
GR  .API      00 310 00 00         : GR           - GAMMA RAY
DPHI.V/V      00 890 00 00         : PHID         - DENSITY POROSITY (LIMESTONE)
NPHI.V/V      00 330 00 00         : PHIN         - NEUTRON POROSITY (LIMESTONE)
ILD .OHMM     00 120 00 00         : RESD         - DEEP RESISTIVITY (DIL)
~PARAMETER INFORMATION
#MNEM.UNIT           DATA             DESCRIPTION OF MNEMONIC
#---------         -----------     ------------------------------
GL  .M        578.86               : gl           - GROUND LEVEL ELEVATION
EREF.M        582.66               : kb           - ELEVATION OF DEPTH REFERENCE
DATM.M        578.86               : datum        - DATUM ELEVATION
TDD .M        429                  : tdd          - TOTAL DEPTH DRILLER
RUN .         ONE                  : Run          - RUN NUMBER
ENG .         BILL                 : Engineer     - RECORDING ENGINEER
WIT .         JIM                  : Witness      - WITNESSED BY
MUD .         GEL                  : Mud_type     - MUD TYPE
MATR.         LIMESTONE            : Logunit      - NEUTRON MATRIX
TMAX.C        21                   : BHT          - MAXIMUM RECORDED TEMPERATURE
BHTD.M        429                  : BHTDEP       - MAXIMUM RECORDED TEMPERATURE
MATR.         1                    : LOGUNIT      - NEUTRON MATRIX
RMT .C        25                   : MDTP         - TEMPERATURE OF MUD
NEUT.         1                    : NEUTRON      - NEUTRON TYPE
RESI.         0                    : RESIST       - RESISTIVITY TYPE
RMC .OHMM     0.25                 : RMC          - RESISTIVITY OF MUD CAKE
RMF .OHMM     0.25                 : RMF          - RESISTIVITY OF MUD FILTRATE
SUFT.C        15                   : SUFT         - SURFACE TEMPERATURE
~A  DEPTH       GR     PHID     PHIN     RESD
# ...
  305.500   60.264    0.319    0.449    8.931
  305.750   59.052    0.324    0.434    8.767
  306.000   57.840    0.321    0.429    8.769
  306.250   57.842    0.281    0.447    9.277
  306.500   57.238    0.256    0.430   10.190
  306.750   56.633    0.217    0.251   12.291
  307.000   54.813    0.095    0.192   13.499
  307.250   51.780    0.012    0.151   16.282
  307.500   49.353    0.020    0.166   20.772
  307.750   49.963    0.036    0.183   28.561
  308.000   56.646    0.091    0.210   30.788
  308.250   64.543    0.254    0.304   25.538
  308.500   71.226    0.267    0.358   17.566
  308.750   72.443    0.264    0.385   11.004
  309.000   71.231    0.253    0.393    9.654
  309.250   70.626    0.246    0.405    8.959
  309.500   70.022    0.250    0.411    8.795
  309.750   69.417    0.250    0.421    8.963
  310.000   68.205    0.253    0.402    9.134
  310.250   68.208    0.262    0.386    9.309
  310.500   68.818    0.266    0.377    9.667
  310.750   70.035    0.267    0.366    9.669
  311.000   69.430    0.259    0.377    9.670
  311.250   67.003    0.260    0.400    9.672
  311.500   64.577    0.268    0.409    9.320
  311.750   66.401    0.277    0.422    8.979
  312.000   69.440    0.284    0.430    8.651
  312.250   74.301    0.288    0.414    8.334
  312.500   76.126    0.290    0.405    8.030
  312.750   77.343    0.271    0.405    7.736
  313.000   76.132    0.266    0.400    7.594
  313.250   74.312    0.268    0.416    7.456
  313.500   72.492    0.267    0.426    7.319
  313.750   72.495    0.266    0.408    7.320
  314.000   71.891    0.267    0.393    7.186
  314.250   70.678    0.257    0.409    6.923
  314.500   71.895    0.260    0.430    6.547
  314.750   73.113    0.267    0.444    6.548
  315.000   72.508    0.262    0.437    6.928
  315.250   73.725    0.250    0.420    7.330
  315.500   76.157    0.240    0.436    7.195
  315.750   79.196    0.230    0.448    5.538
  316.000   82.843    0.227    0.455    3.043
  316.250   87.096    0.223    0.463    1.979
  316.500   85.885    0.222    0.455    1.387
  316.750   82.243    0.226    0.449    1.172
  317.000   81.638    0.230    0.460    1.129
  317.250   82.248    0.237    0.471    1.240
  317.500   82.858    0.234    0.488    1.414
  317.750   82.861    0.234    0.505    1.582
  318.000   80.434    0.237    0.521    1.873
  318.250   78.615    0.223    0.514    2.435
  318.500   78.010    0.226    0.477    3.107
  318.750   80.442    0.246    0.485    3.477
  319.000   82.874    0.274    0.494    3.748
  319.250   83.484    0.306    0.505    4.195
  319.500   82.879    0.313    0.518    4.355
  319.750   81.667    0.288    0.494    4.608
  320.000   78.026    0.278    0.480    4.875
  320.250   74.385    0.289    0.472    5.355
  320.500   71.351    0.302    0.458    5.665
  320.750   71.960    0.304    0.461    6.222
  321.000   74.392    0.305    0.471    6.834
  321.250   78.646    0.320    0.474    7.231
  321.500   76.220    0.322    0.443    7.650
  321.750   73.793    0.326    0.460    7.944
  322.000   69.544    0.324    0.482    8.095
  322.250   69.547    0.317    0.478    8.097
  322.500   70.764    0.306    0.449    7.238
  322.750   71.981    0.288    0.443    7.240
  323.000   72.591    0.254    0.453    7.378
  323.250   71.379    0.241    0.466    7.519
  323.500   70.167    0.219    0.478    7.955
  323.750   73.814    0.197    0.471    7.957
  324.000   77.460    0.224    0.455    7.666
  324.250   76.248    0.234    0.471    7.249
  324.500   76.858    0.251    0.486    6.984
  324.750   76.253    0.252    0.486    6.729
  325.000   75.041    0.244    0.455    6.606
  325.250   78.080    0.250    0.423    6.860
  325.500   76.261    0.250    0.401    6.861
  325.750   74.442    0.249    0.409    7.124
  326.000   76.873    0.247    0.418    7.260
  326.250   76.876    0.250    0.436    7.262
  326.500   76.271    0.241    0.454    7.401
  326.750   75.059    0.241    0.453    7.403
  327.000   75.062    0.250    0.439    7.403
  327.250   75.065    0.251    0.421    7.268
  327.500   76.283    0.245    0.411    7.135
  327.750   76.892    0.238    0.400    7.004
  328.000   78.109    0.247    0.387    7.005
  328.250   79.326    0.260    0.398    6.877
  328.500   79.329    0.289    0.443    6.751
  328.750   78.725    0.295    0.455    6.504
  329.000   76.905    0.269    0.444    6.266
  329.250   74.478    0.256    0.437    5.925
  329.500   74.481    0.294    0.426    5.603
  329.750   74.483    0.325    0.435    5.398
  330.000   72.664    0.321    0.440    5.010
  330.250   67.201    0.245    0.418    4.479
  330.500   62.953    0.251    0.531    3.198
  330.750   64.777    0.362    0.603    2.603
  331.000   70.245    0.394    0.618    2.371
  331.250   71.463    0.376    0.603    2.285
  331.500   72.072    0.321    0.575    2.285
  331.750   73.290    0.290    0.531    2.286
  332.000   74.507    0.279    0.516    2.330
  332.250   72.688    0.277    0.521    2.374
  332.500   70.261    0.286    0.522    2.374
  332.750   69.657    0.303    0.500    2.375
  333.000   73.303    0.305    0.487    2.375
  333.250   75.127    0.289    0.489    2.376
  333.500   76.951    0.272    0.515    2.377
  333.750   76.954    0.275    0.520    2.377
  334.000   75.742    0.289    0.525    2.611
  334.250   73.316    0.295    0.538    2.762
  334.500   72.711    0.287    0.504    3.034
  334.750   73.321    0.257    0.476    3.395
  335.000   74.538    0.241    0.489    3.871
  335.250   72.719    0.239    0.468    4.173
  335.500   70.292    0.242    0.434    4.584
  335.750   68.473    0.240    0.438    5.227
  336.000   67.261    0.228    0.441    5.530
  336.250   68.478    0.225    0.423    5.742
  336.500   69.695    0.214    0.402    5.962
  336.750   70.912    0.209    0.395    6.076
  337.000   76.988    0.217    0.400    5.965
  337.250   79.420    0.229    0.401    5.332
  337.500   80.029    0.240    0.408    4.949
  337.750   81.854    0.261    0.427    4.508
  338.000   86.715    0.274    0.502    4.342
  338.250   79.430    0.264    0.480    4.106
  338.500   74.574    0.268    0.465    3.956
  338.750   73.969    0.322    0.476    3.884
  339.000   73.365    0.307    0.471    3.958
  339.250   77.011    0.262    0.454    3.886
  339.500   81.872    0.229    0.446    3.886
  339.750   81.268    0.221    0.461    3.887
  340.000   80.663    0.224    0.446    3.816
  340.250   80.058    0.225    0.441    3.746
  340.500   78.239    0.218    0.463    3.677
  340.750   77.635    0.220    0.479    3.610
  341.000   80.066    0.227    0.482    3.544
  341.250   78.247    0.235    0.466    3.545
  341.500   80.071    0.235    0.456    3.545
  341.750   80.681    0.232    0.452    3.613
  342.000   77.647    0.231    0.477    3.751
  342.250   72.184    0.232    0.483    4.044
  342.500   69.150    0.229    0.458    4.359
  342.750   66.724    0.225    0.424    4.879
  343.000   63.691    0.231    0.394    5.358
  343.250   62.478    0.248    0.396    6.110
  343.500   63.695    0.257    0.390    7.795
  343.750   66.734    0.251    0.385    9.056
  344.000   66.737    0.253    0.391   10.135
  344.250   63.703    0.259    0.395   11.132
  344.500   58.240    0.238    0.373   12.001
  344.750   49.740    0.223    0.358   12.697
  345.000   49.136    0.196    0.331   13.183
  345.250   53.389    0.225    0.346   13.186
  345.500   61.287    0.259    0.370   12.468
  345.750   65.540    0.271    0.407   12.013
  346.000   55.826    0.282    0.453   10.942
  346.250   40.646    0.292    0.474   12.713
  346.500   24.860    0.307    0.442   14.226
  346.750   22.433    0.315    0.341   16.528
  347.000   22.436    0.323    0.357   20.313
  347.250   24.868    0.321    0.373   28.994
  347.500   27.299    0.314    0.361   46.308
  347.750   29.732    0.312    0.367   62.492
  348.000   32.163    0.315    0.373   67.366
  348.250   35.202    0.313    0.376   60.222
  348.500   40.670    0.308    0.383   47.223
  348.750   40.673    0.306    0.385   21.118
