~VERSION INFORMATION
 VERS.                 2.0:   CWLS LOG ASCII STANDARD -VERSION 2.0
 WRAP.                  NO:   ONE LINE PER DEPTH STEP
~WELL INFORMATION BLOCK
#MNEM.UNIT           DATA                    DESCRIPTION OF MNEMONIC
#---------    -------------------            -------------------------------
# Generated from Intellog Unique Number	CC_80_83/WELL/2443
NULL.         -999.25                        : NULL_VALUE
WELL.         SUNCOR GRAHAM                  : WELL_NAME
LOC .         16-15-080-05W4                 : Location     - LOCATION          
UWI .         00/16-15-080-05W400            : Uwi          - UNIQUE WELL ID    
ENTR.         DW                             : Entered      - ENTERED BY        
SRVC.         SCHLUMBERGER                   : Scn          - SERVICE COMPANY   
DATE.         24 NOV 77                      : Date         - LOG DATE
STRT.M        85                             : top_depth    - START DEPTH       
STOP.M        289.9                          : bot_depth    - STOP DEPTH        
STEP.M        0.3                            : increment    - STEP LENGTH       
~CURVE INFORMATION BLOCK
#MNEM UNIT       ERCB CURVE CODE    CURVE DESCRIPTION
#-----------   ------------------   ----------------------------------
DEPT.M        00 001 00 00         : DEPTH        - DEPTH                       
DPHI.V/V      00 890 00 00         : PHID         - DENSITY POROSITY (LIMESTONE)
NPHI.V/V      00 330 00 00         : PHIN         - NEUTRON POROSITY (LIMESTONE)
GR  .API      00 310 00 00         : GR           - GAMMA RAY                   
ILD .OHMM     00 120 00 00         : RESD         - DEEP RESISTIVITY (DIL)      
~PARAMETER INFORMATION       
#MNEM.UNIT           DATA             DESCRIPTION OF MNEMONIC
#---------         -----------     ------------------------------
GL  .M        465.7                : gl           - GROUND LEVEL ELEVATION      
EREF.M        468.7                : kb           - ELEVATION OF DEPTH REFERENCE
DATM.M        468.7                : datum        - DATUM ELEVATION             
TDD .M        298                  : tdd          - TOTAL DEPTH DRILLER         
RUN .         ONE                  : Run          - RUN NUMBER                  
ENG .         BILL                 : Engineer     - RECORDING ENGINEER          
WIT .         JIM                  : Witness      - WITNESSED BY                
MUD .         GEL                  : Mud_type     - MUD TYPE                    
MATR.         LIMESTONE            : Logunit      - NEUTRON MATRIX              
TMAX.C        22                   : BHT          - MAXIMUM RECORDED TEMPERATURE
BHTD.M        298                  : BHTDEP       - MAXIMUM RECORDED TEMPERATURE
MATR.         1                    : LOGUNIT      - NEUTRON MATRIX              
RMT .C        25                   : MDTP         - TEMPERATURE OF MUD          
NEUT.         1                    : NEUTRON      - NEUTRON TYPE                
RESI.         0                    : RESIST       - RESISTIVITY TYPE            
RMC .OHMM     0.25                 : RMC          - RESISTIVITY OF MUD CAKE     
RMF .OHMM     0.25                 : RMF          - RESISTIVITY OF MUD FILTRATE 
SUFT.C        15                   : SUFT         - SURFACE TEMPERATURE         
~A  DEPTH     PHID     PHIN       GR     RESD
# ...
  241.602    0.266    0.448   91.590    3.803
  241.902    0.246    0.470  102.510    3.731
  242.202    0.242    0.478  107.670    3.264
  242.502    0.260    0.453  102.586    2.911
  242.802    0.329    0.418   51.419    2.547
  243.102    0.333    0.390   51.460    2.406
  243.402    0.265    0.388   94.386    3.083
  243.702    0.242    0.427  107.871    3.523
  244.002    0.231    0.470  107.278    3.591
  244.302    0.234    0.471  100.908    3.327
  244.602    0.306    0.452   63.189    2.911
  244.902    0.316    0.423   54.907    2.697
  245.202    0.315    0.403   58.791    2.697
  245.502    0.300    0.402   70.353    2.749
  245.802    0.281    0.411   74.873    2.697
  246.102    0.317    0.412   65.309    2.499
  246.402    0.342    0.406   46.149    2.315
  246.702    0.354    0.399   50.041    2.105
  247.002    0.359    0.399   51.355    1.988
  247.302    0.344    0.398   49.470    1.950
  247.602    0.334    0.397   41.827    1.913
  247.902    0.340    0.394   35.472    1.950
  248.202    0.332    0.390   50.233    2.065
  248.502    0.293    0.364   63.712    2.187
  248.802    0.295    0.378   54.155    2.187
  249.102    0.329    0.384   36.275    2.187
  249.402    0.335    0.362   27.993    2.026
  249.702    0.337    0.357   29.317    1.950
  250.002    0.337    0.361   35.760    1.988
  250.302    0.311    0.371   46.675    1.988
  250.602    0.291    0.382   55.035    2.145
  250.902    0.317    0.391   46.760    2.272
  251.202    0.347    0.396   47.437    2.406
  251.502    0.297    0.399   73.719    2.596
  251.802    0.246    0.398   91.685    3.025
  252.102    0.235    0.404  101.327    3.523
  252.402    0.235    0.424   94.968    4.027
  252.702    0.240    0.454   83.486    4.104
  253.002    0.239    0.466   82.885    4.104
  253.302    0.227    0.443   88.686    4.027
  253.602    0.222    0.425   95.125    3.876
  253.902    0.224    0.448   98.368    3.731
  254.202    0.278    0.441   89.448    3.457
  254.502    0.285    0.418   67.092    3.142
  254.802    0.269    0.407   70.964    2.646
  255.102    0.275    0.392   67.806    2.272
  255.402    0.315    0.381   48.004    1.950
  255.702    0.339    0.356   32.681    1.706
  256.002    0.351    0.349   38.490    1.581
  256.302    0.354    0.355   32.122    1.551
  256.602    0.358    0.367   25.135    1.551
  256.902    0.363    0.374   25.164    1.551
  257.202    0.359    0.380   27.765    1.581
  257.502    0.343    0.391   38.047    1.674
  257.802    0.326    0.396   44.490    1.706
  258.102    0.329    0.389   39.410    1.706
  258.402    0.342    0.384   33.692    1.706
  258.702    0.360    0.376   30.532    1.611
  259.002    0.360    0.354   29.288    1.581
  259.302    0.335    0.352   45.970    1.642
  259.602    0.305    0.371   67.775    2.065
  259.902    0.275    0.381   74.217    3.264
  260.202    0.234    0.392   64.664    3.591
  260.502    0.132    0.378   61.502    4.027
  260.802    0.190    0.380   65.383    4.104
  261.102    0.230    0.387   68.617    3.803
  261.402    0.286    0.411   64.181    3.523
  261.702    0.264    0.404   64.862    3.391
  262.001    0.256    0.379   65.538    3.391
  262.301    0.236    0.358   59.823    3.327
  262.601    0.192    0.354   60.499    3.025
  262.901    0.268    0.364   61.179    2.749
  263.201    0.299    0.391   58.662    2.749
  263.501    0.258    0.387   71.501    2.856
  263.801    0.220    0.390   87.544    3.142
  264.101    0.221    0.398   90.149    3.203
  264.401    0.230    0.408   85.711    3.203
  264.701    0.283    0.387   49.901    2.911
  265.001    0.342    0.384   30.741    2.272
  265.301    0.360    0.375   26.298    1.913
  265.601    0.355    0.358   24.428    1.674
  265.901    0.355    0.350   24.462    1.383
  266.201    0.354    0.350   27.706    1.357
  266.501    0.330    0.355   41.184    1.706
  266.801    0.228    0.372   58.505    2.406
  267.101    0.219    0.394   84.150    2.749
  267.401    0.270    0.406   80.353    3.264
  267.701    0.300    0.400   66.313    3.203
  268.001    0.330    0.382   50.990    2.646
  268.301    0.345    0.370   36.311    1.988
  268.601    0.351    0.358   31.875    1.706
  268.901    0.354    0.363   29.349    1.522
  269.201    0.358    0.363   28.113    1.410
  269.501    0.348    0.348   34.550    1.522
  269.801    0.272    0.355   52.510    2.026
  270.101    0.240    0.395   84.555    2.646
  270.401    0.242    0.414   83.965    2.967
  270.701    0.276    0.398   80.796    2.911
  271.001    0.302    0.404   68.674    2.697
  271.301    0.289    0.395   44.395    2.315
  271.601    0.277    0.357   57.243    2.315
  271.901    0.284    0.356   60.477    2.547
  272.201    0.265    0.391   69.477    2.697
  272.501    0.255    0.391   63.119    2.802
  272.801    0.259    0.360   62.523    2.856
  273.101    0.245    0.337   68.330    2.802
  273.401    0.252    0.389   70.927    2.749
  273.701    0.292    0.442   72.244    2.547
  274.001    0.324    0.459   71.003    2.360
  274.301    0.321    0.458   56.961    2.187
  274.601    0.326    0.430   56.359    1.913
  274.901    0.350    0.426   51.279    1.642
  275.201    0.366    0.420   41.724    1.522
  275.501    0.354    0.410   41.766    1.551
  275.801    0.340    0.400   50.762    1.611
  276.101    0.323    0.389   68.089    1.642
  276.401    0.331    0.377   62.364    1.642
  276.701    0.349    0.378   38.725    1.581
  277.001    0.353    0.378   33.642    1.493
  277.301    0.352    0.375   34.970    1.437
  277.601    0.357    0.373   38.847    1.437
  277.901    0.367    0.378   40.812    1.383
  278.201    0.368    0.389   33.804    1.331
  278.501    0.365    0.393   31.289    1.306
  278.801    0.344    0.392   34.533    1.306
  279.101    0.237    0.396   70.409    1.493
  279.401    0.210    0.409   97.333    1.773
  279.701    0.227    0.414   92.893    2.272
  280.001    0.284    0.410   71.817    2.499
  280.301    0.304    0.395   68.016    2.406
  280.601    0.310    0.385   62.297    2.187
  280.901    0.360    0.376   52.090    1.877
  281.201    0.368    0.373   41.892    1.581
  281.501    0.357    0.375   47.697    1.383
  281.801    0.351    0.384   50.294    1.306
  282.101    0.346    0.393   42.656    1.331
  282.401    0.338    0.404   40.772    1.410
  282.701    0.321    0.403   60.657    1.642
  283.001    0.301    0.398   72.861    1.773
  283.301    0.293    0.433   65.219    1.950
  283.601    0.330    0.414   42.214    2.026
  283.901    0.365    0.393   28.179    1.950
  284.201    0.373    0.388   25.022    1.773
  284.501    0.371    0.385   26.977    1.465
  284.801    0.364    0.384   34.059    1.306
  285.101    0.357    0.392   44.345    1.282
  285.401    0.356    0.398   39.261    1.306
  285.701    0.375    0.392   25.863    1.357
  286.001    0.377    0.391   25.907    1.357
  286.301    0.375    0.383   25.936    1.306
  286.600    0.378    0.377   25.979    1.234
  286.900    0.373    0.393   29.861    1.210
  287.200    0.363    0.408   38.865    1.210
  287.500    0.354    0.414   44.664    1.210
  287.800    0.333    0.413   45.344    1.282
  288.100    0.251    0.403   44.103    1.706
  288.400    0.156    0.303   55.670    2.065
  288.700    0.000    0.224   49.947    2.646
  289.000    0.000    0.193   28.226    3.660
  289.300    0.041    0.172   19.945    5.677
  289.600    0.059    0.164   17.421    8.639
  289.900    0.036    0.157   16.827   11.502
