~VERSION INFORMATION
 VERS.                 2.0:   CWLS LOG ASCII STANDARD -VERSION 2.0
 WRAP.                  NO:   ONE LINE PER DEPTH STEP
~WELL INFORMATION BLOCK
#MNEM.UNIT           DATA                    DESCRIPTION OF MNEMONIC
#---------    -------------------            -------------------------------
# Generated from Intellog Unique Number	CW_70_72/WELL/1042
NULL.         -999.25                        : NULL_VALUE
WELL.         MIKAS AMOCO MEYER              : Well_name    - WELL              
LOC .         10-26-071-25W4                 : Location     - LOCATION          
UWI .         00/10-26-071-25W4/0            : Uwi          - UNIQUE WELL ID    
ENTR.         JAYE                           : Entered      - ENTERED BY        
SRVC.         SCHLUMBERGER                   : Scn          - SERVICE COMPANY   
DATE.         4 MAR 73                       : Date         - LOG DATE          
STRT.M        374.904                        : top_depth    - START DEPTH       
STOP.M        609.654                        : bot_depth    - STOP DEPTH        
STEP.M        0.25                           : increment    - STEP LENGTH       
~CURVE INFORMATION BLOCK
#MNEM UNIT       ERCB CURVE CODE    CURVE DESCRIPTION
#-----------   ------------------   ----------------------------------
DEPT.M        00 001 00 00         : DEPTH        - DEPTH                       
DPHI.V/V      00 890 00 00         : PHID         - DENSITY POROSITY (SANDSTONE)
NPHI.V/V      00 330 00 00         : PHIN         - NEUTRON POROSITY (SANDSTONE)
GR  .API      00 310 00 00         : GR           - GAMMA RAY                   
CALI.MM       00 280 01 00         : CAL          - CALIPER                     
ILD .OHMM     00 120 00 00         : RESD         - DEEP RESISTIVITY (DIL)      
~PARAMETER INFORMATION       
#MNEM.UNIT           DATA             DESCRIPTION OF MNEMONIC
#---------         -----------     ------------------------------
GL  .M        589.94               : gl           - GROUND LEVEL ELEVATION      
EREF.M        593.75               : kb           - ELEVATION OF DEPTH REFERENCE
DATM.M        589.94               : datum        - DATUM ELEVATION             
TDD .M        667.817              : tdd          - TOTAL DEPTH DRILLER         
RUN .         ONE                  : Run          - RUN NUMBER                  
BASE.         EDM                  : Branch       - HOME BASE OF LOGGING UNIT   
MUD .         GEL CHEM             : Mud_type     - MUD TYPE                    
MATR.         SANDSTONE            : Logunit      - NEUTRON MATRIX              
TMAX.C        28.3333              : BHT          - MAXIMUM RECORDED TEMPERATURE
BHTD.M        667.817              : BHTDEP       - MAXIMUM RECORDED TEMPERATURE
RMT .C        17.7778              : MDTP         - TEMPERATURE OF MUD          
MUDD.KG/M     0                    : MWT          - MUD DENSITY                 
NEUT.         1                    : NEUTRON      - NEUTRON TYPE                
RESI.         0                    : RESIST       - RESISTIVITY TYPE            
RM  .OHMM     3.6                  : RM           - RESISTIVITY OF MUD          
RMC .OHMM     0                    : RMC          - RESISTIVITY OF MUD CAKE     
RMF .OHMM     0                    : RMF          - RESISTIVITY OF MUD FILTRATE 
SUFT.C        0                    : SUFT         - SURFACE TEMPERATURE         
~A  DEPTH     PHID     PHIN       GR      CAL     RESD
# ...
  557.404    0.118    0.407   82.307  159.852    6.445
  557.654    0.120    0.418   79.699  159.352    7.339
  557.904    0.111    0.390   80.624  159.168    7.863
  558.154    0.062    0.375   84.713  158.975    7.121
  558.404    0.132    0.382   88.500  159.096    6.168
  558.654    0.148    0.393   89.180  159.630    5.670
  558.904    0.143    0.409   90.043  160.266    5.308
  559.154    0.111    0.420   90.298  161.624    4.835
  559.404    0.106    0.417   90.550  164.634    4.460
  559.654    0.099    0.431   92.449  165.989    4.121
  559.904    0.110    0.430   97.209  168.072    3.887
  560.154    0.116    0.441  100.143  168.811    3.693
  560.404    0.102    0.445   99.605  169.760    3.621
  560.654    0.109    0.436   99.554  169.983    3.631
  560.904    0.129    0.419   97.677  170.205    3.694
  561.154    0.141    0.411   97.139  170.118    3.736
  561.404    0.139    0.410   93.984  169.518    3.802
  561.654    0.098    0.407   93.263  168.709    3.863
  561.904    0.091    0.406   95.283  167.078    3.928
  562.154    0.080    0.408   96.572  165.959    3.975
  562.404    0.118    0.412   96.461  164.534    4.030
  562.654    0.133    0.420   97.079  164.552    4.046
  562.904    0.118    0.436   96.055  165.289    4.036
  563.154    0.111    0.460   90.707  167.266    4.022
  563.404    0.106    0.492   83.774  169.346    4.033
  563.654    0.110    0.478   68.682  171.942    4.103
  563.904    0.139    0.403   60.410  168.659    4.189
  564.154    0.142    0.369   52.138  158.572    4.286
  564.404    0.146    0.352   47.459  152.300    4.418
  564.654    0.164    0.338   46.739  152.213    4.628
  564.904    0.163    0.326   47.602  152.438    4.978
  565.154    0.164    0.319   49.867  152.765    5.433
  565.404    0.159    0.309   53.165  152.162    5.693
  565.654    0.140    0.291   52.872  152.902    5.613
  565.904    0.108    0.324   52.089  154.467    5.275
  566.154    0.166    0.355   55.631  153.042    4.512
  566.404    0.169    0.355   54.728  150.792    4.047
  566.654    0.175    0.353   56.262  150.291    3.545
  566.904    0.178    0.352   58.099  150.413    3.128
  567.154    0.166    0.351   60.727  151.254    2.945
  567.404    0.172    0.349   64.391  153.128    3.041
  567.654    0.165    0.348   70.979  157.787    3.235
  567.904    0.161    0.359   79.089  162.650    3.459
  568.154    0.150    0.391   87.199  163.701    3.735
  568.404    0.117    0.428   95.917  163.925    3.893
  568.654    0.127    0.459  102.139  164.765    4.012
  568.904    0.145    0.434   92.954  167.876    4.089
  569.154    0.150    0.369   79.385  169.750    4.160
  569.404    0.154    0.352   70.260  168.221    4.282
  569.654    0.146    0.344   74.168  166.589    4.435
  569.904    0.124    0.350   78.319  166.090    4.825
  570.154    0.125    0.369   75.406  166.004    5.065
  570.404    0.122    0.357   74.869  165.919    5.164
  570.654    0.121    0.341   78.777  163.977    5.232
  570.904    0.134    0.325   81.040  152.136    5.297
  571.154    0.137    0.346   81.416  155.762    5.355
  571.404    0.143    0.359   82.462  160.216    5.394
  571.654    0.120    0.368   85.031  164.256    5.383
  571.904    0.099    0.373   89.059  166.025    5.346
  572.154    0.107    0.377   91.689  165.217    5.350
  572.404    0.118    0.365   84.878  161.833    5.466
  572.654    0.129    0.354   83.123  159.996    5.499
  572.904    0.105    0.349   89.162  160.527    5.543
  573.154    0.107    0.357   93.740  163.328    5.598
  573.404    0.112    0.397   96.735  166.337    5.550
  573.654    0.132    0.422   99.363  168.212    5.470
  573.904    0.126    0.445   97.851  168.540    5.256
  574.154    0.132    0.415   99.201  168.453    5.040
  574.404    0.120    0.393  101.283  168.469    4.775
  574.654    0.120    0.396  101.780  169.004    4.669
  574.904    0.141    0.407  103.374  169.743    4.472
  575.154    0.132    0.416  104.784  170.171    4.281
  575.404    0.127    0.420  100.044  170.088    4.097
  575.654    0.140    0.424   98.532  169.793    4.015
  575.904    0.123    0.424   98.603  168.473    3.861
  576.154    0.110    0.418  100.015  166.839    3.831
  576.404    0.108    0.417  103.557  165.001    3.799
  576.654    0.122    0.422  107.891  163.472    3.782
  576.904    0.120    0.417  111.921  163.489    3.765
  577.154    0.144    0.381  112.784  164.744    3.753
  577.404    0.128    0.357  104.147  167.339    3.766
  577.654    0.108    0.351   95.266  165.294    3.904
  577.904    0.143    0.351   55.327  160.775    4.115
  578.154    0.199    0.350   54.728  159.968    4.240
  578.404    0.228    0.355   60.647  161.534    4.206
  578.654    0.247    0.363   65.407  162.374    4.136
  578.904    0.242    0.373   69.863  163.010    3.968
  579.154    0.244    0.394   74.927  163.234    3.784
  579.404    0.240    0.423   79.567  163.974    3.590
  579.654    0.211    0.480   82.255  163.889    3.480
  579.904    0.229    0.393   84.641  163.802    3.388
  580.154    0.227    0.376   84.287  164.026    3.333
  580.404    0.210    0.363   83.992  163.838    3.261
  580.654    0.207    0.372   85.585  163.652    3.181
  580.904    0.227    0.386   88.337  163.563    3.085
  581.154    0.209    0.404   92.671  163.378    3.008
  581.404    0.181    0.424   93.594  163.495    2.921
  581.654    0.187    0.425   77.771  163.719    2.844
  581.904    0.211    0.373   67.307  163.841    2.782
  582.154    0.199    0.351   69.572  163.754    2.705
  582.404    0.179    0.341   70.129  160.780    2.675
  582.654    0.172    0.346   72.272  155.333    2.582
  582.904    0.198    0.356   79.285  153.804    2.564
  583.154    0.227    0.414   96.772  156.816    2.552
  583.404    0.214    0.455  101.716  159.822    2.542
  583.654    0.233    0.561   97.403  163.137    2.521
  583.904    0.237    0.567   95.525  166.043    2.498
  584.154    0.232    0.580   95.535  167.505    2.464
  584.404    0.232    0.587   95.606  168.351    2.429
  584.654    0.224    0.594   99.515  168.570    2.413
  584.904    0.216    0.599  101.230  168.383    2.414
  585.154    0.227    0.603  100.692  166.853    2.394
  585.404    0.222    0.605  101.799  164.601    2.387
  585.654    0.242    0.599  113.136  161.834    2.392
  585.904    0.227    0.590  132.390  160.923    2.407
  586.154    0.234    0.573  152.254  160.528    2.426
  586.404    0.229    0.528  157.623  160.961    2.484
  586.654    0.238    0.499  145.088  160.978    2.541
  586.904    0.225    0.476  107.281  161.304    2.603
  587.154    0.200    0.460  112.102  161.939    2.693
  587.404    0.247    0.556  118.753  162.886    2.760
  587.654    0.267    0.550  111.027  163.007    2.809
  587.904    0.243    0.515   87.165  163.436    2.827
  588.154    0.209    0.468   80.416  163.663    2.823
  588.404    0.243    0.452   74.519  163.781    2.809
  588.654    0.259    0.441   80.193  164.004    2.790
  588.904    0.227    0.419   94.392  163.920    2.746
  589.154    0.183    0.408  111.089  164.039    2.716
  589.404    0.173    0.395  126.202  164.058    2.640
  589.654    0.184    0.472  149.171  164.076    2.575
  589.904    0.206    0.507  164.832  164.092    2.510
  590.154    0.212    0.543  182.259  164.109    2.438
  590.404    0.201    0.536  199.991  164.126    2.360
  590.654    0.200    0.509  214.313  164.146    2.264
  590.904    0.193    0.507  224.249  164.266    2.214
  591.154    0.176    0.557  236.805  164.183    2.155
  591.404    0.181    0.538  249.664  164.197    2.105
  591.654    0.195    0.530  264.230  164.318    2.053
  591.904    0.192    0.564  278.978  164.335    1.984
  592.154    0.180    0.587  298.353  164.354    1.931
  592.404    0.180    0.560  306.220  163.651    1.838
  592.654    0.169    0.551  308.545  162.121    1.759
  592.904    0.187    0.529  309.407  160.385    1.675
  593.154    0.215    0.514  308.992  156.070    1.654
  593.404    0.230    0.517  307.479  151.138    1.692
  593.654    0.246    0.520  303.592  151.673    1.861
