~VERSION INFORMATION
 VERS.                 2.0:   CWLS LOG ASCII STANDARD -VERSION 2.0
 WRAP.                  NO:   ONE LINE PER DEPTH STEP
~WELL INFORMATION BLOCK
#MNEM.UNIT           DATA                    DESCRIPTION OF MNEMONIC
#---------    -------------------            -------------------------------
# Generated from Intellog Unique Number	CS_73_76/WELL/3255
WELL.         HOME OIL COMPANY LIMITED       : Well_name    - WELL
LOC .         00/11-01-076-06W4/0            : Location     - LOCATION
UWI .         00/11-01-076-06W4/0            : Uwi          - UNIQUE WELL ID
ENTR.         SP                             : Entered      - ENTERED BY
SRVC.         SCHLUMBERGER                   : Scn          - SERVICE COMPANY
STRT.M        182                            : top_depth    - START DEPTH
STOP.M        415                            : bot_depth    - STOP DEPTH
STEP.M        0.25                           : increment    - STEP LENGTH
 NULL. -999.2500:NULL Value
~CURVE INFORMATION BLOCK
#MNEM UNIT       ERCB CURVE CODE    CURVE DESCRIPTION
#-----------   ------------------   ----------------------------------
DEPT.M        00 001 00 00         : DEPTH        - DEPTH
ILD .OHMM     00 120 00 00         : RESD         - DEEP RESISTIVITY (DIL)
DPHI.V/V      00 890 00 00         : PHID         - DENSITY POROSITY (LIMESTONE)
NPHI.V/V      00 330 00 00         : PHIN         - NEUTRON POROSITY (LIMESTONE)
GR  .API      00 310 00 00         : GR           - GAMMA RAY
~PARAMETER INFORMATION
#MNEM.UNIT           DATA             DESCRIPTION OF MNEMONIC
#---------         -----------     ------------------------------
GL  .M        595.55               : gl           - GROUND LEVEL ELEVATION
EREF.M        599.05               : kb           - ELEVATION OF DEPTH REFERENCE
DATM.M        595.55               : datum        - DATUM ELEVATION
TDD .M        423                  : tdd          - TOTAL DEPTH DRILLER
RUN .         ONE                  : Run          - RUN NUMBER
ENG .         BILL                 : Engineer     - RECORDING ENGINEER
WIT .         JIM                  : Witness      - WITNESSED BY
MUD .         GEL                  : Mud_type     - MUD TYPE
MATR.         LIMESTONE            : Logunit      - NEUTRON MATRIX
TMAX.C        20.5                 : BHT          - MAXIMUM RECORDED TEMPERATURE
BHTD.M        423                  : BHTDEP       - MAXIMUM RECORDED TEMPERATURE
MATR.         1                    : LOGUNIT      - NEUTRON MATRIX
RMT .C        25                   : MDTP         - TEMPERATURE OF MUD
NEUT.         1                    : NEUTRON      - NEUTRON TYPE
RESI.         0                    : RESIST       - RESISTIVITY TYPE
RMC .OHMM     0.25                 : RMC          - RESISTIVITY OF MUD CAKE
RMF .OHMM     0.25                 : RMF          - RESISTIVITY OF MUD FILTRATE
SUFT.C        15                   : SUFT         - SURFACE TEMPERATURE
~A  DEPTH     RESD     PHID     PHIN       GR
# ...
  312.500    4.737    0.300    0.480   69.692
  312.750    4.566    0.271    0.484   72.128
  313.000    4.483    0.282    0.492   75.780
  313.250    4.654    0.277    0.492   78.827
  313.500    4.921    0.250    0.503   80.657
  313.750    5.402    0.251    0.507   78.845
  314.000    5.820    0.259    0.489   78.246
  314.250    6.270    0.262    0.473   78.862
  314.500    5.932    0.247    0.466   81.302
  314.750    4.248    0.244    0.471   82.525
  315.000    2.772    0.259    0.483   84.359
  315.250    1.618    0.256    0.501   84.973
  315.500    1.018    0.250    0.478   84.375
  315.750    0.702    0.252    0.458   81.954
  316.000    0.716    0.240    0.465   80.139
  316.250    0.894    0.216    0.477   80.758
  316.500    1.118    0.225    0.464   82.591
  316.750    1.160    0.222    0.466   83.811
  317.000    1.227    0.220    0.477   85.643
  317.250    1.398    0.226    0.486   87.475
  317.500    1.506    0.251    0.493   88.698
  317.750    1.593    0.272    0.504   89.314
  318.000    1.781    0.275    0.515   88.715
  318.250    2.185    0.283    0.516   86.294
  318.500    2.584    0.275    0.527   86.306
  318.750    3.170    0.286    0.535   86.920
  319.000    3.479    0.299    0.550   87.538
  319.250    4.038    0.286    0.543   82.687
  319.500    4.686    0.314    0.494   76.623
  319.750    5.239    0.336    0.442   69.950
  320.000    5.751    0.349    0.422   63.886
  320.250    6.196    0.364    0.383   65.718
  320.500    6.432    0.366    0.404   69.980
  320.750    6.555    0.358    0.422   69.988
  321.000    6.087    0.354    0.427   66.963
  321.250    5.653    0.345    0.429   65.147
  321.500    5.448    0.337    0.430   66.372
  321.750    5.450    0.288    0.434   68.205
  322.000    5.657    0.258    0.443   68.818
  322.250    6.210    0.237    0.456   68.828
  322.500    7.341    0.206    0.473   63.370
  322.750    8.209    0.136    0.460   58.520
  323.000    8.681    0.076    0.388   56.708
  323.250    7.914    0.120    0.294   65.825
  323.500    7.214    0.234    0.299   73.730
  323.750    6.220    0.251    0.422   80.419
  324.000    6.107    0.251    0.463   82.250
  324.250    6.340    0.232    0.474   84.082
  324.500    6.582    0.241    0.461   84.697
  324.750    6.707    0.243    0.454   83.494
  325.000    6.835    0.248    0.450   81.075
  325.250    6.836    0.254    0.442   80.478
  325.500    6.838    0.239    0.440   79.878
  325.750    6.840    0.220    0.438   79.885
  326.000    6.716    0.222    0.436   79.286
  326.250    6.594    0.242    0.449   79.297
  326.500    6.597    0.241    0.459   79.303
  326.750    6.599    0.242    0.471   78.708
  327.000    6.724    0.242    0.476   76.287
  327.250    6.726    0.241    0.476   76.298
  327.500    6.728    0.256    0.453   76.912
  327.750    6.730    0.273    0.416   79.349
  328.000    6.607    0.246    0.426   84.217
  328.250    6.136    0.236    0.431   86.047
  328.500    5.914    0.205    0.438   83.629
  328.750    5.595    0.216    0.453   81.207
  329.000    5.493    0.229    0.473   81.220
  329.250    5.197    0.233    0.463   81.226
  329.500    4.826    0.209    0.442   81.236
  329.750    4.400    0.210    0.447   81.243
  330.000    3.937    0.221    0.461   80.037
  330.250    3.211    0.243    0.478   75.796
  330.500    2.873    0.266    0.489   73.376
  330.750    2.431    0.261    0.498   72.169
  331.000    2.258    0.283    0.543   70.965
  331.250    2.259    0.300    0.557   71.583
  331.500    2.259    0.280    0.558   72.805
  331.750    2.302    0.281    0.589   73.420
  332.000    2.346    0.278    0.595   74.043
  332.250    2.391    0.272    0.570   74.657
  332.500    2.392    0.278    0.551   74.662
  332.750    2.392    0.292    0.527   74.065
  333.000    2.349    0.283    0.571   74.077
  333.250    2.349    0.273    0.574   74.084
  333.500    2.394    0.271    0.556   75.309
  333.750    2.532    0.268    0.551   76.530
  334.000    2.779    0.255    0.540   77.755
  334.250    3.107    0.241    0.543   79.587
  334.500    3.411    0.228    0.562   80.203
  334.750    3.743    0.232    0.563   80.819
  335.000    4.109    0.212    0.476   80.826
  335.250    4.510    0.212    0.457   79.013
  335.500    4.859    0.210    0.458   76.593
  335.750    5.139    0.210    0.447   75.386
  336.000    5.334    0.232    0.446   75.396
  336.250    5.538    0.214    0.431   76.619
  336.500    5.539    0.201    0.417   79.057
  336.750    5.339    0.186    0.411   81.497
  337.000    4.958    0.189    0.417   83.937
  337.250    4.690    0.194    0.425   84.553
  337.500    4.197    0.203    0.446   85.775
  337.750    4.046    0.224    0.468   87.605
  338.000    3.972    0.237    0.468   90.651
  338.250    3.900    0.234    0.452   91.266
  338.500    3.901    0.241    0.483   82.167
  338.750    3.976    0.248    0.506   79.139
  339.000    3.903    0.222    0.486   79.758
  339.250    3.832    0.236    0.488   80.371
  339.500    3.763    0.248    0.485   82.204
  339.750    3.627    0.235    0.472   84.035
  340.000    3.496    0.220    0.487   85.865
  340.250    3.369    0.230    0.476   86.481
  340.500    3.308    0.230    0.490   88.921
  340.750    3.130    0.228    0.511   88.929
  341.000    3.073    0.235    0.514   88.938
  341.250    3.017    0.235    0.512   88.338
  341.500    3.018    0.222    0.501   87.742
  341.750    2.963    0.219    0.496   86.537
  342.000    3.020    0.223    0.506   85.935
  342.250    3.077    0.242    0.512   85.338
  342.500    3.194    0.226    0.507   84.741
  342.750    3.316    0.228    0.488   85.357
  343.000    3.640    0.220    0.488   85.974
  343.250    4.146    0.221    0.501   85.375
  343.500    5.379    0.223    0.513   80.524
  343.750    6.478    0.224    0.513   70.817
  344.000    7.658    0.203    0.509   58.679
  344.250    9.572    0.142    0.336   53.829
  344.500   10.904    0.111    0.313   52.018
  344.750   11.968    0.143    0.322   50.811
  345.000   11.536    0.245    0.308   44.141
  345.250    9.407    0.269    0.310   38.683
  345.500    8.417    0.271    0.318   30.190
  345.750    8.265    0.315    0.325   24.733
  346.000    8.267    0.301    0.343   25.957
  346.250    8.424    0.294    0.364   27.788
  346.500    9.076    0.302    0.379   30.226
  346.750   10.533    0.285    0.381   33.272
  347.000   10.342    0.288    0.382   38.140
  347.250    8.752    0.294    0.390   44.829
  347.500    7.007    0.280    0.395   51.518
  347.750    6.041    0.288    0.390   59.422
  348.000    5.507    0.259    0.401   67.327
  348.250    4.837    0.271    0.444   72.194
  348.500    4.249    0.266    0.455   77.669
  348.750    4.020    0.251    0.468   81.928
  349.000    3.874    0.266    0.489   84.974
  349.250    3.734    0.256    0.496   79.520
  349.500    3.666    0.268    0.513   78.311
  349.750    3.533    0.264    0.491   80.750
  350.000    3.104    0.202    0.493   92.917
  350.250    3.220    0.223    0.503   92.937
  350.500    3.806    0.252    0.510   88.702
  350.750    4.934    0.254    0.468   79.007
  351.000    6.765    0.256    0.410   80.847
  351.250    8.936    0.268    0.399   85.115
  351.500   11.803    0.263    0.407   88.175
  351.750   11.801    0.245    0.411   91.228
  352.000   11.798    0.243    0.417   93.672
  352.250   12.943    0.236    0.424   84.584
  352.500   15.012    0.249    0.397   71.243
  352.750   17.739    0.261    0.381   62.759
  353.000   20.576    0.261    0.364   59.743
  353.250   23.866    0.265    0.358   57.330
  353.500   26.674    0.255    0.376   53.705
  353.750   30.369    0.271    0.390   52.510
  354.000   32.703    0.298    0.408   50.097
  354.250   35.218    0.298    0.404   46.475
  354.500   35.871    0.289    0.397   48.315
  354.750   34.557    0.278    0.397   51.366
  355.000   31.485    0.271    0.386   56.854
  355.250   28.159    0.267    0.375   63.558
  355.500   24.722    0.236    0.380   67.822
  355.750   21.705    0.222    0.366   72.092
