~VERSION INFORMATION
 VERS.                 2.0:   CWLS LOG ASCII STANDARD -VERSION 2.0
 WRAP.                  NO:   ONE LINE PER DEPTH STEP
~WELL INFORMATION BLOCK
#MNEM.UNIT           DATA                    DESCRIPTION OF MNEMONIC
#---------    -------------------            -------------------------------
# Generated from Intellog Unique Number	CW_82_90/WELL/928
WELL.         TEXEX WABASCA 10-27            : Well_name    - WELL
LOC .         00/10-27-082-24W4/0            : Location     - LOCATION
UWI .         00/10-27-082-24W4/0            : Uwi          - UNIQUE WELL ID
ENTR.         JAYE                           : Entered      - ENTERED BY
SRVC.         SCHLUMBERGER                   : Scn          - SERVICE COMPANY
STRT.M        228.6                          : top_depth    - START DEPTH
STOP.M        457.1                          : bot_depth    - STOP DEPTH
STEP.M        0.25                           : increment    - STEP LENGTH
 NULL. -999.2500:NULL Value
~CURVE INFORMATION BLOCK
#MNEM UNIT       ERCB CURVE CODE    CURVE DESCRIPTION
#-----------   ------------------   ----------------------------------
DEPT.M        00 001 00 00         : DEPTH        - DEPTH
CALI.MM       00 280 01 00         : CAL          - CALIPER
GR  .API      00 310 00 00         : GR           - GAMMA RAY
DPHI.V/V      00 890 00 00         : PHID         - DENSITY POROSITY (SANDSTONE)
NPHI.V/V      00 330 00 00         : PHIN         - NEUTRON POROSITY (SANDSTONE)
ILD .OHMM     00 120 00 00         : RESD         - DEEP RESISTIVITY (DIL)
~PARAMETER INFORMATION
#MNEM.UNIT           DATA             DESCRIPTION OF MNEMONIC
#---------         -----------     ------------------------------
GL  .M        599.572              : gl           - GROUND LEVEL ELEVATION
EREF.M        603.23               : kb           - ELEVATION OF DEPTH REFERENCE
DATM.M        599.572              : datum        - DATUM ELEVATION
TDD .M        491.033              : tdd          - TOTAL DEPTH DRILLER
RUN .         ONE                  : Run          - RUN NUMBER
ENG .         EARLEY               : Engineer     - RECORDING ENGINEER
WIT .         SEVERS               : Witness      - WITNESSED BY
BASE.         EDMONTON             : Branch       - HOME BASE OF LOGGING UNIT
MUD .         WATER & LOST CIRC    : Mud_type     - MUD TYPE
MATR.         SANDSTONE            : Logunit      - NEUTRON MATRIX
TMAX.C        18.8889              : BHT          - MAXIMUM RECORDED TEMPERATURE
BHTD.M        490.728              : BHTDEP       - MAXIMUM RECORDED TEMPERATURE
RMT .C        4.44444              : MDTP         - TEMPERATURE OF MUD
MUDD.KG/M     1000                 : MWT          - MUD DENSITY
NEUT.         1                    : NEUTRON      - NEUTRON TYPE
RESI.         0                    : RESIST       - RESISTIVITY TYPE
RM  .OHMM     0.25                 : RM           - RESISTIVITY OF MUD
RMC .OHMM     0.25                 : RMC          - RESISTIVITY OF MUD CAKE
RMF .OHMM     0.25                 : RMF          - RESISTIVITY OF MUD FILTRATE
SUFT.C        4                    : SUFT         - SURFACE TEMPERATURE
~A  DEPTH      CAL       GR     PHID     PHIN     RESD
# ...
  374.600  209.578  102.775    0.229    0.482    8.886
  374.850  212.794  106.441    0.216    0.478    8.799
  375.100  214.454  106.817    0.225    0.481    8.760
  375.350  216.117  104.586    0.215    0.482    8.673
  375.600  215.813  103.038    0.218    0.477    8.636
  375.850  213.956  103.973    0.189    0.475    8.599
  376.100  213.031  102.052    0.177    0.491    8.642
  376.350  217.590  102.925    0.176    0.503    8.701
  376.600  220.597  103.550    0.179    0.503    8.728
  376.850  221.948  102.125    0.204    0.497    8.691
  377.100  222.472  102.812    0.195    0.484    8.637
  377.350  223.618  104.989    0.191    0.473    8.457
  377.600  223.935  106.358    0.198    0.471    8.357
  377.850  223.525  103.196    0.203    0.480    8.290
  378.100  220.324   99.288    0.197    0.482    8.347
  378.350  220.744   98.795    0.204    0.468    8.436
  378.600  221.371   99.482    0.209    0.462    8.622
  378.850  221.792   95.823    0.207    0.482    8.828
  379.100  221.073   90.612    0.201    0.485    9.363
  379.350  220.252   83.290    0.189    0.484    9.713
  379.600  219.223   78.140    0.181    0.469   10.343
  379.850  219.223   75.350    0.183    0.447   11.095
  380.100  217.687   74.050    0.193    0.418   13.187
  380.350  217.380   75.544    0.184    0.444   15.614
  380.600  217.076   81.259    0.192    0.463   17.845
  380.850  216.979   83.870    0.250    0.450   21.012
  381.100  216.984   83.439    0.243    0.458   23.924
  381.350  216.993   81.208    0.226    0.470   22.485
  381.600  217.515   73.266    0.198    0.454   21.528
  381.850  217.728   70.475    0.193    0.402   20.961
  382.100  217.840   69.175    0.130    0.352   21.383
  382.350  217.740   66.509    0.088    0.300   23.281
  382.600  219.195   69.804    0.043    0.236   27.107
  382.850  219.930   77.630    0.015    0.236   30.465
  383.100  219.829   87.443    0.105    0.253   33.298
  383.350  219.829   99.367    0.126    0.453   24.332
  383.600  220.570   96.018    0.180    0.475   19.265
  383.850  220.469   96.891    0.200    0.475   16.189
  384.100  220.893   94.474    0.188    0.461   13.280
  384.350  221.101   95.099    0.162    0.443   11.956
  384.600  220.797   99.573    0.144    0.450   10.905
  384.850  220.797  105.598    0.141    0.480   10.385
  385.100  220.608  108.830    0.169    0.499    9.704
  385.350  220.505  106.475    0.188    0.512    9.466
  385.600  220.505  104.741    0.201    0.511    9.148
  385.850  220.006  103.502    0.199    0.513    8.858
  386.100  219.800  102.513    0.204    0.520    8.497
  386.350  220.535  104.193    0.190    0.496    8.289
  386.600  220.951  105.377    0.180    0.455    8.161
  386.850  221.995  106.001    0.178    0.458    8.187
  387.100  221.999  106.067    0.151    0.464    8.445
  387.350  221.999  104.953    0.160    0.472    8.776
  387.600  222.634   97.817    0.163    0.478    9.019
  387.850  223.052   94.344    0.154    0.492    9.287
  388.100  223.788   95.465    0.154    0.506    9.633
  388.350  223.789   99.194    0.170    0.506    9.919
  388.600  223.789  102.302    0.172    0.487    9.987
  388.850  222.565  105.907    0.183    0.476    9.688
  389.100  222.359  105.786    0.192    0.471    9.468
  389.350  222.359  103.679    0.181    0.479    9.253
  389.600  221.857  107.656    0.184    0.477    9.094
  389.850  221.343  108.467    0.179    0.466    8.970
  390.100  219.593  108.347    0.172    0.459    9.117
  390.350  218.769  109.654    0.165    0.453    9.231
  390.600  218.769  111.707    0.153    0.453    9.398
  390.850  218.890  112.767    0.183    0.466    9.516
  391.100  218.891  109.728    0.182    0.477    9.598
  391.350  218.891  104.827    0.187    0.475    9.557
  391.600  220.666  101.727    0.201    0.474    9.462
  391.850  221.083   99.930    0.217    0.475    9.457
  392.100  221.083   99.127    0.205    0.476    9.469
  392.350  220.170  100.434    0.187    0.475    9.498
  392.600  220.274  102.673    0.190    0.473    9.511
  392.850  220.906  102.118    0.198    0.472    9.505
  393.100  221.011  102.246    0.213    0.478    9.482
  393.350  221.011  103.491    0.208    0.494    9.564
  393.600  221.011  105.109    0.195    0.499    9.595
  393.850  221.858  108.217    0.179    0.492    9.589
  394.100  220.209  109.463    0.163    0.472    9.637
  394.350  219.076  109.963    0.161    0.463    9.649
  394.600  217.327  111.084    0.202    0.463    9.643
  394.850  217.329  107.301    0.195    0.471    9.637
  395.100  218.267  106.870    0.189    0.469    9.631
  395.350  220.549  110.785    0.182    0.474    9.518
  395.600  221.178  112.838    0.180    0.471    9.529
  395.850  221.183  112.097    0.184    0.459    9.595
  396.100  221.183  109.306    0.188    0.464    9.589
  396.350  221.508  110.428    0.197    0.469    9.530
  396.600  222.029  110.369    0.191    0.482    9.578
  396.850  222.246  108.200    0.183    0.481    9.590
  397.100  222.042  107.335    0.180    0.463    9.620
  397.350  221.532  109.077    0.170    0.466    9.740
  397.600  221.434  108.584    0.155    0.462    9.805
  397.850  221.434  110.761    0.174    0.454    9.783
  398.100  222.380  115.234    0.176    0.450    9.777
  398.350  222.380  114.928    0.186    0.460    9.753
  398.600  226.116  114.187    0.180    0.478    9.692
  398.850  224.161  114.377    0.174    0.485    9.597
  399.100  223.955  113.760    0.154    0.485    9.574
  399.350  222.929  113.143    0.154    0.466    9.531
  399.600  223.761  112.277    0.156    0.466    9.455
  399.850  226.148  109.735    0.168    0.462    9.344
  400.100  226.463  110.423    0.182    0.462    9.132
  400.350  225.954  110.302    0.166    0.464    8.647
  400.600  225.337  109.623    0.179    0.456    7.991
  400.850  225.659  109.378    0.181    0.445    7.608
  401.100  225.660  106.836    0.188    0.448    7.353
  401.350  223.189  102.432    0.195    0.442    7.557
  401.600  222.465   89.522    0.184    0.421    8.259
  401.850  222.465   75.246    0.135    0.365    9.110
  402.100  217.409   72.083    0.091    0.306   10.258
  402.350  217.103   75.627    0.048    0.298   12.678
  402.600  216.698   78.672    0.028    0.380   16.448
  402.850  216.288   81.407    0.130    0.411   20.709
  403.100  214.955   80.667    0.171    0.454   22.677
  403.350  214.955   80.173    0.189    0.474   22.037
  403.600  214.858   79.618    0.209    0.450   18.555
  403.850  214.657   75.214    0.217    0.422   15.945
  404.100  214.353   72.858    0.131    0.372   15.584
  404.350  214.153   72.986    0.105    0.353   16.623
  404.600  214.161   77.709    0.169    0.364   17.470
  404.850  213.546   79.078    0.170    0.424   18.055
  405.100  213.139   78.213    0.161    0.424   18.418
  405.350  213.557   80.576    0.162    0.431   17.340
  405.600  213.563   83.249    0.185    0.454   13.653
  405.850  213.673   84.123    0.226    0.447   12.570
  406.100  213.886   83.257    0.218    0.445   11.814
  406.350  213.583   80.157    0.209    0.448   11.248
  406.600  213.279   79.042    0.194    0.438   10.911
  406.850  214.941   77.370    0.179    0.395   10.904
  407.100  215.775   74.580    0.153    0.368   10.918
  407.350  216.401   72.101    0.111    0.355   11.932
  407.600  217.649   71.545    0.089    0.358   12.920
  407.850  218.380   71.115    0.125    0.389   13.204
  408.100  217.661   73.043    0.133    0.379   13.570
  408.350  216.943   74.102    0.099    0.334   14.584
  408.600  216.943   71.250    0.087    0.304   16.544
  408.850  217.269   67.963    0.075    0.273   19.228
  409.100  217.480   66.291    0.051    0.244   22.305
  409.350  216.973   66.729    0.048    0.242   27.413
  409.600  216.871   68.657    0.043    0.250   29.187
  409.850  215.847   74.808    0.051    0.282   25.893
  410.100  215.642   79.840    0.073    0.358   21.199
  410.350  215.642   82.824    0.137    0.380   17.882
  410.600  212.654   80.779    0.169    0.403   14.723
  410.850  212.971   80.100    0.172    0.422   12.676
