~VERSION INFORMATION
 VERS.                 2.0:   CWLS LOG ASCII STANDARD -VERSION 2.0
 WRAP.                  NO:   ONE LINE PER DEPTH STEP
~WELL INFORMATION BLOCK
#MNEM.UNIT           DATA                    DESCRIPTION OF MNEMONIC
#---------    -------------------            -------------------------------
# Generated from Intellog Unique Number	CS_69_70/WELL/886
NULL.         -999.25                        : NULL_VALUE
WELL.         MAYNARD ENERGY                 : Well_name    - WELL              
LOC .         00/11-06-070-15W4/0            : Location     - LOCATION          
UWI .         00/11-06-070-15W4/0            : Uwi          - UNIQUE WELL ID    
ENTR.         SP                             : Entered      - ENTERED BY        
SRVC.         SCHLUMBERGER                   : Scn          - SERVICE COMPANY   
STRT.M        270                            : top_depth    - START DEPTH       
STOP.M        492                            : bot_depth    - STOP DEPTH        
STEP.M        0.25                           : increment    - STEP LENGTH       
~CURVE INFORMATION BLOCK
#MNEM UNIT       ERCB CURVE CODE    CURVE DESCRIPTION
#-----------   ------------------   ----------------------------------
DEPT.M        00 001 00 00         : DEPTH        - DEPTH                       
ILD .OHMM     00 120 00 00         : RESD         - DEEP RESISTIVITY (DIL)      
DPHI.V/V      00 890 00 00         : PHID         - DENSITY POROSITY (LIMESTONE)
NPHI.V/V      00 330 00 00         : PHIN         - NEUTRON POROSITY (LIMESTONE)
GR  .API      00 310 00 00         : GR           - GAMMA RAY                   
~PARAMETER INFORMATION       
#MNEM.UNIT           DATA             DESCRIPTION OF MNEMONIC
#---------         -----------     ------------------------------
GL  .M        562.71               : gl           - GROUND LEVEL ELEVATION      
EREF.M        565.41               : kb           - ELEVATION OF DEPTH REFERENCE
DATM.M        562.71               : datum        - DATUM ELEVATION             
TDD .M        494                  : tdd          - TOTAL DEPTH DRILLER         
RUN .         ONE                  : Run          - RUN NUMBER                  
ENG .         BILL                 : Engineer     - RECORDING ENGINEER          
WIT .         JIM                  : Witness      - WITNESSED BY                
MUD .         GEL                  : Mud_type     - MUD TYPE                    
MATR.         LIMESTONE            : Logunit      - NEUTRON MATRIX              
TMAX.C        21                   : BHT          - MAXIMUM RECORDED TEMPERATURE
BHTD.M        494                  : BHTDEP       - MAXIMUM RECORDED TEMPERATURE
MATR.         1                    : LOGUNIT      - NEUTRON MATRIX              
RMT .C        25                   : MDTP         - TEMPERATURE OF MUD          
NEUT.         1                    : NEUTRON      - NEUTRON TYPE                
RESI.         0                    : RESIST       - RESISTIVITY TYPE            
RMC .OHMM     0.25                 : RMC          - RESISTIVITY OF MUD CAKE     
RMF .OHMM     0.25                 : RMF          - RESISTIVITY OF MUD FILTRATE 
SUFT.C        15                   : SUFT         - SURFACE TEMPERATURE         
~A  DEPTH     RESD     PHID     PHIN       GR
# ...
  444.000    3.193    0.148    0.425  106.830
  444.250    3.179    0.158    0.445  115.318
  444.500    3.303    0.172    0.458  122.648
  444.750    3.777    0.182    0.469  127.293
  445.000    4.202    0.189    0.450  126.817
  445.250    4.693    0.184    0.409  117.317
  445.500    5.273    0.169    0.387  101.048
  445.750    5.813    0.155    0.366   91.549
  446.000    6.539    0.138    0.346   89.670
  446.250    7.494    0.119    0.335   89.866
  446.500    8.449    0.123    0.320   88.841
  446.750    9.103    0.123    0.303   85.621
  447.000    9.487    0.102    0.293   82.280
  447.250    9.766    0.083    0.280   80.889
  447.500    9.760    0.087    0.275   79.254
  447.750    9.607    0.152    0.279   77.133
  448.000    9.641    0.178    0.291   72.938
  448.250   10.051    0.206    0.303   69.108
  448.500   10.337    0.229    0.315   66.498
  448.750   10.697    0.239    0.324   64.193
  449.000   10.830    0.227    0.328   63.046
  449.250   10.734    0.215    0.333   66.291
  449.500   10.214    0.221    0.335   67.706
  449.750    9.720    0.230    0.330   67.901
  450.000    9.469    0.233    0.325   68.156
  450.250    9.202    0.220    0.320   70.242
  450.500    8.984    0.214    0.314   72.143
  450.750    8.961    0.217    0.302   74.045
  451.000    8.964    0.202    0.291   73.326
  451.250    9.079    0.186    0.285   71.144
  451.500    9.455    0.173    0.277   71.278
  451.750   10.174    0.171    0.268   72.569
  452.000   11.137    0.171    0.255   74.414
  452.250   11.961    0.144    0.241   74.913
  452.500   13.568    0.117    0.222   74.559
  452.750   15.402    0.092    0.204   71.336
  453.000   16.422    0.059    0.189   64.885
  453.250   15.667    0.055    0.177   59.042
  453.500   13.820    0.061    0.175   57.288
  453.750   12.428    0.044    0.188   64.006
  454.000   10.809    0.057    0.211   71.518
  454.250    9.247    0.076    0.238   79.946
  454.500    7.978    0.098    0.270   85.994
  454.750    7.385    0.120    0.293   90.212
  455.000    7.004    0.126    0.309   94.128
  455.250    6.640    0.130    0.318   96.943
  455.500    6.462    0.135    0.322   99.578
  455.750    6.415    0.152    0.321   98.126
  456.000    6.442    0.173    0.317   92.957
  456.250    6.557    0.192    0.314   90.041
  456.500    6.755    0.178    0.310   86.821
  456.750    6.936    0.165    0.309   86.833
  457.000    7.133    0.170    0.308   90.079
  457.250    7.282    0.174    0.301   92.894
  457.500    7.381    0.139    0.296   96.384
  457.750    7.448    0.112    0.291   97.795
  458.000    7.515    0.087    0.291   95.003
  458.250    7.582    0.102    0.293   91.051
  458.500    7.617    0.119    0.291   86.431
  458.750    7.635    0.131    0.287   84.551
  459.000    7.653    0.143    0.285   83.161
  459.250    7.679    0.157    0.282   79.453
  459.500    7.721    0.172    0.283   79.587
  459.750    7.830    0.181    0.290   81.855
  460.000    7.953    0.176    0.294   82.355
  460.250    8.085    0.166    0.297   87.794
  460.500    8.136    0.159    0.299   94.026
  460.750    8.114    0.181    0.301   98.061
  461.000    7.978    0.193    0.303   95.329
  461.250    7.873    0.209    0.307   92.233
  461.500    7.435    0.224    0.311   89.624
  461.750    7.184    0.220    0.316   88.232
  462.000    6.462    0.224    0.320   86.841
  462.250    6.267    0.209    0.322   85.574
  462.500    5.788    0.192    0.312   86.378
  462.750    5.383    0.157    0.303   86.451
  463.000    5.735    0.138    0.294   80.913
  463.250    6.014    0.156    0.287   76.901
  463.500    6.187    0.179    0.282   72.279
  463.750    6.409    0.195    0.275   66.010
  464.000    6.459    0.170    0.267   61.144
  464.250    6.355    0.115    0.265   66.034
  464.500    5.958    0.078    0.279   79.583
  464.750    5.593    0.112    0.312   93.681
  465.000    5.139    0.138    0.341  103.570
  465.250    5.100    0.163    0.374  111.875
  465.500    5.623    0.101    0.407  118.106
  465.750    6.049    0.076    0.410  120.984
  466.000    6.368    0.107    0.383  115.692
  466.250    6.696    0.136    0.357  110.035
  466.500    6.926    0.161    0.339  105.532
  466.750    7.058    0.176    0.319   98.350
  467.000    7.158    0.188    0.315   99.154
  467.250    7.224    0.180    0.323  103.924
  467.500    7.283    0.171    0.328  107.778
  467.750    7.196    0.157    0.326  110.532
  468.000    6.962    0.164    0.320  112.861
  468.250    6.841    0.158    0.317  111.410
  468.500    6.663    0.166    0.315  108.250
  468.750    6.592    0.170    0.318  105.945
  469.000    6.650    0.184    0.323  105.591
  469.250    6.750    0.185    0.325  111.581
  469.500    6.858    0.173    0.322  115.923
  469.750    7.056    0.159    0.319  118.127
  470.000    7.155    0.145    0.318  115.824
  470.250    7.279    0.127    0.315  111.444
  470.500    7.264    0.106    0.315  105.482
  470.750    7.014    0.076    0.311  101.651
  471.000    6.722    0.083    0.309  101.602
  471.250    6.406    0.110    0.306  104.114
  471.500    6.213    0.134    0.302   99.919
  471.750    6.019    0.153    0.297   90.053
  472.000    5.825    0.174    0.295   80.858
  472.250    5.656    0.189    0.293   72.638
  472.500    5.560    0.161    0.292   63.870
  472.750    5.448    0.133    0.292   70.040
  473.000    5.458    0.112    0.295   77.981
  473.250    5.614    0.158    0.301   85.553
  473.500    5.869    0.192    0.307   91.967
  473.750    6.140    0.180    0.312   99.298
  474.000    6.541    0.157    0.317  103.820
  474.250    6.640    0.137    0.320  110.600
  474.500    6.829    0.122    0.324  117.929
  474.750    6.913    0.107    0.328  123.246
  475.000    6.906    0.116    0.334  126.123
  475.250    6.810    0.123    0.339  123.392
  475.500    6.609    0.128    0.348  121.209
  475.750    6.268    0.132    0.357  121.891
  476.000    5.879    0.138    0.366  123.185
  476.250    5.563    0.141    0.376  123.871
  476.500    5.394    0.150    0.392  124.793
  476.750    5.339    0.161    0.407  127.916
  477.000    5.406    0.168    0.420  130.673
  477.250    5.506    0.158    0.421  133.126
  477.500    5.572    0.146    0.410  134.173
  477.750    5.754    0.132    0.398  134.002
  478.000    5.845    0.125    0.392  132.671
  478.250    5.961    0.118    0.387  130.243
  478.500    6.011    0.126    0.385  125.866
  478.750    6.030    0.148    0.385  122.584
  479.000    6.023    0.152    0.388  120.706
  479.250    6.025    0.141    0.391  119.929
  479.500    6.002    0.128    0.394  119.694
  479.750    5.939    0.119    0.392  119.465
  480.000    5.835    0.119    0.380  119.231
  480.250    5.747    0.123    0.369  118.454
  480.500    5.513    0.126    0.357  118.217
  480.750    5.286    0.129    0.349  117.563
  481.000    4.946    0.132    0.342  117.146
  481.250    4.532    0.135    0.335  116.789
  481.500    4.184    0.137    0.326  116.497
  481.750    3.893    0.136    0.316  111.813
  482.000    3.748    0.131    0.312   99.508
  482.250    3.628    0.107    0.301   87.813
  482.500    3.597    0.084    0.294   81.057
  482.750    3.640    0.090    0.288   73.448
  483.000    3.658    0.116    0.287   70.472
  483.250    3.660    0.166    0.293   73.228
  483.500    3.653    0.194    0.294   74.764
  483.750    3.599    0.206    0.293   74.531
  484.000    3.437    0.230    0.293   73.691
  484.250    3.446    0.235    0.293   73.276
  484.500    3.391    0.234    0.292   72.860
  484.750    3.295    0.226    0.289   73.606
  485.000    3.118    0.216    0.286   75.325
  485.250    2.908    0.218    0.283   72.043
  485.500    2.665    0.231    0.286   65.653
  485.750    2.537    0.243    0.292   54.506
  486.000    2.580    0.256    0.300   48.115
  486.250    2.614    0.277    0.306   42.456
  486.500    2.575    0.289    0.305   45.944
  486.750    2.544    0.281    0.302   50.774
  487.000    2.417    0.271    0.300   52.067
  487.250    2.369    0.266    0.301   52.322
