~VERSION INFORMATION
 VERS.                 2.0:   CWLS LOG ASCII STANDARD -VERSION 2.0
 WRAP.                  NO:   ONE LINE PER DEPTH STEP
~WELL INFORMATION BLOCK
#MNEM.UNIT           DATA                    DESCRIPTION OF MNEMONIC
#---------    -------------------            -------------------------------
# Generated from Intellog Unique Number	CS_69_70/WELL/869
WELL.         BOW VALLEY EXPLORATION         : Well_name    - WELL
LOC .         00/10-18-069-13W4/0            : Location     - LOCATION
UWI .         00/10-18-069-13W4/0            : Uwi          - UNIQUE WELL ID
ENTR.         SP                             : Entered      - ENTERED BY
SRVC.         SCHLUMBERGER                   : Scn          - SERVICE COMPANY
STRT.M        243.840                        : top_depth    - START DEPTH
STOP.M        441.590                        : bot_depth    - STOP DEPTH
STEP.M        0.25                           : increment    - STEP LENGTH
 NULL. -999.2500:NULL Value
~CURVE INFORMATION BLOCK
#MNEM UNIT       ERCB CURVE CODE    CURVE DESCRIPTION
#-----------   ------------------   ----------------------------------
DEPT.M        00 001 00 00         : DEPTH        - DEPTH
GR  .API      00 310 00 00         : GR           - GAMMA RAY
DPHI.V/V      00 890 00 00         : PHID         - DENSITY POROSITY (SANDSTONE)
NPHI.V/V      00 330 00 00         : PHIN         - NEUTRON POROSITY (SANDSTONE)
ILD .OHMM     00 120 00 00         : RESD         - DEEP RESISTIVITY (DIL)
~PARAMETER INFORMATION
#MNEM.UNIT           DATA             DESCRIPTION OF MNEMONIC
#---------         -----------     ------------------------------
GL  .M        547.421              : gl           - GROUND LEVEL ELEVATION
EREF.M        550.469              : kb           - ELEVATION OF DEPTH REFERENCE
DATM.M        547.421              : datum        - DATUM ELEVATION
TDD .M        445.008              : tdd          - TOTAL DEPTH DRILLER
RUN .         ONE                  : Run          - RUN NUMBER
ENG .         BILL                 : Engineer     - RECORDING ENGINEER
WIT .         JIM                  : Witness      - WITNESSED BY
MUD .         GEL                  : Mud_type     - MUD TYPE
MATR.         SANDSTONE            : Logunit      - NEUTRON MATRIX
TMAX.C        25                   : BHT          - MAXIMUM RECORDED TEMPERATURE
BHTD.M        441.96               : BHTDEP       - MAXIMUM RECORDED TEMPERATURE
MATR.         1                    : LOGUNIT      - NEUTRON MATRIX
RMT .C        25                   : MDTP         - TEMPERATURE OF MUD
NEUT.         1                    : NEUTRON      - NEUTRON TYPE
RESI.         0                    : RESIST       - RESISTIVITY TYPE
RMC .OHMM     0.25                 : RMC          - RESISTIVITY OF MUD CAKE
RMF .OHMM     0.25                 : RMF          - RESISTIVITY OF MUD FILTRATE
SUFT.C        15                   : SUFT         - SURFACE TEMPERATURE
~A  DEPTH       GR     PHID     PHIN     RESD
# ...
  417.840   82.723    0.200    0.331    5.047
  418.090   82.964    0.216    0.325    4.690
  418.340   86.531    0.203    0.320    4.373
  418.590   93.436    0.181    0.332    4.191
  418.840   96.583    0.207    0.367    4.216
  419.090  106.491    0.223    0.375    4.334
  419.340  118.557    0.237    0.361    4.633
  419.590  126.977    0.228    0.357    5.074
  419.840  134.272    0.206    0.349    5.511
  420.090  135.379    0.183    0.356    5.991
  420.340  129.576    0.176    0.360    6.340
  420.590  123.645    0.177    0.355    6.762
  420.840  119.251    0.179    0.343    7.279
  421.090  112.714    0.180    0.333    7.678
  421.340  104.498    0.180    0.324    8.143
  421.590   98.735    0.181    0.316    8.388
  421.840   95.241    0.163    0.310    8.668
  422.090   94.228    0.156    0.311    8.596
  422.340   98.115    0.197    0.321    8.291
  422.590  104.046    0.228    0.326    8.036
  422.840  108.888    0.202    0.328    7.778
  423.090  111.991    0.176    0.320    7.548
  423.340  106.648    0.193    0.314    7.370
  423.590  102.349    0.207    0.314    7.157
  423.840   97.149    0.220    0.318    6.943
  424.090   88.640    0.236    0.320    6.733
  424.340   94.481    0.236    0.318    6.567
  424.590   98.815    0.217    0.320    6.462
  424.840  101.738    0.204    0.321    6.389
  425.090   97.629    0.194    0.319    6.319
  425.340   93.310    0.183    0.314    6.258
  425.590   89.612    0.193    0.307    6.246
  425.840   94.486    0.202    0.303    6.375
  426.090   99.242    0.195    0.300    6.531
  426.340  103.741    0.186    0.305    6.805
  426.590  106.078    0.189    0.313    7.102
  426.840   98.414    0.196    0.320    7.631
  427.090   90.765    0.204    0.323    7.808
  427.340   87.172    0.207    0.314    8.146
  427.590   86.182    0.198    0.300    8.711
  427.840   90.286    0.192    0.293    9.804
  428.090   92.810    0.189    0.287   10.929
  428.340   86.745    0.184    0.278   12.131
  428.590   59.179    0.190    0.264   13.170
  428.840   48.693    0.201    0.256   19.733
  429.090   42.472    0.229    0.156   29.189
  429.340   48.468    0.377    0.100   27.745
  429.590   59.051    0.327    0.146   22.837
  429.840   69.933    0.298    0.208   17.851
  430.090   81.405    0.272    0.240   14.614
  430.340   90.579    0.247    0.278   11.452
  430.590   95.748    0.226    0.306    9.227
  430.840   95.080    0.210    0.291    8.305
  431.090   75.016    0.222    0.278    9.282
  431.340   64.481    0.263    0.261   11.921
  431.590   60.586    0.310    0.198   16.028
  431.840   55.350    0.377    0.141   18.634
  432.090   61.197    0.406    0.096   20.888
  432.340   79.585    0.398    0.088   15.799
  432.590   94.288    0.371    0.137   10.073
  432.840  113.541    0.332    0.190    7.326
  433.090  125.358    0.257    0.393    6.043
  433.340  136.286    0.162    0.444    5.458
  433.590  137.255    0.123    0.450    5.276
  433.840  129.745    0.126    0.405    5.247
  434.090  122.849    0.141    0.377    5.280
  434.340  115.898    0.150    0.349    5.269
  434.590  110.546    0.159    0.331    5.118
  434.840  105.435    0.166    0.328    4.944
  435.090   99.956    0.168    0.326    4.761
  435.340   97.508    0.154    0.324    4.542
  435.590  100.579    0.136    0.322    4.378
  435.840  102.649    0.164    0.321    4.342
  436.090  101.357    0.173    0.320    4.381
  436.340   98.516    0.171    0.320    4.506
  436.590  103.068    0.177    0.323    4.651
  436.840  110.147    0.194    0.325    4.887
  437.090  117.875    0.204    0.319    5.161
  437.340  123.785    0.173    0.317    5.587
  437.590  127.201    0.153    0.326    5.741
  437.840  129.569    0.160    0.335    5.283
  438.090  137.381    0.169    0.342    4.731
  438.340   18.813    0.171    0.338    4.258
  438.590   19.306    0.173    0.325    3.874
  438.840   16.852    0.182    0.312    3.617
  439.090   16.107    0.212    0.303    3.453
  439.340   15.656    0.239    0.302    3.397
  439.590   17.419    0.247    0.311    3.448
  439.840   22.899    0.247    0.317    3.566
  440.090   34.052    0.242    0.321    3.738
  440.340   56.495    0.225    0.323    4.035
  440.590   75.443    0.197    0.317    4.498
  440.840   80.952    0.181    0.272    5.030
  441.090   81.366    0.163    0.178    5.502
  441.340   81.467    0.147    0.019    5.602
  441.590   81.462    0.147    0.007    5.362
