~VERSION INFORMATION
 VERS.                 2.0:   CWLS LOG ASCII STANDARD -VERSION 2.0
 WRAP.                  NO:   ONE LINE PER DEPTH STEP
~WELL INFORMATION BLOCK
#MNEM.UNIT           DATA                    DESCRIPTION OF MNEMONIC
#---------    -------------------            -------------------------------
# Generated from Intellog Unique Number	CS_73_76/WELL/2192
WELL.         BOW VALLEY INDUSTRIES LTD      : Well_name    - WELL
LOC .         00/10-17-074-13W4/0            : Location     - LOCATION
UWI .         00/10-17-074-13W4/0            : Uwi          - UNIQUE WELL ID
ENTR.         SP                             : Entered      - ENTERED BY
SRVC.         SCHLUMBERGER                   : Scn          - SERVICE COMPANY
STRT.M        365                            : top_depth    - START DEPTH
STOP.M        602                            : bot_depth    - STOP DEPTH
STEP.M        0.25                           : increment    - STEP LENGTH
 NULL. -999.2500:NULL Value
~CURVE INFORMATION BLOCK
#MNEM UNIT       ERCB CURVE CODE    CURVE DESCRIPTION
#-----------   ------------------   ----------------------------------
DEPT.M        00 001 00 00         : DEPTH        - DEPTH
ILD .OHMM     00 120 00 00         : RESD         - DEEP RESISTIVITY (DIL)
DPHI.V/V      00 890 00 00         : PHID         - DENSITY POROSITY (LIMESTONE)
NPHI.V/V      00 330 00 00         : PHIN         - NEUTRON POROSITY (LIMESTONE)
GR  .API      00 310 00 00         : GR           - GAMMA RAY
~PARAMETER INFORMATION
#MNEM.UNIT           DATA             DESCRIPTION OF MNEMONIC
#---------         -----------     ------------------------------
GL  .M        724.21               : gl           - GROUND LEVEL ELEVATION
EREF.M        727.56               : kb           - ELEVATION OF DEPTH REFERENCE
DATM.M        724.21               : datum        - DATUM ELEVATION
TDD .M        609                  : tdd          - TOTAL DEPTH DRILLER
RUN .         ONE                  : Run          - RUN NUMBER
ENG .         BILL                 : Engineer     - RECORDING ENGINEER
WIT .         JIM                  : Witness      - WITNESSED BY
MUD .         GEL                  : Mud_type     - MUD TYPE
MATR.         LIMESTONE            : Logunit      - NEUTRON MATRIX
TMAX.C        18                   : BHT          - MAXIMUM RECORDED TEMPERATURE
BHTD.M        609                  : BHTDEP       - MAXIMUM RECORDED TEMPERATURE
MATR.         1                    : LOGUNIT      - NEUTRON MATRIX
RMT .C        25                   : MDTP         - TEMPERATURE OF MUD
NEUT.         1                    : NEUTRON      - NEUTRON TYPE
RESI.         0                    : RESIST       - RESISTIVITY TYPE
RMC .OHMM     0.25                 : RMC          - RESISTIVITY OF MUD CAKE
RMF .OHMM     0.25                 : RMF          - RESISTIVITY OF MUD FILTRATE
SUFT.C        15                   : SUFT         - SURFACE TEMPERATURE
~A  DEPTH     RESD     PHID     PHIN       GR
# ...
  408.500    5.869    0.263    0.449  116.405
  408.750    5.983    0.229    0.438  117.012
  409.000    6.097    0.219    0.451  116.414
  409.250    6.213    0.231    0.440  113.998
  409.500    6.695    0.235    0.417  110.375
  409.750    7.082    0.245    0.409  112.194
  410.000    7.216    0.229    0.401  112.804
  410.250    7.355    0.237    0.411  107.971
  410.500    7.359    0.242    0.407  104.349
  410.750    7.361    0.240    0.408  103.142
  411.000    7.367    0.236    0.419  100.124
  411.250    7.369    0.218    0.432   98.313
  411.500    7.237    0.183    0.437   96.503
  411.750    7.107    0.192    0.448  106.792
  412.000    6.605    0.202    0.453  112.240
  412.250    6.486    0.206    0.453  118.294
  412.500    6.488    0.195    0.430  121.322
  412.750    6.491    0.207    0.426  118.303
  413.000    6.616    0.219    0.438  113.470
  413.250    7.128    0.237    0.443  110.450
  413.500    7.681    0.259    0.448  106.222
  413.750    7.827    0.275    0.443  102.597
  414.000    7.978    0.277    0.427   99.578
  414.250    7.834    0.271    0.419   98.979
  414.500    7.415    0.238    0.408   98.378
  414.750    7.282    0.215    0.424   97.779
  415.000    7.154    0.225    0.433   99.597
  415.250    7.427    0.227    0.438   94.766
  415.500    7.854    0.220    0.390   89.325
  415.750    8.307    0.227    0.367   78.444
  416.000    8.950    0.216    0.347   72.399
  416.250    9.466    0.225    0.363   65.147
  416.500    9.296    0.245    0.379   62.127
  416.750    9.130    0.259    0.393   61.527
  417.000    9.308    0.266    0.397   62.742
  417.250    9.486    0.275    0.405   58.515
  417.500    9.489    0.272    0.405   59.124
  417.750    9.493    0.281    0.393   60.943
  418.000    9.498    0.277    0.397   61.553
  418.250    9.502    0.279    0.390   62.163
  418.500    9.161    0.289    0.380   60.959
  418.750    8.832    0.281    0.384   58.543
  419.000    8.675    0.271    0.390   57.341
  419.250    8.520    0.278    0.385   58.553
  419.500    8.523    0.282    0.394   62.189
  419.750    8.688    0.268    0.398   62.798
  420.000    8.691    0.271    0.387   64.013
  420.250    8.695    0.285    0.391   64.622
  420.500    8.542    0.289    0.386   64.627
  420.750    8.545    0.284    0.374   62.818
  421.000    8.550    0.278    0.376   61.007
  421.250    8.553    0.294    0.396   59.199
  421.500    8.557    0.301    0.400   57.389
  421.750    8.723    0.277    0.416   59.814
  422.000    8.890    0.289    0.426   61.633
  422.250    8.894    0.295    0.411   61.638
  422.500    8.897    0.286    0.403   59.828
  422.750    8.902    0.295    0.402   59.229
  423.000    8.905    0.303    0.408   58.024
  423.250    8.911    0.317    0.413   56.819
  423.500    8.915    0.299    0.403   57.430
  423.750    8.919    0.294    0.389   58.040
  424.000    8.923    0.301    0.393   58.652
  424.250    9.057    0.312    0.400   58.655
  424.500    9.270    0.325    0.405   56.845
  424.750    9.103    0.334    0.411   55.639
  425.000    9.108    0.334    0.406   58.670
  425.250    9.112    0.329    0.415   60.489
  425.500    8.950    0.329    0.416   61.099
  425.750    8.954    0.326    0.409   62.316
  426.000    8.957    0.330    0.395   63.530
  426.250    8.797    0.326    0.392   64.138
  426.500    8.802    0.335    0.406   66.563
  426.750    8.645    0.337    0.416   67.778
  427.000    8.649    0.313    0.417   68.387
  427.250    8.494    0.306    0.406   67.182
  427.500    8.497    0.313    0.416   66.582
  427.750    8.346    0.329    0.427   66.587
  428.000    8.197    0.343    0.435   65.989
  428.250    8.355    0.346    0.440   66.597
  428.500    8.360    0.329    0.434   67.812
  428.750    8.518    0.330    0.428   69.633
  429.000    8.681    0.344    0.433   70.242
  429.250    8.849    0.351    0.431   70.852
  429.500    9.188    0.344    0.397   69.648
  429.750    9.191    0.335    0.394   70.257
  430.000    9.195    0.323    0.399   72.683
  430.250    9.202    0.332    0.401   73.291
  430.500    9.206    0.331    0.403   71.482
  430.750    9.209    0.325    0.407   71.486
  431.000    9.045    0.321    0.411   72.097
  431.250    9.049    0.316    0.418   70.891
  431.500    9.055    0.330    0.421   71.502
  431.750    9.058    0.336    0.424   72.111
  432.000    9.063    0.335    0.438   72.118
  432.250    9.066    0.330    0.450   72.727
  432.500    9.071    0.336    0.449   73.941
  432.750    9.075    0.338    0.438   73.947
  433.000    9.082    0.344    0.426   72.741
  433.250    8.920    0.343    0.421   71.538
  433.500    8.924    0.337    0.416   71.542
  433.750    8.928    0.335    0.425   72.758
  434.000    8.931    0.316    0.436   73.972
  434.250    8.935    0.326    0.444   73.977
  434.500    8.941    0.325    0.435   75.796
  434.750    8.782    0.316    0.419   78.221
  435.000    8.786    0.314    0.424   81.250
  435.250    8.789    0.304    0.432   84.280
  435.500    8.793    0.309    0.439   85.494
  435.750    8.796    0.321    0.447   84.289
  436.000    8.641    0.328    0.435   86.714
  436.250    8.486    0.321    0.431   89.138
  436.500    8.333    0.331    0.433   92.169
  436.750    8.183    0.327    0.425   92.777
  437.000    7.891    0.309    0.421   94.597
  437.250    7.749    0.293    0.414   93.393
  437.500    7.334    0.286    0.414   91.585
  437.750    7.071    0.273    0.431   92.797
  438.000    6.945    0.241    0.440   98.246
  438.250    6.820    0.240    0.446   99.462
  438.500    6.953    0.251    0.447   97.046
  438.750    6.956    0.260    0.430   91.608
  439.000    7.087    0.269    0.419   88.588
  439.250    7.496    0.277    0.405   83.755
  439.500    7.929    0.287    0.411   80.130
  439.750    8.232    0.282    0.419   77.112
  440.000    8.389    0.298    0.420   75.909
  440.250    8.550    0.294    0.413   76.516
  440.500    8.555    0.291    0.408   75.917
  440.750    8.559    0.292    0.422   74.107
  441.000    8.723    0.302    0.433   71.697
  441.250    8.727    0.313    0.424   71.096
  441.500    8.732    0.305    0.422   71.098
  441.750    8.899    0.291    0.429   72.920
  442.000    9.239    0.289    0.423   72.922
  442.250    9.954    0.298    0.424   75.951
  442.500   10.335    0.308    0.429   71.122
  442.750   10.932    0.314    0.422   69.309
  443.000   10.935    0.300    0.419   66.894
  443.250   10.741    0.306    0.401   64.480
  443.500   10.357    0.299    0.394   63.275
  443.750    9.983    0.283    0.402   64.491
  444.000    9.449    0.276    0.412   66.311
  444.250    8.944    0.291    0.418   69.340
  444.500    8.466    0.297    0.426   70.554
  444.750    8.625    0.280    0.430   69.953
  445.000    8.163    0.280    0.403   69.356
  445.250    7.309    0.277    0.406   70.570
  445.500    7.448    0.289    0.413   71.783
  445.750    7.593    0.301    0.404   74.208
  446.000    7.457    0.293    0.404   76.632
  446.250    7.459    0.297    0.417   77.243
  446.500    7.463    0.298    0.401   76.644
  446.750    7.606    0.295    0.409   76.647
  447.000    7.611    0.304    0.403   76.652
  447.250    7.614    0.300    0.413   77.263
  447.500    7.759    0.297    0.420   77.268
  447.750    7.764    0.306    0.436   76.063
  448.000    7.912    0.301    0.442   76.068
  448.250    7.772    0.299    0.449   77.283
  448.500    7.774    0.307    0.449   78.498
  448.750    7.637    0.299    0.453   80.922
  449.000    7.499    0.296    0.433   82.742
  449.250    7.365    0.290    0.423   82.746
  449.500    7.233    0.284    0.415   82.150
  449.750    7.105    0.289    0.407   80.945
  450.000    7.240    0.293    0.415   80.341
  450.250    7.379    0.282    0.433   80.952
  450.500    7.383    0.275    0.444   84.588
  450.750    7.117    0.260    0.436   88.825
  451.000    6.862    0.235    0.426   93.669
  451.250    6.375    0.222    0.424   97.909
  451.500    5.924    0.212    0.432  100.333
  451.750    5.605    0.197    0.442  100.944
