~VERSION INFORMATION
 VERS.                 2.0:   CWLS LOG ASCII STANDARD -VERSION 2.0
 WRAP.                  NO:   ONE LINE PER DEPTH STEP
~WELL INFORMATION BLOCK
#MNEM.UNIT           DATA                    DESCRIPTION OF MNEMONIC
#---------    -------------------            -------------------------------
# Generated from Intellog Unique Number	CW_82_90/WELL/992
WELL.         10-33-084-23W4                 : Well_name    - WELL
LOC .         00/10-33-084-23W4/0            : Location     - LOCATION
UWI .         00/10-33-084-23W4/0            : Uwi          - UNIQUE WELL ID
ENTR.         JAYE                           : Entered      - ENTERED BY
SRVC.         SCHLUMBERGER                   : Scn          - SERVICE COMPANY
DATE.         11 MAR 76                      : Date         - LOG DATE
STRT.M        182.88                         : top_depth    - START DEPTH
STOP.M        393.88                         : bot_depth    - STOP DEPTH
STEP.M        0.25                           : increment    - STEP LENGTH
 NULL. -999.2500:NULL Value
~CURVE INFORMATION BLOCK
#MNEM UNIT       ERCB CURVE CODE    CURVE DESCRIPTION
#-----------   ------------------   ----------------------------------
DEPT.M        00 001 00 00         : DEPTH        - DEPTH
CALI.MM       00 280 01 00         : CAL          - CALIPER
GR  .API      00 310 00 00         : GR           - GAMMA RAY
NPHI.V/V      00 330 00 00         : PHIN         - NEUTRON POROSITY (SANDSTONE)
DPHI.V/V      00 890 00 00         : PHID         - DENSITY POROSITY (SANDSTONE)
ILD .OHMM     00 120 00 00         : RESD         - DEEP RESISTIVITY (DIL)
~PARAMETER INFORMATION
#MNEM.UNIT           DATA             DESCRIPTION OF MNEMONIC
#---------         -----------     ------------------------------
GL  .M        573.329              : gl           - GROUND LEVEL ELEVATION
EREF.M        576.682              : kb           - ELEVATION OF DEPTH REFERENCE
DATM.M        573.329              : datum        - DATUM ELEVATION
TDD .M        404.774              : tdd          - TOTAL DEPTH DRILLER
RUN .         ONE                  : Run          - RUN NUMBER
BASE.         EDMONTON             : Branch       - HOME BASE OF LOGGING UNIT
MUD .         GEL CHEM             : Mud_type     - MUD TYPE
MATR.         SANDSTONE            : Logunit      - NEUTRON MATRIX
TMAX.C        21.6667              : BHT          - MAXIMUM RECORDED TEMPERATURE
BHTD.M        404.774              : BHTDEP       - MAXIMUM RECORDED TEMPERATURE
RMT .C        10                   : MDTP         - TEMPERATURE OF MUD
MUDD.KG/M     9200                 : MWT          - MUD DENSITY
NEUT.         1                    : NEUTRON      - NEUTRON TYPE
RESI.         0                    : RESIST       - RESISTIVITY TYPE
RM  .OHMM     1.9                  : RM           - RESISTIVITY OF MUD
RMC .OHMM     0                    : RMC          - RESISTIVITY OF MUD CAKE
RMF .OHMM     1.77                 : RMF          - RESISTIVITY OF MUD FILTRATE
SUFT.C        -17.7778             : SUFT         - SURFACE TEMPERATURE
~A  DEPTH      CAL       GR     PHIN     PHID     RESD
# ...
  292.380  158.235   93.305    0.478    0.213   10.615
  292.630  159.631   93.864    0.497    0.204   10.899
  292.880  162.370   94.281    0.494    0.214   11.131
  293.130  157.447   96.220    0.488    0.214   11.225
  293.380  151.514   95.714    0.472    0.215   11.194
  293.630  148.845   93.621    0.459    0.229   10.945
  293.880  148.313   90.471    0.465    0.239   10.676
  294.130  148.132   84.935    0.477    0.233   10.825
  294.380  148.060   80.063    0.479    0.250   11.533
  294.630  147.749   74.131    0.496    0.238   12.195
  294.880  148.014   72.965    0.481    0.250   12.823
  295.130  148.276   73.584    0.469    0.255   13.388
  295.380  148.314   68.912    0.471    0.199   13.623
  295.630  147.342   67.149    0.486    0.184   13.787
  295.880  147.380   67.635    0.472    0.226   13.826
  296.130  147.430   69.840    0.455    0.293   13.740
  296.380  147.690   72.907    0.469    0.275   13.706
  296.630  147.943   77.300    0.457    0.257   13.791
  296.880  147.975   78.312    0.468    0.242   13.854
  297.130  148.806   74.369    0.480    0.265   13.945
  297.380  149.296   73.004    0.467    0.301   13.907
  297.630  149.671   75.345    0.445    0.299   13.797
  297.880  149.715   78.207    0.427    0.277   13.510
  298.130  149.745   84.783    0.414    0.254   13.037
  298.380  149.561   89.767    0.415    0.241   12.719
  298.630  149.028   88.202    0.441    0.237   12.711
  298.880  148.729   85.380    0.463    0.263   12.723
  299.130  148.211   86.265    0.457    0.265   12.757
  299.380  147.687   88.404    0.454    0.238   12.469
  299.630  147.037   89.222    0.447    0.232   11.750
  299.880  147.649   87.857    0.455    0.217   10.656
  300.130  148.014   93.570    0.450    0.225    9.951
  300.380  155.045   94.520    0.461    0.215    9.498
  300.630  164.218   91.634    0.484    0.206    9.335
  300.880  154.112   87.949    0.507    0.215    9.871
  301.130  151.099   81.622    0.518    0.220   11.354
  301.380  148.655   75.030    0.487    0.211   14.629
  301.630  147.357   68.836    0.405    0.149   18.641
  301.880  147.043   67.072    0.346    0.102   21.484
  302.130  146.293   68.954    0.322    0.077   20.542
  302.380  146.329   74.398    0.371    0.080   13.160
  302.630  146.703   84.942    0.465    0.136    9.495
  302.880  146.855   88.865    0.511    0.223    8.866
  303.130  147.007   87.763    0.530    0.252    8.603
  303.380  147.494   77.931    0.520    0.249    9.299
  303.630  147.304   74.316    0.504    0.238   11.616
  303.880  147.586   66.996    0.446    0.215   15.495
  304.130  147.492   61.460    0.423    0.163   21.398
  304.380  147.760   54.670    0.370    0.091   24.614
  304.630  148.036   52.840    0.337    0.044   23.157
  304.880  148.401   61.002    0.294    0.032   18.952
  305.130  148.444   69.762    0.240    0.018   16.005
  305.380  149.601   77.324    0.263    0.019   14.199
  305.630  149.867   84.625    0.464    0.152   12.970
  305.880  149.790   86.771    0.456    0.180   11.784
  306.130  149.376   80.703    0.445    0.183   11.003
  306.380  149.413   81.321    0.434    0.185   10.053
  306.630  151.256   82.010    0.465    0.193    9.526
  306.880  152.307   81.434    0.477    0.211    9.192
  307.130  152.575   80.734    0.476    0.209    9.050
  307.380  154.196   81.946    0.477    0.198    8.958
  307.630  155.578   84.683    0.471    0.186    9.018
  307.880  152.799   86.228    0.467    0.162    9.093
  308.130  152.948   86.977    0.481    0.131    9.236
  308.380  157.837   89.051    0.494    0.174    9.486
  308.630  157.539   89.674    0.504    0.207    9.796
  308.880  154.651   89.826    0.516    0.200   10.040
  309.130  154.008   91.701    0.505    0.204   10.310
  309.380  154.264   93.511    0.502    0.209   10.569
  309.630  153.287   93.270    0.486    0.223   10.755
  309.880  151.182   97.134    0.468    0.191   10.866
  310.130  151.564  100.663    0.472    0.186   10.816
  310.380  153.975  100.296    0.471    0.200   10.826
  310.630  156.146   99.583    0.483    0.190   11.100
  310.880  160.472   96.496    0.487    0.196   11.482
  311.130  162.768   92.487    0.500    0.202   12.053
  311.380  161.676   91.052    0.473    0.185   12.698
  311.630  156.072   95.115    0.401    0.160   13.428
  311.880  148.214   96.792    0.429    0.144   13.763
  312.130  144.645   96.218    0.440    0.187   13.932
  312.380  144.794   96.108    0.452    0.227   13.942
  312.630  145.057   96.931    0.453    0.224   13.935
  312.880  144.874   97.351    0.454    0.239   13.973
  313.130  145.137   91.019    0.452    0.248   14.116
  313.380  145.509   88.727    0.440    0.243   14.230
  313.630  145.772   90.010    0.447    0.225   14.401
  313.880  146.490   89.169    0.459    0.211   14.575
  314.130  146.075   84.827    0.470    0.178   14.669
  314.380  143.312   77.838    0.481    0.191   14.932
  314.630  143.780   79.119    0.496    0.282   15.108
  314.880  145.854   84.632    0.496    0.270   15.261
  315.130  146.230   84.591    0.488    0.260   15.221
  315.380  146.156   84.285    0.472    0.243   14.636
  315.630  146.191   89.868    0.450    0.219   13.919
  315.880  146.005  103.184    0.459    0.192   13.358
  316.130  146.162  103.741    0.467    0.228   12.913
  316.380  146.762   99.923    0.468    0.230   12.715
  316.630  146.905   89.633    0.492    0.212   12.963
  316.880  148.190   84.758    0.507    0.195   12.963
  317.130  148.902   80.809    0.490    0.182   14.681
  317.380  151.192   72.034    0.446    0.167   18.205
  317.630  150.670   64.850    0.406    0.132   25.747
  317.880  149.693   61.428    0.281    0.059   38.683
  318.130  148.033   59.732    0.268    0.027   47.618
  318.380  147.171   59.029    0.257    0.003   52.703
  318.630  146.533   57.927    0.232    0.012   54.830
  318.880  146.568   57.485    0.243    0.027   54.975
  319.130  146.954   62.607    0.273    0.024   43.225
  319.380  148.345   67.259    0.295    0.016   32.238
  319.630  149.390   75.752    0.384    0.051   25.714
  319.880  151.013   82.126    0.415    0.115   20.071
  320.130  151.836   83.406    0.435    0.227   18.369
  320.380  151.537   82.902    0.448    0.236   17.890
  320.630  151.461   79.948    0.455    0.232   17.909
  320.880  151.506   79.638    0.453    0.226   17.924
  321.130  151.539   84.360    0.446    0.189   18.207
  321.380  150.899   85.837    0.442    0.189   18.460
  321.630  150.945   83.017    0.446    0.188   18.753
  321.880  151.197   80.063    0.446    0.177   19.189
  322.130  151.915   80.946    0.435    0.163   19.489
  322.380  151.840   84.344    0.428    0.156   19.507
  322.630  152.213   83.707    0.427    0.173   19.527
  322.880  153.266   81.684    0.433    0.180   20.463
  323.130  154.323   82.569    0.447    0.179   22.201
  323.380  154.699   81.860    0.441    0.179   24.797
  323.630  154.699   78.378    0.433    0.185   27.904
  323.880  153.883   75.489    0.424    0.175   33.108
  324.130  153.457   72.400    0.404    0.080   40.827
  324.380  152.478   67.267    0.363    0.070   43.332
  324.630  150.495   66.296    0.330    0.056   42.276
  324.880  148.940   66.388    0.309    0.017   37.028
  325.130  145.821   68.725    0.280    0.011   30.257
  325.380  143.491   73.181    0.363    0.025   24.854
  325.630  144.658   82.269    0.425    0.063   19.651
  325.880  146.621   92.281    0.453    0.090   17.982
  326.130  147.780   80.199    0.436    0.185   16.548
  326.380  148.496   84.459    0.414    0.183   15.482
  326.630  148.872   87.922    0.431    0.205   15.078
  326.880  148.905   90.523    0.453    0.208   15.261
  327.130  148.839   90.414    0.474    0.215   15.556
  327.380  148.983   87.397    0.470    0.191   15.975
  327.630  149.022   85.764    0.463    0.158   16.678
  327.880  149.404   85.390    0.439    0.169   17.962
  328.130  150.570   88.261    0.423    0.150   17.915
  328.380  149.478   93.508    0.418    0.134   16.973
  328.630  148.847   94.656    0.438    0.124   15.705
