~VERSION INFORMATION
 VERS.                 2.0:   CWLS LOG ASCII STANDARD -VERSION 2.0
 WRAP.                  NO:   ONE LINE PER DEPTH STEP
~WELL INFORMATION BLOCK
#MNEM.UNIT           DATA                    DESCRIPTION OF MNEMONIC
#---------    -------------------            -------------------------------
# Generated from Intellog Unique Number	CX_WELLS/WELL/3883
WELL.         SUNCOD                         : Well_name    - WELL
LOC .         00/11-21-087-17W4/0            : Location     - LOCATION
UWI .         00/11-21-087-17W400            : Uwi          - UNIQUE WELL ID
ENTR.         TIM                            : Entered      - ENTERED BY
SRVC.         SCHLUMBERGER                   : Scn          - SERVICE COMPANY
STRT.M        50                             : top_depth    - START DEPTH
STOP.M        220                            : bot_depth    - STOP DEPTH
STEP.M        0.25                           : increment    - STEP LENGTH
 NULL. -999.2500:NULL Value
~CURVE INFORMATION BLOCK
#MNEM UNIT       ERCB CURVE CODE    CURVE DESCRIPTION
#-----------   ------------------   ----------------------------------
DEPT.M        00 001 00 00         : DEPTH        - DEPTH
GR  .API      00 310 00 00         : GR           - GAMMA RAY
NPHI.V/V      00 330 00 00         : PHIN         - NEUTRON POROSITY (SANDSTONE)
DPHI.V/V      00 890 00 00         : PHID         - DENSITY POROSITY (SANDSTONE)
ILD .OHMM     00 120 00 00         : RESD         - DEEP RESISTIVITY (DIL)
~PARAMETER INFORMATION
#MNEM.UNIT           DATA             DESCRIPTION OF MNEMONIC
#---------         -----------     ------------------------------
GL  .M        511                  : gl           - GROUND LEVEL ELEVATION
EREF.M        514.5                : kb           - ELEVATION OF DEPTH REFERENCE
DATM.M        514.5                : datum        - DATUM ELEVATION
TDD .M        220                  : tdd          - TOTAL DEPTH DRILLER
RUN .         ONE                  : Run          - RUN NUMBER
ENG .         BILL                 : Engineer     - RECORDING ENGINEER
WIT .         JIM                  : Witness      - WITNESSED BY
MUD .         GEL                  : Mud_type     - MUD TYPE
MATR.         SANDSTONE            : Logunit      - NEUTRON MATRIX
TMAX.C        20                   : BHT          - MAXIMUM RECORDED TEMPERATURE
BHTD.M        220                  : BHTDEP       - MAXIMUM RECORDED TEMPERATURE
MATR.         1                    : LOGUNIT      - NEUTRON MATRIX
RMT .C        20                   : MDTP         - TEMPERATURE OF MUD
NEUT.         1                    : NEUTRON      - NEUTRON TYPE
RESI.         7                    : RESIST       - RESISTIVITY TYPE
RMC .OHMM     7                    : RMC          - RESISTIVITY OF MUD CAKE
RMF .OHMM     7                    : RMF          - RESISTIVITY OF MUD FILTRATE
SUFT.C        4                    : SUFT         - SURFACE TEMPERATURE
~A  DEPTH       GR     PHIN     PHID     RESD
# ...
   93.500   68.934    0.434    0.296   18.243
   93.750   73.664    0.454    0.287   18.586
   94.000   75.003    0.474    0.285   18.588
   94.250   60.081    0.488    0.278   18.591
   94.500   54.645    0.478    0.268   18.254
   94.750   47.849    0.471    0.259   17.594
   95.000   47.156    0.474    0.284   16.960
   95.250   49.845    0.476    0.304   16.653
   95.500   51.862    0.476    0.304   16.655
   95.750   51.845    0.477    0.299   16.353
   96.000   51.152    0.479    0.301   16.356
   96.250   51.817    0.472    0.301   16.059
   96.500   54.503    0.468    0.305   15.767
   96.750   55.172    0.463    0.307   14.647
   97.000   56.511    0.458    0.310   11.740
   97.250   57.846    0.481    0.300    9.410
   97.500   57.152    0.486    0.277    7.542
   97.750   53.066    0.496    0.274    6.389
   98.000   50.340    0.501    0.323    6.880
   98.250   50.324    0.474    0.346    7.686
   98.500   49.634    0.459    0.344    9.075
   98.750   45.553    0.454    0.344   11.971
   99.000   42.822    0.459    0.342   14.136
   99.250   44.839    0.459    0.335   14.401
   99.500   48.892    0.460    0.326   12.658
   99.750   50.908    0.464    0.314   10.527
  100.000   50.206    0.470    0.312    9.253
  100.250   50.194    0.478    0.319    8.756
  100.500   50.859    0.480    0.314    7.840
  100.750   54.222    0.484    0.287    7.697
  101.000   54.888    0.479    0.274    7.419
  101.250   56.904    0.465    0.282    7.021
  101.500   52.819    0.456    0.290    6.893
  101.750   49.415    0.447    0.267    7.561
  102.000   45.333    0.440    0.260    8.141
  102.250   43.966    0.431    0.287   10.160
  102.500   41.240    0.424    0.298   11.997
  102.750   40.546    0.421    0.310   11.999
  103.000   43.909    0.420    0.320   10.944
  103.250   47.285    0.421    0.324   10.355
  103.500   52.693    0.430    0.329    8.936
  103.750   56.738    0.473    0.332    8.000
  104.000   53.338    0.482    0.330    8.303
  104.250   48.579    0.503    0.319    9.449
  104.500   44.489    0.488    0.314   10.556
  104.750   48.534    0.471    0.310   12.237
  105.000   49.881    0.478    0.303   11.580
  105.250   50.542    0.484    0.314   10.368
  105.500   50.526    0.478    0.325    9.283
  105.750   50.506    0.464    0.326    8.466
  106.000   49.808    0.457    0.317    8.160
  106.250   49.122    0.452    0.312    8.626
  106.500   50.461    0.458    0.297    9.118
  106.750   54.510    0.468    0.254    9.818
  107.000   58.555    0.469    0.240    9.819
  107.250   61.926    0.455    0.302    9.292
  107.500   61.914    0.450    0.315    8.794
  107.750   62.571    0.478    0.324    8.476
  108.000   64.584    0.489    0.318    8.170
  108.250   65.922    0.484    0.313    7.875
  108.500   66.584    0.460    0.303    7.732
  108.750   66.571    0.457    0.299    7.733
  109.000   65.196    0.454    0.297    7.734
  109.250   63.829    0.454    0.297    8.026
  109.500   57.711    0.463    0.297    8.329
  109.750   44.826    0.471    0.297    8.804
  110.000   40.067    0.475    0.297    9.657
  110.250   34.630    0.468    0.298   11.194
  110.500   33.259    0.460    0.306   12.977
  110.750   31.880    0.454    0.319   14.233
  111.000   29.827    0.440    0.358   15.046
  111.250   29.137    0.428    0.367   15.329
  111.500   28.447    0.432    0.366   15.616
  111.750   29.105    0.420    0.358   15.617
  112.000   29.762    0.416    0.351   15.620
  112.250   29.750    0.429    0.351   15.913
  112.500   28.378    0.440    0.353   15.916
  112.750   26.325    0.460    0.355   15.627
  113.000   26.317    0.465    0.354   15.629
  113.250   26.301    0.462    0.350   15.346
  113.500   27.640    0.454    0.343   15.068
  113.750   29.656    0.448    0.336   15.069
  114.000   31.668    0.440    0.328   14.796
  114.250   33.003    0.445    0.326   14.799
  114.500   33.669    0.444    0.326   14.801
  114.750   35.003    0.442    0.321   14.533
  115.000   36.342    0.442    0.318   14.269
  115.250   37.677    0.447    0.312   14.010
  115.500   37.665    0.453    0.310   13.755
  115.750   38.322    0.460    0.310   13.506
  116.000   39.665    0.464    0.311   13.019
  116.250   41.008    0.466    0.314   12.783
  116.500   43.697    0.466    0.317   12.322
  116.750   45.036    0.470    0.323   12.098
  117.000   46.375    0.470    0.326   11.448
  117.250   47.710    0.460    0.323   10.441
  117.500   48.375    0.452    0.322    9.348
  117.750   49.036    0.463    0.327    8.525
  118.000   49.694    0.475    0.326    7.920
  118.250   49.677    0.502    0.309    7.776
  118.500   42.890    0.505    0.278    8.221
  118.750   42.192    0.476    0.259    8.531
  119.000   44.212    0.468    0.267    8.852
  119.250   46.229    0.464    0.280    9.358
  119.500   48.241    0.459    0.293    9.533
  119.750   48.221    0.453    0.308    9.712
  120.000   48.209    0.447    0.316    9.895
  120.250   47.519    0.443    0.314   10.080
  120.500   47.502    0.444    0.308   10.082
  120.750   47.482    0.447    0.304   10.083
  121.000   47.466    0.448    0.303   10.272
  121.250   47.450    0.451    0.303   10.272
  121.500   48.107    0.451    0.303    9.723
  121.750   48.095    0.453    0.298    9.200
  122.000   48.748    0.454    0.295    9.201
  122.250   48.736    0.459    0.293    9.203
  122.500   49.401    0.463    0.293    9.205
  122.750   49.381    0.467    0.294    9.377
  123.000   49.369    0.468    0.299    9.378
  123.250   49.348    0.471    0.307    9.380
  123.500   49.332    0.461    0.303    9.381
  123.750   49.993    0.462    0.300    9.382
  124.000   50.655    0.455    0.301    9.384
  124.250   49.957    0.429    0.302    9.560
  124.500   49.937    0.427    0.299    9.561
  124.750   49.928    0.450    0.294    9.740
  125.000   49.912    0.469    0.283   10.108
  125.250   48.541    0.445    0.259   11.086
  125.500   45.137    0.357    0.144   12.386
  125.750   40.370    0.271    0.066   14.898
  126.000   39.007    0.217    0.037   20.390
  126.250   38.986    0.201    0.015   30.603
  126.500   42.358    0.207    0.007   29.499
  126.750   45.056    0.249    0.007   20.027
  127.000   49.778    0.276    0.020   18.265
  127.250   53.154    0.302    0.055   16.053
  127.500   57.202    0.330    0.142   13.599
  127.750   57.864    0.355    0.201   11.954
  128.000   57.166    0.380    0.239   11.736
  128.250   56.472    0.398    0.251   11.106
  128.500   56.456    0.431    0.272   10.905
  128.750   55.758    0.451    0.285   10.512
  129.000   54.383    0.454    0.281   10.320
  129.250   53.697    0.448    0.276   10.133
  129.500   50.967    0.448    0.275    9.950
  129.750   52.301    0.454    0.281    9.951
  130.000   52.971    0.461    0.276   10.138
  130.250   54.306    0.466    0.266   10.521
  130.500   54.293    0.467    0.260   10.522
  130.750   53.595    0.465    0.254   10.524
  131.000   54.261    0.457    0.252   10.333
  131.250   61.016    0.445    0.255    9.778
  131.500   65.065    0.434    0.255    8.918
  131.750   65.048    0.434    0.250    8.284
  132.000   64.350    0.442    0.255    7.839
  132.250   64.334    0.450    0.255    7.150
  132.500   65.677    0.466    0.244    6.766
  132.750   67.689    0.479    0.239    6.766
  133.000   67.673    0.483    0.233    6.894
  133.250   66.983    0.490    0.221    7.023
  133.500   65.612    0.497    0.207    7.024
  133.750   63.559    0.501    0.199    7.289
  134.000   61.511    0.503    0.189    7.564
  134.250   58.107    0.480    0.173    7.850
  134.500   56.054    0.448    0.161    7.997
  134.750   58.752    0.448    0.190    8.147
  135.000   62.800    0.453    0.221    8.148
  135.250   63.462    0.464    0.237    8.150
  135.500   60.054    0.478    0.241    8.002
  135.750   56.654    0.475    0.242    8.003
  136.000   52.573    0.464    0.251    8.004
  136.250   55.940    0.454    0.257    8.006
  136.500   59.993    0.449    0.253    8.006
  136.750   64.042    0.457    0.236    7.717
