~VERSION INFORMATION
 VERS.                 2.0:   CWLS LOG ASCII STANDARD -VERSION 2.0
 WRAP.                  NO:   ONE LINE PER DEPTH STEP
~WELL INFORMATION BLOCK
#MNEM.UNIT           DATA                    DESCRIPTION OF MNEMONIC
#---------    -------------------            -------------------------------
# Generated from Intellog Unique Number	CW_70_72/WELL/1068
NULL.         -999.25                        : NULL_VALUE
WELL.         WESTMIN SMITH 14-35            : Well_name    - WELL              
LOC .         14-35-071-24W4                 : Location     - LOCATION          
UWI .         00/14-35-071-24W4/0            : Uwi          - UNIQUE WELL ID    
ENTR.         JAYE                           : Entered      - ENTERED BY        
SRVC.         WESTERN ATLAS                  : Scn          - SERVICE COMPANY   
DATE.         7 MAR 83                       : Date         - LOG DATE          
STRT.M        423                            : top_depth    - START DEPTH       
STOP.M        627                            : bot_depth    - STOP DEPTH        
STEP.M        0.25                           : increment    - STEP LENGTH       
~CURVE INFORMATION BLOCK
#MNEM UNIT       ERCB CURVE CODE    CURVE DESCRIPTION
#-----------   ------------------   ----------------------------------
DEPT.M        00 001 00 00         : DEPTH        - DEPTH                       
DPHI.V/V      00 890 00 00         : PHID         - DENSITY POROSITY (SANDSTONE)
NPHI.V/V      00 330 00 00         : PHIN         - NEUTRON POROSITY (SANDSTONE)
GR  .API      00 310 00 00         : GR           - GAMMA RAY                   
CALI.MM       00 280 01 00         : CAL          - CALIPER                     
ILD .OHMM     00 120 00 00         : RESD         - DEEP RESISTIVITY (DIL)      
~PARAMETER INFORMATION       
#MNEM.UNIT           DATA             DESCRIPTION OF MNEMONIC
#---------         -----------     ------------------------------
GL  .M        655.8                : gl           - GROUND LEVEL ELEVATION      
EREF.M        659                  : kb           - ELEVATION OF DEPTH REFERENCE
DATM.M        655.8                : datum        - DATUM ELEVATION             
TDD .M        651                  : tdd          - TOTAL DEPTH DRILLER         
RUN .         ONE                  : Run          - RUN NUMBER                  
ENG .         PETERSON             : Engineer     - RECORDING ENGINEER          
WIT .         OVERWATER            : Witness      - WITNESSED BY                
MUD .         GEL CHEM             : Mud_type     - MUD TYPE                    
MATR.         SANDSTONE            : Logunit      - NEUTRON MATRIX              
TMAX.C        22                   : BHT          - MAXIMUM RECORDED TEMPERATURE
BHTD.M        651.3                : BHTDEP       - MAXIMUM RECORDED TEMPERATURE
RMT .C        12                   : MDTP         - TEMPERATURE OF MUD          
MUDD.KG/M     1120                 : MWT          - MUD DENSITY                 
NEUT.         1                    : NEUTRON      - NEUTRON TYPE                
RESI.         0                    : RESIST       - RESISTIVITY TYPE            
RM  .OHMM     5                    : RM           - RESISTIVITY OF MUD          
RMC .OHMM     4.7                  : RMC          - RESISTIVITY OF MUD CAKE     
RMF .OHMM     4.5                  : RMF          - RESISTIVITY OF MUD FILTRATE 
SUFT.C        0                    : SUFT         - SURFACE TEMPERATURE         
~A  DEPTH     PHID     PHIN       GR      CAL     RESD
  423.000    0.177    0.444  118.443  168.088    2.730
  423.250    0.202    0.447  119.839  166.552    2.759
  423.500    0.222    0.444  118.006  166.285    2.784
  423.750    0.212    0.444  114.431  166.960    2.803
  424.000    0.200    0.451  110.174  167.432    2.796
  424.250    0.186    0.448  105.543  167.600    2.779
  424.500    0.185    0.445  108.678  167.964    2.756
  424.750    0.183    0.438  111.129  168.002    2.719
  425.000    0.173    0.429  109.978  168.469    2.656
  425.250    0.181    0.421  110.316  168.631    2.581
  425.500    0.195    0.413  105.752  168.472    2.476
  425.750    0.212    0.412   99.755  168.726    2.379
  426.000    0.223    0.422   95.311  169.933    2.307
  426.250    0.205    0.439   93.784  171.360    2.289
  426.500    0.199    0.438   97.788  172.254    2.309
  426.750    0.201    0.427  103.098  173.244    2.409
  427.000    0.214    0.413  104.989  173.823    2.619
  427.250    0.219    0.395  103.900  170.598    3.217
  427.500    0.208    0.380   99.642  166.635    3.914
  427.750    0.224    0.360   88.677  164.465    4.797
  428.000    0.240    0.348   78.458  162.930    5.570
  428.250    0.219    0.342   70.291  162.246    6.194
  428.500    0.178    0.337   63.670  161.546    6.475
  428.750    0.154    0.336   60.159  160.542    6.340
  429.000    0.147    0.341   63.480  159.642    6.160
  429.250    0.147    0.350   72.948  160.107    5.941
  429.500    0.191    0.357   75.526  160.578    5.752
  429.750    0.201    0.357   73.316  160.633    5.716
  430.000    0.250    0.362   71.109  160.371    5.766
  430.250    0.274    0.368   70.205  159.882    5.773
  430.500    0.273    0.377   75.575  159.296    5.695
  430.750    0.268    0.387   81.318  158.620    5.554
  431.000    0.264    0.391   86.750  158.351    5.337
  431.250    0.253    0.390   83.549  158.297    5.177
  431.500    0.230    0.385   78.426  158.554    4.984
  431.750    0.216    0.383   75.969  158.702    4.888
  432.000    0.210    0.381   76.926  158.852    4.785
  432.250    0.196    0.381   86.977  158.583    4.765
  432.500    0.187    0.378   88.536  158.531    4.771
  432.750    0.158    0.374   94.092  158.268    4.876
  433.000    0.162    0.370   91.762  158.091    4.938
  433.250    0.189    0.362   94.336  158.139    5.085
  433.500    0.235    0.353   96.353  157.977    5.336
  433.750    0.218    0.361   97.746  157.605    5.567
  434.000    0.201    0.368   99.080  158.072    5.462
  434.250    0.188    0.370   98.673  158.757    5.327
  434.500    0.167    0.369   98.019  159.341    5.234
  434.750    0.174    0.369   99.165  159.382    5.067
  435.000    0.181    0.369  102.485  159.118    4.851
  435.250    0.190    0.370  105.992  158.637    4.626
  435.500    0.194    0.374  109.561  160.060    4.363
  435.750    0.183    0.379  113.628  162.530    4.247
  436.000    0.176    0.381  114.963  164.796    4.236
  436.250    0.180    0.380  110.268  166.757    4.322
  436.500    0.199    0.370  101.975  167.862    4.451
  436.750    0.214    0.360   96.291  168.429    4.507
  437.000    0.230    0.366   91.906  168.582    4.505
  437.250    0.244    0.378   91.379  167.573    4.451
  437.500    0.231    0.386   95.072  165.832    4.277
  437.750    0.213    0.397   98.265  164.717    4.141
  438.000    0.196    0.404  101.028  164.026    4.107
  438.250    0.173    0.414  103.605  164.494    4.175
  438.500    0.190    0.414  105.186  165.606    4.227
  438.750    0.202    0.407  106.827  167.131    4.345
  439.000    0.170    0.395  108.844  168.023    4.441
  439.250    0.180    0.388  103.781  167.964    4.531
  439.500    0.175    0.387   96.850  167.063    4.588
  439.750    0.187    0.385   90.173  165.536    4.655
  440.000    0.203    0.383   88.709  164.944    4.768
  440.250    0.200    0.381   94.079  165.310    4.845
  440.500    0.200    0.374  101.627  166.092    4.971
  440.750    0.191    0.367  106.062  165.519    5.014
  441.000    0.179    0.358   98.575  165.138    5.040
  441.250    0.182    0.349   83.511  163.714    4.981
  441.500    0.193    0.343   74.781  162.698    4.876
  441.750    0.226    0.346   64.688  161.066    4.721
  442.000    0.248    0.350   62.665  160.378    4.604
  442.250    0.254    0.358   68.160  159.992    4.432
  442.500    0.257    0.356   71.977  159.736    4.227
  442.750    0.253    0.354   78.155  159.457    4.069
  443.000    0.239    0.350   83.029  159.084    3.873
  443.250    0.209    0.346   87.092  159.033    3.626
  443.500    0.188    0.340   86.007  159.181    3.400
  443.750    0.210    0.334   78.641  158.914    3.152
  444.000    0.241    0.329   66.496  158.854    3.006
  444.250    0.268    0.326   57.891  158.702    3.021
  444.500    0.284    0.325   58.170  159.174    3.106
  444.750    0.274    0.331   68.819  159.532    3.204
  445.000    0.247    0.333   77.792  159.488    3.288
  445.250    0.237    0.336   83.535  159.320    3.189
  445.500    0.248    0.341   78.905  159.266    3.235
  445.750    0.263    0.347   70.919  159.105    3.319
  446.000    0.282    0.351   61.757  159.261    3.425
  446.250    0.284    0.355   62.592  158.974    3.526
  446.500    0.266    0.358   75.414  159.038    3.742
  446.750    0.250    0.361   86.064  159.086    3.963
  447.000    0.229    0.366   93.235  159.123    4.143
  447.250    0.218    0.372  100.967  159.170    4.133
  447.500    0.213    0.379  101.618  159.434    3.898
  447.750    0.226    0.391   97.546  160.005    3.648
  448.000    0.239    0.405   92.481  160.585    3.326
  448.250    0.252    0.419   90.893  160.853    2.916
  448.500    0.236    0.433   97.195  160.679    2.654
  448.750    0.208    0.449  107.844  160.198    2.488
  449.000    0.174    0.458  116.320  160.672    2.377
  449.250    0.145    0.455  126.099  162.833    2.289
  449.500    0.147    0.450  127.435  164.998    2.296
  449.750    0.135    0.452  124.543  165.674    2.369
  450.000    0.159    0.459  120.659  165.930    2.476
  450.250    0.180    0.461  122.241  166.205    2.632
  450.500    0.185    0.454  124.316  166.136    2.868
  450.750    0.205    0.443  126.211  166.619    3.136
  451.000    0.211    0.429  127.357  166.973    3.404
  451.250    0.226    0.418  126.640  167.335    3.618
  451.500    0.232    0.412  121.636  167.705    3.854
  451.750    0.230    0.414  117.006  167.861    4.105
  452.000    0.227    0.410   99.706  167.590    4.118
  452.250    0.237    0.402   87.067  166.793    3.979
  452.500    0.260    0.396   79.828  165.370    3.787
  452.750    0.286    0.389   77.496  164.037    3.552
  453.000    0.306    0.384   79.760  162.081    3.374
  453.250    0.302    0.379   79.105  160.449    3.273
  453.500    0.299    0.373   79.008  159.653    3.265
  453.750    0.295    0.366   79.165  159.165    3.312
  454.000    0.283    0.368   80.311  158.795    3.411
  454.250    0.274    0.376   82.698  159.049    3.532
  454.500    0.261    0.375   85.645  159.414    3.848
  454.750    0.236    0.366   82.631  159.473    4.460
  455.000    0.223    0.353   78.623  159.519    4.904
  455.250    0.194    0.338   73.620  159.776    5.432
  455.500    0.121    0.320   72.034  160.138    5.917
  455.750    0.127    0.323   75.726  160.295    6.026
  456.000    0.167    0.340   81.659  160.447    5.868
  456.250    0.212    0.372   86.219  160.397    5.669
  456.500    0.226    0.391   92.146  160.858    5.336
  456.750    0.227    0.390   97.455  161.544    4.957
  457.000    0.229    0.386   98.602  164.868    4.553
  457.250    0.230    0.383   94.903  166.819    4.206
  457.500    0.237    0.377   89.156  166.436    3.864
  457.750    0.269    0.372   82.415  163.212    3.517
  458.000    0.295    0.372   77.599  160.726    3.261
  458.250    0.319    0.373   75.328  158.353    3.098
  458.500    0.307    0.374   76.165  158.289    3.017
  458.750    0.310    0.378   78.429  158.869    3.014
  459.000    0.300    0.381   82.868  159.879    3.024
  459.250    0.286    0.384   86.438  160.027    3.050
