~VERSION INFORMATION
 VERS.                 2.0:   CWLS LOG ASCII STANDARD -VERSION 2.0
 WRAP.                  NO:   ONE LINE PER DEPTH STEP
~WELL INFORMATION BLOCK
#MNEM.UNIT           DATA                    DESCRIPTION OF MNEMONIC
#---------    -------------------            -------------------------------
# Generated from Intellog Unique Number	CC_80_83/WELL/2395
NULL.         -999.25                        : NULL_VALUE
WELL.         BVX ET AL WATCHUSK             : Well_name    - WELL
LOC .         11-11-081-02W4                 : Location     - LOCATION          
UWI .         00/11-11-081-02W400            : Uwi          - UNIQUE WELL ID    
ENTR.         DW                             : Entered      - ENTERED BY        
SRVC.         SCHLUMBERGER                   : Scn          - SERVICE COMPANY   
DATE.         08 MAR 78                      : Date         - LOG DATE
STRT.M        109.728                        : top_depth    - START DEPTH       
STOP.M        295.655                        : bot_depth    - STOP DEPTH        
STEP.M        0.305                          : increment    - STEP LENGTH       
~CURVE INFORMATION BLOCK
#MNEM UNIT       ERCB CURVE CODE    CURVE DESCRIPTION
#-----------   ------------------   ----------------------------------
DEPT.M        00 001 00 00         : DEPTH        - DEPTH                       
ILD .OHMM     00 120 00 00         : RESD         - DEEP RESISTIVITY (DIL)      
GR  .API      00 310 00 00         : GR           - GAMMA RAY                   
NPHI.V/V      00 330 00 00         : PHIN         - NEUTRON POROSITY (LIMESTONE)
DPHI.V/V      00 890 00 00         : PHID         - DENSITY POROSITY (LIMESTONE)
~PARAMETER INFORMATION       
#MNEM.UNIT           DATA             DESCRIPTION OF MNEMONIC
#---------         -----------     ------------------------------
GL  .M        502.92               : gl           - GROUND LEVEL ELEVATION      
EREF.M        505.968              : kb           - ELEVATION OF DEPTH REFERENCE
DATM.M        505.968              : datum        - DATUM ELEVATION             
TDD .M        302.971              : tdd          - TOTAL DEPTH DRILLER         
RUN .         ONE                  : Run          - RUN NUMBER                  
ENG .         BILL                 : Engineer     - RECORDING ENGINEER          
WIT .         JIM                  : Witness      - WITNESSED BY                
MUD .         GEL                  : Mud_type     - MUD TYPE                    
MATR.         LIMESTONE            : Logunit      - NEUTRON MATRIX              
TMAX.C        21.1111              : BHT          - MAXIMUM RECORDED TEMPERATURE
BHTD.M        302.971              : BHTDEP       - MAXIMUM RECORDED TEMPERATURE
MATR.         1                    : LOGUNIT      - NEUTRON MATRIX              
RMT .C        25                   : MDTP         - TEMPERATURE OF MUD          
NEUT.         1                    : NEUTRON      - NEUTRON TYPE                
RESI.         0                    : RESIST       - RESISTIVITY TYPE            
RMC .OHMM     0.25                 : RMC          - RESISTIVITY OF MUD CAKE     
RMF .OHMM     0.25                 : RMF          - RESISTIVITY OF MUD FILTRATE 
SUFT.C        15                   : SUFT         - SURFACE TEMPERATURE         
~A  DEPTH     RESD       GR     PHIN     PHID
# ...
  215.797    3.963  105.129    0.534    0.224
  216.102    3.817  102.028    0.517    0.224
  216.406    3.965  105.091    0.514    0.218
  216.711    4.278  104.462    0.515    0.218
  217.016    4.616  102.595    0.501    0.220
  217.321    5.373   95.167    0.516    0.224
  217.626    5.909   93.915    0.507    0.209
  217.930    6.375   95.133    0.474    0.198
  218.235    6.498   95.731    0.458    0.198
  218.540    6.751   95.718    0.468    0.202
  218.845    6.753   93.847    0.451    0.204
  219.150    6.883   92.599    0.427    0.203
  219.454    6.885   86.409    0.409    0.215
  219.759    6.886   82.070    0.406    0.223
  220.064    6.758   83.904    0.398    0.214
  220.369    6.632   86.355    0.403    0.212
  220.674    6.267   86.335    0.440    0.225
  220.978    5.810   83.851    0.464    0.234
  221.283    4.900   75.195    0.455    0.243
  221.588    4.458   60.364    0.421    0.286
  221.893    4.212   47.386    0.412    0.279
  222.198    4.056   49.836    0.428    0.287
  222.502    4.057   52.287    0.406    0.298
  222.807    4.058   47.333    0.399    0.301
  223.112    4.058   44.231    0.396    0.302
  223.417    4.297   50.379    0.401    0.294
  223.722    4.380   52.838    0.427    0.276
  224.026    4.299   57.753    0.460    0.268
  224.331    4.299   60.208    0.471    0.286
  224.636    4.300   60.810    0.466    0.304
  224.941    4.221   61.408    0.440    0.295
  225.245    4.222   62.627    0.434    0.289
  225.550    4.143   66.926    0.428    0.265
  225.855    4.144   73.703    0.464    0.258
  226.160    4.145   83.563    0.493    0.253
  226.465    4.145   86.631    0.492    0.246
  226.769    4.146   74.887    0.452    0.236
  227.074    4.227   64.994    0.372    0.243
  227.379    4.227   66.209    0.342    0.252
  227.684    4.309   69.279    0.344    0.266
  227.989    4.310   69.259    0.353    0.269
  228.293    4.477   59.988    0.356    0.231
  228.598    4.651   48.857    0.336    0.210
  228.903    4.832   55.625    0.322    0.205
  229.208    5.213   59.318    0.341    0.196
  229.513    5.843   74.731    0.347    0.205
  229.817    6.186   79.650    0.355    0.209
  230.122    6.674   83.951    0.384    0.199
  230.427    6.934   86.407    0.403    0.186
  230.732    7.068   92.561    0.406    0.159
  231.037    7.205   96.867    0.387    0.127
  231.341    7.206   88.208    0.381    0.176
  231.646    7.207   83.870    0.381    0.180
  231.951    7.209   82.620    0.391    0.170
  232.256    7.075   87.536    0.405    0.154
  232.561    6.813   92.460    0.412    0.164
  232.865    6.814   95.529    0.398    0.206
  233.170    6.562   97.976    0.399    0.195
  233.475    6.440   99.195    0.412    0.190
  233.780    6.321   98.562    0.419    0.195
  234.085    6.322   95.461    0.420    0.204
  234.389    6.323   94.209    0.419    0.189
  234.694    6.325   96.043    0.398    0.184
  234.999    6.326  100.341    0.386    0.188
  235.304    6.327  101.565    0.416    0.196
  235.609    6.328  103.396    0.424    0.207
  235.913    6.330  102.142    0.413    0.210
  236.218    6.212   99.657    0.407    0.209
  236.523    6.213   97.173    0.402    0.199
  236.828    6.214   96.540    0.400    0.193
  237.132    6.099  100.220    0.403    0.188
  237.437    6.100  102.062    0.406    0.199
  237.742    6.218  105.127    0.412    0.204
  238.047    6.219  106.962    0.417    0.204
  238.352    6.221  108.178    0.408    0.189
  238.656    6.221  107.543    0.427    0.182
  238.961    6.106  106.296    0.437    0.173
  239.266    6.107  103.809    0.422    0.179
  239.571    5.881  105.024    0.418    0.182
  239.876    5.557  102.542    0.417    0.180
  240.180    5.352   96.350    0.419    0.180
  240.485    5.252   94.482    0.415    0.185
  240.790    5.154   89.526    0.416    0.199
  241.095    5.059   86.421    0.425    0.215
  241.400    5.156   89.484    0.424    0.217
  241.704    5.157   91.323    0.408    0.204
  242.009    5.358   93.159    0.403    0.209
  242.314    5.461   96.233    0.400    0.202
  242.619    5.462  101.150    0.403    0.187
  242.924    5.464  104.217    0.398    0.180
  243.228    5.362  105.438    0.397    0.176
  243.533    5.067  102.953    0.413    0.181
  243.838    4.879   88.737    0.421    0.218
  244.143    4.274   83.780    0.426    0.216
  244.448    3.888   78.212    0.424    0.224
  244.752    3.341   57.207    0.433    0.261
  245.057    3.098   39.292    0.399    0.300
  245.362    3.158   41.743    0.359    0.276
  245.667    3.344   46.662    0.345    0.265
  245.972    3.473   54.670    0.342    0.258
  246.276    3.282   62.677    0.345    0.247
  246.581    3.221   65.129    0.375    0.255
  246.886    3.043   58.938    0.416    0.291
  247.191    2.931   47.808    0.405    0.308
  247.495    2.769   43.473    0.397    0.294
  247.800    2.718   41.603    0.396    0.288
  248.105    2.719   44.666    0.392    0.272
  248.410    2.719   45.273    0.389    0.272
  248.715    2.720   41.553    0.385    0.304
  249.019    2.825   35.364    0.381    0.293
  249.324    2.826   35.345    0.381    0.288
  249.629    2.826   39.029    0.381    0.285
  249.934    2.827   39.630    0.372    0.284
  250.239    2.827   37.762    0.359    0.289
  250.543    2.828   34.660    0.352    0.298
  250.848    2.829   39.581    0.372    0.310
  251.153    2.776   41.418    0.383    0.318
  251.458    2.724   37.691    0.385    0.305
  251.763    2.725   34.591    0.374    0.305
  252.067    2.778   30.254    0.363    0.305
  252.372    2.886   28.387    0.367    0.303
  252.677    3.055   32.690    0.372    0.297
  252.982    3.114   38.228    0.358    0.278
  253.287    3.174   46.233    0.363    0.283
  253.591    3.236   44.366    0.374    0.288
  253.896    3.176   41.260    0.389    0.273
  254.201    3.117   46.182    0.392    0.260
  254.506    3.059   49.870    0.379    0.287
  254.811    2.946   44.296    0.377    0.302
  255.115    2.946   50.453    0.388    0.270
  255.420    2.892   57.224    0.396    0.259
  255.725    2.892   50.416    0.407    0.255
  256.030    2.838   48.550    0.399    0.292
  256.335    2.839   46.059    0.426    0.298
  256.639    2.839   49.749    0.372    0.297
  256.944    2.840   49.733    0.387    0.313
  257.249    2.840   41.691    0.379    0.314
  257.554    2.895   45.994    0.372    0.291
  257.859    2.896   50.912    0.395    0.279
  258.163    2.842   49.664    0.392    0.268
  258.468    2.737   52.732    0.386    0.259
  258.773    2.686   53.951    0.393    0.275
  259.078    2.587   52.082    0.408    0.285
  259.383    2.587   42.187    0.428    0.299
  259.687    2.637   32.913    0.395    0.293
  259.992    2.638   35.358    0.387    0.290
  260.297    2.589   36.582    0.391    0.300
  260.602    2.541   35.326    0.391    0.298
  260.907    2.541   34.076    0.388    0.295
  261.211    2.590   33.442    0.385    0.311
  261.516    2.691   37.739    0.384    0.322
  261.821    2.743   39.582    0.384    0.329
  262.126    2.850   42.035    0.375    0.314
  262.431    3.017   46.950    0.364    0.290
  262.736    3.255   51.258    0.352    0.271
  263.040    3.512   59.883    0.346    0.231
  263.345    3.719   68.507    0.360    0.206
  263.650    3.863   56.762    0.389    0.278
  263.955    4.090   44.399    0.351    0.292
  264.260    4.091   49.317    0.345    0.277
  264.564    4.014   57.326    0.362    0.272
  264.869    3.793   64.100    0.384    0.276
  265.174    3.584   63.466    0.393    0.301
  265.479    3.323   48.016    0.383    0.299
  265.784    3.023   44.915    0.372    0.282
  266.088    2.598   58.475    0.376    0.276
  266.393    2.409   56.604    0.421    0.314
  266.698    2.364   45.480    0.424    0.335
  267.003    2.365   41.141    0.409    0.334
  267.308    2.365   42.968    0.402    0.332
  267.612    2.411   44.809    0.393    0.328
  267.917    2.505   53.431    0.399    0.330
  268.222    2.553   60.207    0.420    0.337
  268.527    2.554   61.422    0.427    0.338
