~VERSION INFORMATION
 VERS.                 2.0:   CWLS LOG ASCII STANDARD -VERSION 2.0
 WRAP.                  NO:   ONE LINE PER DEPTH STEP
~WELL INFORMATION BLOCK
#MNEM.UNIT           DATA                    DESCRIPTION OF MNEMONIC
#---------    -------------------            -------------------------------
# Generated from Intellog Unique Number	CW_76_78/WELL/2779
WELL.         ASHLAND ET AL PELICAN          : Well_name    - WELL
LOC .         00/10-28-077-20W4/0            : Location     - LOCATION
UWI .         00/10-28-077-20W4/0            : Uwi          - UNIQUE WELL ID
ENTR.         JOE                            : Entered      - ENTERED BY
SRVC.         SCHLUMBERGER                   : Scn          - SERVICE COMPANY
STRT.M        228.6                          : top_depth    - START DEPTH
STOP.M        466.35                         : bot_depth    - STOP DEPTH
STEP.M        0.25                           : increment    - STEP LENGTH
 NULL. -999.2500:NULL Value
~CURVE INFORMATION BLOCK
#MNEM UNIT       ERCB CURVE CODE    CURVE DESCRIPTION
#-----------   ------------------   ----------------------------------
DEPT.M        00 001 00 00         : DEPTH        - DEPTH
ILD .OHMM     00 120 00 00         : RESD         - DEEP RESISTIVITY (DIL)
DPHI.V/V      00 890 00 00         : PHID         - DENSITY POROSITY (SANDSTONE)
NPHI.V/V      00 330 00 00         : PHIN         - NEUTRON POROSITY (SANDSTONE)
GR  .API      00 310 00 00         : GR           - GAMMA RAY
CALI.MM       00 280 01 00         : CAL          - CALIPER
~PARAMETER INFORMATION
#MNEM.UNIT           DATA             DESCRIPTION OF MNEMONIC
#---------         -----------     ------------------------------
GL  .M        571.195              : gl           - GROUND LEVEL ELEVATION
EREF.M        574.853              : kb           - ELEVATION OF DEPTH REFERENCE
DATM.M        574.853              : datum        - DATUM ELEVATION
TDD .M        499.872              : tdd          - TOTAL DEPTH DRILLER
RUN .         ONE                  : Run          - RUN NUMBER
ENG .         McNAUGHTON           : Engineer     - RECORDING ENGINEER
WIT .         LINKE                : Witness      - WITNESSED BY
MUD .         GEL                  : Mud_type     - MUD TYPE
MATR.         SANDSTONE            : Logunit      - NEUTRON MATRIX
TMAX.C        22.7778              : BHT          - MAXIMUM RECORDED TEMPERATURE
BHTD.M        499.872              : BHTDEP       - MAXIMUM RECORDED TEMPERATURE
RMT .C        16.1111              : MDTP         - TEMPERATURE OF MUD
MUDD.KG/M     61000                : MWT          - MUD DENSITY
NEUT.         1                    : NEUTRON      - NEUTRON TYPE
RESI.         0                    : RESIST       - RESISTIVITY TYPE
RM  .OHMM     1.1                  : RM           - RESISTIVITY OF MUD
RMC .OHMM     1.34                 : RMC          - RESISTIVITY OF MUD CAKE
RMF .OHMM     2.87                 : RMF          - RESISTIVITY OF MUD FILTRATE
SUFT.C        -12.2222             : SUFT         - SURFACE TEMPERATURE
~A  DEPTH     RESD     PHID     PHIN       GR      CAL
# ...
  301.600    6.454    0.260    0.531   79.882  166.701
  301.850    6.451    0.255    0.534   80.163  167.172
  302.100    6.545    0.250    0.560   79.276  167.640
  302.350    6.738    0.259    0.564   78.099  167.623
  302.600    6.931    0.256    0.531   78.668  167.585
  302.850    7.123    0.237    0.516   80.690  168.559
  303.100    7.415    0.227    0.484   83.877  168.537
  303.350    7.608    0.232    0.452   85.611  169.010
  303.600    7.801    0.230    0.417   85.889  168.983
  303.850    7.895    0.219    0.429   84.712  168.468
  304.100    8.087    0.217    0.448   84.405  167.951
  304.350    8.182    0.206    0.431   82.647  167.439
  304.600    8.276    0.204    0.433   82.633  166.927
  304.850    8.272    0.203    0.430   82.330  165.917
  305.100    8.367    0.209    0.419   82.024  165.397
  305.350    8.460    0.219    0.422   80.847  165.378
  305.600    8.653    0.227    0.434   79.382  164.863
  305.850    8.847    0.246    0.449   75.878  164.349
  306.100    9.137    0.257    0.449   70.334  163.336
  306.350    9.133    0.262    0.439   71.776  162.334
  306.600    9.129    0.260    0.428   73.801  161.324
  306.850    9.125    0.264    0.437   72.623  160.812
  307.100    8.924    0.252    0.452   69.700  160.292
  307.350    8.525    0.258    0.463   67.649  160.270
  307.600    8.127    0.273    0.495   68.511  160.741
  307.850    7.631    0.273    0.484   71.405  161.214
  308.100    7.035    0.260    0.449   74.012  161.685
  308.350    6.539    0.262    0.412   77.778  163.138
  308.600    6.042    0.262    0.425   79.803  163.606
  308.850    5.741    0.254    0.449   82.115  164.566
  309.100    5.541    0.240    0.478   84.721  165.532
  309.350    5.537    0.228    0.485   88.489  166.006
  309.600    5.631    0.214    0.479   91.385  167.949
  309.850    6.119    0.209    0.462   91.371  168.915
  310.100    6.707    0.212    0.472   89.031  169.878
  310.350    7.687    0.223    0.477   89.310  170.348
  310.600    8.569    0.233    0.476   90.168  169.338
  310.850    9.058    0.205    0.498   87.537  169.806
  311.100    9.349    0.210    0.517   81.415  170.767
  311.350    9.444    0.240    0.498   75.291  172.223
  311.600    9.439    0.287    0.483   70.333  171.711
  311.850    9.337    0.293    0.513   66.827  167.255
  312.100    9.135    0.302    0.509   65.649  164.278
  312.350    8.934    0.310    0.518   65.348  162.285
  312.600    8.634    0.304    0.523   64.750  160.780
  312.850    8.532    0.293    0.538   63.283  160.265
  313.100    8.428    0.293    0.567   61.815  160.246
  313.350    8.523    0.299    0.552   59.475  160.221
  313.600    9.308    0.303    0.539   55.098  160.197
  313.850   11.864    0.308    0.494   54.794  161.157
  314.100   14.914    0.305    0.451   56.524  161.141
  314.350   15.303    0.302    0.435   57.967  161.608
  314.600   14.708    0.293    0.422   56.207  162.082
  314.850   13.916    0.222    0.385   53.867  162.547
  315.100   12.532    0.153    0.326   51.817  163.017
  315.350   11.149    0.099    0.196   49.475  163.488
  315.600    9.569    0.016    0.169   48.593  163.959
  315.850    8.087    0.019    0.177   54.105  163.939
  316.100    7.393    0.135    0.331   60.492  163.917
  316.350    7.291    0.205    0.421   66.298  163.397
  316.600    7.385    0.301    0.424   69.192  162.883
  316.850    7.578    0.296    0.482   70.925  162.368
  317.100    7.574    0.281    0.505   70.041  162.343
  317.350    7.668    0.271    0.494   66.826  161.832
  317.600    7.762    0.285    0.475   64.775  161.810
  317.850    7.856    0.289    0.463   60.982  161.782
  318.100    7.852    0.288    0.476   58.931  161.746
  318.350    7.848    0.285    0.462   58.627  161.738
  318.600    7.647    0.285    0.451   58.905  161.226
  318.850    7.445    0.281    0.457   60.928  161.201
  319.100    7.342    0.269    0.480   64.988  161.201
  319.350    7.339    0.268    0.481   68.755  161.158
  319.600    7.334    0.271    0.469   72.231  161.130
  319.850    7.331    0.257    0.431   73.675  161.108
  320.100    7.326    0.229    0.399   74.825  161.092
  320.350    7.913    0.201    0.365   72.192  161.064
  320.600    7.711    0.209    0.376   75.381  161.048
  320.850    7.905    0.255    0.467   75.654  161.009
  321.100    7.901    0.290    0.452   73.899  160.998
  321.350    7.797    0.293    0.426   71.268  161.466
  321.600    7.595    0.281    0.405   69.219  161.466
  321.850    7.493    0.254    0.369   67.749  161.419
  322.100    7.391    0.201    0.325   67.154  162.878
  322.350    7.190    0.136    0.287   69.467  163.351
  322.600    6.791    0.133    0.382   72.653  163.822
  322.850    6.393    0.191    0.425   74.388  164.782
  323.100    5.995    0.229    0.453   79.317  165.740
  323.350    5.891    0.246    0.469   82.795  166.709
  323.600    5.888    0.245    0.459   84.820  167.669
  323.850    5.884    0.249    0.447   88.007  168.140
  324.100    5.879    0.247    0.459   90.031  168.608
  324.350    5.875    0.240    0.513   90.309  169.062
  324.600    5.773    0.232    0.504   88.840  169.056
  324.850    5.670    0.218    0.496   88.536  170.022
  325.100    5.568    0.202    0.488   89.394  170.985
  325.350    5.464    0.205    0.475   88.801  172.436
  325.600    5.263    0.222    0.475   86.457  173.892
  325.850    5.161    0.217    0.482   85.573  176.825
  326.100    5.156    0.223    0.475   85.266  179.266
  326.350    5.251    0.207    0.476   86.129  178.752
  326.600    5.443    0.189    0.488   87.569  174.789
  326.850    5.734    0.193    0.513   87.554  173.779
  327.100    6.124    0.202    0.506   85.797  178.686
  327.350    6.219    0.259    0.512   80.548  183.590
  327.600    6.412    0.251    0.523   79.657  176.176
  327.850    6.506    0.239    0.514   80.520  172.213
  328.100    6.600    0.220    0.496   81.962  168.740
  328.350    6.596    0.235    0.479   84.564  166.255
  328.600    6.493    0.225    0.469   86.298  165.740
  328.850    6.489    0.219    0.441   86.578  166.701
  329.100    6.485    0.223    0.456   85.979  167.667
  329.350    6.481    0.212    0.488   85.095  168.137
  329.600    6.477    0.217    0.490   83.046  168.605
  329.850    6.571    0.232    0.466   81.577  168.583
  330.100    6.566    0.222    0.446   83.891  164.128
  330.350    6.562    0.227    0.493   85.624  163.613
  330.600    6.559    0.234    0.502   86.773  164.574
  330.850    6.653    0.232    0.493   87.049  166.032
  331.100    6.647    0.230    0.480   86.165  167.972
  331.350    6.742    0.228    0.471   82.950  169.431
  331.600    6.837    0.211    0.534   80.321  169.412
  331.850    6.734    0.225    0.534   77.399  169.387
  332.100    6.434    0.217    0.513   73.019  166.409
  332.350    6.135    0.194    0.402   72.424  161.461
  332.600    5.835    0.193    0.401   75.322  161.932
  332.850    5.733    0.243    0.480   79.672  162.892
  333.100    5.629    0.246    0.495   85.477  164.348
  333.350    5.724    0.204    0.518   91.574  167.282
  333.600    5.917    0.215    0.517   91.559  171.691
  333.850    6.307    0.233    0.500   93.873  176.102
  334.100    6.697    0.224    0.485   97.933  178.051
  334.350    7.381    0.230    0.475   97.044  175.070
  334.600    7.969    0.229    0.499   94.704  172.095
  334.850    8.556    0.208    0.521   92.074  169.607
  335.100    8.945    0.189    0.517   89.150  170.075
  335.350    8.842    0.193    0.485   90.594  170.051
  335.600    8.542    0.188    0.442   93.781  170.034
  335.850    8.145    0.184    0.425   96.675  170.009
  336.100    7.746    0.198    0.415   95.789  169.985
  336.350    7.446    0.191    0.420   91.995  169.965
  336.600    7.246    0.187    0.439   92.854  169.451
  336.850    7.043    0.198    0.459   94.587  169.426
  337.100    6.843    0.205    0.481   97.480  168.911
  337.350    6.741    0.210    0.492   97.176  168.889
  337.600    6.638    0.190    0.495   94.546  168.378
  337.850    6.535    0.182    0.487   89.295  167.857
