~VERSION INFORMATION
 VERS.                 2.0:   CWLS LOG ASCII STANDARD -VERSION 2.0
 WRAP.                  NO:   ONE LINE PER DEPTH STEP
~WELL INFORMATION BLOCK
#MNEM.UNIT           DATA                    DESCRIPTION OF MNEMONIC
#---------    -------------------            -------------------------------
# Generated from Intellog Unique Number	CC_80_83/WELL/2327
NULL.         -999.25                        : NULL_VALUE
WELL.         CHEVRON BP GRAND RAPIDS        : Well_name    - WELL
LOC .         10-01-082-17W4                 : Location     - LOCATION          
UWI .         00/10-01-082-17W400            : Uwi          - UNIQUE WELL ID    
ENTR.         JHS                            : Entered      - ENTERED BY        
SRVC.         SCHLUMBERGER                   : Scn          - SERVICE COMPANY   
DATE.         09 FEB 74                      : Date         - LOG DATE
STRT.M        152.4                          : top_depth    - START DEPTH       
STOP.M        289.559                        : bot_depth    - STOP DEPTH        
STEP.M        0.305                          : increment    - STEP LENGTH       
~CURVE INFORMATION BLOCK
#MNEM UNIT       ERCB CURVE CODE    CURVE DESCRIPTION
#-----------   ------------------   ----------------------------------
DEPT.M        00 001 00 00         : DEPTH        - DEPTH                       
DPHI.V/V      00 890 00 00         : PHID         - DENSITY POROSITY (LIMESTONE)
NPHI.V/V      00 330 00 00         : PHIN         - NEUTRON POROSITY (LIMESTONE)
GR  .API      00 310 00 00         : GR           - GAMMA RAY                   
ILD .OHMM     00 120 00 00         : RESD         - DEEP RESISTIVITY (DIL)      
~PARAMETER INFORMATION       
#MNEM.UNIT           DATA             DESCRIPTION OF MNEMONIC
#---------         -----------     ------------------------------
GL  .M        537.058              : gl           - GROUND LEVEL ELEVATION      
EREF.M        540.258              : kb           - ELEVATION OF DEPTH REFERENCE
DATM.M        540.258              : datum        - DATUM ELEVATION             
TDD .M        291.694              : tdd          - TOTAL DEPTH DRILLER         
RUN .         ONE                  : Run          - RUN NUMBER                  
ENG .         BILL                 : Engineer     - RECORDING ENGINEER          
WIT .         JIM                  : Witness      - WITNESSED BY                
MUD .         GEL                  : Mud_type     - MUD TYPE                    
MATR.         LIMESTONE            : Logunit      - NEUTRON MATRIX              
TMAX.C        20.5556              : BHT          - MAXIMUM RECORDED TEMPERATURE
BHTD.M        291.694              : BHTDEP       - MAXIMUM RECORDED TEMPERATURE
MATR.         1                    : LOGUNIT      - NEUTRON MATRIX              
RMT .C        25                   : MDTP         - TEMPERATURE OF MUD          
NEUT.         1                    : NEUTRON      - NEUTRON TYPE                
RESI.         0                    : RESIST       - RESISTIVITY TYPE            
RMC .OHMM     0.25                 : RMC          - RESISTIVITY OF MUD CAKE     
RMF .OHMM     0.25                 : RMF          - RESISTIVITY OF MUD FILTRATE 
SUFT.C        15                   : SUFT         - SURFACE TEMPERATURE         
~A  DEPTH     PHID     PHIN       GR     RESD
# ...
  258.469    0.214    0.467   72.604   10.748
  258.773    0.220    0.454   69.025   11.169
  259.078    0.210    0.460   70.892   11.181
  259.383    0.216    0.419   71.537   11.191
  259.688    0.227    0.403   69.776   10.796
  259.993    0.222    0.416   68.003   10.609
  260.297    0.195    0.386   64.427   10.821
  260.602    0.184    0.321   59.631   11.887
  260.907    0.122    0.274   55.447   13.057
  261.212    0.070    0.477   60.333   13.320
  261.517    0.086    0.499   68.844   13.085
  261.821    0.209    0.495   70.705   12.625
  262.126    0.229    0.490   69.548   11.516
  262.431    0.224    0.501   65.359    9.756
  262.736    0.231    0.510   62.991    9.238
  263.041    0.231    0.482   64.245    9.079
  263.345    0.219    0.470   64.898    8.920
  263.650    0.209    0.443   64.943    8.932
  263.955    0.252    0.445   66.804    8.776
  264.260    0.227    0.510   69.870    8.627
  264.565    0.218    0.521   69.318    8.319
  264.870    0.210    0.541   68.754    8.025
  265.174    0.242    0.533   74.249    7.599
  265.479    0.217    0.501   74.894    7.195
  265.784    0.193    0.516   73.733    6.688
  266.089    0.192    0.521   75.598    6.216
  266.394    0.202    0.512   76.856    5.364
  266.698    0.223    0.523   79.924    4.894
  267.003    0.211    0.516   84.199    4.722
  267.308    0.201    0.487   83.037    4.727
  267.613    0.193    0.493   80.664    5.290
  267.918    0.194    0.471   77.087    6.259
  268.222    0.174    0.428   74.114    7.975
  268.527    0.172    0.440   72.951    9.612
  268.832    0.142    0.461   74.808   11.165
  269.137    0.217    0.460   77.275   12.263
  269.442    0.218    0.457   76.725   12.054
  269.746    0.220    0.449   76.158   11.414
  270.051    0.207    0.436   74.397   10.806
  270.356    0.194    0.441   73.229   10.422
  270.661    0.184    0.454   73.885   10.244
  270.966    0.200    0.438   73.934   10.446
  271.271    0.187    0.442   75.186   10.655
  271.575    0.189    0.493   79.468   10.868
  271.880    0.175    0.455   80.723   11.081
  272.185    0.193    0.436   75.929   11.514
  272.490    0.178    0.429   74.168   11.963
  272.795    0.169    0.391   82.074   12.661
  273.099    0.157    0.371   85.140   13.401
  273.404    0.123    0.400   88.216   13.925
  273.709    0.132    0.426   91.886   13.684
  274.014    0.196    0.442   97.980   12.255
  274.319    0.194    0.460  101.052    9.116
  274.623    0.191    0.528  101.096    6.781
  274.928    0.192    0.459   94.494    5.332
  275.233    0.204    0.405   80.030    4.957
  275.538    0.188    0.411   51.659    5.246
  275.843    0.248    0.421   52.312    6.207
  276.147    0.260    0.444   55.385    8.209
  276.452    0.265    0.463   58.452   10.857
  276.757    0.264    0.465   63.333   13.334
  277.062    0.266    0.440   70.641   13.346
  277.367    0.251    0.443   74.313   11.517
  277.672    0.233    0.462   82.221    9.058
  277.976    0.247    0.463   84.686    7.674
  278.281    0.242    0.521   87.159    6.501
  278.586    0.244    0.540   91.427    5.714
  278.891    0.232    0.512   97.521    5.213
  279.196    0.220    0.486   99.382    4.937
  279.500    0.206    0.511   97.617    4.942
  279.805    0.217    0.523   95.851    4.858
  280.110    0.218    0.539   91.670    4.685
  280.415    0.222    0.552   92.919    4.354
  280.720    0.202    0.506   89.946    4.201
  281.024    0.186    0.469   83.948    4.205
  281.329    0.175    0.480   82.186    4.289
  281.634    0.155    0.559   84.642    4.294
  281.939    0.213    0.566   85.902    4.219
  282.244    0.202    0.573   85.956    3.779
  282.548    0.210    0.548   88.418    3.783
  282.853    0.215    0.514   85.437    3.932
  283.158    0.208    0.474   82.465    4.083
  283.463    0.195    0.456   78.275    4.485
  283.768    0.180    0.462   65.627    5.307
  284.073    0.164    0.449   42.697    6.165
  284.377    0.138    0.478   49.398    6.404
  284.682    0.126    0.435   83.302    6.531
  284.987    0.192    0.425   86.987    6.300
  285.292    0.197    0.426   86.419    5.965
  285.597    0.224    0.448   86.471    5.972
  285.901    0.236    0.415   86.517    5.761
  286.206    0.246    0.316   86.564    4.702
  286.511    0.253    0.269   86.621    4.058
  286.816    0.235    0.117   86.664    3.914
  287.121    0.220    0.204   86.706    4.301
  287.425    0.229    0.215   86.753    4.902
  287.730    0.221    0.217   86.803    6.484
  288.035    0.204    0.217   86.844    8.110
  288.340    0.191    0.217   86.889    9.775
  288.645    0.194    0.217   86.945   11.566
  288.949    0.211    0.218   86.984   12.473
  289.254    0.243    0.218   87.032   12.487
  289.559    0.257    0.221   87.077   12.268
