~VERSION INFORMATION
 VERS.                 2.0:   CWLS LOG ASCII STANDARD -VERSION 2.0
 WRAP.                  NO:   ONE LINE PER DEPTH STEP
~WELL INFORMATION BLOCK
#MNEM.UNIT           DATA                    DESCRIPTION OF MNEMONIC
#---------    -------------------            -------------------------------
# Generated from Intellog Unique Number	CS_67_68/WELL/833
WELL.         ET AL TWEEDIE                  : Well_name    - WELL
LOC .         00/11-12-068-13W4/0            : Location     - LOCATION
UWI .         00/11-12-068-13W4/0            : Uwi          - UNIQUE WELL ID
ENTR.         SP                             : Entered      - ENTERED BY
SRVC.         SCHLUMBERGER                   : Scn          - SERVICE COMPANY
STRT.M        289.56                         : top_depth    - START DEPTH
STOP.M        466.060                        : bot_depth    - STOP DEPTH
STEP.M        0.25                           : increment    - STEP LENGTH
 NULL. -999.2500:NULL Value
~CURVE INFORMATION BLOCK
#MNEM UNIT       ERCB CURVE CODE    CURVE DESCRIPTION
#-----------   ------------------   ----------------------------------
DEPT.M        00 001 00 00         : DEPTH        - DEPTH
GR  .API      00 310 00 00         : GR           - GAMMA RAY
DPHI.V/V      00 890 00 00         : PHID         - DENSITY POROSITY (SANDSTONE)
NPHI.V/V      00 330 00 00         : PHIN         - NEUTRON POROSITY (SANDSTONE)
ILD .OHMM     00 120 00 00         : RESD         - DEEP RESISTIVITY (DIL)
~PARAMETER INFORMATION
#MNEM.UNIT           DATA             DESCRIPTION OF MNEMONIC
#---------         -----------     ------------------------------
GL  .M        590.398              : gl           - GROUND LEVEL ELEVATION
EREF.M        593.141              : kb           - ELEVATION OF DEPTH REFERENCE
DATM.M        590.398              : datum        - DATUM ELEVATION
TDD .M        467.868              : tdd          - TOTAL DEPTH DRILLER
RUN .         ONE                  : Run          - RUN NUMBER
ENG .         BILL                 : Engineer     - RECORDING ENGINEER
WIT .         JIM                  : Witness      - WITNESSED BY
MUD .         GEL                  : Mud_type     - MUD TYPE
MATR.         SANDSTONE            : Logunit      - NEUTRON MATRIX
TMAX.C        18.3333              : BHT          - MAXIMUM RECORDED TEMPERATURE
BHTD.M        467.868              : BHTDEP       - MAXIMUM RECORDED TEMPERATURE
MATR.         1                    : LOGUNIT      - NEUTRON MATRIX
RMT .C        25                   : MDTP         - TEMPERATURE OF MUD
NEUT.         1                    : NEUTRON      - NEUTRON TYPE
RESI.         0                    : RESIST       - RESISTIVITY TYPE
RMC .OHMM     0.25                 : RMC          - RESISTIVITY OF MUD CAKE
RMF .OHMM     0.25                 : RMF          - RESISTIVITY OF MUD FILTRATE
SUFT.C        15                   : SUFT         - SURFACE TEMPERATURE
~A  DEPTH       GR     PHID     PHIN     RESD
# ...
  420.060  120.311    0.282    0.619    1.873
  420.310  121.566    0.302    0.620    1.913
  420.560  122.131    0.280    0.621    2.047
  420.810  121.404    0.268    0.616    2.187
  421.060  120.026    0.259    0.601    2.342
  421.310  118.067    0.240    0.587    2.514
  421.560  117.606    0.229    0.600    2.503
  421.810  115.962    0.229    0.608    2.328
  422.060  110.419    0.223    0.554    2.241
  422.310  104.727    0.206    0.529    2.646
  422.560   99.428    0.146    0.494    3.107
  422.810   94.961    0.113    0.470    3.608
  423.060   97.796    0.094    0.482    4.345
  423.310  101.300    0.136    0.507    4.761
  423.560  106.222    0.158    0.523    4.729
  423.810  109.518    0.184    0.535    4.316
  424.060  112.170    0.196    0.546    3.984
  424.310  111.926    0.181    0.538    3.777
  424.560  110.877    0.172    0.532    3.725
  424.810  109.440    0.174    0.520    3.709
  425.060  107.660    0.198    0.505    3.764
  425.310  105.723    0.194    0.509    3.874
  425.560  104.360    0.179    0.504    4.038
  425.810  103.054    0.165    0.489    4.250
  426.060  101.757    0.146    0.464    4.561
  426.310   99.638    0.133    0.466    4.890
  426.560   99.418    0.136    0.488    5.247
  426.810  100.763    0.155    0.433    5.947
  427.060   97.160    0.137    0.376    7.311
  427.310   84.522    0.099    0.335    9.415
  427.560   71.926    0.063    0.305   10.842
  427.810   60.705    0.034    0.283   12.402
  428.060   58.302    0.029    0.254   12.411
  428.310   63.900    0.036    0.244   10.313
  428.560   74.793    0.044    0.288    7.928
  428.810   87.431    0.081    0.398    6.695
  429.060   98.131    0.136    0.464    6.047
  429.310  103.161    0.163    0.510    5.560
  429.560  104.628    0.158    0.559    5.496
  429.810  100.436    0.142    0.374    5.616
  430.060   92.859    0.095    0.370    5.662
  430.310   92.326    0.104    0.387    5.601
  430.560  103.516    0.167    0.460    5.355
  430.810  110.594    0.197    0.507    4.936
  431.060  115.555    0.193    0.519    4.528
  431.310  118.397    0.205    0.539    4.311
  431.560  119.687    0.213    0.556    4.216
  431.810  119.203    0.208    0.533    4.191
  432.060  116.068    0.197    0.543    4.178
  432.310  113.256    0.193    0.546    4.177
  432.560  111.669    0.197    0.539    4.196
  432.810  109.830    0.201    0.544    4.242
  433.060  108.427    0.164    0.526    4.399
  433.310  104.855    0.152    0.515    4.606
  433.560   99.970    0.169    0.538    4.821
  433.810   99.103    0.159    0.547    5.031
  434.060   97.930    0.142    0.535    5.295
  434.310   95.990    0.130    0.488    5.479
  434.560   92.211    0.152    0.474    5.641
  434.810   96.741    0.170    0.549    5.655
  435.060  101.260    0.173    0.580    5.515
  435.310   99.909    0.188    0.520    5.216
  435.560   98.446    0.140    0.501    4.749
  435.810  102.265    0.186    0.501    4.342
  436.060  106.251    0.197    0.523    4.058
  436.310  109.087    0.186    0.537    3.995
  436.560  110.513    0.189    0.531    4.027
  436.810  109.462    0.187    0.525    4.029
  437.060  106.003    0.181    0.528    3.736
  437.310  100.220    0.214    0.571    3.173
  437.560  103.312    0.253    0.600    2.636
  437.810  105.187    0.286    0.603    2.340
  438.060  106.174    0.274    0.603    2.109
  438.310  105.565    0.265    0.604    2.019
  438.560  105.842    0.258    0.606    2.032
  438.810  107.851    0.263    0.606    2.099
  439.060  110.097    0.274    0.598    2.169
  439.310  113.445    0.261    0.599    2.252
  439.560  116.538    0.248    0.603    2.375
  439.810  118.408    0.238    0.606    2.462
  440.060  117.971    0.229    0.606    2.533
  440.310  116.511    0.216    0.592    2.531
  440.560  117.241    0.245    0.594    2.504
  440.810  116.980    0.245    0.599    2.662
  441.060  115.450    0.221    0.577    2.885
  441.310  110.249    0.199    0.537    3.177
  441.560   99.171    0.168    0.491    3.582
  441.810   91.297    0.138    0.452    4.397
  442.060   92.723    0.107    0.413    5.034
  442.310   99.589    0.079    0.421    5.380
  442.560  104.043    0.123    0.503    4.610
  442.810  108.043    0.160    0.545    3.911
  443.060  111.042    0.200    0.570    3.443
  443.310  114.046    0.211    0.602    3.139
  443.560  116.827    0.216    0.612    3.171
  443.810  115.668    0.201    0.594    3.380
  444.060  110.072    0.192    0.569    3.607
  444.310  103.313    0.175    0.525    3.897
  444.560   99.772    0.144    0.504    4.194
  444.810  102.317    0.135    0.496    4.445
  445.060  106.075    0.117    0.549    4.271
  445.310  113.557    0.194    0.576    3.892
  445.560  118.000    0.206    0.589    3.613
  445.810  121.938    0.210    0.601    3.297
  446.060  124.237    0.203    0.608    3.080
  446.310  125.379    0.194    0.616    2.864
  446.560  125.941    0.209    0.619    2.803
  446.810  126.729    0.194    0.617    2.847
  447.060  127.213    0.187    0.609    2.970
  447.310  122.261    0.200    0.588    3.113
  447.560  118.258    0.194    0.556    3.266
  447.810  117.217    0.210    0.575    3.355
  448.060  119.326    0.211    0.609    3.217
  448.310  120.025    0.185    0.623    3.013
  448.560  119.229    0.167    0.618    2.834
  448.810  120.904    0.242    0.612    2.688
  449.060  122.277    0.239    0.610    2.605
  449.310  122.816    0.234    0.612    2.615
  449.560  121.887    0.220    0.613    2.688
  449.810  122.573    0.235    0.614    2.774
  450.060  124.275    0.212    0.613    2.867
  450.310  121.608    0.223    0.583    2.981
  450.560  111.341    0.197    0.499    3.146
  450.810   99.295    0.197    0.458    3.341
  451.060   85.751    0.187    0.444    3.708
  451.310   76.965    0.201    0.435    4.238
  451.560   71.977    0.219    0.424    4.907
  451.810   66.897    0.249    0.411    5.364
  452.060   63.804    0.264    0.401    5.848
  452.310   62.768    0.253    0.393    6.267
  452.560   63.382    0.222    0.387    6.520
  452.810   64.120    0.154    0.387    6.617
  453.060   63.951    0.149    0.394    6.577
  453.310   63.357    0.149    0.386    6.466
  453.560   62.925    0.153    0.393    6.331
  453.810   62.757    0.157    0.400    6.142
  454.060   62.497    0.168    0.405    5.641
  454.310   63.432    0.172    0.408    5.483
  454.560   65.628    0.171    0.406    5.172
  454.810   69.554    0.169    0.417    4.912
  455.060   75.119    0.177    0.431    4.732
  455.310   80.316    0.194    0.449    4.585
  455.560   84.841    0.204    0.474    4.517
  455.810   89.860    0.196    0.469    4.522
  456.060   94.658    0.190    0.455    4.598
  456.310   98.697    0.199    0.466    4.754
  456.560  101.759    0.206    0.493    4.894
  456.810  100.228    0.206    0.529    5.166
  457.060   92.482    0.210    0.498    5.455
  457.310   84.233    0.220    0.442    6.335
  457.560   80.676    0.234    0.418    7.394
  457.810   86.694    0.240    0.436    8.284
  458.060   90.985    0.244    0.454    8.900
  458.310   93.841    0.234    0.469    9.402
  458.560   85.843    0.241    0.468    9.735
  458.810   79.410    0.264    0.461    9.832
  459.060   85.562    0.265    0.484    9.811
  459.310   92.436    0.248    0.498    9.219
  459.560  100.348    0.227    0.485    8.031
  459.810  106.266    0.210    0.475    6.987
  460.060  114.178    0.193    0.460    6.112
  460.310  120.079    0.191    0.470    5.743
  460.560  121.429    0.201    0.481    5.602
  460.810  124.031    0.215    0.483    5.568
  461.060  129.184    0.228    0.466    5.619
  461.310  132.745    0.224    0.456    5.719
  461.560  125.057    0.213    0.440    5.956
  461.810  104.503    0.220    0.423    6.385
  462.060   20.505    0.239    0.412    6.899
  462.310   11.516    0.227    0.406    7.175
  462.560    8.134    0.215    0.409    7.233
  462.810    7.496    0.207    0.422    7.184
  463.060    7.491    0.213    0.439    7.133
  463.310    7.651    0.217    0.434    7.239
