~VERSION INFORMATION
 VERS.                 2.0:   CWLS LOG ASCII STANDARD -VERSION 2.0
 WRAP.                  NO:   ONE LINE PER DEPTH STEP
~WELL INFORMATION BLOCK
#MNEM.UNIT           DATA                    DESCRIPTION OF MNEMONIC
#---------    -------------------            -------------------------------
# Generated from Intellog Unique Number	CS_71_72/WELL/923
WELL.         BRENDA IPIATIK                 : Well_name    - WELL
LOC .         00/14-04-071-09W4/0            : Location     - LOCATION
UWI .         00/14-04-071-09W4/0            : Uwi          - UNIQUE WELL ID
ENTR.         SP                             : Entered      - ENTERED BY
SRVC.         SCHLUMBERGER                   : Scn          - SERVICE COMPANY
STRT.M        250                            : top_depth    - START DEPTH
STOP.M        450                            : bot_depth    - STOP DEPTH
STEP.M        0.25                           : increment    - STEP LENGTH
 NULL. -999.2500:NULL Value
~CURVE INFORMATION BLOCK
#MNEM UNIT       ERCB CURVE CODE    CURVE DESCRIPTION
#-----------   ------------------   ----------------------------------
DEPT.M        00 001 00 00         : DEPTH        - DEPTH
ILD .OHMM     00 120 00 00         : RESD         - DEEP RESISTIVITY (DIL)
DPHI.V/V      00 890 00 00         : PHID         - DENSITY POROSITY (LIMESTONE)
NPHI.V/V      00 330 00 00         : PHIN         - NEUTRON POROSITY (LIMESTONE)
GR  .API      00 310 00 00         : GR           - GAMMA RAY
~PARAMETER INFORMATION
#MNEM.UNIT           DATA             DESCRIPTION OF MNEMONIC
#---------         -----------     ------------------------------
GL  .M        604.92               : gl           - GROUND LEVEL ELEVATION
EREF.M        608.28               : kb           - ELEVATION OF DEPTH REFERENCE
DATM.M        604.92               : datum        - DATUM ELEVATION
TDD .M        460                  : tdd          - TOTAL DEPTH DRILLER
RUN .         ONE                  : Run          - RUN NUMBER
ENG .         BILL                 : Engineer     - RECORDING ENGINEER
WIT .         JIM                  : Witness      - WITNESSED BY
MUD .         GEL                  : Mud_type     - MUD TYPE
MATR.         LIMESTONE            : Logunit      - NEUTRON MATRIX
TMAX.C        15                   : BHT          - MAXIMUM RECORDED TEMPERATURE
BHTD.M        460                  : BHTDEP       - MAXIMUM RECORDED TEMPERATURE
MATR.         1                    : LOGUNIT      - NEUTRON MATRIX
RMT .C        25                   : MDTP         - TEMPERATURE OF MUD
NEUT.         1                    : NEUTRON      - NEUTRON TYPE
RESI.         0                    : RESIST       - RESISTIVITY TYPE
RMC .OHMM     0.25                 : RMC          - RESISTIVITY OF MUD CAKE
RMF .OHMM     0.25                 : RMF          - RESISTIVITY OF MUD FILTRATE
SUFT.C        15                   : SUFT         - SURFACE TEMPERATURE
~A  DEPTH     RESD     PHID     PHIN       GR
# ...
  380.500    5.640    0.233    0.483   94.247
  380.750    5.574    0.228    0.494   96.385
  381.000    5.283    0.227    0.510   97.853
  381.250    5.243    0.240    0.525   96.518
  381.500    5.028    0.235    0.511   94.146
  381.750    4.795    0.228    0.499   91.715
  382.000    4.633    0.222    0.495   91.780
  382.250    4.588    0.240    0.513   92.213
  382.500    4.697    0.250    0.511   93.010
  382.750    4.794    0.251    0.474   93.320
  383.000    4.974    0.247    0.474   95.585
  383.250    5.085    0.244    0.492   93.089
  383.500    5.188    0.241    0.485   93.519
  383.750    5.195    0.242    0.462   93.829
  384.000    5.125    0.252    0.472   92.676
  384.250    4.906    0.257    0.487   91.829
  384.500    4.364    0.245    0.497   92.261
  384.750    3.601    0.239    0.504   92.997
  385.000    3.321    0.242    0.504   93.978
  385.250    2.921    0.239    0.510   94.837
  385.500    2.570    0.247    0.531   95.513
  385.750    2.387    0.282    0.564   95.945
  386.000    2.345    0.285    0.591   95.585
  386.250    2.349    0.270    0.591   92.542
  386.500    2.401    0.266    0.579   92.243
  386.750    2.473    0.265    0.582   94.809
  387.000    2.605    0.265    0.572   94.570
  387.250    3.009    0.263    0.550   90.309
  387.500    3.410    0.262    0.526   88.059
  387.750    3.800    0.257    0.504   87.089
  388.000    4.064    0.251    0.491   87.826
  388.250    4.146    0.260    0.477   87.344
  388.500    4.105    0.263    0.466   84.241
  388.750    4.057    0.279    0.482   81.199
  389.000    4.178    0.289    0.481   80.106
  389.250    4.536    0.280    0.472   83.586
  389.500    4.751    0.250    0.467   88.225
  389.750    4.986    0.234    0.473   90.850
  390.000    5.115    0.240    0.481   90.734
  390.250    5.161    0.250    0.495   87.326
  390.500    5.286    0.258    0.501   84.771
  390.750    5.980    0.250    0.492   81.121
  391.000    6.945    0.230    0.479   80.089
  391.250    7.596    0.179    0.466   79.546
  391.500    8.031    0.154    0.438   82.111
  391.750    8.042    0.136    0.414   85.226
  392.000    7.800    0.160    0.417   88.096
  392.250    7.084    0.200    0.454   89.686
  392.500    6.374    0.224    0.484   90.240
  392.750    5.954    0.232    0.466   89.697
  393.000    5.668    0.222    0.462   90.250
  393.250    5.435    0.218    0.460   91.964
  393.500    5.321    0.234    0.452   93.371
  393.750    5.229    0.238    0.450   94.228
  394.000    5.187    0.237    0.451   95.516
  394.250    5.156    0.237    0.457   96.312
  394.500    5.133    0.238    0.475   97.171
  394.750    5.131    0.238    0.491   96.931
  395.000    5.157    0.243    0.459   94.986
  395.250    5.144    0.249    0.448   92.676
  395.500    5.151    0.255    0.457   92.864
  395.750    5.178    0.255    0.472   93.357
  396.000    5.214    0.248    0.477   93.606
  396.250    5.320    0.237    0.474   93.491
  396.500    5.646    0.225    0.470   92.276
  396.750    6.152    0.208    0.457   86.613
  397.000    6.665    0.163    0.331   79.974
  397.250    6.929    0.113    0.282   84.003
  397.500    6.899    0.060    0.286  100.343
  397.750    6.806    0.133    0.323  107.541
  398.000    6.564    0.172    0.400   97.429
  398.250    5.906    0.207    0.496   87.438
  398.500    5.485    0.233    0.472   80.129
  398.750    5.291    0.245    0.450   81.231
  399.000    5.084    0.249    0.437   84.956
  399.250    4.875    0.239    0.429   87.154
  399.500    4.746    0.234    0.442   88.014
  399.750    4.647    0.228    0.457   85.947
  400.000    4.524    0.238    0.466   84.550
  400.250    4.226    0.254    0.475   84.555
  400.500    3.662    0.261    0.504   84.987
  400.750    2.906    0.256    0.538   85.846
  401.000    2.513    0.253    0.555   87.498
  401.250    2.309    0.253    0.568   89.088
  401.500    2.116    0.257    0.565   91.044
  401.750    2.072    0.264    0.565   91.719
  402.000    2.318    0.262    0.569   89.653
  402.250    2.738    0.260    0.574   86.976
  402.500    3.234    0.271    0.547   84.543
  402.750    3.834    0.284    0.510   82.599
  403.000    4.345    0.276    0.491   81.933
  403.250    4.708    0.268    0.477   84.437
  403.500    4.688    0.268    0.469   86.332
  403.750    4.404    0.266    0.467   87.069
  404.000    4.255    0.250    0.469   86.953
  404.250    4.174    0.247    0.484   89.519
  404.500    4.109    0.262    0.495   90.927
  404.750    4.046    0.258    0.470   91.174
  405.000    4.006    0.248    0.452   89.960
  405.250    4.019    0.243    0.477   84.481
  405.500    4.116    0.244    0.512   82.535
  405.750    4.435    0.259    0.532   82.236
  406.000    4.841    0.236    0.499   81.693
  406.250    5.176    0.188    0.465   80.114
  406.500    5.282    0.160    0.436   77.011
  406.750    5.240    0.140    0.411   73.785
  407.000    5.082    0.253    0.419   71.596
  407.250    4.910    0.281    0.429   71.358
  407.500    4.673    0.283    0.439   76.423
  407.750    4.423    0.264    0.447   79.537
  408.000    4.234    0.251    0.456   82.285
  408.250    4.016    0.242    0.466   83.997
  408.500    3.758    0.235    0.472   86.440
  408.750    3.446    0.230    0.476   92.663
  409.000    3.141    0.230    0.486   96.874
  409.250    2.885    0.228    0.508   98.220
  409.500    2.777    0.236    0.521   99.384
  409.750    2.755    0.227    0.528  100.730
  410.000    2.759    0.218    0.522  101.528
  410.250    2.767    0.213    0.521   99.948
  410.500    2.776    0.212    0.521   99.588
  410.750    2.791    0.212    0.517  100.020
  411.000    2.821    0.225    0.513   99.416
  411.250    2.840    0.238    0.509   95.216
  411.500    2.834    0.233    0.508   90.528
  411.750    2.816    0.228    0.510   92.605
  412.000    2.799    0.222    0.531   96.207
  412.250    2.797    0.217    0.557   98.955
  412.500    2.941    0.215    0.570   94.573
  412.750    3.321    0.217    0.544   89.031
  413.000    3.975    0.234    0.513   83.856
  413.250    4.829    0.238    0.468   79.778
  413.500    5.514    0.222    0.415   77.162
  413.750    5.863    0.200    0.380   76.009
  414.000    5.970    0.208    0.375   77.416
  414.250    5.946    0.239    0.421   79.494
  414.500    5.723    0.242    0.432   81.145
  414.750    5.417    0.231    0.438   81.639
  415.000    5.127    0.223    0.442   80.181
  415.250    4.964    0.221    0.431   79.882
  415.500    4.896    0.229    0.420   80.618
  415.750    4.922    0.246    0.414   79.832
  416.000    5.223    0.236    0.416   77.216
  416.250    5.596    0.242    0.419   72.893
  416.500    6.016    0.247    0.413   69.424
  416.750    6.303    0.257    0.407   66.200
  417.000    6.565    0.264    0.405   65.412
  417.250    6.737    0.268    0.409   66.698
  417.500    6.848    0.271    0.417   68.228
  417.750    6.935    0.264    0.415   68.965
  418.000    7.021    0.255    0.413   68.604
  418.250    7.084    0.246    0.413   67.207
  418.500    7.120    0.244    0.414   65.201
  418.750    7.130    0.259    0.416   63.561
  419.000    7.113    0.249    0.421   61.982
  419.250    7.096    0.249    0.412   60.829
  419.500    7.091    0.261    0.399   61.017
  419.750    7.075    0.239    0.392   65.229
  420.000    7.031    0.200    0.387   73.218
  420.250    6.962    0.190    0.386   81.208
  420.500    6.829    0.198    0.389   85.603
  420.750    6.723    0.218    0.394   87.985
  421.000    6.783    0.236    0.399   89.757
  421.250    7.531    0.246    0.414   86.167
  421.500    8.615    0.235    0.426   79.773
  421.750    9.283    0.252    0.425   75.084
  422.000    9.760    0.266    0.422   72.591
  422.250    9.902    0.272    0.419   72.292
  422.500    9.749    0.276    0.411   73.577
  422.750    9.491    0.257    0.392   77.727
  423.000    9.018    0.229    0.387   82.731
  423.250    8.283    0.213    0.395   85.905
  423.500    7.708    0.199    0.395   87.617
  423.750    7.337    0.219    0.387   86.709
