~VERSION INFORMATION
 VERS.                 2.0:   CWLS LOG ASCII STANDARD -VERSION 2.0
 WRAP.                  NO:   ONE LINE PER DEPTH STEP
~WELL INFORMATION BLOCK
#MNEM.UNIT           DATA                    DESCRIPTION OF MNEMONIC
#---------    -------------------            -------------------------------
# Generated from Intellog Unique Number	CW_82_90/WELL/3071
WELL.         PACIFIC LIVOCK 10-08           : Well_name    - WELL
LOC .         00/10-08-085-19W4/0            : Location     - LOCATION
UWI .         00/10-08-085-19W4/0            : Uwi          - UNIQUE WELL ID
ENTR.         JAYE                           : Entered      - ENTERED BY
SRVC.         SCHLUMBERGER                   : Scn          - SERVICE COMPANY
DATE.         7 MAR 75                       : Date         - LOG DATE
STRT.M        192.024                        : top_depth    - START DEPTH
STOP.M        350.524                        : bot_depth    - STOP DEPTH
STEP.M        0.25                           : increment    - STEP LENGTH
 NULL. -999.2500:NULL Value
~CURVE INFORMATION BLOCK
#MNEM UNIT       ERCB CURVE CODE    CURVE DESCRIPTION
#-----------   ------------------   ----------------------------------
DEPT.M        00 001 00 00         : DEPTH        - DEPTH
NPHI.V/V      00 330 00 00         : PHIN         - NEUTRON POROSITY (SANDSTONE)
DPHI.V/V      00 890 00 00         : PHID         - DENSITY POROSITY (SANDSTONE)
ILD .OHMM     00 120 00 00         : RESD         - DEEP RESISTIVITY (DLL)
CALI.MM       00 280 01 00         : CAL          - CALIPER
GR  .API      00 310 00 00         : GR           - GAMMA RAY
~PARAMETER INFORMATION
#MNEM.UNIT           DATA             DESCRIPTION OF MNEMONIC
#---------         -----------     ------------------------------
GL  .M        604.845              : gl           - GROUND LEVEL ELEVATION
EREF.M        607.344              : kb           - ELEVATION OF DEPTH REFERENCE
DATM.M        604.845              : datum        - DATUM ELEVATION
TDD .M        356.006              : tdd          - TOTAL DEPTH DRILLER
RUN .         ONE                  : Run          - RUN NUMBER
ENG .         CROCKFORD            : Engineer     - RECORDING ENGINEER
WIT .         KOSS                 : Witness      - WITNESSED BY
BASE.         EDMONTON             : Branch       - HOME BASE OF LOGGING UNIT
MUD .         GEL CHEM             : Mud_type     - MUD TYPE
MATR.         SANDSTONE            : Logunit      - NEUTRON MATRIX
TMAX.C        17.2222              : BHT          - MAXIMUM RECORDED TEMPERATURE
BHTD.M        356.006              : BHTDEP       - MAXIMUM RECORDED TEMPERATURE
RMT .C        18.8889              : MDTP         - TEMPERATURE OF MUD
MUDD.KG/M     0                    : MWT          - MUD DENSITY
NEUT.         0                    : NEUTRON      - NEUTRON TYPE
RESI.         1                    : RESIST       - RESISTIVITY TYPE
RM  .OHMM     1.73                 : RM           - RESISTIVITY OF MUD
RMC .OHMM     0                    : RMC          - RESISTIVITY OF MUD CAKE
RMF .OHMM     1.59                 : RMF          - RESISTIVITY OF MUD FILTRATE
SUFT.C        -17.7778             : SUFT         - SURFACE TEMPERATURE
~A  DEPTH     PHIN     PHID     RESD      CAL       GR
# ...
  228.524    0.496    0.343   19.674  167.067   51.304
  228.774    0.497    0.344   19.220  169.415   51.138
  229.024    0.462    0.357   18.499  169.427   51.031
  229.274    0.450    0.353   18.041  168.616   51.482
  229.524    0.465    0.350   17.723  167.602   52.362
  229.774    0.469    0.353   17.543  165.349   53.429
  230.024    0.468    0.353   17.431  165.154   54.617
  230.274    0.473    0.349   17.482  165.154   54.696
  230.524    0.480    0.341   17.048  164.176   52.495
  230.774    0.488    0.334   16.593  158.890   51.770
  231.024    0.494    0.327   16.122  157.854   51.664
  231.274    0.490    0.321   15.749  153.516   51.005
  231.524    0.485    0.333   15.386  153.316   50.589
  231.774    0.488    0.349   15.287  153.316   51.102
  232.024    0.489    0.348   15.332  154.009   51.981
  232.274    0.486    0.349   15.176  155.078   52.556
  232.524    0.481    0.347   14.801  158.247   53.003
  232.774    0.484    0.344   13.696  165.489   53.761
  233.024    0.489    0.350   12.393  163.338   55.199
  233.274    0.504    0.353   11.090  162.405   56.264
  233.524    0.499    0.344   10.055  155.017   58.256
  233.774    0.524    0.322    9.641  153.273   61.484
  234.024    0.519    0.315    9.472  152.698   62.055
  234.274    0.502    0.342    9.359  152.287   63.986
  234.524    0.522    0.339    9.161  149.821   65.545
  234.774    0.516    0.338    8.767  150.567   73.030
  235.024    0.514    0.317    8.038  153.734   78.169
  235.274    0.525    0.299    7.233  155.537   78.742
  235.524    0.527    0.300    6.557  154.546   77.092
  235.774    0.535    0.307    6.336  154.030   77.541
  236.024    0.524    0.307    6.342  154.030   77.745
  236.274    0.519    0.300    6.397  152.319   74.430
  236.524    0.502    0.305    6.475  153.179   78.521
  236.774    0.494    0.317    6.604  155.725   82.486
  237.024    0.505    0.315    6.723  156.791   83.553
  237.274    0.521    0.319    6.960  156.791   82.398
  237.524    0.537    0.322    7.369  156.658   79.208
  237.774    0.529    0.318    7.860  156.149   75.770
  238.024    0.496    0.305    8.640  152.535   73.875
  238.274    0.463    0.297    9.459  151.508   74.820
  238.524    0.451    0.283   10.378  153.860   72.304
  238.774    0.473    0.285   10.865  154.074   67.139
  239.024    0.486    0.301   11.101  155.671   67.588
  239.274    0.488    0.324   11.156  155.598   68.040
  239.524    0.479    0.322   11.124  152.204   68.303
  239.774    0.472    0.331   11.034  152.105   69.989
  240.024    0.459    0.328   10.920  154.851   71.175
  240.274    0.454    0.316   10.850  156.549   73.538
  240.524    0.450    0.317   10.620  155.848   72.507
  240.774    0.441    0.317   10.395  153.266   69.563
  241.024    0.434    0.315   10.235  152.146   69.827
  241.274    0.437    0.314   10.246  151.131   71.572
  241.524    0.453    0.307   10.388  148.870   73.626
  241.774    0.463    0.295   11.787  148.890   73.767
  242.024    0.458    0.281   15.213  151.427   72.858
  242.274    0.427    0.255   18.567  154.595   67.692
  242.524    0.369    0.196   20.559  155.992   61.355
  242.774    0.239    0.092   20.314  158.311   53.785
  243.024    0.198    0.025   18.657  157.714   52.691
  243.274    0.205    0.035   14.136  157.218   53.449
  243.524    0.226    0.051   12.005  156.936   54.453
  243.774    0.324    0.135   10.803  157.070   58.851
  244.024    0.381    0.203   10.438  158.145   63.804
  244.274    0.437    0.261   10.469  158.386   66.291
  244.524    0.437    0.288   10.476  157.366   66.925
  244.774    0.439    0.284   10.705  155.620   68.981
  245.024    0.437    0.291   10.900  154.519   69.429
  245.274    0.438    0.297   10.951  154.639   67.349
  245.524    0.437    0.294   10.820  155.710   64.590
  245.774    0.426    0.295   10.610  156.054   63.804
  246.024    0.439    0.301   10.462  156.054   64.378
  246.274    0.451    0.305   10.242  157.492   66.309
  246.524    0.454    0.307   10.082  157.603   68.423
  246.774    0.458    0.305   10.034  158.052   72.513
  247.024    0.466    0.301    9.843  158.081   73.703
  247.274    0.467    0.299    9.705  157.393   73.968
  247.524    0.466    0.320    9.607  157.305   74.786
  247.774    0.465    0.322    9.508  157.335   76.037
  248.024    0.462    0.302    9.396  163.130   72.663
  248.274    0.459    0.305    9.318  164.602   70.706
  248.524    0.461    0.299    9.256  171.737   71.713
  248.774    0.463    0.295    9.179  171.877   73.826
  249.024    0.480    0.301    9.003  163.542   72.178
  249.274    0.484    0.309    8.812  161.900   74.169
  249.524    0.480    0.306    8.609  164.335   76.469
  249.774    0.480    0.308    8.318  164.887   78.214
  250.024    0.510    0.306    8.156  158.862   78.542
  250.274    0.504    0.298    8.104  161.498   77.264
  250.524    0.506    0.295    8.296  167.067   76.539
  250.774    0.498    0.296    8.445  166.052   75.821
  251.024    0.480    0.284    8.313  156.988   75.711
  251.274    0.453    0.295    8.032  153.051   76.285
  251.524    0.473    0.270    7.832  155.699   78.462
  251.774    0.491    0.291    7.609  159.275   79.404
  252.024    0.482    0.281    7.421  163.689   81.149
  252.274    0.481    0.273    7.263  164.660   82.646
  252.524    0.492    0.270    7.109  160.720   80.999
  252.774    0.492    0.270    6.921  160.769   82.561
  253.024    0.488    0.270    6.810  160.782   84.304
  253.274    0.480    0.271    6.754  160.810   86.851
  253.524    0.481    0.265    6.612  160.314   90.447
  253.774    0.472    0.251    6.544  159.930   94.907
  254.024    0.458    0.236    6.430  159.930  100.294
  254.274    0.451    0.232    6.282  160.308  102.532
  254.524    0.483    0.234    6.161  160.332  102.364
  254.774    0.496    0.235    6.030  160.256  103.063
  255.024    0.488    0.219    5.990  160.286  105.978
  255.274    0.457    0.215    5.974  160.526  110.068
  255.524    0.454    0.204    5.892  160.970  108.729
  255.774    0.456    0.213    5.897  162.060  106.340
  256.024    0.478    0.221    5.914  162.076  105.557
  256.274    0.503    0.225    5.966  162.230  106.746
  256.524    0.505    0.216    6.027  162.240  107.442
  256.774    0.496    0.220    6.124  161.249  105.670
  257.024    0.511    0.219    6.293  161.149  102.724
  257.274    0.506    0.243    6.515  159.007   99.472
  257.524    0.484    0.249    6.923  158.804   95.356
  257.774    0.469    0.240    7.511  157.391   94.200
  258.024    0.497    0.223    8.071  157.192   92.614
  258.274    0.512    0.199    8.838  156.100   90.102
  258.524    0.492    0.218    9.534  155.792   88.330
  258.774    0.474    0.231   10.189  155.609   86.622
  259.024    0.473    0.250   11.055  156.695   85.961
  259.274    0.477    0.269   11.212  157.656   84.064
  259.524    0.473    0.225   10.771  158.942   77.602
  259.774    0.448    0.205   10.100  159.072   76.138
  260.024    0.427    0.198    9.398  159.208   76.405
  260.274    0.485    0.285    8.585  157.799   79.444
  260.524    0.477    0.280    7.872  157.598   82.299
  260.774    0.473    0.279    7.285  157.598   84.847
  261.024    0.468    0.274    6.971  155.255   87.457
  261.274    0.490    0.261    6.403  154.868   91.176
  261.524    0.481    0.226    6.256  158.131   96.562
  261.774    0.492    0.207    6.297  166.517  100.836
  262.024    0.495    0.226    6.153  171.680  102.027
  262.274    0.509    0.232    5.694  168.882  101.242
  262.524    0.495    0.234    5.039  161.696   95.707
  262.774    0.485    0.221    4.707  153.160   96.958
  263.024    0.493    0.208    4.299  152.560  103.700
  263.274    0.530    0.283    3.948  156.561  106.681
  263.524    0.570    0.284    3.751  168.608  108.551
  263.774    0.603    0.288    3.762  175.534  110.540
  264.024    0.565    0.317    3.953  167.206  109.447
  264.274    0.547    0.295    4.402  159.501  105.270
  264.524    0.563    0.295    5.194  168.519  101.893
  264.774    0.580    0.358    6.130  174.922   97.838
