~VERSION INFORMATION
 VERS.                 2.0:   CWLS LOG ASCII STANDARD -VERSION 2.0
 WRAP.                  NO:   ONE LINE PER DEPTH STEP
~WELL INFORMATION BLOCK
#MNEM.UNIT           DATA                    DESCRIPTION OF MNEMONIC
#---------    -------------------            -------------------------------
# Generated from Intellog Unique Number	CX_WELLS/WELL/2813
WELL.         THORNBURY                      : Well_name    - WELL
LOC .         00/14-01-081-12W4/0            : Location     - LOCATION
UWI .         00/14-01-081-12W400            : Uwi          - UNIQUE WELL ID
ENTR.         T                              : Entered      - ENTERED BY
SRVC.         SCHLUMBERGER                   : Scn          - SERVICE COMPANY
STRT.M        275                            : top_depth    - START DEPTH
STOP.M        500                            : bot_depth    - STOP DEPTH
STEP.M        0.25                           : increment    - STEP LENGTH
 NULL. -999.2500:NULL Value
~CURVE INFORMATION BLOCK
#MNEM UNIT       ERCB CURVE CODE    CURVE DESCRIPTION
#-----------   ------------------   ----------------------------------
DEPT.M        00 001 00 00         : DEPTH        - DEPTH
GR  .API      00 310 00 00         : GR           - GAMMA RAY
NPHI.V/V      00 330 00 00         : PHIN         - NEUTRON POROSITY (SANDSTONE)
DPHI.V/V      00 890 00 00         : PHID         - DENSITY POROSITY (SANDSTONE)
ILD .OHMM     00 120 00 00         : RESD         - DEEP RESISTIVITY (OTHER)
~PARAMETER INFORMATION
#MNEM.UNIT           DATA             DESCRIPTION OF MNEMONIC
#---------         -----------     ------------------------------
GL  .M        704.3                : gl           - GROUND LEVEL ELEVATION
EREF.M        704.8                : kb           - ELEVATION OF DEPTH REFERENCE
DATM.M        704.8                : datum        - DATUM ELEVATION
TDD .M        515                  : tdd          - TOTAL DEPTH DRILLER
RUN .         ONE                  : Run          - RUN NUMBER
ENG .         BILL                 : Engineer     - RECORDING ENGINEER
WIT .         JIM                  : Witness      - WITNESSED BY
MUD .         GEL                  : Mud_type     - MUD TYPE
MATR.         SANDSTONE            : Logunit      - NEUTRON MATRIX
TMAX.C        26                   : BHT          - MAXIMUM RECORDED TEMPERATURE
BHTD.M        515                  : BHTDEP       - MAXIMUM RECORDED TEMPERATURE
MATR.         1                    : LOGUNIT      - NEUTRON MATRIX
RMT .C        15.6                 : MDTP         - TEMPERATURE OF MUD
NEUT.         1                    : NEUTRON      - NEUTRON TYPE
RESI.         5                    : RESIST       - RESISTIVITY TYPE
RMC .OHMM     4.5                  : RMC          - RESISTIVITY OF MUD CAKE
RMF .OHMM     3.9                  : RMF          - RESISTIVITY OF MUD FILTRATE
SUFT.C        4                    : SUFT         - SURFACE TEMPERATURE
~A  DEPTH       GR     PHIN     PHID     RESD
# ...
  449.000   72.652    0.359    0.273   23.709
  449.250   69.537    0.364    0.278   23.288
  449.500   65.795    0.374    0.246   21.634
  449.750   63.926    0.382    0.210   20.100
  450.000   70.802    0.386    0.179   18.332
  450.250   78.926    0.393    0.148   17.344
  450.500   91.421    0.401    0.138   16.115
  450.750  105.166    0.430    0.146   14.970
  451.000  113.914    0.435    0.161   14.167
  451.250  107.050    0.399    0.182   13.657
  451.500   94.567    0.391    0.195   13.414
  451.750   90.827    0.384    0.203   14.455
  452.000   88.335    0.358    0.217   15.873
  452.250   85.841    0.352    0.225   16.477
  452.500   82.099    0.338    0.232   17.428
  452.750   78.358    0.321    0.241   18.780
  453.000   75.865    0.322    0.230   19.139
  453.250   71.499    0.347    0.215   20.244
  453.500   73.380    0.354    0.206   20.641
  453.750   80.255    0.364    0.210   19.895
  454.000   86.507    0.370    0.221   18.484
  454.250   89.010    0.375    0.231   17.493
  454.500   89.639    0.378    0.238   16.865
  454.750   88.395    0.378    0.247   16.261
  455.000   84.655    0.376    0.253   16.265
  455.250   81.538    0.378    0.276   16.273
  455.500   79.670    0.381    0.284   15.985
  455.750   73.432    0.384    0.295   15.699
  456.000   67.193    0.386    0.311   15.420
  456.250   62.201    0.389    0.325   14.864
  456.500   64.706    0.389    0.329   14.334
  456.750   68.458    0.387    0.333   14.074
  457.000   65.341    0.386    0.333   13.823
  457.250   60.975    0.378    0.334   13.576
  457.500   59.732    0.366    0.333   13.335
  457.750   61.611    0.370    0.333   13.097
  458.000   63.490    0.376    0.332   12.863
  458.250   62.874    0.383    0.332   12.634
  458.500   61.627    0.384    0.331   12.641
  458.750   59.759    0.385    0.331   12.413
  459.000   57.891    0.386    0.332   12.419
  459.250   52.904    0.386    0.336   12.427
  459.500   51.034    0.387    0.341   12.432
  459.750   47.919    0.382    0.343   12.442
  460.000   51.045    0.378    0.344   12.446
  460.250   54.173    0.379    0.343   12.686
  460.500   59.799    0.382    0.343   13.420
  460.750   61.678    0.389    0.342   14.463
  461.000   63.559    0.394    0.339   15.296
  461.250   63.564    0.397    0.336   17.105
  461.500   63.570    0.402    0.333   21.378
  461.750   62.951    0.403    0.336   26.720
  462.000   62.332    0.405    0.339   34.658
  462.250   57.967    0.405    0.342   47.527
  462.500   55.475    0.405    0.342   61.655
  462.750   53.607    0.400    0.340   79.972
  463.000   53.612    0.395    0.338   86.184
  463.250   54.867    0.395    0.331   84.633
  463.500   57.370    0.396    0.322   84.676
  463.750   61.747    0.396    0.310   94.714
  464.000   66.124    0.397    0.316  102.045
  464.250   68.003    0.396    0.323  112.017
  464.500   69.882    0.393    0.317  129.997
  464.750   71.761    0.388    0.312  156.563
  465.000   74.265    0.390    0.312  178.354
  465.250   71.774    0.396    0.321  199.446
  465.500   65.534    0.397    0.324  210.990
  465.750   60.545    0.398    0.329  207.246
  466.000   59.300    0.400    0.333  196.106
  466.250   59.306    0.401    0.335  172.343
  466.500   59.311    0.402    0.329  125.791
  466.750   59.318    0.404    0.322  116.872
  467.000   61.198    0.406    0.298  110.590
  467.250   64.325    0.400    0.290  106.618
  467.500   68.078    0.396    0.295  112.775
  467.750   74.328    0.402    0.314  119.287
  468.000   79.329    0.408    0.323  138.452
  468.250   71.841    0.411    0.329  163.703
  468.500   63.728    0.402    0.337  183.039
  468.750   60.611    0.397    0.341  224.571
  469.000   58.743    0.391    0.341  265.495
  469.250   55.626    0.388    0.337  308.188
  469.500   50.014    0.388    0.334  302.718
  469.750   46.273    0.392    0.334  286.447
  470.000   44.403    0.396    0.334  261.215
  470.250   48.780    0.399    0.334  242.664
  470.500   53.782    0.402    0.332  221.316
  470.750   61.281    0.403    0.330  209.420
  471.000   65.034    0.392    0.329  217.416
  471.250   54.423    0.391    0.330  238.691
  471.500   55.681    0.396    0.333  257.200
  471.750   56.933    0.398    0.335  282.368
  472.000   60.685    0.406    0.338  304.264
  472.250   61.941    0.409    0.340  334.037
  472.500   56.326    0.410    0.343  353.371
  472.750   53.208    0.410    0.345  366.816
  473.000   48.842    0.410    0.350  395.261
  473.250   46.350    0.408    0.352  425.966
  473.500   42.612    0.407    0.356  426.183
  473.750   41.366    0.403    0.357  403.275
  474.000   38.251    0.402    0.352  278.524
  474.250   39.505    0.402    0.343  263.519
  474.500   43.256    0.399    0.318  195.964
  474.750   48.882    0.397    0.293  178.703
  475.000   54.508    0.394    0.293  130.466
  475.250   58.262    0.392    0.296  116.773
  475.500   56.394    0.392    0.304   93.523
  475.750   52.031    0.392    0.317   80.691
  476.000   50.785    0.391    0.328   80.722
  476.250   51.416    0.389    0.314   82.274
  476.500   55.168    0.393    0.299   83.868
  476.750   58.296    0.399    0.299   85.481
  477.000   60.800    0.403    0.310   85.525
  477.250   62.679    0.408    0.324   90.463
  477.500   61.435    0.405    0.334   99.290
  477.750   59.567    0.404    0.336  124.131
  478.000   58.950    0.400    0.338  144.037
  478.250   59.578    0.396    0.335  180.027
  478.500   60.834    0.392    0.335  216.845
  478.750   60.215    0.389    0.339  216.927
  479.000   57.100    0.387    0.341  217.093
  479.250   53.981    0.391    0.342  213.186
  479.500   50.240    0.393    0.342  194.432
  479.750   46.498    0.397    0.339  183.981
  480.000   44.007    0.397    0.334  155.780
  480.250   49.007    0.397    0.329  139.466
  480.500   54.633    0.399    0.339  134.439
  480.750   52.765    0.404    0.334  122.628
  481.000   51.522    0.408    0.325  120.421
  481.250   57.774    0.411    0.316  116.096
  481.500   59.028    0.414    0.320  114.035
  481.750   53.413    0.415    0.318  118.404
  482.000   53.419    0.416    0.319  120.667
  482.250   54.675    0.406    0.329  132.474
  482.500   52.805    0.400    0.335  156.615
  482.750   47.815    0.395    0.342  165.638
  483.000   42.200    0.394    0.345  153.875
  483.250   46.578    0.395    0.334  137.760
  483.500   48.457    0.397    0.330  123.301
  483.750   44.717    0.405    0.339  108.374
  484.000   42.223    0.415    0.332  104.468
  484.250   40.980    0.419    0.327   98.903
  484.500   40.361    0.420    0.323   98.928
  484.750   40.366    0.418    0.327   98.979
  485.000   39.747    0.415    0.335  100.883
  485.250   39.130    0.413    0.340  106.722
  485.500   37.262    0.411    0.342  112.870
  485.750   32.896    0.408    0.345  133.439
  486.000   29.156    0.404    0.345  157.756
  486.250   30.409    0.403    0.346  179.713
  486.500   32.914    0.401    0.345  186.622
  486.750   31.670    0.405    0.343  183.287
  487.000   31.676    0.403    0.342  176.704
  487.250   32.932    0.399    0.341  161.118
  487.500   34.186    0.393    0.341  139.011
  487.750   34.192    0.394    0.341  126.782
  488.000   36.069    0.398    0.340  122.197
  488.250   40.448    0.400    0.335  113.533
  488.500   44.200    0.400    0.331  109.441
  488.750   45.455    0.401    0.330  105.510
  489.000   46.709    0.403    0.329  105.564
  489.250   46.715    0.401    0.324  105.618
  489.500   46.720    0.398    0.316   96.314
  489.750   46.726    0.387    0.305   77.138
  490.000   48.605    0.380    0.283   69.051
  490.250   50.484    0.382    0.277   59.569
  490.500   54.237    0.383    0.267   52.350
  490.750   56.115    0.383    0.256   46.862
  491.000   63.616    0.379    0.246   42.734
  491.250   61.748    0.373    0.235   38.254
  491.500   51.137    0.366    0.227   34.884
  491.750   43.024    0.370    0.251   33.627
  492.000   35.536    0.379    0.270   34.274
  492.250   29.921    0.390    0.306   53.528
