~VERSION INFORMATION
 VERS.                 2.0:   CWLS LOG ASCII STANDARD -VERSION 2.0
 WRAP.                  NO:   ONE LINE PER DEPTH STEP
~WELL INFORMATION BLOCK
#MNEM.UNIT           DATA                    DESCRIPTION OF MNEMONIC
#---------    -------------------            -------------------------------
# Generated from Intellog Unique Number	CW_73_75/WELL/2752
WELL.         BRENDA ET AL MARTEN H 16-12    : Well_name    - WELL
LOC .         00/16-12-073-25W4/0            : Location     - LOCATION
UWI .         00/16-12-073-25W4/0            : Uwi          - UNIQUE WELL ID
ENTR.         JAYE                           : Entered      - ENTERED BY
SRVC.         SCHLUMBERGER                   : Scn          - SERVICE COMPANY
DATE.         3 MAR 81                       : Date         - LOG DATE
STRT.M        385                            : top_depth    - START DEPTH
STOP.M        615                            : bot_depth    - STOP DEPTH
STEP.M        0.25                           : increment    - STEP LENGTH
 NULL. -999.2500:NULL Value
~CURVE INFORMATION BLOCK
#MNEM UNIT       ERCB CURVE CODE    CURVE DESCRIPTION
#-----------   ------------------   ----------------------------------
DEPT.M        00 001 00 00         : DEPTH        - DEPTH
DPHI.V/V      00 890 00 00         : PHID         - DENSITY POROSITY (SANDSTONE)
NPHI.V/V      00 330 00 00         : PHIN         - NEUTRON POROSITY (SANDSTONE)
GR  .API      00 310 00 00         : GR           - GAMMA RAY
CALI.MM       00 280 01 00         : CAL          - CALIPER
ILD .OHMM     00 120 00 00         : RESD         - DEEP RESISTIVITY (DIL)
~PARAMETER INFORMATION
#MNEM.UNIT           DATA             DESCRIPTION OF MNEMONIC
#---------         -----------     ------------------------------
GL  .M        636.55               : gl           - GROUND LEVEL ELEVATION
EREF.M        640.15               : kb           - ELEVATION OF DEPTH REFERENCE
DATM.M        636.55               : datum        - DATUM ELEVATION
TDD .M        620                  : tdd          - TOTAL DEPTH DRILLER
RUN .         ONE                  : Run          - RUN NUMBER
ENG .         BRANDSTROM           : Engineer     - RECORDING ENGINEER
WIT .         CHRISTENSEN          : Witness      - WITNESSED BY
BASE.         EDM                  : Branch       - HOME BASE OF LOGGING UNIT
MUD .         GEL CHEN             : Mud_type     - MUD TYPE
MATR.         SANDSTONE            : Logunit      - NEUTRON MATRIX
TMAX.C        27.4                 : BHT          - MAXIMUM RECORDED TEMPERATURE
BHTD.M        621                  : BHTDEP       - MAXIMUM RECORDED TEMPERATURE
RMT .C        13.4                 : MDTP         - TEMPERATURE OF MUD
MUDD.KG/M     0                    : MWT          - MUD DENSITY
NEUT.         1                    : NEUTRON      - NEUTRON TYPE
RESI.         0                    : RESIST       - RESISTIVITY TYPE
RM  .OHMM     0.26                 : RM           - RESISTIVITY OF MUD
RMC .OHMM     0                    : RMC          - RESISTIVITY OF MUD CAKE
RMF .OHMM     0.36                 : RMF          - RESISTIVITY OF MUD FILTRATE
SUFT.C        0                    : SUFT         - SURFACE TEMPERATURE
~A  DEPTH     PHID     PHIN       GR      CAL     RESD
# ...
  494.500    0.201    0.439  120.350  232.627    6.972
  494.750    0.201    0.439  122.357  233.158    7.011
  495.000    0.192    0.443  123.052  233.377    7.011
  495.250    0.183    0.461  120.744  233.389    7.037
  495.500    0.184    0.509  115.498  233.711    7.037
  495.750    0.200    0.524  117.005  234.034    7.049
  496.000    0.196    0.429  116.261  234.252    7.062
  496.250    0.195    0.421  115.017  234.471    7.035
  496.500    0.203    0.426  114.398  234.274    6.994
  496.750    0.193    0.434  112.966  234.075    7.007
  497.000    0.190    0.426  102.905  227.937    7.963
  497.250    0.092    0.334   91.219  228.782   16.151
  497.500    0.055    0.274   84.034  230.669   18.782
  497.750    0.057    0.252   89.543  232.033   19.813
  498.000    0.106    0.248   92.925  232.670   18.424
  498.250    0.114    0.293   98.185  231.220   13.261
  498.500    0.124    0.329  103.255  227.583   10.088
  498.750    0.162    0.369  107.639  226.553    8.285
  499.000    0.239    0.407  110.083  226.770    7.674
  499.250    0.228    0.405  111.715  227.199    7.358
  499.500    0.213    0.416  112.784  227.521    7.095
  499.750    0.207    0.428  112.540  227.844    6.986
  500.000    0.196    0.433  110.525  231.761    6.946
  500.250    0.200    0.429  109.314  232.026    7.071
  500.500    0.202    0.431  108.533  232.398    7.111
  500.750    0.205    0.435  107.439  232.652    7.159
  501.000    0.207    0.430  106.289  232.500    7.169
  501.250    0.210    0.431  109.130  230.990    7.167
  501.500    0.213    0.424  112.090  229.487    7.136
  501.750    0.218    0.428  115.802  228.297    7.146
  502.000    0.209    0.445  118.763  227.727    7.183
  502.250    0.198    0.450  121.043  227.777    7.233
  502.500    0.188    0.451  122.196  228.360    7.298
  502.750    0.189    0.446  121.419  228.822    7.392
  503.000    0.202    0.431  116.087  229.498    7.851
  503.250    0.193    0.410  109.009  230.488    8.416
  503.500    0.181    0.393  101.681  231.794    9.007
  503.750    0.169    0.383  101.028  232.667    8.967
  504.000    0.163    0.414  109.353  233.658    8.451
  504.250    0.161    0.432  109.700  234.650    8.056
  504.500    0.170    0.428  108.356  234.911    7.888
  504.750    0.188    0.407  107.578  233.404    7.780
  505.000    0.210    0.384  111.045  229.091    7.747
  505.250    0.206    0.397  114.006  230.808    7.655
  505.500    0.211    0.418  118.091  233.151    7.565
  505.750    0.212    0.424  116.064  234.865    7.475
  506.000    0.204    0.404  114.599  236.592    7.387
  506.250    0.201    0.385  116.259  237.051    7.382
  506.500    0.198    0.376  116.850  236.697    7.420
  506.750    0.200    0.383  116.692  236.017    7.502
  507.000    0.209    0.394  113.792  235.131    7.527
  507.250    0.206    0.410  106.839  232.483    7.594
  507.500    0.202    0.407  103.754  231.918    7.322
  507.750    0.199    0.406  111.769  232.589    6.797
  508.000    0.198    0.413  118.099  234.827    6.617
  508.250    0.197    0.422  117.822  235.093    6.576
  508.500    0.196    0.429  112.804  233.591    6.686
  508.750    0.192    0.439  109.656  231.770    6.913
  509.000    0.187    0.450  106.067  229.739    7.554
  509.250    0.211    0.441   99.737  227.403    8.379
  509.500    0.255    0.414   90.538  225.793   10.066
  509.750    0.280    0.387   83.335  225.330   12.116
  510.000    0.280    0.378   74.888  226.211   13.645
  510.250    0.274    0.364   70.550  228.144   15.486
  510.500    0.260    0.357   65.846  228.822   17.246
  510.750    0.248    0.344   61.758  229.705   19.059
  511.000    0.223    0.311   55.241  230.485   21.108
  511.250    0.175    0.286   53.715  231.159   22.325
  511.500    0.155    0.285   57.051  232.040   23.535
  511.750    0.177    0.313   60.768  232.512   24.149
  512.000    0.221    0.371   61.734  232.470   24.509
  512.250    0.210    0.336   61.644  232.207   23.989
  512.500    0.181    0.303   61.983  232.568   23.618
  512.750    0.158    0.291   63.013  232.309   23.562
  513.000    0.141    0.296   64.857  231.530   23.683
  513.250    0.167    0.350   67.381  230.751   23.988
  513.500    0.232    0.379   69.973  229.247   24.249
  513.750    0.260    0.401   68.820  226.706   24.562
  514.000    0.260    0.419   67.913  224.784   24.831
  514.250    0.255    0.429   66.766  224.008   25.054
  514.500    0.257    0.429   65.670  224.055   25.187
  514.750    0.263    0.428   65.204  224.628   25.366
  515.000    0.260    0.425   67.358  224.892   25.544
  515.250    0.268    0.425   71.069  225.674   25.590
  515.500    0.278    0.432   71.975  226.144   25.565
  515.750    0.286    0.435   70.322  226.720   25.700
  516.000    0.280    0.429   69.857  227.603   25.734
  516.250    0.269    0.419   72.010  228.593   25.771
  516.500    0.256    0.421   72.229  229.268   26.060
  516.750    0.272    0.448   69.952  229.532   26.237
  517.000    0.274    0.461   68.299  229.589   26.780
  517.250    0.260    0.469   69.391  229.331   27.799
  517.500    0.252    0.479   70.546  228.864   29.524
  517.750    0.258    0.495   72.763  228.297   31.352
  518.000    0.280    0.461   73.481  227.307   32.489
  518.250    0.292    0.447   70.647  226.628   33.290
  518.500    0.290    0.442   71.674  225.957   33.834
  518.750    0.283    0.437   74.698  225.600   34.274
  519.000    0.262    0.427   74.109  225.233   34.659
  519.250    0.268    0.405   71.022  225.087   34.763
  519.500    0.258    0.407   70.492  225.233   34.880
  519.750    0.263    0.422   73.145  225.286   34.859
  520.000    0.278    0.420   78.664  225.343   34.708
  520.250    0.276    0.414   82.191  225.404   34.166
  520.500    0.268    0.413   79.979  225.654   32.757
  520.750    0.270    0.416   78.760  225.922   30.990
  521.000    0.289    0.419   80.976  226.703   28.280
  521.250    0.294    0.425   84.004  227.478   24.799
  521.500    0.286    0.431   85.594  228.569   21.260
  521.750    0.269    0.449   85.750  228.934   20.342
  522.000    0.268    0.463   86.163  228.994   20.451
  522.250    0.282    0.451   87.436  228.530   20.634
  522.500    0.286    0.422   88.216  228.366   20.699
  522.750    0.288    0.414   85.879  228.320   20.340
  523.000    0.267    0.417   83.291  229.106   20.023
  523.250    0.235    0.428   81.078  230.609   19.345
  523.500    0.220    0.427   79.554  231.598   18.686
  523.750    0.236    0.412   80.146  231.755   18.050
  524.000    0.253    0.391   84.481  232.020   17.368
  524.250    0.227    0.391   87.819  232.077   16.461
  524.500    0.202    0.376   90.596  232.340   15.194
  524.750    0.178    0.359   91.066  232.803   14.511
  525.000    0.204    0.379   90.536  233.074   14.421
  525.250    0.203    0.400   89.568  233.326   14.607
  525.500    0.205    0.422   89.854  233.693   14.850
  525.750    0.202    0.401   89.320  233.121   15.184
  526.000    0.136    0.377   83.677  230.156   14.894
  526.250    0.113    0.382   85.020  228.557   14.439
  526.500    0.152    0.384   87.114  228.817   13.609
  526.750    0.157    0.380   89.453  228.969   12.634
  527.000    0.180    0.398   91.789  229.227   11.840
  527.250    0.196    0.416   95.064  229.279   11.370
  527.500    0.183    0.411   98.403  229.440   10.776
  527.750    0.174    0.406  101.741  230.013    9.760
  528.000    0.192    0.422  104.830  230.798    9.129
  528.250    0.194    0.434  103.986  231.368    8.686
  528.500    0.179    0.418  102.274  230.796    8.681
  528.750    0.164    0.409  102.244  229.399    9.064
  529.000    0.182    0.406  100.278  228.310    9.664
  529.250    0.212    0.411   95.947  227.214   10.321
  529.500    0.242    0.423   97.787  226.231   10.981
  529.750    0.258    0.432   93.950  225.875   10.894
  530.000    0.243    0.478   90.802  226.133   10.363
  530.250    0.232    0.475   93.266  226.602    9.583
  530.500    0.227    0.396   95.482  226.761    9.015
  530.750    0.232    0.412   95.457  226.814    8.659
