~VERSION INFORMATION
 VERS.                 2.0:   CWLS LOG ASCII STANDARD -VERSION 2.0
 WRAP.                  NO:   ONE LINE PER DEPTH STEP
~WELL INFORMATION BLOCK
#MNEM.UNIT           DATA                    DESCRIPTION OF MNEMONIC
#---------    -------------------            -------------------------------
# Generated from Intellog Unique Number	CS_71_72/WELL/925
WELL.         ET AL IPIATIK                  : Well_name    - WELL
LOC .         00/14-16-071-09W4/0            : Location     - LOCATION
UWI .         00/14-16-071-09W4/0            : Uwi          - UNIQUE WELL ID
ENTR.         SP                             : Entered      - ENTERED BY
SRVC.         SCHLUMBERGER                   : Scn          - SERVICE COMPANY
STRT.M        300                            : top_depth    - START DEPTH
STOP.M        500                            : bot_depth    - STOP DEPTH
STEP.M        0.25                           : increment    - STEP LENGTH
 NULL. -999.2500:NULL Value
~CURVE INFORMATION BLOCK
#MNEM UNIT       ERCB CURVE CODE    CURVE DESCRIPTION
#-----------   ------------------   ----------------------------------
DEPT.M        00 001 00 00         : DEPTH        - DEPTH
ILD .OHMM     00 120 00 00         : RESD         - DEEP RESISTIVITY (DIL)
DPHI.V/V      00 890 00 00         : PHID         - DENSITY POROSITY (LIMESTONE)
NPHI.V/V      00 330 00 00         : PHIN         - NEUTRON POROSITY (LIMESTONE)
GR  .API      00 310 00 00         : GR           - GAMMA RAY
~PARAMETER INFORMATION
#MNEM.UNIT           DATA             DESCRIPTION OF MNEMONIC
#---------         -----------     ------------------------------
GL  .M        662.6                : gl           - GROUND LEVEL ELEVATION
EREF.M        666.21               : kb           - ELEVATION OF DEPTH REFERENCE
DATM.M        662.6                : datum        - DATUM ELEVATION
TDD .M        504                  : tdd          - TOTAL DEPTH DRILLER
RUN .         ONE                  : Run          - RUN NUMBER
ENG .         BILL                 : Engineer     - RECORDING ENGINEER
WIT .         JIM                  : Witness      - WITNESSED BY
MUD .         GEL                  : Mud_type     - MUD TYPE
MATR.         LIMESTONE            : Logunit      - NEUTRON MATRIX
TMAX.C        24                   : BHT          - MAXIMUM RECORDED TEMPERATURE
BHTD.M        504                  : BHTDEP       - MAXIMUM RECORDED TEMPERATURE
MATR.         1                    : LOGUNIT      - NEUTRON MATRIX
RMT .C        25                   : MDTP         - TEMPERATURE OF MUD
NEUT.         1                    : NEUTRON      - NEUTRON TYPE
RESI.         0                    : RESIST       - RESISTIVITY TYPE
RMC .OHMM     0.25                 : RMC          - RESISTIVITY OF MUD CAKE
RMF .OHMM     0.25                 : RMF          - RESISTIVITY OF MUD FILTRATE
SUFT.C        15                   : SUFT         - SURFACE TEMPERATURE
~A  DEPTH     RESD     PHID     PHIN       GR
  300.000    2.990    0.217    0.492  114.034
  300.250    2.963    0.225    0.506  113.298
  300.500    2.964    0.230    0.521  112.746
  300.750    2.987    0.228    0.537  112.439
  301.000    3.005    0.231    0.466  111.518
  301.250    3.006    0.237    0.447  113.728
  301.500    2.990    0.243    0.487  114.219
  301.750    2.946    0.250    0.533  111.334
  302.000    2.876    0.256    0.564  107.959
  302.250    2.823    0.247    0.523  109.800
  302.500    2.771    0.237    0.496  107.591
  302.750    2.685    0.228    0.484  110.046
  303.000    2.606    0.220    0.497  112.440
  303.250    2.530    0.232    0.514  113.115
  303.500    2.479    0.244    0.503  112.562
  303.750    2.443    0.250    0.516  106.609
  304.000    2.443    0.251    0.515  104.032
  304.250    2.472    0.254    0.539  103.234
  304.500    2.510    0.256    0.588  105.627
  304.750    2.626    0.254    0.552  104.768
  305.000    2.737    0.232    0.494   99.306
  305.250    2.800    0.206    0.464   93.353
  305.500    2.806    0.210    0.502   89.425
  305.750    2.786    0.226    0.567   96.053
  306.000    2.756    0.236    0.553  100.227
  306.250    2.736    0.240    0.533  103.050
  306.500    2.726    0.241    0.514  103.419
  306.750    2.712    0.240    0.499  103.480
  307.000    2.697    0.240    0.489  107.838
  307.250    2.688    0.239    0.525  111.582
  307.500    2.699    0.236    0.558  111.766
  307.750    2.649    0.234    0.546  110.109
  308.000    2.576    0.231    0.537  112.687
  308.250    2.548    0.221    0.520  114.528
  308.500    2.602    0.215    0.509  114.528
  308.750    2.795    0.235    0.520  114.037
  309.000    2.957    0.243    0.533  112.564
  309.250    3.054    0.249    0.530  105.936
  309.500    3.160    0.250    0.496   96.177
  309.750    3.251    0.173    0.477   82.000
  310.000    3.289    0.166    0.466  104.095
  310.250    3.247    0.212    0.436  112.626
  310.500    3.205    0.211    0.515  118.272
  310.750    3.218    0.202    0.592  118.518
  311.000    3.317    0.197    0.512  116.370
  311.250    3.445    0.196    0.500  113.915
  311.500    3.524    0.213    0.515  111.583
  311.750    3.565    0.235    0.544  111.890
  312.000    3.526    0.230    0.521  114.590
  312.250    3.455    0.226    0.503  115.757
  312.500    3.398    0.230    0.490  113.363
  312.750    3.373    0.237    0.516  112.013
  313.000    3.458    0.242    0.525  115.757
  313.250    3.564    0.248    0.497  116.616
  313.500    3.625    0.245    0.477  112.627
  313.750    3.579    0.226    0.458  107.471
  314.000    3.455    0.195    0.488  102.746
  314.250    3.372    0.099    0.492   98.450
  314.500    3.437    0.094    0.467  103.237
  314.750    4.032    0.186    0.450  104.342
  315.000    5.294    0.217    0.448  100.782
  315.250    7.339    0.248    0.549   90.103
  315.500   11.111    0.304    0.411   76.846
  315.750   20.104    0.355    0.262   67.763
  316.000   35.499    0.298    0.197   68.499
  316.250   40.567    0.280    0.204   70.586
  316.500   39.379    0.349    0.198   75.619
  316.750   35.931    0.376    0.203   76.478
  317.000   32.540    0.388    0.221   75.374
  317.250   29.138    0.367    0.249   77.951
  317.500   25.559    0.375    0.277   80.468
  317.750   21.759    0.356    0.300   83.659
  318.000   19.122    0.337    0.315   86.728
  318.250   16.648    0.302    0.330   92.620
  318.500   12.903    0.264    0.347  100.844
  318.750   11.685    0.246    0.402  108.087
  319.000   10.562    0.227    0.454  110.726
  319.250    9.656    0.205    0.403  113.979
  319.500    8.861    0.192    0.389  116.802
  319.750    8.600    0.203    0.385  113.856
  320.000    8.443    0.218    0.384  107.780
  320.250    8.884    0.231    0.399  102.809
  320.500    9.525    0.245    0.390  100.477
  320.750    9.947    0.248    0.395  103.668
  321.000   10.100    0.240    0.421  107.842
  321.250    9.461    0.231    0.414  110.543
  321.500    8.979    0.230    0.412  106.983
  321.750    8.866    0.225    0.390  101.459
  322.000    8.917    0.231    0.389   99.495
  322.250    9.071    0.243    0.377  101.275
  322.500    9.617    0.251    0.365   96.979
  322.750    9.423    0.237    0.362   88.509
  323.000    9.355    0.184    0.327   85.318
  323.250    9.807    0.171    0.322   95.875
  323.500   10.554    0.217    0.349   94.463
  323.750   11.252    0.244    0.346   83.231
  324.000   12.018    0.265    0.304   78.015
  324.250   12.741    0.284    0.295   71.018
  324.500   13.208    0.298    0.297   65.126
  324.750   13.137    0.279    0.331   62.057
  325.000   12.375    0.262    0.339   68.441
  325.250   11.019    0.244    0.338   74.701
  325.500    9.702    0.219    0.384   83.539
  325.750    8.819    0.194    0.408   89.308
  326.000    7.972    0.214    0.408   94.525
  326.250    7.274    0.206    0.427  100.172
  326.500    6.687    0.174    0.432  112.631
  326.750    6.113    0.136    0.452  119.689
  327.000    5.630    0.120    0.480  124.354
  327.250    4.731    0.174    0.467  127.545
  327.500    4.618    0.184    0.450  130.000
  327.750    4.261    0.179    0.482  131.719
  328.000    3.880    0.185    0.511  131.228
  328.250    3.574    0.197    0.506  129.939
  328.500    3.292    0.201    0.521  129.632
  328.750    3.004    0.219    0.543  134.542
  329.000    2.856    0.232    0.535  131.965
  329.250    2.783    0.240    0.512  121.408
  329.500    3.345    0.246    0.493  107.292
  329.750    5.103    0.245    0.466   94.588
  330.000    6.737    0.254    0.364   82.190
  330.250    9.992    0.257    0.355   82.436
  330.500   14.061    0.249    0.386   85.075
  330.750   15.390    0.263    0.426   89.003
  331.000   13.911    0.273    0.460   95.202
  331.250   12.272    0.279    0.473  101.708
  331.500   10.605    0.261    0.454  104.408
  331.750    9.604    0.244    0.458  107.600
  332.000    8.746    0.224    0.441  113.799
  332.250    7.965    0.194    0.431  117.113
  332.500    7.378    0.193    0.422  119.445
  332.750    6.770    0.203    0.439  120.550
  333.000    6.177    0.195    0.452  121.900
  333.250    5.754    0.182    0.460  122.637
  333.500    5.461    0.174    0.479  122.576
  333.750    5.173    0.171    0.490  125.276
  334.000    4.873    0.168    0.491  127.609
  334.250    4.616    0.171    0.506  129.082
  334.500    4.357    0.179    0.474  131.353
  334.750    4.174    0.184    0.471  132.151
  335.000    4.206    0.174    0.483  131.721
  335.250    4.434    0.185    0.481  134.237
  335.500    4.964    0.238    0.498  126.566
  335.750    6.035    0.291    0.515  110.301
  336.000    7.186    0.325    0.443   85.690
  336.250    8.639    0.329    0.417   78.878
  336.500    9.817    0.333    0.404   78.448
  336.750   10.407    0.333    0.386   81.087
  337.000   10.469    0.324    0.402   81.763
  337.250   10.220    0.312    0.420   88.698
  337.500    9.791    0.300    0.415   95.695
  337.750    9.257    0.281    0.401   99.930
  338.000    8.542    0.265    0.404  102.139
  338.250    8.017    0.257    0.428  102.999
  338.500    8.034    0.263    0.437  105.147
  338.750    8.486    0.276    0.447  102.017
  339.000    8.729    0.280    0.464   95.511
  339.250    9.377    0.275    0.424   88.637
  339.500    9.701    0.273    0.410   83.421
  339.750    9.851    0.274    0.419   91.276
  340.000    9.707    0.277    0.422   93.916
  340.250    9.422    0.277    0.410   97.782
  340.500    8.859    0.256    0.406  104.350
  340.750    8.053    0.246    0.402  108.585
  341.000    7.459    0.233    0.397  111.531
  341.250    6.819    0.224    0.391  113.126
  341.500    6.387    0.217    0.391  113.495
  341.750    6.608    0.225    0.426  106.498
  342.000    7.219    0.244    0.454  101.465
  342.250    7.842    0.264    0.414   98.704
  342.500    8.896    0.286    0.405   94.653
  342.750    9.359    0.303    0.421   91.093
  343.000   10.072    0.303    0.424   87.963
  343.250   11.004    0.302    0.408   84.895
