~VERSION INFORMATION
 VERS.                 2.0:   CWLS LOG ASCII STANDARD -VERSION 2.0
 WRAP.                  NO:   ONE LINE PER DEPTH STEP
~WELL INFORMATION BLOCK
#MNEM.UNIT           DATA                    DESCRIPTION OF MNEMONIC
#---------    -------------------            -------------------------------
# Generated from Intellog Unique Number	CS_69_70/WELL/867
WELL.         MAYNARD EXPLORATION            : Well_name    - WELL
LOC .         00/10-13-070-16W4/0            : Location     - LOCATION
UWI .         00/10-13-070-16W4/0            : Uwi          - UNIQUE WELL ID
ENTR.         SP                             : Entered      - ENTERED BY
SRVC.         SCHLUMBERGER                   : Scn          - SERVICE COMPANY
STRT.M        275                            : top_depth    - START DEPTH
STOP.M        500                            : bot_depth    - STOP DEPTH
STEP.M        0.25                           : increment    - STEP LENGTH
 NULL. -999.2500:NULL Value
~CURVE INFORMATION BLOCK
#MNEM UNIT       ERCB CURVE CODE    CURVE DESCRIPTION
#-----------   ------------------   ----------------------------------
DEPT.M        00 001 00 00         : DEPTH        - DEPTH
GR  .API      00 310 00 00         : GR           - GAMMA RAY
NPHI.V/V      00 330 00 00         : PHIN         - NEUTRON POROSITY (LIMESTONE)
DPHI.V/V      00 890 00 00         : PHID         - DENSITY POROSITY (LIMESTONE)
ILD .OHMM     00 120 00 00         : RESD         - DEEP RESISTIVITY (DIL)
~PARAMETER INFORMATION
#MNEM.UNIT           DATA             DESCRIPTION OF MNEMONIC
#---------         -----------     ------------------------------
GL  .M        570.5                : gl           - GROUND LEVEL ELEVATION
EREF.M        573.7                : kb           - ELEVATION OF DEPTH REFERENCE
DATM.M        570.5                : datum        - DATUM ELEVATION
TDD .M        508                  : tdd          - TOTAL DEPTH DRILLER
RUN .         ONE                  : Run          - RUN NUMBER
ENG .         BILL                 : Engineer     - RECORDING ENGINEER
WIT .         JIM                  : Witness      - WITNESSED BY
MUD .         GEL                  : Mud_type     - MUD TYPE
MATR.         LIMESTONE            : Logunit      - NEUTRON MATRIX
TMAX.C        22                   : BHT          - MAXIMUM RECORDED TEMPERATURE
BHTD.M        508                  : BHTDEP       - MAXIMUM RECORDED TEMPERATURE
MATR.         1                    : LOGUNIT      - NEUTRON MATRIX
RMT .C        25                   : MDTP         - TEMPERATURE OF MUD
NEUT.         1                    : NEUTRON      - NEUTRON TYPE
RESI.         0                    : RESIST       - RESISTIVITY TYPE
RMC .OHMM     0.25                 : RMC          - RESISTIVITY OF MUD CAKE
RMF .OHMM     0.25                 : RMF          - RESISTIVITY OF MUD FILTRATE
SUFT.C        15                   : SUFT         - SURFACE TEMPERATURE
~A  DEPTH       GR     PHIN     PHID     RESD
# ...
  362.000   68.396    0.362    0.335    3.286
  362.250   67.607    0.369    0.331    3.262
  362.500   65.601    0.376    0.329    3.262
  362.750   63.352    0.376    0.330    3.263
  363.000   62.137    0.371    0.338    3.280
  363.250   63.782    0.368    0.346    3.338
  363.500   66.888    0.368    0.354    3.412
  363.750   69.324    0.382    0.354    3.478
  364.000   73.525    0.394    0.344    3.119
  364.250   77.787    0.391    0.328    3.152
  364.500   80.588    0.389    0.314    3.169
  364.750   85.398    0.400    0.298    3.178
  365.000   87.530    0.409    0.287    3.179
  365.250   88.870    0.402    0.280    3.155
  365.500   89.663    0.396    0.282    3.155
  365.750   90.335    0.395    0.290    3.123
  366.000   90.885    0.408    0.298    3.083
  366.250   91.069    0.425    0.304    3.018
  366.500   91.315    0.438    0.308    2.994
  366.750   91.499    0.439    0.305    2.979
  367.000   90.772    0.428    0.292    2.996
  367.250   89.860    0.417    0.258    3.070
  367.500   88.280    0.412    0.244    3.259
  367.750   85.970    0.407    0.229    3.480
  368.000   83.721    0.399    0.230    3.751
  368.250   82.445    0.389    0.252    4.005
  368.500   81.838    0.382    0.267    4.210
  368.750   81.962    0.387    0.257    4.325
  369.000   82.938    0.388    0.247    4.441
  369.250   84.278    0.379    0.263    4.449
  369.500   83.855    0.371    0.277    4.311
  369.750   79.110    0.377    0.291    4.049
  370.000   75.278    0.382    0.305    3.862
  370.250   71.569    0.386    0.326    3.576
  370.500   70.597    0.386    0.338    3.315
  370.750   73.520    0.384    0.343    3.201
  371.000   76.200    0.378    0.342    3.169
  371.250   77.176    0.370    0.333    3.186
  371.500   76.995    0.371    0.329    3.171
  371.750   76.207    0.370    0.327    3.171
  372.000   75.904    0.362    0.327    3.180
  372.250   75.360    0.354    0.329    3.197
  372.500   75.179    0.357    0.331    3.206
  372.750   74.876    0.361    0.339    3.206
  373.000   72.262    0.357    0.341    3.215
  373.250   70.499    0.352    0.350    3.216
  373.500   69.466    0.346    0.361    3.224
  373.750   70.564    0.342    0.367    3.233
  374.000   71.966    0.347    0.368    3.267
  374.250   72.332    0.346    0.354    3.324
  374.500   71.787    0.339    0.341    3.440
  374.750   70.268    0.324    0.166    3.915
  375.000   68.687    0.290    0.120    4.447
  375.250   65.710    0.238    0.089    5.765
  375.500   65.042    0.203    0.064    9.610
  375.750   64.252    0.176    0.045   16.694
  376.000   62.490    0.151    0.026   19.500
  376.250   61.092    0.127    0.015   28.303
  376.500   57.260    0.101    0.007   33.394
  376.750   52.516    0.073    0.002   41.666
  377.000   49.414    0.064    0.043   50.673
  377.250   52.520    0.103    0.108   51.522
  377.500   57.268    0.180    0.184   15.979
  377.750   64.817    0.231    0.235   11.071
  378.000   69.260    0.332    0.295    6.884
  378.250   73.096    0.366    0.344    4.889
  378.500   74.011    0.374    0.354    4.055
  378.750   72.735    0.374    0.358    3.638
  379.000   72.798    0.371    0.362    3.361
  379.250   74.382    0.379    0.366    3.214
  379.500   75.541    0.388    0.372    3.149
  379.750   76.151    0.394    0.376    3.126
  380.000   75.850    0.391    0.363    3.159
  380.250   75.243    0.387    0.355    3.217
  380.500   74.697    0.393    0.342    3.250
  380.750   73.543    0.395    0.336    3.316
  381.000   72.511    0.383    0.333    3.366
  381.250   73.669    0.373    0.324    3.457
  381.500   77.261    0.367    0.320    3.490
  381.750   79.028    0.369    0.305    3.548
  382.000   80.186    0.376    0.298    3.598
  382.250   80.371    0.376    0.293    3.631
  382.500   79.886    0.373    0.305    3.673
  382.750   80.193    0.374    0.297    3.706
  383.000   81.290    0.378    0.279    3.780
  383.250   83.849    0.386    0.260    3.903
  383.500   84.763    0.387    0.247    4.280
  383.750   85.679    0.382    0.245    4.453
  384.000   85.558    0.379    0.245    4.739
  384.250   85.195    0.377    0.241    5.158
  384.500   83.190    0.374    0.233    5.395
  384.750   80.453    0.374    0.223    5.551
  385.000   79.846    0.373    0.212    5.691
  385.250   81.674    0.375    0.205    5.839
  385.500   84.719    0.381    0.201    5.897
  385.750   87.824    0.380    0.200    5.905
  386.000   90.869    0.380    0.205    5.841
  386.250   93.366    0.390    0.215    5.686
  386.500   95.072    0.405    0.220    5.449
  386.750   96.718    0.414    0.220    5.107
  387.000   97.085    0.406    0.226    5.017
  387.250   96.721    0.394    0.230    4.936
  387.500   95.141    0.384    0.219    4.945
  387.750   93.196    0.377    0.204    5.068
  388.000   90.643    0.387    0.196    5.109
  388.250   89.610    0.393    0.191    5.208
  388.500   90.039    0.393    0.190    5.291
  388.750   91.014    0.389    0.190    5.357
  389.000   92.963    0.383    0.193    5.431
  389.250   93.695    0.378    0.198    5.432
  389.500   93.150    0.376    0.198    5.432
  389.750   92.604    0.383    0.207    5.408
  390.000   92.120    0.394    0.221    5.352
  390.250   90.175    0.386    0.230    5.271
  390.500   87.864    0.371    0.230    5.189
  390.750   85.858    0.360    0.228    5.059
  391.000   83.914    0.355    0.230    4.905
  391.250   83.002    0.350    0.238    4.774
  391.500   83.005    0.359    0.241    4.660
  391.750   83.676    0.365    0.244    4.620
  392.000   85.625    0.370    0.249    4.531
  392.250   86.722    0.375    0.259    4.490
  392.500   84.960    0.381    0.267    4.491
  392.750   83.501    0.386    0.271    4.524
  393.000   84.599    0.389    0.265    4.623
  393.250   85.575    0.384    0.260    4.697
  393.500   85.820    0.383    0.257    4.739
  393.750   85.092    0.383    0.252    4.731
  394.000   82.964    0.387    0.248    4.626
  394.250   81.871    0.393    0.248    4.348
  394.500   82.299    0.398    0.257    3.923
  394.750   84.127    0.410    0.268    3.376
  395.000   87.415    0.423    0.278    2.910
  395.250   91.494    0.436    0.288    2.535
  395.500   95.877    0.446    0.297    2.298
  395.750   99.592    0.489    0.312    2.078
  396.000  101.358    0.482    0.307    1.948
  396.250  100.144    0.474    0.312    1.899
  396.500   97.955    0.466    0.315    1.933
  396.750   96.679    0.455    0.300    1.990
  397.000   97.351    0.441    0.287    2.220
  397.250   97.839    0.416    0.264    2.540
  397.500   98.024    0.394    0.227    2.990
  397.750   96.261    0.384    0.217    3.555
  398.000   94.073    0.379    0.214    3.785
  398.250   93.345    0.377    0.214    4.211
  398.500   93.104    0.377    0.213    4.350
  398.750   93.288    0.379    0.207    4.490
  399.000   94.446    0.384    0.203    4.532
  399.250   95.483    0.400    0.202    4.475
  399.500   95.790    0.415    0.203    4.394
  399.750   94.027    0.404    0.206    4.378
  400.000   90.925    0.398    0.210    4.313
  400.250   90.319    0.389    0.213    4.232
  400.500   88.800    0.383    0.219    4.118
  400.750   86.915    0.377    0.228    3.923
  401.000   85.275    0.375    0.237    3.882
  401.250   85.338    0.387    0.245    3.728
  401.500   85.948    0.391    0.254    3.467
  401.750   86.680    0.385    0.262    3.230
  402.000   88.631    0.378    0.277    3.108
  402.250   88.997    0.381    0.294    3.190
  402.500   88.877    0.382    0.296    2.962
  402.750   86.202    0.382    0.292    2.856
  403.000   80.666    0.379    0.289    2.742
  403.250   68.437    0.370    0.295    2.563
  403.500   64.849    0.358    0.322    2.457
  403.750   63.817    0.352    0.333    2.409
  404.000   63.514    0.350    0.332    2.401
  404.250   64.917    0.353    0.336    2.410
  404.500   65.953    0.360    0.344    2.443
  404.750   66.564    0.364    0.345    2.509
  405.000   66.444    0.360    0.346    2.567
  405.250   65.716    0.354    0.348    2.609
