~VERSION INFORMATION
 VERS.                 2.0:   CWLS LOG ASCII STANDARD -VERSION 2.0
 WRAP.                  NO:   ONE LINE PER DEPTH STEP
~WELL INFORMATION BLOCK
#MNEM.UNIT           DATA                    DESCRIPTION OF MNEMONIC
#---------    -------------------            -------------------------------
# Generated from Intellog Unique Number	CS_73_76/WELL/3228
WELL.         10-01-076-05W4                 : Well_name    - WELL
LOC .         00/10-01-076-05W4/0            : Location     - LOCATION
UWI .         00/10-01-076-05W4/0            : Uwi          - UNIQUE WELL ID
ENTR.         SP                             : Entered      - ENTERED BY
SRVC.         SCHLUMBERGER                   : Scn          - SERVICE COMPANY
STRT.M        228.6                          : top_depth    - START DEPTH
STOP.M        481.35                         : bot_depth    - STOP DEPTH
STEP.M        0.25                           : increment    - STEP LENGTH
 NULL. -999.2500:NULL Value
~CURVE INFORMATION BLOCK
#MNEM UNIT       ERCB CURVE CODE    CURVE DESCRIPTION
#-----------   ------------------   ----------------------------------
DEPT.M        00 001 00 00         : DEPTH        - DEPTH
GR  .API      00 310 00 00         : GR           - GAMMA RAY
DPHI.V/V      00 890 00 00         : PHID         - DENSITY POROSITY (SANDSTONE)
NPHI.V/V      00 330 00 00         : PHIN         - NEUTRON POROSITY (SANDSTONE)
ILD .OHMM     00 120 00 00         : RESD         - DEEP RESISTIVITY (DIL)
~PARAMETER INFORMATION
#MNEM.UNIT           DATA             DESCRIPTION OF MNEMONIC
#---------         -----------     ------------------------------
GL  .M        620.878              : gl           - GROUND LEVEL ELEVATION
EREF.M        624.23               : kb           - ELEVATION OF DEPTH REFERENCE
DATM.M        620.878              : datum        - DATUM ELEVATION
TDD .M        489.204              : tdd          - TOTAL DEPTH DRILLER
RUN .         ONE                  : Run          - RUN NUMBER
ENG .         BILL                 : Engineer     - RECORDING ENGINEER
WIT .         JIM                  : Witness      - WITNESSED BY
MUD .         GEL                  : Mud_type     - MUD TYPE
MATR.         SANDSTONE            : Logunit      - NEUTRON MATRIX
TMAX.C        33.3333              : BHT          - MAXIMUM RECORDED TEMPERATURE
BHTD.M        489.204              : BHTDEP       - MAXIMUM RECORDED TEMPERATURE
MATR.         1                    : LOGUNIT      - NEUTRON MATRIX
RMT .C        25                   : MDTP         - TEMPERATURE OF MUD
NEUT.         1                    : NEUTRON      - NEUTRON TYPE
RESI.         0                    : RESIST       - RESISTIVITY TYPE
RMC .OHMM     0.25                 : RMC          - RESISTIVITY OF MUD CAKE
RMF .OHMM     0.25                 : RMF          - RESISTIVITY OF MUD FILTRATE
SUFT.C        15                   : SUFT         - SURFACE TEMPERATURE
~A  DEPTH       GR     PHID     PHIN     RESD
# ...
  272.100   39.326    0.302    0.366   22.013
  272.350   48.338    0.287    0.363   21.560
  272.600   60.425    0.265    0.379   20.917
  272.850   67.082    0.287    0.392   20.265
  273.100   69.141    0.323    0.401   20.046
  273.350   69.122    0.318    0.410   20.089
  273.600   67.076    0.317    0.397   19.643
  273.850   66.685    0.326    0.385   19.710
  274.100   66.896    0.333    0.384   19.288
  274.350   68.638    0.337    0.390   19.288
  274.600   70.024    0.343    0.404   18.687
  274.850   72.801    0.333    0.408   18.161
  275.100   77.897    0.315    0.412   17.240
  275.350   79.841    0.293    0.413   16.518
  275.600   82.101    0.307    0.414   15.495
  275.850   85.501    0.300    0.415   14.871
  276.100   88.693    0.296    0.417   13.893
  276.350   91.463    0.305    0.423   13.217
  276.600   93.882    0.314    0.437   12.618
  276.850   91.031    0.323    0.448   12.020
  277.100   96.930    0.340    0.462   11.132
  277.350  108.055    0.332    0.439   10.492
  277.600  114.567    0.264    0.420    9.771
  277.850  118.580    0.234    0.430    9.094
  278.100  122.109    0.211    0.442    8.398
  278.350  122.007    0.227    0.454    7.849
  278.600  126.161    0.234    0.448    7.309
  278.850  126.961    0.238    0.456    6.980
  279.100  126.421    0.240    0.460    6.890
  279.350  123.545    0.240    0.464    6.796
  279.600  119.056    0.238    0.476    7.015
  279.850  116.815    0.235    0.482    7.259
  280.100  116.247    0.221    0.469    7.731
  280.350  115.870    0.246    0.458    8.136
  280.600  115.558    0.254    0.456    8.574
  280.850  113.514    0.260    0.453    8.812
  281.100  107.915    0.268    0.441    9.297
  281.350  104.525    0.258    0.435    9.577
  281.600  102.714    0.254    0.431    9.724
  281.850  105.216    0.256    0.425    9.942
  282.100  102.675    0.263    0.432    9.925
  282.350  100.181    0.276    0.440    9.928
  282.600  104.972    0.270    0.430    9.941
  282.850  109.920    0.254    0.428    9.754
  283.100  111.555    0.241    0.442    9.883
  283.350  104.116    0.212    0.456   10.036
  283.600   96.024    0.238    0.454   10.879
  283.850   90.423    0.249    0.435   11.585
  284.100   82.483    0.261    0.421   12.041
  284.350   77.558    0.289    0.417   12.241
  284.600   75.593    0.304    0.428   12.253
  284.850   76.848    0.287    0.419   11.991
  285.100   89.169    0.265    0.419   11.615
  285.350   92.623    0.259    0.425   11.566
  285.600   90.481    0.267    0.428   11.800
  285.850   91.197    0.277    0.438   12.304
  286.100   87.460    0.285    0.437   13.094
  286.350   84.498    0.291    0.424   13.966
  286.600   81.063    0.302    0.415   14.255
  286.850   79.437    0.314    0.405   14.809
  287.100   77.805    0.311    0.410   14.817
  287.350   78.169    0.308    0.412   14.370
  287.600   81.056    0.295    0.410   14.257
  287.850   84.440    0.290    0.409   13.589
  288.100   89.995    0.280    0.414   13.062
  288.350   91.650    0.264    0.413   12.258
  288.600   94.718    0.259    0.417   11.462
  288.850   95.624    0.255    0.425   10.883
  289.100   92.203    0.261    0.443   10.781
  289.350   91.439    0.253    0.454   11.246
  289.600   88.569    0.251    0.460   11.622
  289.850   80.200    0.258    0.440   12.032
  290.100   75.242    0.266    0.429   12.428
  290.350   71.820    0.270    0.436   12.826
  290.600   70.931    0.269    0.428   13.250
  290.850   70.917    0.252    0.393   13.289
  291.100   70.229    0.246    0.386   12.996
  291.350   72.823    0.250    0.395   12.546
  291.600   73.901    0.227    0.401   12.654
  291.850   72.575    0.202    0.367   12.811
  292.100   66.691    0.187    0.347   12.944
  292.350   62.426    0.198    0.350   12.630
  292.600   67.430    0.253    0.374   12.811
  292.850   71.908    0.288    0.394   12.846
  293.100   74.523    0.281    0.420   12.025
  293.350   74.985    0.274    0.409   11.479
  293.600   75.016    0.276    0.407   11.492
  293.850   73.398    0.270    0.406   11.245
  294.100   71.108    0.271    0.408   11.243
  294.350   73.071    0.273    0.412   11.489
  294.600   73.643    0.272    0.421   11.720
  294.850   69.994    0.284    0.430   12.474
  295.100   68.249    0.307    0.427   13.282
  295.350   66.402    0.310    0.420   13.861
  295.600   64.129    0.322    0.415   14.647
  295.850   62.512    0.334    0.425   15.291
  296.100   61.027    0.327    0.432   15.808
  296.350   59.425    0.314    0.420   15.823
  296.600   57.063    0.313    0.391   15.840
  296.850   57.696    0.302    0.388   15.609
  297.100   60.201    0.300    0.397   15.258
  297.350   61.316    0.299    0.399   14.947
  297.600   60.460    0.298    0.402   14.507
  297.850   62.988    0.294    0.406   14.144
  298.100   63.855    0.295    0.409   14.170
  298.350   65.591    0.293    0.404   14.145
  298.600   64.868    0.295    0.402   14.466
  298.850   63.242    0.305    0.413   14.696
  299.100   63.326    0.306    0.422   15.519
  299.350   61.758    0.307    0.429   15.639
  299.600   60.821    0.310    0.426   15.890
  299.850   59.760    0.314    0.417   15.745
  300.100   59.507    0.320    0.410   15.615
  300.350   59.480    0.319    0.413   15.359
  300.600   59.425    0.313    0.415   15.220
  300.850   60.105    0.313    0.426   14.726
  301.100   61.957    0.308    0.432   14.188
  301.350   64.290    0.307    0.421   14.224
  301.600   66.707    0.300    0.416   14.225
  301.850   65.100    0.308    0.419   14.531
  302.100   64.196    0.316    0.425   14.572
  302.350   60.290    0.317    0.407   14.786
  302.600   56.524    0.323    0.400   14.638
  302.850   54.475    0.334    0.406   14.534
  303.100   56.694    0.339    0.408   14.283
  303.350   58.063    0.332    0.408   14.166
  303.600   59.370    0.330    0.420   13.729
  303.850   59.275    0.329    0.416   13.542
  304.100   60.048    0.333    0.425   13.516
  304.350   63.032    0.340    0.440   13.234
  304.600   66.427    0.335    0.461   13.248
  304.850   69.839    0.322    0.463   13.247
  305.100   74.418    0.323    0.447   13.250
  305.350   74.763    0.328    0.439   13.255
  305.600   74.879    0.326    0.435   13.258
  305.850   72.163    0.320    0.433   13.260
  306.100   70.723    0.330    0.444   13.244
  306.350   70.103    0.321    0.456   13.558
  306.600   69.555    0.320    0.456   14.189
  306.850   66.948    0.291    0.403   15.084
  307.100   60.069    0.215    0.364   16.410
  307.350   54.082    0.063    0.229   17.526
  307.600   57.435    0.154    0.363   17.887
  307.850   63.418    0.246    0.396   17.287
  308.100   67.500    0.301    0.429   16.410
  308.350   68.498    0.306    0.454   14.938
  308.600   65.406    0.319    0.452   13.616
  308.850   62.635    0.320    0.469   13.029
  309.100   62.059    0.336    0.455   13.062
  309.350   62.700    0.355    0.438   13.065
  309.600   63.260    0.337    0.433   12.996
  309.850   64.636    0.328    0.430   11.995
  310.100   77.828    0.332    0.436    9.966
  310.350   90.995    0.295    0.460    8.160
  310.600   96.137    0.224    0.472    6.742
  310.850   95.147    0.222    0.478    5.517
  311.100   95.755    0.234    0.462    5.053
  311.350   99.028    0.243    0.428    4.757
  311.600  100.144    0.232    0.425    4.794
  311.850   99.635    0.216    0.433    5.058
  312.100   99.129    0.215    0.443    5.302
  312.350   97.348    0.236    0.443    5.437
  312.600   93.299    0.233    0.443    5.296
  312.850   91.490    0.240    0.450    5.051
  313.100   87.943    0.256    0.450    5.151
  313.350   82.884    0.251    0.433    5.552
  313.600   77.324    0.279    0.429    5.908
  313.850   73.565    0.278    0.446    6.286
  314.100   71.648    0.287    0.460    6.686
  314.350   70.766    0.302    0.473    7.016
  314.600   72.614    0.298    0.480    7.365
  314.850   69.902    0.310    0.462    7.476
  315.100   69.811    0.320    0.441    7.729
  315.350   76.332    0.325    0.447    7.807
