~VERSION INFORMATION
 VERS.                 2.0:   CWLS LOG ASCII STANDARD -VERSION 2.0
 WRAP.                  NO:   ONE LINE PER DEPTH STEP
~WELL INFORMATION BLOCK
#MNEM.UNIT           DATA                    DESCRIPTION OF MNEMONIC
#---------    -------------------            -------------------------------
# Generated from Intellog Unique Number	CN_91_93/WELL/3241
WELL.         PARAMOUNT RESOURCES LTD.       : Well_name    - WELL
LOC .         00/10-18-092-20W4/0            : Location     - LOCATION
UWI .         00/10-18-092-20W4/0            : Uwi          - UNIQUE WELL ID
ENTR.         JOETTE                         : Entered      - ENTERED BY
SRVC.         COMPUTALOG                     : Scn          - SERVICE COMPANY
DATE.         04/14/92                       : Date         - LOG DATE
STRT.M        90                             : top_depth    - START DEPTH
STOP.M        230                            : bot_depth    - STOP DEPTH
STEP.M        0.25                           : increment    - STEP LENGTH
 NULL. -999.2500:NULL Value
~CURVE INFORMATION BLOCK
#MNEM UNIT       ERCB CURVE CODE    CURVE DESCRIPTION
#-----------   ------------------   ----------------------------------
DEPT.M        00 001 00 00         : DEPTH        - DEPTH
CALI.MM       00 280 01 00         : CAL          - CALIPER
GR  .API      00 310 00 00         : GR           - GAMMA RAY
NPHI.V/V      00 330 00 00         : PHIN         - NEUTRON POROSITY (SANDSTONE)
DPHI.V/V      00 890 00 00         : PHID         - DENSITY POROSITY (SANDSTONE)
ILD .OHMM     00 120 00 00         : RESD         - DEEP RESISTIVITY (DIL)
~PARAMETER INFORMATION
#MNEM.UNIT           DATA             DESCRIPTION OF MNEMONIC
#---------         -----------     ------------------------------
GL  .M        533.15               : gl           - GROUND LEVEL ELEVATION
EREF.M        536.95               : kb           - ELEVATION OF DEPTH REFERENCE
DATM.M        536.95               : datum        - DATUM ELEVATION
TDD .M        230.7                : tdd          - TOTAL DEPTH DRILLER
RUN .         ONE                  : Run          - RUN NUMBER
ENG .         BILL                 : Engineer     - RECORDING ENGINEER
WIT .         JIM                  : Witness      - WITNESSED BY
MUD .         GEL                  : Mud_type     - MUD TYPE
MATR.         SANDSTONE            : Logunit      - NEUTRON MATRIX
TMAX.C        119                  : BHT          - MAXIMUM RECORDED TEMPERATURE
BHTD.M        230.7                : BHTDEP       - MAXIMUM RECORDED TEMPERATURE
RMT .C        12                   : MDTP         - TEMPERATURE OF MUD
MUDD.KG/M     1070                 : MWT          - MUD DENSITY
NEUT.         1                    : NEUTRON      - NEUTRON TYPE
RESI.         0                    : RESIST       - RESISTIVITY TYPE
RM  .OHMM     3                    : RM           - RESISTIVITY OF MUD
RMC .OHMM     3                    : RMC          - RESISTIVITY OF MUD CAKE
RMF .OHMM     3                    : RMF          - RESISTIVITY OF MUD FILTRATE
SUFT.C        4                    : SUFT         - SURFACE TEMPERATURE
~A  DEPTH      CAL       GR     PHIN     PHID     RESD
   90.000  215.402   85.579    0.436    0.243   10.331
   90.250  214.468   87.428    0.423    0.271    9.758
   90.500  213.533   90.493    0.406    0.295    9.217
   90.750  214.606   86.919    0.385    0.310    9.221
   91.000  217.688   88.768    0.397    0.327    9.770
   91.250  222.777   91.209    0.399    0.274    9.774
   91.500  225.876   91.251    0.403    0.268   10.356
   91.750  226.949   87.677    0.415    0.253   10.360
   92.000  227.018   85.320    0.395    0.290    9.241
   92.250  227.018   84.156    0.363    0.298    8.241
   92.500  223.123   83.585    0.365    0.299    6.809
   92.750  216.164   83.626    0.445    0.273    6.431
   93.000  212.217   84.873    0.478    0.265    5.628
   93.250  213.290   88.529    0.469    0.270    5.417
   93.500  224.422   96.413    0.456    0.265    5.317
   93.750  232.523  102.479    0.492    0.256    5.633
   94.000  231.589  106.135    0.504    0.258    6.202
   94.250  226.672  101.357    0.517    0.261    7.514
   94.500  223.712   98.989    0.438    0.249    8.594
   94.750  222.759   96.621    0.423    0.218    9.461
   95.000  221.859   94.855    0.373    0.147   10.219
   95.250  221.894   92.486    0.407    0.167   10.222
   95.500  224.006   88.913    0.451    0.210    9.657
   95.750  224.058   83.533    0.481    0.215    8.449
   96.000  222.119   86.597    0.474    0.250    7.980
   96.250  220.162   82.411    0.430    0.245    7.255
   96.500  219.245   84.260    0.449    0.237    6.348
   96.750  222.326   89.734    0.479    0.250    5.997
   97.000  221.409   93.982    0.507    0.256    5.885
   97.250  220.439   95.831    0.524    0.258    5.887
   97.500  223.555   93.473    0.561    0.262    6.004
   97.750  225.598   94.117    0.575    0.270    6.240
   98.000  227.676   94.771    0.590    0.265    6.870
   98.250  228.783   93.587    0.561    0.258    7.419
   98.500  228.835   89.432    0.535    0.257    8.326
   98.750  228.922   88.248    0.505    0.260    8.991
   99.000  228.957   86.482    0.471    0.252   10.286
   99.250  226.013   84.114    0.419    0.250   10.690
   99.500  224.075   82.359    0.385    0.260   11.111
   99.750  226.169   81.185    0.410    0.248   11.116
  100.000  227.260   80.022    0.429    0.251   11.123
  100.250  227.312   80.665    0.418    0.263   10.915
  100.500  223.399   79.502    0.414    0.223   10.919
  100.750  221.426   77.134    0.427    0.217   11.134
  101.000  218.483   79.585    0.451    0.258   11.355
  101.250  228.593   80.832    0.451    0.270   11.359
  101.500  231.709   80.883    0.440    0.271   10.937
  101.750  225.719   80.323    0.451    0.247   10.332
  102.000  220.768   80.354    0.466    0.239    9.948
  102.250  218.846   78.588    0.474    0.232    9.762
  102.500  225.961   82.244    0.433    0.269    9.767
  102.750  228.004   93.140    0.378    0.260    9.770
  103.000  231.085   94.387    0.374    0.260    9.407
  103.250  231.189   89.006    0.384    0.256    8.887
  103.500  230.237   84.831    0.418    0.253    8.722
  103.750  227.277   80.655    0.424    0.249    8.726
  104.000  223.364   80.696    0.469    0.268    8.728
  104.250  223.399   82.545    0.465    0.244    8.901
  104.500  223.468   85.017    0.440    0.218    8.092
  104.750  223.554   85.641    0.373    0.211    6.814
  105.000  223.624   86.285    0.444    0.277    5.962
  105.250  223.693   83.916    0.466    0.281    5.317
  105.500  224.766   82.150    0.519    0.275    4.835
  105.750  224.835   85.204    0.495    0.262    4.655
  106.000  224.887   90.065    0.494    0.266    4.839
  106.250  224.991   91.914    0.540    0.263    5.029
  106.500  225.043   88.341    0.533    0.250    5.752
  106.750  225.095   87.791    0.519    0.235    6.454
  107.000  225.164   90.834    0.419    0.241    7.383
  107.250  225.233   93.898    0.457    0.254    8.128
  107.500  225.320   92.122    0.464    0.212    8.779
  107.750  225.389   88.549    0.434    0.194    8.951
  108.000  225.476   89.203    0.348    0.194    8.954
  108.250  224.541   88.029    0.390    0.240    8.140
  108.500  223.606   82.046    0.445    0.238    7.123
  108.750  222.688   78.473    0.469    0.228    6.602
  109.000  223.727   83.334    0.463    0.200    6.356
  109.250  223.814   89.400    0.446    0.186    6.358
  109.500  223.883   86.440    0.475    0.190    6.361
  109.750  223.935   86.482    0.505    0.230    6.243
  110.000  225.025   84.716    0.469    0.253    6.246
  110.250  225.112   82.337    0.455    0.249    6.248
  110.500  225.164   88.424    0.489    0.257    6.132
  110.750  226.237   90.262    0.540    0.260    6.134
  111.000  226.289   90.314    0.570    0.248    6.021
  111.250  226.358   90.948    0.529    0.224    6.023
  111.500  226.445   92.194    0.464    0.220    6.142
  111.750  227.518   93.451    0.414    0.218    6.509
  112.000  227.570   94.698    0.392    0.216    6.636
  112.250  228.661   96.546    0.417    0.212    6.898
  112.500  230.755   96.588    0.437    0.209    6.901
  112.750  230.807   98.437    0.432    0.203    6.773
  113.000  230.894  102.083    0.441    0.195    6.906
  113.250  229.941   99.112    0.456    0.177    6.910
  113.500  226.998   95.539    0.454    0.159    6.912
  113.750  226.046   96.193    0.423    0.197    6.916
  114.000  225.146   96.827    0.417    0.215    6.918
  114.250  226.185   97.471    0.446    0.205    6.920
  114.500  228.279   99.330    0.442    0.206    6.923
  114.750  229.353  101.179    0.488    0.193    6.794
  115.000  229.405  104.233    0.435    0.188    6.669
  115.250  229.474  109.696    0.406    0.199    6.544
  115.500  229.578  114.558    0.438    0.201    6.302
  115.750  230.651  116.406    0.441    0.193    6.305
  116.000  231.707  111.036    0.480    0.175    6.307
  116.250  232.780  111.088    0.521    0.097    6.309
  116.500  233.871  112.314    0.516    0.141    6.433
  116.750  232.919  112.958    0.513    0.174    6.560
  117.000  233.005  114.204    0.442    0.188    6.690
  117.250  232.088  118.463    0.406    0.128    6.692
  117.500  231.118  105.250    0.398    0.179    6.445
  117.750  231.205  102.290    0.407    0.196    6.325
  118.000  230.252  104.731    0.369    0.210    6.207
  118.250  228.314  107.785    0.362    0.219    6.209
  118.500  227.396  110.839    0.418    0.215    6.094
  118.750  225.457  106.071    0.448    0.208    6.097
  119.000  224.539  102.498    0.440    0.232    6.099
  119.250  224.591   99.517    0.449    0.254    6.102
  119.500  225.647  100.161    0.533    0.265    6.223
  119.750  225.717  101.417    0.550    0.235    6.468
  120.000  225.786   98.436    0.489    0.233    6.597
  120.250  221.839   92.464    0.441    0.238    6.725
  120.500  216.887   88.880    0.411    0.243    6.858
  120.750  216.957   88.922    0.401    0.243    7.129
  121.000  222.046   87.769    0.414    0.252    7.269
  121.250  226.149   86.595    0.422    0.259    7.136
  121.500  227.205   86.034    0.388    0.262    7.002
  121.750  228.313   84.871    0.357    0.253    6.742
  122.000  228.365   86.127    0.383    0.255    6.369
  122.250  228.434   91.581    0.404    0.240    6.250
  122.500  227.517   94.645    0.403    0.200    6.135
  122.750  227.551   93.481    0.396    0.184    6.136
  123.000  227.620   95.320    0.392    0.169    6.140
  123.250  226.703   94.157    0.421    0.183    6.141
  123.500  226.772   92.401    0.473    0.223    6.144
  123.750  227.863   93.648    0.504    0.245    6.146
  124.000  227.932   96.099    0.546    0.250    6.268
  124.250  227.984   96.743    0.519    0.228    6.270
  124.500  228.070   94.977    0.469    0.217    6.270
  124.750  228.140   93.211    0.435    0.215    6.777
  125.000  228.191   92.661    0.407    0.209    6.778
  125.250  227.257   92.702    0.399    0.196    6.911
  125.500  227.326   91.539    0.379    0.206    7.184
  125.750  226.408   93.377    0.399    0.221    7.326
  126.000  226.477   94.021    0.464    0.238    7.328
  126.250  226.529   91.653    0.414    0.230    7.057
