~VERSION INFORMATION
 VERS.                 2.0:   CWLS LOG ASCII STANDARD -VERSION 2.0
 WRAP.                  NO:   ONE LINE PER DEPTH STEP
~WELL INFORMATION BLOCK
#MNEM.UNIT           DATA                    DESCRIPTION OF MNEMONIC
#---------    -------------------            -------------------------------
# Generated from Intellog Unique Number	CS_71_72/WELL/901
WELL.         AQUITAINE COMPANY              : Well_name    - WELL
LOC .         00/11-19-071-18W4/0            : Location     - LOCATION
UWI .         00/11-19-071-18W4/0            : Uwi          - UNIQUE WELL ID
ENTR.         SP                             : Entered      - ENTERED BY
SRVC.         SCHLUMBERGER                   : Scn          - SERVICE COMPANY
STRT.M        250                            : top_depth    - START DEPTH
STOP.M        490                            : bot_depth    - STOP DEPTH
STEP.M        0.25                           : increment    - STEP LENGTH
 NULL. -999.2500:NULL Value
~CURVE INFORMATION BLOCK
#MNEM UNIT       ERCB CURVE CODE    CURVE DESCRIPTION
#-----------   ------------------   ----------------------------------
DEPT.M        00 001 00 00         : DEPTH        - DEPTH
ILD .OHMM     00 120 00 00         : RESD         - DEEP RESISTIVITY (DIL)
DPHI.V/V      00 890 00 00         : PHID         - DENSITY POROSITY (LIMESTONE)
NPHI.V/V      00 330 00 00         : PHIN         - NEUTRON POROSITY (LIMESTONE)
GR  .API      00 310 00 00         : GR           - GAMMA RAY
~PARAMETER INFORMATION
#MNEM.UNIT           DATA             DESCRIPTION OF MNEMONIC
#---------         -----------     ------------------------------
GL  .M        573                  : gl           - GROUND LEVEL ELEVATION
EREF.M        575                  : kb           - ELEVATION OF DEPTH REFERENCE
DATM.M        573                  : datum        - DATUM ELEVATION
TDD .M        492                  : tdd          - TOTAL DEPTH DRILLER
RUN .         ONE                  : Run          - RUN NUMBER
ENG .         BILL                 : Engineer     - RECORDING ENGINEER
WIT .         JIM                  : Witness      - WITNESSED BY
MUD .         GEL                  : Mud_type     - MUD TYPE
MATR.         LIMESTONE            : Logunit      - NEUTRON MATRIX
TMAX.C        18                   : BHT          - MAXIMUM RECORDED TEMPERATURE
BHTD.M        492                  : BHTDEP       - MAXIMUM RECORDED TEMPERATURE
MATR.         0                    : LOGUNIT      - NEUTRON MATRIX
RMT .C        25                   : MDTP         - TEMPERATURE OF MUD
NEUT.         1                    : NEUTRON      - NEUTRON TYPE
RESI.         0                    : RESIST       - RESISTIVITY TYPE
RMC .OHMM     0.25                 : RMC          - RESISTIVITY OF MUD CAKE
RMF .OHMM     0.25                 : RMF          - RESISTIVITY OF MUD FILTRATE
SUFT.C        15                   : SUFT         - SURFACE TEMPERATURE
~A  DEPTH     RESD     PHID     PHIN       GR
# ...
  293.500    3.073    0.186    0.448   87.497
  293.750    3.154    0.192    0.448   87.747
  294.000    3.281    0.205    0.474   87.030
  294.250    3.375    0.195    0.484   81.906
  294.500    3.451    0.186    0.476   78.050
  294.750    3.516    0.178    0.487   79.749
  295.000    3.542    0.201    0.467   85.554
  295.250    3.542    0.215    0.441   89.004
  295.500    3.468    0.168    0.431   89.919
  295.750    3.327    0.104    0.430   86.425
  296.000    3.252    0.077    0.415   84.139
  296.250    3.209    0.089    0.413   82.335
  296.500    3.190    0.138    0.452   80.592
  296.750    3.196    0.180    0.474   77.764
  297.000    3.189    0.192    0.486   75.475
  297.250    3.176    0.187    0.495   80.073
  297.500    3.170    0.183    0.483   85.034
  297.750    3.169    0.185    0.470   88.000
  298.000    3.328    0.186    0.447   85.956
  298.250    3.241    0.185    0.436   82.160
  298.500    3.150    0.185    0.438   78.847
  298.750    3.073    0.186    0.456   76.259
  299.000    3.038    0.192    0.467   75.180
  299.250    3.066    0.201    0.458   80.683
  299.500    3.281    0.207    0.450   85.039
  299.750    3.618    0.202    0.486   87.221
  300.000    4.096    0.202    0.518   81.070
  300.250    4.509    0.221    0.504   72.624
  300.500    4.944    0.287    0.494   60.555
  300.750    5.350    0.342    0.500   52.654
  301.000    5.607    0.335    0.482   59.970
  301.250    5.533    0.276    0.439   63.723
  301.500    5.327    0.251    0.418   65.420
  301.750    4.930    0.244    0.411   62.047
  302.000    4.676    0.239    0.411   53.903
  302.250    4.435    0.241    0.417   48.657
  302.500    4.222    0.255    0.416   44.620
  302.750    3.997    0.273    0.406   42.515
  303.000    3.885    0.292    0.407   40.229
  303.250    3.762    0.300    0.417   38.908
  303.500    3.684    0.302    0.413   39.943
  303.750    3.656    0.298    0.399   43.454
  304.000    3.704    0.299    0.387   45.877
  304.250    3.809    0.304    0.394   47.879
  304.500    3.881    0.301    0.396   46.981
  304.750    4.014    0.291    0.391   48.983
  305.000    4.082    0.278    0.396   54.005
  305.250    4.238    0.267    0.402   58.539
  305.500    4.475    0.257    0.408   62.474
  305.750    4.690    0.252    0.406   64.475
  306.000    4.870    0.248    0.409   66.418
  306.250    5.018    0.240    0.402   67.389
  306.500    5.219    0.233    0.392   69.813
  306.750    5.150    0.229    0.382   74.653
  307.000    5.787    0.218    0.370   79.069
  307.250    5.963    0.202    0.360   82.338
  307.500    6.133    0.194    0.351   84.158
  307.750    6.213    0.187    0.370   84.771
  308.000    6.248    0.197    0.371   84.296
  308.250    6.200    0.206    0.369   83.459
  308.500    6.083    0.211    0.417   81.414
  308.750    5.946    0.221    0.440   77.859
  309.000    5.889    0.250    0.447   72.915
  309.250    5.877    0.269    0.454   67.428
  309.500    5.920    0.290    0.456   61.459
  309.750    5.930    0.281    0.442   66.902
  310.000    5.841    0.263    0.421   72.405
  310.250    5.634    0.254    0.407   75.313
  310.500    5.456    0.248    0.397   76.649
  310.750    5.283    0.247    0.389   74.604
  311.000    5.125    0.243    0.396   75.820
  311.250    4.963    0.237    0.407   79.816
  311.500    4.805    0.226    0.419   83.869
  311.750    4.697    0.216    0.431   92.028
  312.000    4.574    0.203    0.432   98.076
  312.250    4.396    0.206    0.445  100.741
  312.500    4.240    0.197    0.455   98.273
  312.750    4.083    0.172    0.466   93.571
  313.000    3.887    0.115    0.485   93.218
  313.250    3.750    0.120    0.518   97.634
  313.500    3.597    0.134    0.532   99.454
  313.750    3.470    0.154    0.509   96.443
  314.000    3.347    0.171    0.490   92.649
  314.250    3.241    0.186    0.485   92.172
  314.500    3.186    0.184    0.487  101.359
  314.750    3.144    0.178    0.491  106.138
  315.000    3.173    0.176    0.496  107.898
  315.250    3.572    0.184    0.501  106.215
  315.500    4.137    0.196    0.464  103.869
  315.750    4.596    0.204    0.441  102.066
  316.000    5.263    0.202    0.424   97.243
  316.250    5.881    0.196    0.424   93.748
  316.500    6.210    0.189    0.418   92.368
  316.750    6.472    0.186    0.418   88.874
  317.000    6.619    0.206    0.425   79.462
  317.250    6.681    0.231    0.431   72.586
  317.500    6.604    0.242    0.416   66.073
  317.750    6.419    0.210    0.403   63.907
  318.000    6.123    0.176    0.424   76.174
  318.250    5.807    0.141    0.446   85.481
  318.500    5.730    0.125    0.454   92.435
  318.750    5.707    0.173    0.455   95.885
  319.000    5.848    0.188    0.467   95.470
  319.250    6.164    0.198    0.468   90.708
  319.500    6.351    0.196    0.442   83.228
  319.750    6.581    0.192    0.428   75.024
  320.000    6.630    0.191    0.424   68.752
  320.250    6.629    0.199    0.413   65.137
  320.500    6.541    0.207    0.399   62.550
  320.750    6.454    0.211    0.390   60.807
  321.000    6.356    0.218    0.385   58.461
  321.250    6.367    0.223    0.380   56.537
  321.500    6.463    0.229    0.371   59.503
  321.750    6.634    0.223    0.366   61.263
  322.000    6.848    0.212    0.377   60.002
  322.250    6.848    0.203    0.395   60.011
  322.500    6.898    0.195    0.410   66.965
  322.750    6.897    0.188    0.426   72.287
  323.000    6.844    0.195    0.443   75.133
  323.250    6.741    0.207    0.456   76.653
  323.500    6.601    0.206    0.448   77.806
  323.750    6.440    0.196    0.434   80.713
  324.000    6.367    0.190    0.419   82.110
  324.250    6.318    0.186    0.426   78.616
  324.500    6.234    0.202    0.425   73.431
  324.750    6.174    0.215    0.420   70.420
  325.000    6.185    0.214    0.428   79.365
  325.250    6.195    0.209    0.437   86.318
  325.500    6.183    0.204    0.434   90.735
  325.750    6.182    0.204    0.421   88.871
  326.000    6.169    0.200    0.411   85.981
  326.250    6.133    0.198    0.425   90.699
  326.500    6.029    0.188    0.426   95.842
  326.750    6.017    0.181    0.418   97.237
  327.000    6.073    0.197    0.421   93.139
  327.250    6.083    0.207    0.420   86.505
  327.500    6.036    0.197    0.409   80.537
  327.750    5.650    0.182    0.395   79.758
  328.000    5.190    0.170    0.387   83.753
  328.250    4.839    0.160    0.384   88.413
  328.500    4.607    0.159    0.395   93.192
  328.750    4.378    0.170    0.412   96.037
  329.000    4.239    0.177    0.430   97.796
  329.250    4.151    0.186    0.442  100.582
  329.500    4.166    0.196    0.464  105.724
  329.750    4.358    0.207    0.523  103.376
  330.000    4.663    0.218    0.511   89.073
  330.250    5.056    0.231    0.498   82.619
  330.500    5.492    0.216    0.480   87.217
  330.750    5.800    0.192    0.453   75.209
  331.000    6.067    0.180    0.460   61.630
  331.250    6.228    0.214    0.472   68.704
  331.500    6.274    0.243    0.468   71.611
  331.750    6.214    0.259    0.448   72.162
  332.000    6.131    0.269    0.433   71.085
  332.250    6.027    0.268    0.411   71.394
  332.500    6.026    0.263    0.401   72.369
  332.750    6.152    0.252    0.393   73.343
  333.000    6.887    0.232    0.372   76.551
  333.250    7.710    0.214    0.388   80.184
  333.500    8.895    0.298    0.439   81.097
  333.750   10.109    0.361    0.463   66.915
  334.000   11.106    0.365    0.507   56.538
  334.250   11.728    0.296    0.545   51.050
  334.500   12.198    0.274    0.494   46.651
  334.750   12.428    0.281    0.483   51.129
  335.000   12.614    0.263    0.464   54.638
  335.250   12.684    0.248    0.450   58.815
  335.500   12.586    0.251    0.451   59.788
  335.750   12.467    0.261    0.464   60.279
  336.000   11.624    0.265    0.467   52.920
  336.250   11.215    0.260    0.458   49.667
  336.500    9.321    0.259    0.450   52.816
  336.750    8.611    0.238    0.439   54.333
