~VERSION INFORMATION
 VERS.                 2.0:   CWLS LOG ASCII STANDARD -VERSION 2.0
 WRAP.                  NO:   ONE LINE PER DEPTH STEP
~WELL INFORMATION BLOCK
#MNEM.UNIT           DATA                    DESCRIPTION OF MNEMONIC
#---------    -------------------            -------------------------------
# Generated from Intellog Unique Number	CS_71_72/WELL/921
WELL.         HUDSON'S BAY OIL AND GAS       : Well_name    - WELL
LOC .         00/13-15-071-12W4/0            : Location     - LOCATION
UWI .         00/13-15-071-12W4/0            : Uwi          - UNIQUE WELL ID
ENTR.         SP                             : Entered      - ENTERED BY
SRVC.         SCHLUMBERGER                   : Scn          - SERVICE COMPANY
STRT.M        260                            : top_depth    - START DEPTH
STOP.M        480                            : bot_depth    - STOP DEPTH
STEP.M        0.25                           : increment    - STEP LENGTH
 NULL. -999.2500:NULL Value
~CURVE INFORMATION BLOCK
#MNEM UNIT       ERCB CURVE CODE    CURVE DESCRIPTION
#-----------   ------------------   ----------------------------------
DEPT.M        00 001 00 00         : DEPTH        - DEPTH
ILD .OHMM     00 120 00 00         : RESD         - DEEP RESISTIVITY (DIL)
DPHI.V/V      00 890 00 00         : PHID         - DENSITY POROSITY (LIMESTONE)
NPHI.V/V      00 330 00 00         : PHIN         - NEUTRON POROSITY (LIMESTONE)
GR  .API      00 310 00 00         : GR           - GAMMA RAY
~PARAMETER INFORMATION
#MNEM.UNIT           DATA             DESCRIPTION OF MNEMONIC
#---------         -----------     ------------------------------
GL  .M        597.56               : gl           - GROUND LEVEL ELEVATION
EREF.M        601.56               : kb           - ELEVATION OF DEPTH REFERENCE
DATM.M        597.96               : datum        - DATUM ELEVATION
TDD .M        484                  : tdd          - TOTAL DEPTH DRILLER
RUN .         ONE                  : Run          - RUN NUMBER
ENG .         BILL                 : Engineer     - RECORDING ENGINEER
WIT .         JIM                  : Witness      - WITNESSED BY
MUD .         GEL                  : Mud_type     - MUD TYPE
MATR.         LIMESTONE            : Logunit      - NEUTRON MATRIX
TMAX.C        22                   : BHT          - MAXIMUM RECORDED TEMPERATURE
BHTD.M        484                  : BHTDEP       - MAXIMUM RECORDED TEMPERATURE
MATR.         1                    : LOGUNIT      - NEUTRON MATRIX
RMT .C        25                   : MDTP         - TEMPERATURE OF MUD
NEUT.         1                    : NEUTRON      - NEUTRON TYPE
RESI.         0                    : RESIST       - RESISTIVITY TYPE
RMC .OHMM     0.25                 : RMC          - RESISTIVITY OF MUD CAKE
RMF .OHMM     0.25                 : RMF          - RESISTIVITY OF MUD FILTRATE
SUFT.C        15                   : SUFT         - SURFACE TEMPERATURE
~A  DEPTH     RESD     PHID     PHIN       GR
# ...
  347.000    9.325    0.303    0.451   47.243
  347.250    9.356    0.305    0.441   48.565
  347.500    9.371    0.311    0.432   49.036
  347.750    9.366    0.312    0.433   48.773
  348.000    9.309    0.305    0.439   46.136
  348.250    9.254    0.300    0.426   48.128
  348.500    9.198    0.297    0.420   49.388
  348.750    9.109    0.296    0.415   48.092
  349.000    8.867    0.297    0.414   49.717
  349.250    8.780    0.299    0.451   50.431
  349.500    8.761    0.307    0.450   50.407
  349.750    8.807    0.316    0.437   49.541
  350.000    8.935    0.320    0.428   47.999
  350.250    8.748    0.324    0.425   46.579
  350.500    9.220    0.320    0.428   45.521
  350.750    9.165    0.310    0.435   45.078
  351.000    9.056    0.307    0.445   44.992
  351.250    9.037    0.305    0.448   45.705
  351.500    9.067    0.304    0.449   46.605
  351.750    9.115    0.306    0.453   47.625
  352.000    9.095    0.311    0.455   48.826
  352.250    9.091    0.317    0.451   50.630
  352.500    9.139    0.318    0.437   52.317
  352.750    9.118    0.314    0.419   53.401
  353.000    9.131    0.308    0.422   54.292
  353.250    9.161    0.300    0.436   54.278
  353.500    9.157    0.296    0.448   53.650
  353.750    9.155    0.302    0.465   51.681
  354.000    9.133    0.292    0.485   51.177
  354.250    9.147    0.285    0.455   54.324
  354.500    9.161    0.290    0.446   55.162
  354.750    9.139    0.294    0.445   54.470
  355.000    9.067    0.297    0.446   52.870
  355.250    9.046    0.296    0.462   51.084
  355.500    9.008    0.295    0.455   52.586
  355.750    8.971    0.293    0.441   55.067
  356.000    8.899    0.292    0.449   58.278
  356.250    8.847    0.294    0.445   60.210
  356.500    8.694    0.300    0.441   62.082
  356.750    8.561    0.307    0.451   61.211
  357.000    8.366    0.318    0.455   60.279
  357.250    8.175    0.312    0.456   60.076
  357.500    8.111    0.308    0.455   60.422
  357.750    8.061    0.308    0.446   61.684
  358.000    8.075    0.312    0.437   62.704
  358.250    8.163    0.315    0.434   62.683
  358.500    8.268    0.313    0.441   61.021
  358.750    8.662    0.255    0.450   57.834
  359.000    9.638    0.121    0.286   52.939
  359.250   10.646    0.061    0.246   48.837
  359.500   17.687    0.016    0.215   46.625
  359.750   28.890   -0.011    0.194   46.789
  360.000   34.661   -0.012    0.186   48.719
  360.250   39.082    0.005    0.207   51.992
  360.500   40.183    0.157    0.259   56.545
  360.750   35.810    0.224    0.332   60.426
  361.000   29.769    0.277    0.376   62.908
  361.250   19.670    0.300    0.412   60.937
  361.500   13.803    0.297    0.433   60.738
  361.750   10.464    0.284    0.446   62.057
  362.000    8.797    0.269    0.450   63.199
  362.250    8.172    0.257    0.441   65.374
  362.500    7.956    0.246    0.433   68.403
  362.750    7.730    0.234    0.429   71.554
  363.000    7.641    0.226    0.439   75.131
  363.250    7.538    0.233    0.451   75.478
  363.500    7.450    0.241    0.442   72.412
  363.750    7.364    0.230    0.428   71.054
  364.000    7.114    0.217    0.421   71.766
  364.250    7.060    0.205    0.418   74.001
  364.500    6.860    0.206    0.432   76.480
  364.750    6.692    0.222    0.446   78.231
  365.000    6.564    0.231    0.459   80.102
  365.250    6.464    0.236    0.459   80.084
  365.500    6.425    0.233    0.451   79.273
  365.750    6.495    0.226    0.457   80.046
  366.000    6.715    0.219    0.455   80.942
  366.250    6.906    0.219    0.445   80.740
  366.500    7.207    0.221    0.436   80.355
  366.750    7.314    0.220    0.429   80.460
  367.000    7.367    0.217    0.431   81.111
  367.250    7.226    0.206    0.445   81.947
  367.500    7.062    0.194    0.454   82.293
  367.750    6.863    0.186    0.460   81.910
  368.000    6.668    0.179    0.455   80.367
  368.250    6.604    0.173    0.448   78.338
  368.500    6.564    0.171    0.451   76.916
  368.750    6.561    0.178    0.454   76.594
  369.000    6.533    0.187    0.449   80.232
  369.250    6.506    0.192    0.453   84.418
  369.500    6.467    0.196    0.469   87.386
  369.750    6.367    0.202    0.484   83.346
  370.000    6.247    0.208    0.471   80.647
  370.250    6.094    0.217    0.474   79.226
  370.500    6.068    0.227    0.471   79.329
  370.750    6.228    0.237    0.464   78.883
  371.000    6.488    0.246    0.458   76.304
  371.250    6.709    0.245    0.457   73.911
  371.500    6.976    0.236    0.467   76.390
  371.750    7.066    0.235    0.466   77.347
  372.000    7.116    0.229    0.458   76.595
  372.250    7.087    0.221    0.451   72.923
  372.500    7.097    0.214    0.446   75.768
  372.750    7.081    0.212    0.447   79.833
  373.000    7.051    0.211    0.464   83.593
  373.250    7.009    0.212    0.476   82.903
  373.500    6.928    0.206    0.472   81.117
  373.750    6.770    0.203    0.472   79.998
  374.000    6.505    0.198    0.481   80.592
  374.250    6.334    0.198    0.473   82.890
  374.500    6.189    0.205    0.467   84.029
  374.750    6.117    0.194    0.464   83.157
  375.000    6.114    0.197    0.461   81.251
  375.250    6.147    0.219    0.447   83.060
  375.500    5.356    0.234    0.429   86.756
  375.750    4.161    0.248    0.414   88.996
  376.000    3.154    0.258    0.468   91.353
  376.250    2.516    0.267    0.503   92.128
  376.500    2.060    0.266    0.533   92.110
  376.750    1.802    0.263    0.555   90.382
  377.000    1.708    0.258    0.570   90.122
  377.250    1.663    0.256    0.574   88.272
  377.500    1.810    0.244    0.580   85.086
  377.750    2.237    0.229    0.536   80.681
  378.000    2.725    0.225    0.479   76.640
  378.250    3.363    0.227    0.476   76.620
  378.500    4.035    0.215    0.464   78.794
  378.750    4.515    0.208    0.454   80.478
  379.000    4.939    0.203    0.449   81.014
  379.250    5.205    0.208    0.454   80.997
  379.500    5.443    0.217    0.445   78.963
  379.750    5.420    0.225    0.440   77.423
  380.000    5.297    0.234    0.438   76.307
  380.250    5.119    0.236    0.439   75.314
  380.500    4.881    0.243    0.457   75.295
  380.750    4.673    0.250    0.475   75.096
  381.000    4.715    0.256    0.480   74.161
  381.250    4.830    0.261    0.475   72.987
  381.500    4.975    0.270    0.479   71.079
  381.750    5.272    0.282    0.468   68.501
  382.000    5.767    0.291    0.468   66.959
  382.250    5.931    0.290    0.467   68.157
  382.500    6.075    0.280    0.456   72.345
  382.750    6.118    0.272    0.442   76.654
  383.000    6.069    0.276    0.428   72.308
  383.250    6.066    0.286    0.419   66.926
  383.500    6.098    0.292    0.425   64.044
  383.750    6.153    0.293    0.435   61.769
  384.000    6.173    0.292    0.449   60.288
  384.250    6.183    0.293    0.463   58.321
  384.500    6.192    0.296    0.454   55.191
  384.750    6.191    0.302    0.445   53.468
  385.000    6.141    0.309    0.447   52.049
  385.250    6.048    0.312    0.442   53.372
  385.500    5.933    0.312    0.431   60.786
  385.750    5.831    0.298    0.419   67.900
  386.000    5.774    0.270    0.413   75.985
  386.250    5.804    0.225    0.409   82.733
  386.500    5.867    0.227    0.434   85.579
  386.750    5.954    0.229    0.452   82.390
  387.000    6.274    0.230    0.469   73.353
  387.250    7.484    0.054    0.484   63.095
  387.500    9.099    0.013    0.449   54.606
  387.750   11.572   -0.001    0.228   47.762
  388.000   13.396   -0.001    0.205   54.265
  388.250   15.019    0.030    0.289   62.230
  388.500   15.385    0.061    0.346   67.025
  388.750    9.901    0.107    0.387   69.933
  389.000    6.079    0.164    0.426   72.229
  389.250    5.130    0.201    0.466   73.917
  389.500    4.504    0.223    0.483   76.210
  389.750    4.295    0.240    0.475   77.903
  390.000    4.205    0.241    0.469   78.311
  390.250    4.188    0.229    0.463   71.162
