~VERSION INFORMATION
 VERS.                 2.0:   CWLS LOG ASCII STANDARD -VERSION 2.0
 WRAP.                  NO:   ONE LINE PER DEPTH STEP
~WELL INFORMATION BLOCK
#MNEM.UNIT           DATA                    DESCRIPTION OF MNEMONIC
#---------    -------------------            -------------------------------
# Generated from Intellog Unique Number	CS_67_68/WELL/2209
WELL.         11-24-067-04W4                 : Well_name    - WELL
LOC .         00/11-24-067-04W4/0            : Location     - LOCATION
UWI .         00/11-24-067-04W4/0            : Uwi          - UNIQUE WELL ID
ENTR.         SP                             : Entered      - ENTERED BY
SRVC.         SCHLUMBERGER                   : Scn          - SERVICE COMPANY
STRT.M        320                            : top_depth    - START DEPTH
STOP.M        553                            : bot_depth    - STOP DEPTH
STEP.M        0.25                           : increment    - STEP LENGTH
 NULL. -999.2500:NULL Value
~CURVE INFORMATION BLOCK
#MNEM UNIT       ERCB CURVE CODE    CURVE DESCRIPTION
#-----------   ------------------   ----------------------------------
DEPT.M        00 001 00 00         : DEPTH        - DEPTH
ILD .OHMM     00 120 00 00         : RESD         - DEEP RESISTIVITY (DIL)
DPHI.V/V      00 890 00 00         : PHID         - DENSITY POROSITY (LIMESTONE)
NPHI.V/V      00 330 00 00         : PHIN         - NEUTRON POROSITY (LIMESTONE)
GR  .API      00 310 00 00         : GR           - GAMMA RAY
CALI.MM       00 280 01 00         : CAL          - CALIPER
~PARAMETER INFORMATION
#MNEM.UNIT           DATA             DESCRIPTION OF MNEMONIC
#---------         -----------     ------------------------------
GL  .M        674.8                : gl           - GROUND LEVEL ELEVATION
EREF.M        678                  : kb           - ELEVATION OF DEPTH REFERENCE
DATM.M        678                  : datum        - DATUM ELEVATION
TDD .M        558                  : tdd          - TOTAL DEPTH DRILLER
RUN .         ONE                  : Run          - RUN NUMBER
ENG .         BILL                 : Engineer     - RECORDING ENGINEER
WIT .         JIM                  : Witness      - WITNESSED BY
MUD .         GEL                  : Mud_type     - MUD TYPE
MATR.         LIMESTONE            : Logunit      - NEUTRON MATRIX
TMAX.C        18.3                 : BHT          - MAXIMUM RECORDED TEMPERATURE
BHTD.M        556.5                : BHTDEP       - MAXIMUM RECORDED TEMPERATURE
MATR.         1                    : LOGUNIT      - NEUTRON MATRIX
RMT .C        25                   : MDTP         - TEMPERATURE OF MUD
NEUT.         1                    : NEUTRON      - NEUTRON TYPE
RESI.         0                    : RESIST       - RESISTIVITY TYPE
RMC .OHMM     0.25                 : RMC          - RESISTIVITY OF MUD CAKE
RMF .OHMM     0.25                 : RMF          - RESISTIVITY OF MUD FILTRATE
SUFT.C        15                   : SUFT         - SURFACE TEMPERATURE
~A  DEPTH     RESD     PHID     PHIN       GR      CAL
# ...
  429.500    9.400    0.318    0.468   60.317  157.302
  429.750    9.346    0.316    0.459   61.428  157.229
  430.000    9.258    0.314    0.454   63.153  157.253
  430.250    9.137    0.319    0.455   62.499  157.687
  430.500    9.068    0.325    0.448   61.418  158.327
  430.750    9.034    0.327    0.451   61.186  158.558
  431.000    9.000    0.326    0.463   60.592  158.479
  431.250    8.898    0.329    0.463   58.412  158.300
  431.500    8.798    0.330    0.456   57.757  158.635
  431.750    8.601    0.327    0.467   59.178  158.456
  432.000    8.282    0.328    0.477   59.985  158.177
  432.250    7.945    0.329    0.487   60.244  157.288
  432.500    7.840    0.332    0.482   58.919  157.009
  432.750    8.050    0.331    0.468   57.104  157.547
  433.000    8.297    0.328    0.462   57.242  157.979
  433.250    8.552    0.323    0.455   60.126  158.411
  433.500    8.814    0.317    0.448   57.883  158.742
  433.750    8.982    0.310    0.442   57.228  158.666
  434.000    9.153    0.303    0.445   60.113  158.594
  434.250    9.223    0.300    0.453   63.787  158.517
  434.500    9.170    0.296    0.434   66.122  158.644
  434.750    9.119    0.295    0.426   66.443  158.771
  435.000    9.067    0.301    0.427   67.009  158.797
  435.250    8.999    0.306    0.420   68.245  158.521
  435.500    8.914    0.299    0.413   69.356  158.444
  435.750    8.814    0.288    0.425   70.718  157.968
  436.000    8.780    0.278    0.435   70.426  157.480
  436.250    8.847    0.270    0.444   66.599  157.099
  436.500    8.948    0.269    0.456   63.748  157.024
  436.750    8.981    0.270    0.468   63.153  157.053
  437.000    8.931    0.258    0.472   62.865  157.079
  437.250    8.797    0.263    0.481   61.781  157.207
  437.500    8.281    0.286    0.463   60.211  157.131
  437.750    7.283    0.297    0.445   60.959  157.259
  438.000    6.478    0.297    0.431   64.086  157.387
  438.250    5.828    0.289    0.449   67.335  157.617
  438.500    5.486    0.277    0.463   71.014  157.851
  438.750    5.828    0.225    0.477   73.895  158.483
  439.000    6.238    0.067    0.489   69.823  159.323
  439.250    6.778    0.027    0.313   61.237  160.466
  439.500    7.241    0.012    0.209   53.751  161.513
  439.750    7.463    0.175    0.197   57.857  161.741
  440.000    7.534    0.226    0.267   62.138  161.155
  440.250    7.296    0.268    0.348   70.454  159.456
  440.500    6.740    0.280    0.415   74.983  158.667
  440.750    6.109    0.279    0.442   78.047  158.694
  441.000    5.569    0.285    0.459   79.038  159.129
  441.250    5.135    0.300    0.462   78.994  159.465
  441.500    4.788    0.290    0.448   78.704  159.791
  441.750    4.559    0.276    0.472   81.223  160.326
  442.000    4.308    0.274    0.486   83.252  160.556
  442.250    4.025    0.285    0.466   83.877  160.580
  442.500    3.832    0.286    0.457   83.892  160.405
  442.750    3.676    0.283    0.475   82.689  160.431
  443.000    3.774    0.274    0.501   83.987  160.864
  443.250    3.890    0.280    0.517   84.612  161.500
  443.500    4.040    0.286    0.501   85.115  161.831
  443.750    4.187    0.278    0.514   85.313  162.265
  444.000    4.025    0.273    0.499   87.647  162.696
  444.250    3.655    0.270    0.491   90.775  161.300
  444.500    3.239    0.266    0.496   93.475  159.089
  444.750    2.953    0.262    0.504   95.383  159.015
  445.000    2.753    0.258    0.519   96.495  159.142
  445.250    2.738    0.260    0.537   96.572  159.273
  445.500    2.764    0.263    0.552   95.307  159.602
  445.750    2.843    0.261    0.534   91.845  159.323
  446.000    2.941    0.253    0.529   91.375  159.858
  446.250    3.026    0.248    0.539   92.915  160.296
  446.500    3.136    0.245    0.524   94.150  160.421
  446.750    3.239    0.240    0.512   94.959  160.546
  447.000    3.313    0.237    0.521   95.768  160.674
  447.250    3.781    0.237    0.517   90.293  160.498
  447.500    6.062    0.263    0.505   83.844  160.117
  447.750    9.647    0.282    0.493   77.393  159.640
  448.000   14.894    0.304    0.478   70.515  159.458
  448.250   19.883    0.314    0.464   65.833  159.588
  448.500   23.126    0.322    0.453   62.007  159.616
  448.750   25.177    0.326    0.444   60.741  159.741
  449.000   26.047    0.335    0.450   63.868  159.668
  449.250   25.900    0.339    0.461   65.957  159.592
  449.500   24.473    0.335    0.451   66.953  159.317
  449.750   22.184    0.332    0.448   67.211  159.036
  450.000   19.733    0.327    0.459   65.031  158.859
  450.250   17.552    0.324    0.470   64.435  158.680
  450.500   15.379    0.326    0.463   65.304  158.506
  450.750   13.000    0.317    0.468   66.479  158.529
  451.000   11.177    0.310    0.480   66.739  158.657
  451.250   10.189    0.305    0.486   67.122  159.091
  451.500    9.394    0.304    0.479   68.235  159.319
  451.750    8.793    0.306    0.485   70.631  159.552
  452.000    8.200    0.310    0.489   72.598  159.983
  452.250    7.837    0.312    0.483   67.551  160.318
  452.500    7.377    0.310    0.480   68.299  160.545
  452.750    6.866    0.302    0.484   73.196  160.980
  453.000    6.189    0.289    0.495   77.176  161.206
  453.250    5.903    0.285    0.504   68.896  161.640
  453.500    6.319    0.218    0.395   60.005  161.870
  453.750    6.687    0.149    0.326   52.761  161.895
  454.000    7.037    0.166    0.390   55.951  161.314
  454.250    7.280    0.243    0.447   61.090  160.934
  454.500    7.294    0.259    0.476   65.499  160.863
  454.750    7.503    0.269    0.491   67.648  160.681
  455.000    9.998    0.286    0.469   62.967  160.606
  455.250   15.582    0.309    0.456   59.994  160.225
  455.500   21.118    0.330    0.448   58.241  159.845
  455.750   25.172    0.333    0.448   57.829  159.566
  456.000   27.613    0.342    0.449   58.029  159.186
  456.250   28.784    0.349    0.449   57.561  159.111
  456.500   28.947    0.337    0.465   57.085  158.833
  456.750   28.621    0.326    0.474   56.184  158.554
  457.000   27.926    0.326    0.466   56.444  158.276
  457.250   26.338    0.333    0.445   57.375  158.097
  457.500   25.171    0.327    0.426   58.491  157.922
  457.750   24.147    0.326    0.423   59.237  157.646
  458.000   23.695    0.326    0.447   60.167  157.668
  458.250   23.874    0.326    0.460   58.536  157.694
  458.500   25.076    0.327    0.464   56.112  157.723
  458.750   26.688    0.332    0.457   54.360  157.953
  459.000   27.820    0.335    0.464   52.668  158.080
  459.250   28.511    0.335    0.479   51.707  158.208
  459.500   29.164    0.333    0.475   50.381  158.236
  459.750   29.274    0.338    0.472   49.908  158.666
  460.000   28.999    0.339    0.483   53.098  158.900
  460.250   28.403    0.294    0.494   55.858  159.030
  460.500   28.030    0.267    0.501   57.886  159.254
  460.750   28.242    0.264    0.393   58.758  159.381
  461.000   28.889    0.298    0.411   57.430  159.612
  461.250   29.607    0.324    0.431   53.542  159.741
  461.500   30.057    0.337    0.442   54.228  159.769
  461.750   29.831    0.334    0.442   55.708  159.796
  462.000   28.617    0.331    0.454   58.104  159.822
  462.250   27.452    0.330    0.464   57.264  159.947
  462.500   26.736    0.330    0.471   56.490  159.874
  462.750   26.335    0.331    0.462   56.749  159.596
  463.000   26.235    0.335    0.456   58.228  159.520
  463.250   26.484    0.336    0.471   59.402  159.444
  463.500   26.186    0.332    0.463   58.076  159.573
  463.750   23.691    0.328    0.451   56.139  159.598
  464.000   20.026    0.333    0.437   62.929  159.933
  464.250   15.115    0.319    0.418   68.799  160.159
  464.500   12.118    0.282    0.414   76.623  160.590
  464.750    9.338    0.252    0.481   85.179  161.228
  465.000    8.385    0.250    0.491   75.374  161.255
  465.250    9.391    0.261    0.507   68.802  160.974
  465.500   10.597    0.276    0.520   64.669  161.204
  465.750   11.669    0.290    0.529   62.428  161.335
