~VERSION INFORMATION
 VERS.                 2.0:   CWLS LOG ASCII STANDARD -VERSION 2.0
 WRAP.                  NO:   ONE LINE PER DEPTH STEP
~WELL INFORMATION BLOCK
#MNEM.UNIT           DATA                    DESCRIPTION OF MNEMONIC
#---------    -------------------            -------------------------------
# Generated from Intellog Unique Number	CS_77_79/WELL/984
WELL.         CANADIAN WORLDWIDE ENERGY      : Well_name    - WELL
LOC .         00/11-03-077-04W4/0            : Location     - LOCATION
UWI .         00/11-03-077-04W4/0            : Uwi          - UNIQUE WELL ID
ENTR.         SP                             : Entered      - ENTERED BY
SRVC.         SCHLUMBERGER                   : Scn          - SERVICE COMPANY
STRT.M        175                            : top_depth    - START DEPTH
STOP.M        450                            : bot_depth    - STOP DEPTH
STEP.M        0.25                           : increment    - STEP LENGTH
 NULL. -999.2500:NULL Value
~CURVE INFORMATION BLOCK
#MNEM UNIT       ERCB CURVE CODE    CURVE DESCRIPTION
#-----------   ------------------   ----------------------------------
DEPT.M        00 001 00 00         : DEPTH        - DEPTH
ILD .OHMM     00 120 00 00         : RESD         - DEEP RESISTIVITY (DIL)
DPHI.V/V      00 890 00 00         : PHID         - DENSITY POROSITY (LIMESTONE)
NPHI.V/V      00 330 00 00         : PHIN         - NEUTRON POROSITY (LIMESTONE)
GR  .API      00 310 00 00         : GR           - GAMMA RAY
~PARAMETER INFORMATION
#MNEM.UNIT           DATA             DESCRIPTION OF MNEMONIC
#---------         -----------     ------------------------------
GL  .M        577.9                : gl           - GROUND LEVEL ELEVATION
EREF.M        581.55               : kb           - ELEVATION OF DEPTH REFERENCE
DATM.M        577.9                : datum        - DATUM ELEVATION
TDD .M        450                  : tdd          - TOTAL DEPTH DRILLER
RUN .         ONE                  : Run          - RUN NUMBER
ENG .         BILL                 : Engineer     - RECORDING ENGINEER
WIT .         JIM                  : Witness      - WITNESSED BY
MUD .         GEL                  : Mud_type     - MUD TYPE
MATR.         LIMESTONE            : Logunit      - NEUTRON MATRIX
TMAX.C        23                   : BHT          - MAXIMUM RECORDED TEMPERATURE
BHTD.M        450                  : BHTDEP       - MAXIMUM RECORDED TEMPERATURE
MATR.         1                    : LOGUNIT      - NEUTRON MATRIX
RMT .C        25                   : MDTP         - TEMPERATURE OF MUD
NEUT.         1                    : NEUTRON      - NEUTRON TYPE
RESI.         0                    : RESIST       - RESISTIVITY TYPE
RMC .OHMM     0.25                 : RMC          - RESISTIVITY OF MUD CAKE
RMF .OHMM     0.25                 : RMF          - RESISTIVITY OF MUD FILTRATE
SUFT.C        15                   : SUFT         - SURFACE TEMPERATURE
~A  DEPTH     RESD     PHID     PHIN       GR
# ...
  349.000   10.602    0.242    0.280   91.868
  349.250   10.222    0.211    0.293   89.394
  349.500   10.037    0.206    0.299   83.821
  349.750   10.237    0.211    0.304   78.248
  350.000   10.439    0.288    0.283   73.912
  350.250   11.698    0.289    0.249   70.817
  350.500   13.107    0.289    0.217   73.302
  350.750   15.539    0.306    0.159   68.348
  351.000   17.740    0.345    0.140   64.634
  351.250   20.640    0.390    0.119   60.299
  351.500   22.269    0.373    0.121   62.163
  351.750   22.719    0.286    0.166   77.044
  352.000   23.613    0.254    0.187   92.545
  352.250   23.631    0.262    0.170  102.466
  352.500   24.093    0.285    0.149  102.472
  352.750   23.664    0.338    0.127   94.417
  353.000   21.157    0.389    0.103   84.505
  353.250   18.557    0.372    0.117   77.692
  353.500   14.819    0.351    0.184   69.638
  353.750   11.611    0.327    0.239   54.767
  354.000    8.440    0.312    0.267   59.111
  354.250    7.131    0.309    0.271   64.073
  354.500    6.618    0.326    0.271   59.119
  354.750    6.146    0.333    0.273   54.786
  355.000    6.034    0.339    0.278   50.451
  355.250    6.154    0.321    0.281   59.133
  355.500    6.397    0.297    0.283   82.692
  355.750    6.646    0.252    0.283   89.514
  356.000    7.172    0.242    0.281   83.322
  356.250    7.738    0.238    0.280   80.848
  356.500    8.042    0.249    0.278   80.231
  356.750    7.608    0.275    0.276   83.335
  357.000    7.331    0.287    0.276   83.960
  357.250    6.682    0.279    0.284   81.485
  357.500    6.440    0.266    0.286   79.632
  357.750    6.325    0.269    0.287   79.635
  358.000    6.096    0.290    0.287   75.920
  358.250    5.875    0.320    0.284   61.048
  358.500    5.770    0.302    0.282   65.392
  358.750    5.667    0.280    0.295   70.975
  359.000    5.565    0.268    0.303   74.700
  359.250    5.366    0.269    0.307   67.266
  359.500    5.269    0.282    0.316   62.312
  359.750    4.986    0.297    0.322   62.937
  360.000    4.896    0.306    0.322   62.940
  360.250    4.808    0.299    0.322   59.846
  360.500    4.723    0.290    0.324   56.132
  360.750    4.637    0.290    0.327   48.698
  361.000    4.642    0.315    0.328   39.406
  361.250    4.558    0.316    0.326   38.791
  361.500    4.563    0.315    0.322   38.176
  361.750    4.566    0.316    0.316   36.321
  362.000    4.570    0.317    0.313   38.805
  362.250    4.748    0.313    0.315   47.487
  362.500    5.321    0.274    0.317   74.764
  362.750    6.192    0.242    0.315   77.869
  363.000    6.555    0.219    0.312   73.534
  363.250    6.811    0.216    0.311   66.100
  363.500    6.568    0.234    0.312   58.667
  363.750    6.451    0.255    0.316   52.474
  364.000    6.101    0.263    0.321   58.056
  364.250    5.879    0.253    0.323   54.342
  364.500    5.063    0.277    0.323   46.909
  364.750    4.788    0.296    0.326   43.814
  365.000    4.614    0.314    0.328   45.059
  365.250    4.448    0.323    0.331   41.964
  365.500    4.129    0.318    0.331   41.970
  365.750    4.132    0.308    0.331   46.313
  366.000    4.135    0.311    0.334   48.796
  366.250    4.062    0.312    0.335   48.801
  366.500    4.143    0.307    0.334   44.467
  366.750    4.225    0.308    0.334   40.132
  367.000    4.229    0.309    0.333   37.038
  367.250    4.233    0.309    0.329   35.184
  367.500    4.236    0.305    0.329   33.949
  367.750    4.240    0.305    0.330   33.332
  368.000    4.243    0.307    0.333   34.578
  368.250    4.168    0.307    0.334   34.583
  368.500    4.170    0.307    0.333   35.207
  368.750    4.174    0.306    0.333   34.592
  369.000    4.177    0.306    0.335   33.977
  369.250    4.180    0.308    0.337   35.841
  369.500    4.184    0.321    0.335   37.084
  369.750    4.187    0.324    0.335   38.949
  370.000    4.191    0.324    0.345   39.573
  370.250    4.194    0.323    0.343   38.958
  370.500    4.197    0.321    0.335   37.723
  370.750    4.202    0.324    0.330   35.868
  371.000    4.205    0.325    0.325   34.633
  371.250    4.208    0.327    0.322   34.637
  371.500    4.211    0.324    0.322   32.782
  371.750    4.217    0.320    0.322   32.167
  372.000    4.141    0.314    0.322   34.032
  372.250    4.144    0.313    0.322   34.037
  372.500    4.146    0.314    0.322   35.901
  372.750    4.072    0.307    0.319   37.145
  373.000    4.153    0.303    0.318   41.490
  373.250    4.081    0.314    0.316   42.732
  373.500    4.083    0.320    0.314   42.117
  373.750    4.087    0.315    0.312   40.882
  374.000    4.090    0.313    0.311   41.507
  374.250    4.017    0.314    0.314   42.752
  374.500    4.096    0.322    0.322   40.276
  374.750    4.099    0.329    0.333   37.802
  375.000    4.043    0.339    0.325   34.664
  375.250    4.121    0.338    0.323   35.312
  375.500    4.124    0.330    0.324   35.962
  375.750    4.127    0.328    0.326   32.832
  376.000    4.207    0.325    0.325   29.062
  376.250    4.292    0.324    0.323   27.185
  376.500    4.294    0.323    0.318   25.945
  376.750    4.296    0.316    0.313   30.372
  377.000    4.300    0.306    0.313   34.171
  377.250    4.383    0.311    0.321   34.817
  377.500    4.387    0.322    0.326   32.313
  377.750    4.307    0.325    0.326   32.966
  378.000    4.393    0.314    0.325   33.605
  378.250    4.313    0.324    0.324   39.929
  378.500    4.316    0.327    0.322   43.729
  378.750    4.317    0.317    0.321   44.370
  379.000    4.240    0.310    0.322   39.348
  379.250    4.242    0.307    0.323   37.472
  379.500    4.245    0.311    0.321   36.862
  379.750    4.169    0.316    0.317   36.247
  380.000    4.171    0.322    0.317   35.001
  380.250    4.095    0.336    0.318   33.757
  380.500    4.098    0.339    0.322   37.559
  380.750    4.102    0.340    0.323   45.765
  381.000    4.027    0.340    0.328   42.634
  381.250    4.030    0.340    0.332   33.824
  381.500    3.956    0.338    0.333   30.689
  381.750    3.960    0.337    0.330   32.601
  382.000    4.037    0.334    0.333   38.286
  382.250    4.039    0.333    0.338   40.826
  382.500    4.041    0.332    0.349   35.175
  382.750    4.044    0.325    0.357   31.407
  383.000    4.046    0.322    0.357   30.163
  383.250    4.050    0.320    0.356   30.176
  383.500    4.052    0.328    0.347   30.834
  383.750    4.132    0.344    0.344   30.846
  384.000    4.134    0.345    0.337   30.862
  384.250    4.216    0.337    0.330   35.286
  384.500    4.299    0.316    0.325   36.564
  384.750    4.383    0.309    0.324   35.951
  385.000    4.469    0.323    0.327   35.337
  385.250    4.558    0.346    0.330   35.352
  385.500    4.737    0.355    0.327   38.519
  385.750    4.829    0.289    0.321   40.427
  386.000    5.018    0.287    0.315   49.271
  386.250    5.215    0.293    0.310   56.847
  386.500    5.319    0.306    0.312   72.625
  386.750    5.320    0.258    0.319   77.050
  387.000    5.530    0.236    0.333   80.221
  387.250    5.637    0.229    0.337   80.863
  387.500    5.859    0.237    0.337   81.516
  387.750    5.973    0.242    0.339   82.795
  388.000    6.090    0.233    0.350   83.435
  388.250    6.211    0.238    0.350   85.344
  388.500    6.098    0.242    0.345   85.992
  388.750    5.877    0.236    0.350   87.271
  389.000    5.770    0.234    0.359   87.915
  389.250    5.561    0.236    0.360   86.673
  389.500    5.461    0.239    0.355   84.798
  389.750    5.362    0.252    0.361   82.924
  390.000    5.264    0.257    0.358   84.200
  390.250    5.267    0.250    0.346   86.740
  390.500    5.473    0.237    0.338   88.645
  390.750    5.581    0.223    0.345   89.927
  391.000    5.378    0.214    0.346   88.681
  391.250    5.182    0.217    0.345   80.505
  391.500    4.900    0.266    0.350   71.697
  391.750    4.633    0.301    0.361   61.000
  392.000    4.380    0.322    0.372   57.867
  392.250    4.467    0.312    0.367   63.554
