~VERSION INFORMATION
 VERS.                 2.0:   CWLS LOG ASCII STANDARD -VERSION 2.0
 WRAP.                  NO:   ONE LINE PER DEPTH STEP
~WELL INFORMATION BLOCK
#MNEM.UNIT           DATA                    DESCRIPTION OF MNEMONIC
#---------    -------------------            -------------------------------
# Generated from Intellog Unique Number	CS_73_76/WELL/806
WELL.         PACIFIC PHILLIPS AEC WIAU      : Well_name    - WELL
LOC .         00/10-03-073-07W4/0            : Location     - LOCATION
UWI .         00/10-03-073-07W4/0            : Uwi          - UNIQUE WELL ID
ENTR.         SP                             : Entered      - ENTERED BY
SRVC.         SCHLUMBERGER                   : Scn          - SERVICE COMPANY
STRT.M        340                            : top_depth    - START DEPTH
STOP.M        560                            : bot_depth    - STOP DEPTH
STEP.M        0.25                           : increment    - STEP LENGTH
 NULL. -999.2500:NULL Value
~CURVE INFORMATION BLOCK
#MNEM UNIT       ERCB CURVE CODE    CURVE DESCRIPTION
#-----------   ------------------   ----------------------------------
DEPT.M        00 001 00 00         : DEPTH        - DEPTH
ILD .OHMM     00 120 00 00         : RESD         - DEEP RESISTIVITY (DIL)
DPHI.V/V      00 890 00 00         : PHID         - DENSITY POROSITY (LIMESTONE)
NPHI.V/V      00 330 00 00         : PHIN         - NEUTRON POROSITY (LIMESTONE)
GR  .API      00 310 00 00         : GR           - GAMMA RAY
~PARAMETER INFORMATION
#MNEM.UNIT           DATA             DESCRIPTION OF MNEMONIC
#---------         -----------     ------------------------------
GL  .M        720.71               : gl           - GROUND LEVEL ELEVATION
EREF.M        723.71               : kb           - ELEVATION OF DEPTH REFERENCE
DATM.M        720.71               : datum        - DATUM ELEVATION
TDD .M        573                  : tdd          - TOTAL DEPTH DRILLER
RUN .         ONE                  : Run          - RUN NUMBER
ENG .         BILL                 : Engineer     - RECORDING ENGINEER
WIT .         JIM                  : Witness      - WITNESSED BY
MUD .         GEL                  : Mud_type     - MUD TYPE
MATR.         LIMESTONE            : Logunit      - NEUTRON MATRIX
TMAX.C        16                   : BHT          - MAXIMUM RECORDED TEMPERATURE
BHTD.M        573                  : BHTDEP       - MAXIMUM RECORDED TEMPERATURE
MATR.         1                    : LOGUNIT      - NEUTRON MATRIX
RMT .C        25                   : MDTP         - TEMPERATURE OF MUD
NEUT.         1                    : NEUTRON      - NEUTRON TYPE
RESI.         0                    : RESIST       - RESISTIVITY TYPE
RMC .OHMM     0.25                 : RMC          - RESISTIVITY OF MUD CAKE
RMF .OHMM     0.25                 : RMF          - RESISTIVITY OF MUD FILTRATE
SUFT.C        15                   : SUFT         - SURFACE TEMPERATURE
~A  DEPTH     RESD     PHID     PHIN       GR
# ...
  427.000    5.642    0.243    0.502   75.275
  427.250    5.537    0.243    0.471   72.245
  427.500    5.237    0.241    0.470   73.467
  427.750    4.863    0.246    0.485   75.296
  428.000    4.515    0.243    0.503   77.124
  428.250    4.115    0.230    0.514   77.131
  428.500    3.965    0.225    0.520   75.317
  428.750    3.819    0.249    0.500   74.108
  429.000    3.818    0.254    0.501   75.938
  429.250    3.961    0.247    0.506   76.551
  429.500    4.422    0.242    0.499   74.129
  429.750    4.587    0.253    0.488   72.924
  430.000    4.759    0.255    0.494   72.928
  430.250    4.937    0.258    0.506   72.936
  430.500    5.412    0.261    0.506   72.942
  430.750    5.614    0.272    0.501   70.523
  431.000    6.042    0.289    0.500   68.706
  431.250    6.504    0.279    0.493   66.285
  431.500    6.872    0.273    0.486   64.468
  431.750    6.998    0.272    0.476   64.473
  432.000    6.995    0.277    0.488   65.088
  432.250    6.865    0.277    0.496   64.488
  432.500    6.613    0.289    0.480   63.280
  432.750    6.491    0.297    0.471   62.072
  433.000    6.252    0.291    0.470   61.471
  433.250    6.136    0.286    0.483   63.909
  433.500    5.912    0.284    0.495   63.915
  433.750    5.695    0.290    0.506   62.707
  434.000    5.487    0.286    0.506   63.321
  434.250    5.385    0.284    0.504   66.366
  434.500    5.284    0.271    0.505   67.587
  434.750    5.186    0.266    0.514   68.203
  435.000    5.185    0.272    0.533   68.209
  435.250    5.088    0.265    0.523   66.394
  435.500    4.902    0.242    0.500   65.184
  435.750    4.811    0.214    0.461   66.407
  436.000    4.720    0.231    0.469   68.844
  436.250    4.807    0.256    0.488   70.064
  436.500    4.895    0.258    0.499   70.680
  436.750    5.078    0.270    0.491   71.293
  437.000    5.466    0.279    0.494   71.298
  437.250    5.882    0.281    0.494   67.058
  437.500    5.990    0.295    0.479   65.847
  437.750    5.988    0.293    0.483   64.638
  438.000    5.986    0.289    0.491   67.075
  438.250    4.975    0.285    0.496   71.942
  438.500    4.452    0.272    0.507   73.769
  438.750    3.983    0.245    0.511   76.813
  439.000    3.768    0.233    0.521   79.859
  439.250    3.498    0.232    0.505   81.078
  439.500    3.497    0.238    0.506   81.085
  439.750    3.561    0.241    0.517   82.306
  440.000    3.694    0.244    0.541   83.527
  440.250    3.625    0.227    0.524   82.320
  440.500    3.492    0.216    0.509   83.541
  440.750    3.303    0.210    0.525   85.978
  441.000    3.123    0.222    0.548   88.415
  441.250    3.009    0.216    0.556   88.421
  441.500    3.009    0.216    0.562   89.642
  441.750    2.952    0.223    0.578   91.472
  442.000    2.951    0.229    0.601   90.263
  442.250    3.061    0.236    0.606   89.055
  442.500    3.176    0.236    0.597   90.886
  442.750    3.418    0.227    0.582   90.894
  443.000    3.747    0.223    0.576   89.685
  443.250    4.185    0.232    0.555   85.440
  443.500    4.850    0.213    0.524   79.375
  443.750    5.831    0.244    0.514   76.345
  444.000    6.634    0.248    0.513   74.529
  444.250    7.140    0.244    0.516   74.535
  444.500    7.407    0.230    0.490   77.578
  444.750    7.542    0.234    0.475   78.192
  445.000    7.539    0.244    0.475   78.809
  445.250    7.399    0.243    0.479   79.424
  445.500    7.397    0.231    0.484   78.822
  445.750    6.994    0.233    0.483   77.008
  446.000    6.865    0.235    0.474   75.797
  446.250    6.493    0.230    0.472   75.197
  446.500    6.141    0.230    0.467   73.990
  446.750    5.808    0.224    0.469   75.819
  447.000    5.700    0.199    0.484   77.040
  447.250    5.698    0.189    0.503   78.261
  447.500    5.910    0.220    0.503   79.486
  447.750    6.131    0.234    0.501   79.492
  448.000    6.477    0.234    0.499   78.891
  448.250    6.597    0.241    0.498   76.468
  448.500    6.594    0.230    0.490   75.867
  448.750    6.591    0.207    0.479   79.517
  449.000    6.469    0.196    0.469   81.953
  449.250    6.232    0.181    0.473   81.961
  449.500    6.117    0.177    0.482   81.967
  449.750    5.679    0.193    0.490   82.581
  450.000    5.273    0.189    0.494   81.375
  450.250    4.806    0.213    0.488   80.166
  450.500    4.301    0.206    0.486   83.818
  450.750    3.778    0.228    0.502   85.038
  451.000    3.443    0.230    0.523   83.224
  451.250    3.197    0.224    0.537   83.838
  451.500    3.024    0.224    0.541   85.667
  451.750    3.023    0.221    0.543   82.638
  452.000    3.136    0.214    0.549   80.823
  452.250    3.193    0.215    0.538   81.435
  452.500    3.252    0.209    0.523   83.264
  452.750    3.373    0.203    0.518   85.094
  453.000    3.372    0.206    0.523   86.315
  453.250    3.433    0.217    0.539   86.323
  453.500    3.431    0.236    0.545   83.900
  453.750    3.431    0.244    0.562   80.870
  454.000    3.559    0.245    0.567   76.019
  454.250    3.692    0.242    0.539   72.989
  454.500    4.199    0.236    0.520   71.175
  454.750    4.356    0.266    0.507   72.395
  455.000    4.602    0.259    0.495   74.225
  455.250    4.601    0.268    0.493   74.231
  455.500    4.771    0.244    0.495   74.845
  455.750    4.859    0.250    0.497   76.067
  456.000    4.949    0.251    0.499   75.467
  456.250    5.133    0.241    0.513   72.436
  456.500    5.324    0.238    0.517   70.621
  456.750    5.422    0.245    0.524   71.237
  457.000    5.420    0.243    0.513   71.242
  457.250    5.319    0.268    0.493   68.822
  457.500    5.220    0.284    0.483   65.791
  457.750    5.316    0.275    0.495   62.761
  458.000    6.274    0.274    0.492   58.517
  458.250    6.754    0.263    0.481   54.273
  458.500    8.120    0.087    0.463   48.816
  458.750    8.581    0.053    0.409   45.784
  459.000    9.067    0.041    0.257   42.755
  459.250    9.232    0.093    0.342   53.695
  459.500    7.815    0.191    0.430   59.773
  459.750    7.124    0.242    0.475   65.852
  460.000    6.257    0.265    0.493   71.933
  460.250    5.918    0.257    0.493   73.154
  460.500    5.702    0.239    0.487   71.340
  460.750    5.596    0.242    0.478   68.916
  461.000    5.594    0.263    0.470   62.852
  461.250    5.696    0.277    0.464   61.036
  461.500    5.908    0.284    0.464   62.258
  461.750    6.017    0.286    0.473   61.656
  462.000    6.127    0.291    0.481   62.880
  462.250    6.125    0.276    0.483   64.101
  462.500    6.123    0.267    0.493   64.714
  462.750    6.009    0.258    0.496   66.544
  463.000    5.897    0.250    0.486   67.157
  463.250    5.680    0.250    0.480   70.809
  463.500    5.679    0.237    0.471   75.676
  463.750    5.677    0.228    0.472   76.287
  464.000    5.782    0.239    0.482   73.258
  464.250    5.996    0.272    0.461   70.835
  464.500    6.106    0.256    0.453   75.703
  464.750    6.218    0.226    0.451   76.921
  465.000    6.103    0.208    0.445   77.535
  465.250    5.666    0.236    0.451   77.544
  465.500    5.359    0.235    0.466   78.157
  465.750    5.068    0.229    0.477   79.378
  466.000    4.974    0.252    0.473   79.995
  466.250    4.882    0.258    0.482   81.215
  466.500    4.702    0.255    0.477   82.439
  466.750    4.531    0.224    0.489   82.443
  467.000    4.284    0.203    0.504   81.236
  467.250    4.128    0.215    0.513   81.243
  467.500    3.904    0.239    0.521   83.072
  467.750    4.126    0.236    0.542   84.292
  468.000    4.693    0.248    0.518   78.227
  468.250    5.146    0.239    0.496   73.981
  468.500    6.073    0.248    0.480   70.952
  468.750    6.537    0.259    0.472   69.138
  469.000    6.781    0.252    0.468   69.144
  469.250    7.034    0.253    0.457   68.545
  469.500    7.031    0.245    0.452   67.337
  469.750    6.901    0.247    0.458   66.131
  470.000    6.527    0.256    0.473   66.137
  470.250    5.325    0.265    0.469   67.965
