~VERSION INFORMATION
 VERS.                 2.0:   CWLS LOG ASCII STANDARD -VERSION 2.0
 WRAP.                  NO:   ONE LINE PER DEPTH STEP
~WELL INFORMATION BLOCK
#MNEM.UNIT           DATA                    DESCRIPTION OF MNEMONIC
#---------    -------------------            -------------------------------
# Generated from Intellog Unique Number	CW_82_90/WELL/3454
WELL.         TEXACO CORN LAKE               : Well_name    - WELL
LOC .         00/11-24-088-25W4/0            : Location     - LOCATION
UWI .         00/11-24-088-25W4/0            : Uwi          - UNIQUE WELL ID
ENTR.         MAX                            : Entered      - ENTERED BY
SRVC.         SCHLUMBERGER                   : Scn          - SERVICE COMPANY
STRT.M        190                            : top_depth    - START DEPTH
STOP.M        422                            : bot_depth    - STOP DEPTH
STEP.M        0.25                           : increment    - STEP LENGTH
 NULL. -999.2500:NULL Value
~CURVE INFORMATION BLOCK
#MNEM UNIT       ERCB CURVE CODE    CURVE DESCRIPTION
#-----------   ------------------   ----------------------------------
DEPT.M        00 001 00 00         : DEPTH        - DEPTH
ILD .OHMM     00 120 00 00         : RESD         - DEEP RESISTIVITY (DIL)
NPHI.V/V      00 330 00 00         : PHIN         - NEUTRON POROSITY (SANDSTONE)
DPHI.V/V      00 890 00 00         : PHID         - DENSITY POROSITY (SANDSTONE)
CALI.MM       00 280 01 00         : CAL          - CALIPER
GR  .API      00 310 00 00         : GR           - GAMMA RAY
~PARAMETER INFORMATION
#MNEM.UNIT           DATA             DESCRIPTION OF MNEMONIC
#---------         -----------     ------------------------------
GL  .M        623.1                : gl           - GROUND LEVEL ELEVATION
EREF.M        626.7                : kb           - ELEVATION OF DEPTH REFERENCE
DATM.M        623.1                : datum        - DATUM ELEVATION
TDD .M        424.8                : tdd          - TOTAL DEPTH DRILLER
RUN .         ONE                  : Run          - RUN NUMBER
ENG .         BILL                 : Engineer     - RECORDING ENGINEER
WIT .         JIM                  : Witness      - WITNESSED BY
MUD .         GEL                  : Mud_type     - MUD TYPE
MATR.         SANDSTONE            : Logunit      - NEUTRON MATRIX
TMAX.C        31                   : BHT          - MAXIMUM RECORDED TEMPERATURE
BHTD.M        424.8                : BHTDEP       - MAXIMUM RECORDED TEMPERATURE
MATR.         1                    : LOGUNIT      - NEUTRON MATRIX
RMT .C        21                   : MDTP         - TEMPERATURE OF MUD
NEUT.         1                    : NEUTRON      - NEUTRON TYPE
RESI.         0                    : RESIST       - RESISTIVITY TYPE
RMC .OHMM     4.03                 : RMC          - RESISTIVITY OF MUD CAKE
RMF .OHMM     4.45                 : RMF          - RESISTIVITY OF MUD FILTRATE
SUFT.C        -15                  : SUFT         - SURFACE TEMPERATURE
~A  DEPTH     RESD     PHIN     PHID      CAL       GR
# ...
  372.500    5.506    0.429    0.237  229.537   71.699
  372.750    5.714    0.433    0.210  226.050   70.505
  373.000    5.877    0.443    0.204  231.041   70.208
  373.250    5.932    0.450    0.224  238.526   70.210
  373.500    6.044    0.434    0.221  241.523   70.512
  373.750    6.102    0.424    0.235  239.533   72.909
  374.000    6.217    0.424    0.229  236.545   74.707
  374.250    6.276    0.443    0.238  236.050   74.410
  374.500    6.394    0.452    0.257  238.049   74.413
  374.750    6.455    0.446    0.261  239.050   74.714
  375.000    6.517    0.435    0.252  245.538   75.315
  375.250    6.518    0.434    0.246  243.048   75.916
  375.500    6.520    0.433    0.219  254.024   75.619
  375.750    6.521    0.429    0.201  239.566   75.023
  376.000    6.463    0.430    0.201  245.056   74.727
  376.250    6.346    0.430    0.207  246.058   75.328
  376.500    6.173    0.434    0.243  235.091   76.826
  376.750    6.527    0.442    0.241  229.112   79.522
  377.000    7.294    0.437    0.229  232.107   80.422
  377.250    8.777    0.432    0.219  239.094   79.826
  377.500   12.022    0.405    0.206  242.589   75.041
  377.750   14.071    0.364    0.193  241.097   68.760
  378.000   15.438    0.309    0.174  229.631   63.975
  378.250   14.744    0.288    0.007  224.648   61.883
  378.500   13.320    0.298    0.035  224.653   62.185
  378.750   10.672    0.360    0.108  224.158   65.180
  379.000    9.038    0.388    0.226  223.664   69.072
  379.250    8.166    0.415    0.251  225.164   72.666
  379.500    7.586    0.434    0.238  224.171   73.566
  379.750    7.517    0.431    0.233  225.173   70.576
  380.000    7.731    0.426    0.232  225.177   69.382
  380.250    8.024    0.419    0.216  226.179   69.085
  380.500    8.562    0.424    0.211  225.684   68.489
  380.750    8.969    0.421    0.216  225.190   67.295
  381.000    9.659    0.405    0.192  224.695   64.306
  381.250   10.795    0.379    0.154  225.199   62.812
  381.500   12.176    0.355    0.130  226.200   60.720
  381.750   15.204    0.321    0.100  226.205   55.038
  382.000   17.960    0.229    0.009  226.209   51.150
  382.250   22.427    0.206    0.010  226.712   49.956
  382.500   20.642    0.233    0.018  226.217   50.856
  382.750   15.217    0.267    0.036  226.221   55.048
  383.000   11.750    0.314    0.065  226.225   61.035
  383.250   10.230    0.351    0.095  226.728   63.730
  383.500    9.503    0.383    0.120  227.232   69.717
  383.750    9.160    0.401    0.157  227.734   73.310
  384.000    9.078    0.390    0.147  227.240   73.013
  384.250    9.080    0.388    0.130  224.750   75.110
  384.500    9.166    0.419    0.142  225.254   78.703
  384.750    9.254    0.424    0.176  225.258   78.407
  385.000    9.428    0.428    0.150  226.259   75.716
  385.250    9.518    0.424    0.124  226.763   75.120
  385.500    9.788    0.418    0.128  227.764   76.020
  385.750   10.159    0.420    0.134  230.261   76.323
  386.000   10.447    0.412    0.119  231.762   75.427
  386.250   10.943    0.387    0.111  231.268   73.635
  386.500   11.254    0.368    0.096  229.776   70.047
  386.750   11.256    0.345    0.091  228.284   68.853
  387.000   11.053    0.345    0.128  228.289   69.753
  387.250   10.458    0.431    0.158  226.797   72.149
  387.500    9.805    0.424    0.150  226.302   74.844
  387.750    9.451    0.398    0.122  226.805   77.839
  388.000    9.280    0.409    0.121  226.809   85.022
  388.250    9.282    0.434    0.161  228.309   86.821
  388.500    9.114    0.431    0.167  230.808   85.327
  388.750    9.032    0.427    0.166  233.305   82.936
  389.000    9.034    0.412    0.179  228.821   79.647
  389.250    9.290    0.408    0.162  228.825   77.256
  389.500    9.207    0.419    0.146  228.829   76.959
  389.750    8.874    0.419    0.162  228.834   77.560
  390.000    8.476    0.402    0.161  231.830   79.657
  390.250    8.399    0.385    0.144  232.333   82.053
  390.500    8.401    0.402    0.171  231.340   83.253
  390.750    8.560    0.421    0.196  228.850   82.956
  391.000    9.050    0.437    0.168  229.853   80.266
  391.250    9.393    0.438    0.138  231.353   79.371
  391.500    9.309    0.424    0.122  232.355   80.869
  391.750    9.140    0.411    0.142  233.356   84.163
  392.000    9.227    0.424    0.169  233.859   86.260
  392.250    9.846    0.433    0.176  233.863   85.963
  392.500   10.604    0.433    0.145  230.876   81.777
  392.750   11.006    0.427    0.121  228.386   78.787
  393.000   11.110    0.409    0.083  228.391   73.105
  393.250   10.909    0.379    0.081  228.394   70.415
  393.500   10.516    0.403    0.107  228.899   75.205
  393.750   10.043    0.444    0.170  228.902   80.892
  394.000    9.681    0.430    0.145  227.909   81.493
  394.250    9.418    0.423    0.153  225.918   80.897
  394.500    9.507    0.408    0.137  224.427   79.404
  394.750    9.687    0.398    0.118  224.930   79.406
  395.000    9.689    0.382    0.132  225.931   82.401
  395.250    9.872    0.388    0.154  226.932   83.002
  395.500   10.632    0.401    0.150  227.934   80.911
  395.750   11.882    0.386    0.133  227.939   77.621
  396.000   15.114    0.367    0.102  225.449   72.238
  396.250   20.322    0.352    0.062  224.457   68.352
  396.500   20.515    0.332    0.053  225.458   67.456
  396.750   19.957    0.320    0.046  225.462   68.057
  397.000   18.368    0.306    0.017  223.472   71.051
  397.250   14.182    0.314    0.066  224.474   78.534
  397.500   12.235    0.371    0.116  223.480   79.135
  397.750   10.953    0.396    0.164  221.490   79.138
  398.000   10.364    0.381    0.162  223.489   80.338
  398.250    9.807    0.377    0.137  227.483   82.135
  398.500    9.279    0.392    0.125  231.477   85.429
  398.750    8.781    0.432    0.134  235.471   87.826
  399.000    8.386    0.441    0.173  239.464   89.324
  399.250    8.388    0.442    0.165  239.968   88.729
  399.500    8.547    0.426    0.158  234.985   87.833
  399.750    8.708    0.413    0.154  227.010   84.544
  400.000    8.872    0.396    0.154  231.003   83.948
  400.250    8.957    0.375    0.148  233.999   86.046
  400.500    8.475    0.398    0.123  237.494   87.844
  400.750    8.245    0.418    0.138  236.004   88.444
  401.000    8.479    0.425    0.163  236.008   88.746
  401.250    8.964    0.421    0.166  237.009   87.552
  401.500    9.391    0.401    0.141  241.002   84.263
  401.750    9.747    0.374    0.125  234.025   85.164
  402.000    9.931    0.358    0.112  234.030   86.961
  402.250   10.025    0.344    0.115  234.533   89.357
  402.500   10.027    0.363    0.150  235.534   92.951
  402.750   10.029    0.375    0.143  240.027   96.244
  403.000   10.032    0.389    0.153  239.033  100.436
  403.250    9.941    0.382    0.169  236.046  104.328
  403.500   10.224    0.374    0.139  235.551  108.520
  403.750   10.709    0.369    0.125  234.059  110.318
  404.000   11.534    0.353    0.104  229.575  108.824
  404.250   13.130    0.326    0.080  226.587  113.315
  404.500   12.540    0.308    0.054  226.093  117.805
  404.750   10.919    0.336    0.066  227.095  121.997
  405.000    8.829    0.357    0.108  235.078  124.393
  405.250    8.670    0.388    0.132  246.552  124.097
  405.500    8.592    0.410    0.158  237.579  114.225
  405.750    8.514    0.395    0.174  228.608  109.440
  406.000    8.438    0.389    0.193  230.607  107.349
  406.250    8.209    0.414    0.176  227.121  102.863
  406.500    7.696    0.419    0.184  226.127   99.275
  406.750    7.215    0.432    0.176  226.630   99.277
  407.000    6.765    0.444    0.189  226.135   99.878
  407.250    6.581    0.452    0.177  225.142   97.787
  407.500    6.522    0.464    0.180  223.651   94.198
  407.750    6.584    0.450    0.168  224.154   90.610
  408.000    6.586    0.438    0.105  225.654   90.613
  408.250    6.526    0.423    0.062  230.645   97.199
  408.500    6.589    0.411    0.053  236.634   98.397
  408.750    6.838    0.444    0.090  234.643   98.999
