~VERSION INFORMATION
 VERS.                 2.0:   CWLS LOG ASCII STANDARD -VERSION 2.0
 WRAP.                  NO:   ONE LINE PER DEPTH STEP
~WELL INFORMATION BLOCK
#MNEM.UNIT           DATA                    DESCRIPTION OF MNEMONIC
#---------    -------------------            -------------------------------
# Generated from Intellog Unique Number	CW_76_78/WELL/875
WELL.         ASHLAND ET AL PORTAGE 10-12    : Well_name    - WELL
LOC .         00/10-12-077-19W4/0            : Location     - LOCATION
UWI .         00/10-12-077-19W4/0            : Uwi          - UNIQUE WELL ID
ENTR.         JAYE                           : Entered      - ENTERED BY
SRVC.         WESTERN ATLAS                  : Scn          - SERVICE COMPANY
DATE.         21 JAN 72                      : Date         - LOG DATE
STRT.M        198.12                         : top_depth    - START DEPTH
STOP.M        377.87                         : bot_depth    - STOP DEPTH
STEP.M        0.25                           : increment    - STEP LENGTH
 NULL. -999.2500:NULL Value
~CURVE INFORMATION BLOCK
#MNEM UNIT       ERCB CURVE CODE    CURVE DESCRIPTION
#-----------   ------------------   ----------------------------------
DEPT.M        00 001 00 00         : DEPTH        - DEPTH
ILD .OHMM     00 120 00 00         : RESD         - DEEP RESISTIVITY (DIL)
NPHI.V/V      00 330 00 00         : PHIN         - NEUTRON POROSITY (SANDSTONE)
DPHI.V/V      00 890 00 00         : PHID         - DENSITY POROSITY (SANDSTONE)
GR  .API      00 310 00 00         : GR           - GAMMA RAY
CALI.MM       00 280 01 00         : CAL          - CALIPER
~PARAMETER INFORMATION
#MNEM.UNIT           DATA             DESCRIPTION OF MNEMONIC
#---------         -----------     ------------------------------
GL  .M        556.26               : gl           - GROUND LEVEL ELEVATION
EREF.M        561.137              : kb           - ELEVATION OF DEPTH REFERENCE
DATM.M        556.26               : datum        - DATUM ELEVATION
TDD .M        399.288              : tdd          - TOTAL DEPTH DRILLER
RUN .         ONE                  : Run          - RUN NUMBER
MATR.         SANDSTONE            : Logunit      - NEUTRON MATRIX
TMAX.C        22.2222              : BHT          - MAXIMUM RECORDED TEMPERATURE
BHTD.M        399.288              : BHTDEP       - MAXIMUM RECORDED TEMPERATURE
RMT .C        23.3333              : MDTP         - TEMPERATURE OF MUD
MUDD.KG/M     0                    : MWT          - MUD DENSITY
NEUT.         1                    : NEUTRON      - NEUTRON TYPE
RESI.         0                    : RESIST       - RESISTIVITY TYPE
RM  .OHMM     2.2                  : RM           - RESISTIVITY OF MUD
RMC .OHMM     2.6                  : RMC          - RESISTIVITY OF MUD CAKE
RMF .OHMM     1.6                  : RMF          - RESISTIVITY OF MUD FILTRATE
SUFT.C        -17.7778             : SUFT         - SURFACE TEMPERATURE
~A  DEPTH     RESD     PHIN     PHID       GR      CAL
# ...
  271.120    9.085    0.406    0.301   76.719  174.205
  271.370    8.891    0.406    0.291   71.949  171.864
  271.620    8.832    0.416    0.302   71.617  167.546
  271.870    8.804    0.409    0.310   72.523  165.318
  272.120    8.761    0.392    0.310   73.485  164.232
  272.370    8.783    0.384    0.309   74.207  163.686
  272.620    8.805    0.389    0.313   75.667  163.955
  272.870    8.826    0.384    0.311   78.364  164.859
  273.120    8.848    0.383    0.304   78.466  165.985
  273.370    8.789    0.395    0.294   77.272  166.251
  273.620    8.761    0.388    0.293   76.261  165.800
  273.870    8.719    0.383    0.298   76.179  162.839
  274.120    8.659    0.398    0.301   79.369  160.291
  274.370    8.522    0.395    0.305   82.995  159.315
  274.620    8.309    0.387    0.302   83.959  159.704
  274.870    7.953    0.383    0.291   85.732  161.334
  275.120    7.403    0.394    0.285   87.684  164.123
  275.370    6.753    0.396    0.277   91.614  168.899
  275.620    6.286    0.401    0.269   99.065  171.787
  275.870    6.221    0.411    0.259   90.464  169.145
  276.120    6.532    0.405    0.256   81.858  167.846
  276.370    7.051    0.395    0.286   73.191  166.244
  276.620    7.870    0.395    0.315   67.494  161.295
  276.870    8.982    0.381    0.311   69.638  155.508
  277.120    9.483    0.392    0.303   69.981  156.850
  277.370    9.473    0.384    0.296   69.467  158.991
  277.620    9.391    0.395    0.290   70.435  162.304
  277.870    9.311    0.404    0.286   69.178  165.416
  278.120    9.113    0.409    0.299   71.133  167.250
  278.370    8.984    0.406    0.306   74.259  167.633
  278.620    8.923    0.404    0.296   75.597  166.656
  278.870    8.929    0.400    0.287   76.011  164.646
  279.120    8.950    0.409    0.285   76.058  163.557
  279.370    8.989    0.420    0.268   76.091  161.848
  279.620    8.995    0.423    0.253   76.009  161.084
  279.870    8.969    0.405    0.270   75.867  158.850
  280.120    8.973    0.390    0.291   75.291  155.570
  280.370    9.013    0.387    0.299   75.764  157.211
  280.620    9.017    0.407    0.291   76.122  162.097
  280.870    9.040    0.414    0.272   76.090  165.200
  281.120    9.028    0.430    0.251   75.761  164.531
  281.370    9.053    0.410    0.295   75.806  162.510
  281.620    9.125    0.401    0.302   75.661  160.809
  281.870    9.164    0.411    0.303   75.143  158.989
  282.120    9.239    0.400    0.302   73.268  156.963
  282.370    9.278    0.404    0.287   70.654  155.361
  282.620    9.319    0.395    0.288   72.675  155.222
  282.870    9.274    0.402    0.306   74.689  155.294
  283.120    9.262    0.391    0.323   77.074  155.051
  283.370    9.267    0.394    0.325   76.751  153.544
  283.620    9.291    0.382    0.317   75.987  149.534
  283.870    9.279    0.396    0.313   75.348  150.358
  284.120    9.216    0.390    0.308   75.152  151.671
  284.370    9.121    0.407    0.304   75.310  153.620
  284.620    9.059    0.401    0.315   75.653  155.466
  284.870    8.948    0.408    0.313   76.684  156.892
  285.120    8.938    0.397    0.282   79.815  158.106
  285.370    8.925    0.379    0.262   84.792  159.329
  285.620    8.915    0.360    0.277   87.552  160.975
  285.870    8.888    0.354    0.290   84.440  162.085
  286.120    8.976    0.390    0.295   79.047  162.166
  286.370    9.083    0.384    0.297   82.301  162.223
  286.620    9.155    0.382    0.295   78.761  162.703
  286.870    9.177    0.396    0.294   73.922  165.601
  287.120    9.116    0.386    0.298   76.067  167.547
  287.370    7.537    0.387    0.296   80.489  167.934
  287.620    6.096    0.398    0.287   81.455  167.066
  287.870    5.250    0.385    0.262   85.263  164.619
  288.120    5.253    0.391    0.260   89.748  163.961
  288.370    5.506    0.390    0.257   95.161  165.807
  288.620    5.802    0.380    0.253   90.447  167.547
  288.870    6.464    0.390    0.241   94.441  164.692
  289.120    7.149    0.403    0.253   97.877  165.280
  289.370    7.675    0.402    0.287  100.389  166.708
  289.620    8.134    0.392    0.297   96.109  164.693
  289.870    8.383    0.374    0.296   93.801  163.920
  290.120    8.451    0.389    0.289   93.533  164.825
  290.370    8.270    0.407    0.275   93.828  164.999
  290.620    8.004    0.413    0.262   93.195  164.655
  290.870    7.590    0.418    0.254   92.613  164.204
  291.120    7.387    0.408    0.250   92.402  164.266
  291.370    7.202    0.386    0.252   92.630  164.333
  291.620    6.971    0.387    0.242   93.784  164.927
  291.870    6.722    0.426    0.237   96.415  165.314
  292.120    6.542    0.417    0.248   98.306  166.014
  292.370    6.355    0.408    0.266   99.521  166.929
  292.620    6.219    0.403    0.254  100.432  166.883
  292.870    6.053    0.402    0.240  102.381  165.794
  293.120    5.913    0.402    0.244  100.880  162.210
  293.370    5.807    0.400    0.266   97.339  161.866
  293.620    5.632    0.400    0.293   98.183  164.651
  293.870    5.521    0.413    0.320  100.140  166.912
  294.120    5.343    0.432    0.340  103.390  170.752
  294.370    5.124    0.425    0.329  110.964  174.689
  294.620    4.950    0.415    0.317  109.027  178.621
  294.870    5.064    0.418    0.295  110.681  183.919
  295.120    5.268    0.417    0.280  113.125  191.511
  295.370    5.461    0.418    0.294  112.855  186.040
  295.620    5.628    0.412    0.296  105.053  175.237
  295.870    5.833    0.402    0.277  108.000  167.683
  296.120    5.837    0.387    0.248  110.137  166.491
  296.370    5.464    0.403    0.248  103.695  168.752
  296.620    5.211    0.414    0.254  102.751  173.631
  296.870    5.204    0.420    0.266  102.792  176.010
  297.120    5.660    0.431    0.256  100.853  174.192
  297.370    6.133    0.420    0.233  102.632  168.611
  297.620    6.621    0.429    0.229  105.011  161.573
  297.870    7.095    0.429    0.223  108.326  158.192
  298.120    7.060    0.420    0.221  111.022  157.946
  298.370    6.369    0.433    0.253  115.141  162.515
  298.620    5.464    0.454    0.302  118.946  169.376
  298.870    5.498    0.450    0.320  121.517  178.749
  299.120    6.171    0.387    0.308  112.233  174.331
  299.370    7.135    0.378    0.283  106.039  167.919
  299.620    7.993    0.391    0.281   96.631  163.279
  299.870    8.597    0.403    0.239   93.709  162.611
  300.120    8.699    0.396    0.237   95.114  162.797
  300.370    8.451    0.390    0.250   96.198  162.551
  300.620    8.164    0.388    0.253   96.609  162.407
  300.870    7.857    0.395    0.255   97.150  162.896
  301.120    7.604    0.394    0.261  100.153  162.237
  301.370    7.373    0.400    0.263   99.574  161.457
  301.620    7.123    0.413    0.218   98.257  160.690
  301.870    6.855    0.407    0.203  100.461  162.229
  302.120    6.573    0.417    0.188  104.326  165.538
  302.370    6.292    0.387    0.188  106.838  171.045
  302.620    6.045    0.386    0.189  108.244  173.626
  302.870    5.915    0.391    0.190  110.379  173.590
  303.120    5.854    0.396    0.188  114.743  174.386
  303.370    5.771    0.413    0.186  114.785  176.763
  303.620    5.483    0.392    0.183  112.045  178.185
  303.870    5.152    0.391    0.190  111.098  178.993
  304.120    4.752    0.397    0.211  111.947  178.643
  304.370    4.531    0.408    0.223  113.463  179.021
  304.620    4.289    0.415    0.230  116.042  176.893
  304.870    3.934    0.416    0.244  118.859  172.264
  305.120    3.369    0.418    0.258  122.666  173.899
  305.370    2.645    0.422    0.251  124.681  176.266
  305.620    2.304    0.437    0.233  118.051  178.537
  305.870    2.397    0.459    0.209  111.425  179.962
  306.120    2.640    0.427    0.212  109.678  180.766
  306.370    2.980    0.425    0.210  109.532  180.831
  306.620    3.602    0.427    0.201  110.190  179.753
  306.870    4.443    0.415    0.191  106.956  178.246
  307.120    5.194    0.414    0.181  101.566  172.985
  307.370    6.083    0.425    0.178   99.446  168.871
