~VERSION INFORMATION
 VERS.                 2.0:   CWLS LOG ASCII STANDARD -VERSION 2.0
 WRAP.                  NO:   ONE LINE PER DEPTH STEP
~WELL INFORMATION BLOCK
#MNEM.UNIT           DATA                    DESCRIPTION OF MNEMONIC
#---------    -------------------            -------------------------------
# Generated from Intellog Unique Number	CW_79_81/WELL/913
WELL.         HOMESTEAD ET AL WEAVER         : Well_name    - WELL
LOC .         00/11-25-080-01W5/0            : Location     - LOCATION
UWI .         00/11-25-080-01W5/0            : Uwi          - UNIQUE WELL ID
ENTR.         MAX                            : Entered      - ENTERED BY
SRVC.         SCHLUMBERGER                   : Scn          - SERVICE COMPANY
STRT.M        260                            : top_depth    - START DEPTH
STOP.M        505                            : bot_depth    - STOP DEPTH
STEP.M        0.25                           : increment    - STEP LENGTH
 NULL. -999.2500:NULL Value
~CURVE INFORMATION BLOCK
#MNEM UNIT       ERCB CURVE CODE    CURVE DESCRIPTION
#-----------   ------------------   ----------------------------------
DEPT.M        00 001 00 00         : DEPTH        - DEPTH
ILD .OHMM     00 120 00 00         : RESD         - DEEP RESISTIVITY (DIL)
NPHI.V/V      00 330 00 00         : PHIN         - NEUTRON POROSITY (SANDSTONE)
DPHI.V/V      00 890 00 00         : PHID         - DENSITY POROSITY (SANDSTONE)
CALI.MM       00 280 01 00         : CAL          - CALIPER
GR  .API      00 310 00 00         : GR           - GAMMA RAY
~PARAMETER INFORMATION
#MNEM.UNIT           DATA             DESCRIPTION OF MNEMONIC
#---------         -----------     ------------------------------
GL  .M        580                  : gl           - GROUND LEVEL ELEVATION
EREF.M        583.67               : kb           - ELEVATION OF DEPTH REFERENCE
DATM.M        580                  : datum        - DATUM ELEVATION
TDD .M        515                  : tdd          - TOTAL DEPTH DRILLER
RUN .         ONE                  : Run          - RUN NUMBER
ENG .         BILL                 : Engineer     - RECORDING ENGINEER
WIT .         JIM                  : Witness      - WITNESSED BY
MUD .         GEL                  : Mud_type     - MUD TYPE
MATR.         SANDSTONE            : Logunit      - NEUTRON MATRIX
TMAX.C        24                   : BHT          - MAXIMUM RECORDED TEMPERATURE
BHTD.M        515                  : BHTDEP       - MAXIMUM RECORDED TEMPERATURE
RMT .C        16                   : MDTP         - TEMPERATURE OF MUD
MUDD.KG/M     1100                 : MWT          - MUD DENSITY
NEUT.         1                    : NEUTRON      - NEUTRON TYPE
RESI.         0                    : RESIST       - RESISTIVITY TYPE
RM  .OHMM     6.62                 : RM           - RESISTIVITY OF MUD
RMC .OHMM     0                    : RMC          - RESISTIVITY OF MUD CAKE
RMF .OHMM     4.5                  : RMF          - RESISTIVITY OF MUD FILTRATE
SUFT.C        4                    : SUFT         - SURFACE TEMPERATURE
~A  DEPTH     RESD     PHIN     PHID      CAL       GR
# ...
  406.000   20.268    0.481    0.259  167.997   77.355
  406.250   24.177    0.475    0.264  165.464   75.533
  406.500   26.765    0.479    0.266  164.916   77.005
  406.750   29.906    0.472    0.260  163.887   75.183
  407.000   28.518    0.460    0.257  160.346   70.666
  407.250   24.315    0.456    0.244  164.303   66.743
  407.500   16.882    0.461    0.228  168.259   70.020
  407.750   13.359    0.450    0.227  168.715   75.391
  408.000   11.392    0.452    0.201  178.666   79.263
  408.250    9.802    0.477    0.215  189.126   83.436
  408.500    9.174    0.477    0.219  181.589   85.510
  408.750    9.603    0.469    0.232  170.060   83.685
  409.000   11.892    0.470    0.239  166.519   80.964
  409.250   14.052    0.467    0.242  166.480   78.543
  409.500   16.147    0.464    0.244  166.445   76.121
  409.750   20.366    0.461    0.243  163.394   73.400
  410.000   24.522    0.445    0.244  161.866   69.178
  410.250   35.905    0.425    0.200  161.327   65.860
  410.500   39.756    0.328    0.165  161.787   61.338
  410.750   53.519    0.279    0.074  165.244   60.715
  411.000   58.165    0.272    0.059  163.706   64.887
  411.250   69.376    0.342    0.129  160.669   69.056
  411.500   73.293    0.364    0.146  163.128   70.528
  411.750   71.222    0.380    0.148  165.586   72.609
  412.000   55.306    0.392    0.160  166.535   73.778
  412.250   42.961    0.403    0.182  166.006   73.457
  412.500   30.111    0.415    0.197  165.462   73.733
  412.750   22.317    0.437    0.207  166.422   74.912
  413.000   17.996    0.455    0.218  167.382   77.885
  413.250   15.342    0.468    0.217  166.343   81.458
  413.500   13.962    0.470    0.214  165.804   85.630
  413.750   13.314    0.474    0.216  166.259   88.903
  414.000   13.057    0.460    0.220  168.718   90.079
  414.250   12.566    0.449    0.216  170.182   91.847
  414.500   12.096    0.450    0.222  170.142   92.729
  414.750   11.752    0.459    0.225  169.099   93.601
  415.000   11.628    0.474    0.231  168.555   95.370
  415.250   11.628    0.476    0.216  168.021   97.750
  415.500   11.720    0.479    0.213  167.981   97.726
  415.750   11.819    0.477    0.204  168.432   92.008
  416.000   12.486    0.462    0.208  168.901   87.486
  416.250   12.827    0.452    0.198  169.362   85.061
  416.500   12.699    0.447    0.190  168.823   85.041
  416.750   12.685    0.437    0.176  167.784   86.516
  417.000   12.558    0.445    0.167  167.245   87.394
  417.250   12.312    0.462    0.182  167.201   89.765
  417.500   12.074    0.459    0.206  167.156   92.742
  417.750   11.621    0.453    0.219  167.122   96.311
  418.000   11.291    0.454    0.217  167.082   95.988
  418.250   11.072    0.451    0.210  167.538   94.766
  418.500   11.062    0.455    0.208  167.498   94.739
  418.750   11.051    0.459    0.203  167.459   94.718
  419.000   10.938    0.459    0.198  166.420   94.392
  419.250   10.827    0.461    0.184  166.381   94.365
  419.500   10.818    0.461    0.177  166.846   96.143
  419.750   10.808    0.441    0.184  165.308   95.819
  420.000   10.697    0.430    0.193  164.764   91.603
  420.250   10.687    0.444    0.187  163.720   88.582
  420.500   10.778    0.454    0.185  165.184   87.656
  420.750   10.869    0.460    0.189  165.140   86.134
  421.000   11.064    0.458    0.199  163.107   86.707
  421.250   11.473    0.458    0.203  164.062   86.386
  421.500   11.464    0.451    0.197  164.028   84.864
  421.750   11.887    0.430    0.176  161.486   86.336
  422.000   12.101    0.422    0.184  160.951   88.413
  422.250   11.866    0.447    0.214  164.903   92.885
  422.500   11.421    0.466    0.228  167.361   98.257
  422.750   10.890    0.462    0.216  167.317  100.930
  423.000   10.681    0.443    0.198  169.276  101.806
  423.250   10.770    0.430    0.204  166.234  100.883
  423.500   10.961    0.417    0.189  165.705  100.557
  423.750   10.951    0.437    0.177  169.157  102.634
  424.000   10.443    0.452    0.169  170.122  105.607
  424.250    9.594    0.450    0.180  176.571  104.984
  424.500    8.491    0.444    0.192  173.040  100.759
  424.750    8.483    0.437    0.186  167.506   97.438
  425.000    9.130    0.437    0.173  164.469   93.218
  425.250    9.921    0.440    0.173  165.424   91.097
  425.500   11.296    0.451    0.194  165.879   88.975
  425.750   14.655    0.464    0.220  165.845   86.551
  426.000   16.997    0.460    0.225  165.301   84.429
  426.250   18.814    0.430    0.210  165.261   81.411
  426.500   20.067    0.400    0.199  165.227   77.791
  426.750   23.056    0.351    0.139  165.182   75.669
  427.000   26.995    0.289    0.114  163.644   68.450
  427.250   35.018    0.274    0.024  162.611   65.426
  427.500   42.559    0.272    0.049  164.560   68.097
  427.750   58.931    0.270    0.079  164.515   67.776
  428.000   65.849    0.316    0.152  162.982   67.150
  428.250   62.792    0.355    0.194  162.448   67.432
  428.500   56.086    0.403    0.218  166.405   69.506
  428.750   52.500    0.392    0.193  166.860   72.477
  429.000   50.526    0.363    0.167  166.316   74.254
  429.250   44.306    0.354    0.139  166.286   78.127
  429.500   33.149    0.380    0.146  167.246   82.299
  429.750   25.036    0.410    0.177  168.206   85.270
  430.000   17.878    0.395    0.159  168.666   81.650
  430.250   14.549    0.371    0.123  166.623   74.430
  430.500   13.873    0.352    0.079  165.080   72.911
  430.750   13.989    0.367    0.106  165.046   77.383
  431.000   14.373    0.403    0.156  165.496   82.154
  431.250   14.630    0.435    0.169  166.465   86.027
  431.500   13.823    0.444    0.183  166.911   89.897
  431.750   12.464    0.438    0.180  166.387   91.372
  432.000   11.994    0.437    0.176  165.838   88.650
  432.250   12.096    0.436    0.171  165.803   84.734
  432.500   12.543    0.421    0.175  165.269   80.808
  432.750   13.130    0.411    0.166  161.224   81.986
  433.000   13.615    0.413    0.168  162.683   87.357
  433.250   13.605    0.423    0.164  166.140   89.731
  433.500   13.216    0.423    0.173  167.105   89.102
  433.750   12.603    0.430    0.184  167.060   88.779
  434.000   12.129    0.430    0.191  167.026   89.660
  434.250   11.894    0.423    0.187  168.475   90.527
  434.500   11.558    0.415    0.171  167.946   91.708
  434.750   11.226    0.412    0.162  163.406   93.183
  435.000   11.011    0.416    0.170  162.367   93.156
  435.250   10.696    0.418    0.177  163.332   91.939
  435.500   10.587    0.425    0.185  164.776   89.518
  435.750   10.479    0.443    0.189  164.746   88.586
  436.000   10.470    0.444    0.176  165.207   87.966
  436.250   10.462    0.425    0.173  165.662   86.444
  436.500   10.648    0.413    0.175  166.122   87.023
  436.750   10.839    0.424    0.172  166.087   88.198
  437.000   11.137    0.426    0.165  166.048   86.676
  437.250   11.127    0.424    0.157  164.999   86.352
  437.500   11.012    0.428    0.139  165.959   87.527
  437.750   10.901    0.438    0.130  167.428   89.299
  438.000   10.790    0.443    0.159  168.887   91.077
  438.250   10.580    0.450    0.166  169.832   92.549
  438.500   10.276    0.444    0.168  170.302   93.424
  438.750   10.172    0.426    0.168  168.255   92.498
  439.000   10.163    0.416    0.160  167.216   87.979
  439.250   10.154    0.414    0.164  168.185   89.454
  439.500   10.145    0.425    0.180  169.640   90.332
  439.750   10.135    0.442    0.185  168.097   89.706
  440.000   10.126    0.433    0.172  167.558   88.783
  440.250   10.116    0.418    0.137  167.518   87.864
  440.500   10.202    0.422    0.111  167.489   87.540
  440.750   10.385    0.430    0.110  167.444   88.715
  441.000   10.474    0.431    0.155  167.400   91.686
  441.250   10.561    0.404    0.148  167.365   91.959
  441.500   10.749    0.388    0.152  166.822   91.638
  441.750   10.942    0.359    0.183  165.288   90.716
  442.000   11.035    0.356    0.199  161.752   88.291
  442.250   11.128    0.379    0.199  160.209   88.268
