~VERSION INFORMATION
 VERS.                 2.0:   CWLS LOG ASCII STANDARD -VERSION 2.0
 WRAP.                  NO:   ONE LINE PER DEPTH STEP
~WELL INFORMATION BLOCK
#MNEM.UNIT           DATA                    DESCRIPTION OF MNEMONIC
#---------    -------------------            -------------------------------
# Generated from Intellog Unique Number	CW_73_75/WELL/2753
WELL.         COBRA ET AL MITSUE 16-29       : Well_name    - WELL
LOC .         00/16-29-073-05W5/0            : Location     - LOCATION
UWI .         00/16-29-073-05W5/0            : Uwi          - UNIQUE WELL ID
ENTR.         JAYE                           : Entered      - ENTERED BY
SRVC.         SCHLUMBERGER                   : Scn          - SERVICE COMPANY
DATE.         6 MAR 81                       : Date         - LOG DATE
STRT.M        360                            : top_depth    - START DEPTH
STOP.M        595                            : bot_depth    - STOP DEPTH
STEP.M        0.25                           : increment    - STEP LENGTH
 NULL. -999.2500:NULL Value
~CURVE INFORMATION BLOCK
#MNEM UNIT       ERCB CURVE CODE    CURVE DESCRIPTION
#-----------   ------------------   ----------------------------------
DEPT.M        00 001 00 00         : DEPTH        - DEPTH
DPHI.V/V      00 890 00 00         : PHID         - DENSITY POROSITY (SANDSTONE)
NPHI.V/V      00 330 00 00         : PHIN         - NEUTRON POROSITY (SANDSTONE)
GR  .API      00 310 00 00         : GR           - GAMMA RAY
CALI.MM       00 280 01 00         : CAL          - CALIPER
ILD .OHMM     00 120 00 00         : RESD         - DEEP RESISTIVITY (DIL)
~PARAMETER INFORMATION
#MNEM.UNIT           DATA             DESCRIPTION OF MNEMONIC
#---------         -----------     ------------------------------
GL  .M        581.61               : gl           - GROUND LEVEL ELEVATION
EREF.M        586.26               : kb           - ELEVATION OF DEPTH REFERENCE
DATM.M        581.61               : datum        - DATUM ELEVATION
TDD .M        1686                 : tdd          - TOTAL DEPTH DRILLER
RUN .         ONE                  : Run          - RUN NUMBER
ENG .         ADLAKHA              : Engineer     - RECORDING ENGINEER
WIT .         HEATHER              : Witness      - WITNESSED BY
BASE.         EDMONTON             : Branch       - HOME BASE OF LOGGING UNIT
MUD .         GEL CHEN             : Mud_type     - MUD TYPE
MATR.         SANDSTONE            : Logunit      - NEUTRON MATRIX
TMAX.C        54                   : BHT          - MAXIMUM RECORDED TEMPERATURE
BHTD.M        1686.3               : BHTDEP       - MAXIMUM RECORDED TEMPERATURE
RMT .C        15.5                 : MDTP         - TEMPERATURE OF MUD
MUDD.KG/M     1080                 : MWT          - MUD DENSITY
NEUT.         1                    : NEUTRON      - NEUTRON TYPE
RESI.         0                    : RESIST       - RESISTIVITY TYPE
RM  .OHMM     0.85                 : RM           - RESISTIVITY OF MUD
RMC .OHMM     0                    : RMC          - RESISTIVITY OF MUD CAKE
RMF .OHMM     0.77                 : RMF          - RESISTIVITY OF MUD FILTRATE
SUFT.C        0                    : SUFT         - SURFACE TEMPERATURE
~A  DEPTH     PHID     PHIN       GR      CAL     RESD
# ...
  433.000    0.343    0.429   46.529  253.232    4.613
  433.250    0.337    0.425   47.395  249.598    4.629
  433.500    0.325    0.423   47.640  246.274    4.594
  433.750    0.310    0.422   47.698  245.644    4.441
  434.000    0.311    0.417   48.005  247.399    4.237
  434.250    0.364    0.405   47.192  248.843    4.042
  434.500    0.415    0.409   45.011  250.495    3.900
  434.750    0.540    0.607   45.753  253.597    3.884
  435.000    0.543    0.574   51.097  255.041    4.063
  435.250    0.384    0.440   55.011  250.474    4.297
  435.500    0.357    0.414   55.193  243.315    4.537
  435.750    0.328    0.405   52.888  240.302    4.727
  436.000    0.324    0.404   55.558  240.191    4.807
  436.250    0.332    0.412   57.668  240.911    4.770
  436.500    0.336    0.438   57.851  241.109    4.725
  436.750    0.337    0.461   55.110  241.207    4.715
  437.000    0.341    0.455   53.551  240.993    4.714
  437.250    0.342    0.427   53.982  241.296    4.713
  437.500    0.336    0.440   56.465  241.704    4.739
  437.750    0.326    0.454   57.021  242.214    4.774
  438.000    0.325    0.480   55.773  242.726    4.855
  438.250    0.324    0.422   54.525  243.756    4.863
  438.500    0.317    0.417   54.023  245.304    4.808
  438.750    0.312    0.430   55.947  247.680    4.726
  439.000    0.306    0.418   59.550  249.021    4.629
  439.250    0.295    0.402   62.531  249.428    4.551
  439.500    0.274    0.397   66.444  248.800    4.491
  439.750    0.291    0.413   67.311  247.135    4.456
  440.000    0.308    0.429   62.518  245.676    4.481
  440.250    0.326    0.445   60.959  245.564    4.565
  440.500    0.321    0.459   61.016  245.869    4.659
  440.750    0.324    0.464   61.199  246.380    4.667
  441.000    0.324    0.453   61.941  246.580    4.580
  441.250    0.322    0.437   62.932  246.470    4.511
  441.500    0.317    0.445   64.420  246.359    4.468
  441.750    0.320    0.456   64.105  246.351    4.434
  442.000    0.330    0.452   59.064  246.655    4.450
  442.250    0.327    0.430   54.458  247.064    4.491
  442.500    0.327    0.404   52.712  247.472    4.516
  442.750    0.334    0.431   54.947  247.879    4.540
  443.000    0.334    0.427   56.062  248.078    4.539
  443.250    0.325    0.399   55.933  248.176    4.677
  443.500    0.318    0.380   55.245  248.273    4.947
  443.750    0.280    0.415   55.676  248.576    5.252
  444.000    0.199    0.451   55.423  248.879    5.811
  444.250    0.079    0.299   51.190  249.391    6.418
  444.500    0.048    0.155   47.517  249.799    6.762
  444.750    0.075    0.199   51.493  248.859    6.512
  445.000    0.178    0.279   56.712  248.127    6.190
  445.250    0.246    0.412   60.252  248.742    5.774
  445.500    0.307    0.424   62.114  249.979    5.286
  445.750    0.326    0.409   65.033  251.422    4.793
  446.000    0.325    0.398   66.583  252.348    4.513
  446.250    0.323    0.433   63.221  253.066    4.355
  446.500    0.326    0.462   61.164  253.265    4.338
  446.750    0.326    0.441   60.725  252.845    4.477
  447.000    0.315    0.431   60.969  252.528    4.604
  447.250    0.305    0.435   61.649  252.830    4.691
  447.500    0.298    0.453   63.200  253.032    4.806
  447.750    0.297    0.481   64.439  254.060    4.905
  448.000    0.287    0.455   65.492  257.267    4.886
  448.250    0.268    0.433   67.665  264.930    4.812
  448.500    0.244    0.428   69.712  272.593    4.687
  448.750    0.234    0.418   70.952  275.384    4.548
  449.000    0.216    0.409   72.876  274.652    4.412
  449.250    0.194    0.401   75.857  274.127    4.305
  449.500    0.172    0.394   76.785  273.912    4.461
  449.750    0.188    0.409   75.848  275.046    4.639
  450.000    0.205    0.424   73.108  276.282    4.861
  450.250    0.214    0.436   69.496  273.270    4.990
  450.500    0.226    0.447   65.512  267.561    5.131
  450.750    0.241    0.453   62.150  259.988    5.267
  451.000    0.271    0.434   56.922  254.177    5.276
  451.250    0.307    0.428   57.601  253.237    5.226
  451.500    0.290    0.429   62.013  254.370    5.196
  451.750    0.269    0.417   66.175  257.057    5.117
  452.000    0.246    0.394   69.032  260.886    5.050
  452.250    0.227    0.384   70.396  266.061    4.983
  452.500    0.208    0.396   68.836  269.888    4.954
  452.750    0.218    0.414   67.712  271.125    4.916
  453.000    0.212    0.429   67.646  271.845    4.879
  453.250    0.203    0.434   69.508  271.319    4.851
  453.500    0.220    0.421   72.613  268.617    4.877
  453.750    0.234    0.438   75.407  264.568    4.922
  454.000    0.212    0.443   76.647  264.872    4.940
  454.250    0.192    0.426   76.705  265.590    4.948
  454.500    0.177    0.427   76.390  263.821    4.920
  454.750    0.170    0.431   76.821  262.363    4.891
  455.000    0.176    0.416   78.807  261.941    4.809
  455.250    0.175    0.403   80.793  263.386    4.683
  455.500    0.175    0.393   77.119  265.555    4.561
  455.750    0.177    0.424   75.933  267.103    4.327
  456.000    0.176    0.456   78.230  267.821    4.128
  456.250    0.192    0.429   77.293  267.503    3.990
  456.500    0.212    0.423   73.433  263.868    3.930
  456.750    0.247    0.434   67.583  256.295    4.011
  457.000    0.298    0.433   63.102  249.240    4.227
  457.250    0.326    0.419   60.921  246.746    4.522
  457.500    0.322    0.397   59.673  246.427    4.667
  457.750    0.315    0.410   56.870  246.006    4.755
  458.000    0.318    0.426   55.435  245.895    4.817
  458.250    0.318    0.427   56.301  245.889    4.862
  458.500    0.308    0.425   57.355  245.881    4.907
  458.750    0.323    0.432   58.532  245.874    4.934
  459.000    0.344    0.460   58.963  245.763    4.933
  459.250    0.326    0.463   60.141  245.757    4.932
  459.500    0.312    0.402   61.132  245.957    4.931
  459.750    0.299    0.383   61.189  245.950    4.930
  460.000    0.300    0.408   59.320  245.839    4.957
  460.250    0.304    0.413   59.875  245.624    4.966
  460.500    0.310    0.396   60.803  245.824    5.002
  460.750    0.310    0.418   59.182  246.025    4.992
  461.000    0.302    0.438   56.255  245.604    4.954
  461.250    0.297    0.433   56.251  246.322    4.925
  461.500    0.301    0.399   56.745  247.040    4.887
  461.750    0.303    0.414   57.797  247.862    4.868
  462.000    0.295    0.427   59.659  248.892    4.858
  462.250    0.289    0.411   63.013  249.300    4.821
  462.500    0.292    0.390   66.305  248.877    4.803
  462.750    0.299    0.418   67.420  248.768    4.775
  463.000    0.303    0.415   63.622  247.828    4.756
  463.250    0.309    0.416   58.705  246.160    4.755
  463.500    0.304    0.432   55.218  245.222    4.781
  463.750    0.297    0.447   55.151  244.282    4.817
  464.000    0.297    0.431   60.682  244.172    4.789
  464.250    0.286    0.411   63.788  245.200    4.708
  464.500    0.263    0.389   67.701  247.578    4.602
  464.750    0.235    0.397   69.811  251.717    4.508
  465.000    0.245    0.415   65.330  252.954    4.415
  465.250    0.268    0.401   60.848  249.009    4.259
  465.500    0.288    0.377   57.299  248.586    4.064
  465.750    0.304    0.426   62.829  251.378    3.906
  466.000    0.315    0.458   67.987  254.170    3.818
  466.250    0.310    0.441   71.092  251.364    4.084
  466.500    0.303    0.421   64.931  247.936    4.443
  466.750    0.288    0.393   61.009  246.583    4.613
  467.000    0.287    0.419   60.383  245.641    4.788
  467.250    0.302    0.428   61.871  245.636    4.769
  467.500    0.300    0.445   62.924  245.836    4.671
  467.750    0.296    0.463   63.604  246.243    4.584
  468.000    0.300    0.450   65.590  246.857    4.498
  468.250    0.300    0.407   67.514  247.680    4.463
  468.500    0.288    0.425   65.706  249.643    4.446
  468.750    0.275    0.441   66.572  253.470    4.428
  469.000    0.258    0.463   68.309  258.127    4.419
  469.250    0.264    0.475   69.985  260.816    4.460
