~VERSION INFORMATION
 VERS.                 2.0:   CWLS LOG ASCII STANDARD -VERSION 2.0
 WRAP.                  NO:   ONE LINE PER DEPTH STEP
~WELL INFORMATION BLOCK
#MNEM.UNIT           DATA                    DESCRIPTION OF MNEMONIC
#---------    -------------------            -------------------------------
# Generated from Intellog Unique Number	CW_82_90/WELL/3441
WELL.         CDN SUP CHIP                   : Well_name    - WELL
LOC .         00/10-23-090-24W4/0            : Location     - LOCATION
UWI .         00/10-23-090-24W4/0            : Uwi          - UNIQUE WELL ID
ENTR.         MAX                            : Entered      - ENTERED BY
SRVC.         SCHLUMBERGER                   : Scn          - SERVICE COMPANY
STRT.M        165                            : top_depth    - START DEPTH
STOP.M        256                            : bot_depth    - STOP DEPTH
STEP.M        0.25                           : increment    - STEP LENGTH
 NULL. -999.2500:NULL Value
~CURVE INFORMATION BLOCK
#MNEM UNIT       ERCB CURVE CODE    CURVE DESCRIPTION
#-----------   ------------------   ----------------------------------
DEPT.M        00 001 00 00         : DEPTH        - DEPTH
CALI.MM       00 280 01 00         : CAL          - CALIPER
GR  .API      00 310 00 00         : GR           - GAMMA RAY
ILD .OHMM     00 120 00 00         : RESD         - DEEP RESISTIVITY (DIL)
NPHI.V/V      00 330 00 00         : PHIN         - NEUTRON POROSITY (SANDSTONE)
DPHI.V/V      00 890 00 00         : PHID         - DENSITY POROSITY (SANDSTONE)
~PARAMETER INFORMATION
#MNEM.UNIT           DATA             DESCRIPTION OF MNEMONIC
#---------         -----------     ------------------------------
GL  .M        505.6                : gl           - GROUND LEVEL ELEVATION
EREF.M        509                  : kb           - ELEVATION OF DEPTH REFERENCE
DATM.M        509                  : datum        - DATUM ELEVATION
TDD .M        255.6                : tdd          - TOTAL DEPTH DRILLER
RUN .         ONE                  : Run          - RUN NUMBER
ENG .         BILL                 : Engineer     - RECORDING ENGINEER
WIT .         JIM                  : Witness      - WITNESSED BY
MUD .         GEL                  : Mud_type     - MUD TYPE
MATR.         SANDSTONE            : Logunit      - NEUTRON MATRIX
TMAX.C        18                   : BHT          - MAXIMUM RECORDED TEMPERATURE
BHTD.M        255.6                : BHTDEP       - MAXIMUM RECORDED TEMPERATURE
MATR.         1                    : LOGUNIT      - NEUTRON MATRIX
RMT .C        4                    : MDTP         - TEMPERATURE OF MUD
NEUT.         1                    : NEUTRON      - NEUTRON TYPE
RESI.         0                    : RESIST       - RESISTIVITY TYPE
RMC .OHMM     5                    : RMC          - RESISTIVITY OF MUD CAKE
RMF .OHMM     5                    : RMF          - RESISTIVITY OF MUD FILTRATE
SUFT.C        -15                  : SUFT         - SURFACE TEMPERATURE
~A  DEPTH      CAL       GR     RESD     PHIN     PHID
# ...
  201.500  233.619   93.388    9.271    0.451    0.259
  201.750  233.586   93.080    9.020    0.451    0.242
  202.000  232.583   90.153    8.857    0.443    0.198
  202.250  232.072   85.773    8.618    0.423    0.161
  202.500  230.588   78.192    9.010    0.388    0.056
  202.750  230.555   72.353   10.029    0.254    0.107
  203.000  230.521   66.806   11.468    0.322    0.230
  203.250  230.011   71.154   11.882    0.374    0.249
  203.500  229.500   88.301   11.984    0.411    0.258
  203.750  229.467   99.341   10.566    0.438    0.251
  204.000  229.441  103.396   10.009    0.468    0.252
  204.250  229.889  107.742    9.229    0.482    0.247
  204.500  230.829  114.413    8.981    0.485    0.236
  204.750  231.773  110.325    9.559    0.476    0.241
  205.000  233.198   94.302   10.173    0.451    0.250
  205.250  234.135   91.957   10.261    0.438    0.258
  205.500  234.590   89.903   10.257    0.429    0.257
  205.750  231.648   86.105   10.438    0.435    0.276
  206.000  229.201   80.267   10.434    0.459    0.286
  206.250  230.138   75.883   10.524    0.441    0.247
  206.500  231.081   76.740   10.240    0.430    0.185
  206.750  232.503   80.504   10.055    0.436    0.200
  207.000  233.443   88.342    9.610    0.464    0.223
  207.250  234.383   91.233    9.022    0.472    0.220
  207.500  235.808   93.832    9.347    0.467    0.213
  207.750  235.775   91.489    9.513    0.459    0.202
  208.000  235.746   92.050    9.768    0.458    0.205
  208.250  235.235   92.612    9.851    0.455    0.180
  208.500  233.266   90.851    9.936    0.435    0.155
  208.750  233.233   89.963    9.932    0.428    0.213
  209.000  234.169   94.307    9.929    0.466    0.240
  209.250  235.113   98.655    9.662    0.469    0.242
  209.500  235.572   99.219    9.402    0.450    0.225
  209.750  236.509   98.325    9.398    0.456    0.225
  210.000  236.964   98.891    9.227    0.471    0.234
  210.250  236.931  100.323    8.978    0.482    0.228
  210.500  236.898  101.762    8.428    0.491    0.203
  210.750  237.357  102.908    8.202    0.495    0.214
  211.000  237.816  104.052    7.769    0.499    0.226
  211.250  238.271  104.621    7.628    0.505    0.238
  211.500  237.753  102.853    7.490    0.507    0.237
  211.750  237.238  101.094    8.043    0.498    0.244
  212.000  236.243   92.638    9.619    0.459    0.261
  212.250  234.759   91.165   11.711    0.430    0.230
  212.500  233.267   89.400   13.391    0.420    0.139
  212.750  232.272   85.602   14.906    0.373    0.121
  213.000  231.757   86.164   15.583    0.385    0.226
  213.250  230.758   88.767   15.576    0.412    0.236
  213.500  230.244   91.659   15.157    0.399    0.240
  213.750  229.726   93.677   14.486    0.395    0.250
  214.000  228.245   94.823   13.599    0.402    0.255
  214.250  227.731   94.515   13.473    0.412    0.255
  214.500  228.671   95.661   12.994    0.434    0.240
  214.750  230.581   95.929   12.644    0.436    0.223
  215.000  231.032   98.241   12.414    0.430    0.232
  215.250  231.488  101.715   12.188    0.430    0.219
  215.500  231.943  104.606   11.966    0.437    0.239
  215.750  233.853  106.332   11.644    0.435    0.241
  216.000  233.816  103.989   11.640    0.417    0.234
  216.250  232.821  102.514   11.740    0.418    0.237
  216.500  231.825  100.753   11.841    0.424    0.244
  216.750  232.762  102.188   11.836    0.434    0.249
  217.000  234.190  103.334   10.817    0.446    0.245
  217.250  234.642  101.282    9.368    0.453    0.232
  217.500  233.162   97.187    8.874    0.461    0.209
  217.750  234.102   98.335    9.030    0.473    0.186
  218.000  234.065  101.806    9.525    0.472    0.138
  218.250  231.615  102.663    9.608    0.414    0.109
  218.500  229.161   96.246    9.183    0.410    0.198
  218.750  228.646   96.516    8.392    0.439    0.241
  219.000  230.553   99.990    6.888    0.468    0.259
  219.250  231.493  103.754    5.309    0.505    0.261
  219.500  231.948  106.064    4.318    0.529    0.253
  219.750  231.434  103.721    4.763    0.517    0.248
  220.000  230.916  101.085    5.447    0.505    0.246
  220.250  230.890   98.735    5.955    0.492    0.229
  220.500  231.830   98.718    6.453    0.480    0.202
  220.750  232.285   97.245    7.055    0.474    0.168
  221.000  232.252   95.775    7.714    0.448    0.177
  221.250  232.223   96.337    8.742    0.466    0.225
  221.500  231.223  107.086    9.558    0.464    0.225
  221.750  232.167  119.868    9.726    0.445    0.213
  222.000  232.619  120.723    9.636    0.460    0.227
  222.250  233.563  120.704    9.460    0.470    0.186
  222.500  232.556  120.686    9.289    0.460    0.183
  222.750  227.685  122.995    9.202    0.455    0.226
  223.000  225.224  125.596    9.198    0.465    0.257
  223.250  224.229  127.908    9.277    0.474    0.241
  223.500  223.229  132.254    9.357    0.486    0.234
  223.750  222.230  126.997    9.523    0.491    0.238
  224.000  222.201  124.655    9.866    0.485    0.221
  224.250  222.652  116.780   10.131    0.465    0.216
  224.500  224.562  114.142   10.496    0.440    0.227
  224.750  232.775  112.378   10.779    0.441    0.236
  225.000  235.170  109.163   11.472    0.451    0.222
  225.250  234.656  106.525   12.211    0.444    0.180
  225.500  232.202  104.182   13.113    0.422    0.157
  225.750  230.233  100.380   14.082    0.413    0.189
  226.000  230.200   95.416   14.722    0.433    0.233
  226.250  230.170   94.231   14.847    0.428    0.225
  226.500  230.141   95.090   14.975    0.428    0.221
  226.750  231.077   95.943   15.238    0.425    0.224
  227.000  230.078   95.927   15.790    0.425    0.226
  227.250  228.601   95.037   16.805    0.421    0.168
  227.500  227.117   90.946   18.210    0.408    0.094
  227.750  226.603   85.399   20.271    0.251    0.046
  228.000  226.088   76.072   24.242    0.279    0.083
  228.250  227.513   70.815   21.373    0.313    0.123
  228.500  228.450   71.672   19.360    0.351    0.152
  228.750  228.905   75.437   18.012    0.395    0.187
  229.000  229.842   78.908   16.758    0.415    0.232
  229.250  230.297   79.765   15.593    0.420    0.245
  229.500  230.756   80.327   14.507    0.425    0.255
  229.750  231.689   81.764   14.117    0.431    0.268
  230.000  232.148   84.946   14.110    0.440    0.252
  230.250  233.092   89.290   13.980    0.452    0.234
  230.500  234.032   90.434   13.850    0.452    0.174
  230.750  234.487   85.766   13.598    0.420    0.037
  231.000  232.033   78.766   13.351    0.318    0.066
  231.250  230.061   71.475   13.108    0.380    0.128
  231.500  229.543   71.749   12.870    0.466    0.179
  231.750  229.513   78.422   12.636    0.462    0.210
  232.000  229.965   85.677   12.518    0.446    0.199
  232.250  229.943   88.564   12.291    0.452    0.191
  232.500  229.913   90.294   12.177    0.460    0.183
  232.750  229.391   90.570   11.849    0.445    0.176
  233.000  229.366   92.589   11.738    0.433    0.201
  233.250  229.336   96.060   11.734    0.437    0.231
  233.500  230.276   98.949   11.728    0.445    0.225
  233.750  232.186  101.261   11.724    0.452    0.221
  234.000  233.611   98.625   11.719    0.458    0.222
  234.250  232.608   92.787   11.610    0.463    0.217
  234.500  232.579   93.641   11.097    0.469    0.224
  234.750  233.519   94.497   10.512    0.470    0.229
  235.000  233.489   93.317   10.320    0.451    0.234
  235.250  232.971   95.913   10.133    0.434    0.227
  235.500  232.949   98.514    9.773    0.443    0.218
  235.750  232.431   99.953    9.509    0.456    0.215
  236.000  231.917   99.936    9.591    0.469    0.206
  236.250  231.406   97.881    9.587    0.476    0.182
  236.500  230.407   94.370    9.757    0.471    0.157
  236.750  229.400   92.028    9.753    0.450    0.168
  237.000  229.371   90.553    9.749    0.458    0.208
  237.250  229.826   93.735    9.658    0.452    0.225
  237.500  230.766   95.174    9.654    0.465    0.209
  237.750  231.710   91.957    9.650    0.480    0.194
