~VERSION INFORMATION
 VERS.                 2.0:   CWLS LOG ASCII STANDARD -VERSION 2.0
 WRAP.                  NO:   ONE LINE PER DEPTH STEP
~WELL INFORMATION BLOCK
#MNEM.UNIT           DATA                    DESCRIPTION OF MNEMONIC
#---------    -------------------            -------------------------------
# Generated from Intellog Unique Number	CS_69_70/WELL/879
WELL.         GULF CANADA LIMITED            : Well_name    - WELL
LOC .         00/10-34-069-15W4/0            : Location     - LOCATION
UWI .         00/10-34-069-15W4/0            : Uwi          - UNIQUE WELL ID
ENTR.         SP                             : Entered      - ENTERED BY
SRVC.         SCHLUMBERGER                   : Scn          - SERVICE COMPANY
STRT.M        250                            : top_depth    - START DEPTH
STOP.M        465                            : bot_depth    - STOP DEPTH
STEP.M        0.25                           : increment    - STEP LENGTH
 NULL. -999.2500:NULL Value
~CURVE INFORMATION BLOCK
#MNEM UNIT       ERCB CURVE CODE    CURVE DESCRIPTION
#-----------   ------------------   ----------------------------------
DEPT.M        00 001 00 00         : DEPTH        - DEPTH
ILD .OHMM     00 120 00 00         : RESD         - DEEP RESISTIVITY (DIL)
DPHI.V/V      00 890 00 00         : PHID         - DENSITY POROSITY (LIMESTONE)
NPHI.V/V      00 330 00 00         : PHIN         - NEUTRON POROSITY (LIMESTONE)
GR  .API      00 310 00 00         : GR           - GAMMA RAY
~PARAMETER INFORMATION
#MNEM.UNIT           DATA             DESCRIPTION OF MNEMONIC
#---------         -----------     ------------------------------
GL  .M        559.6                : gl           - GROUND LEVEL ELEVATION
EREF.M        563.41               : kb           - ELEVATION OF DEPTH REFERENCE
DATM.M        559.6                : datum        - DATUM ELEVATION
TDD .M        465                  : tdd          - TOTAL DEPTH DRILLER
RUN .         ONE                  : Run          - RUN NUMBER
ENG .         BILL                 : Engineer     - RECORDING ENGINEER
WIT .         JIM                  : Witness      - WITNESSED BY
MUD .         GEL                  : Mud_type     - MUD TYPE
MATR.         LIMESTONE            : Logunit      - NEUTRON MATRIX
TMAX.C        18                   : BHT          - MAXIMUM RECORDED TEMPERATURE
BHTD.M        465                  : BHTDEP       - MAXIMUM RECORDED TEMPERATURE
MATR.         1                    : LOGUNIT      - NEUTRON MATRIX
RMT .C        25                   : MDTP         - TEMPERATURE OF MUD
NEUT.         1                    : NEUTRON      - NEUTRON TYPE
RESI.         0                    : RESIST       - RESISTIVITY TYPE
RMC .OHMM     0.25                 : RMC          - RESISTIVITY OF MUD CAKE
RMF .OHMM     0.25                 : RMF          - RESISTIVITY OF MUD FILTRATE
SUFT.C        15                   : SUFT         - SURFACE TEMPERATURE
~A  DEPTH     RESD     PHID     PHIN       GR
  250.000    2.960    0.195    0.463  104.939
  250.250    2.885    0.193    0.475  110.042
  250.500    2.801    0.200    0.504  115.570
  250.750    2.740    0.210    0.516  117.871
  251.000    2.696    0.206    0.518  117.858
  251.250    2.672    0.202    0.510  117.296
  251.500    2.678    0.207    0.506  116.251
  251.750    2.709    0.214    0.522  115.570
  252.000    2.750    0.217    0.535  115.193
  252.250    2.839    0.210    0.544  113.294
  252.500    2.926    0.211    0.544  111.334
  252.750    2.988    0.212    0.532  112.599
  253.000    3.000    0.206    0.526  110.090
  253.250    3.017    0.213    0.524  108.922
  253.500    3.024    0.233    0.519  113.414
  253.750    2.953    0.219    0.517  117.664
  254.000    2.932    0.219    0.519  118.443
  254.250    2.901    0.211    0.526  116.117
  254.500    2.848    0.209    0.533  114.400
  254.750    2.776    0.214    0.542  114.020
  255.000    2.706    0.218    0.550  113.828
  255.250    2.662    0.222    0.558  113.389
  255.500    2.604    0.229    0.556  113.011
  255.750    2.538    0.233    0.544  112.876
  256.000    2.465    0.229    0.538  113.232
  256.250    2.452    0.222    0.532  114.924
  256.500    2.421    0.234    0.529  115.825
  256.750    2.386    0.241    0.531  114.290
  257.000    2.387    0.235    0.553  112.149
  257.250    2.392    0.244    0.572  110.187
  257.500    2.442    0.243    0.577  108.959
  257.750    2.489    0.246    0.562  107.483
  258.000    2.546    0.229    0.551  106.740
  258.250    2.585    0.236    0.548  106.121
  258.500    2.595    0.235    0.552  106.961
  258.750    2.582    0.233    0.557  109.080
  259.000    2.544    0.227    0.554  110.225
  259.250    2.512    0.223    0.554  110.638
  259.500    2.472    0.228    0.557  110.991
  259.750    2.436    0.233    0.539  112.623
  260.000    2.410    0.240    0.513  115.288
  260.250    2.384    0.246    0.530  117.588
  260.500    2.389    0.239    0.545  118.855
  260.750    2.390    0.234    0.545  120.365
  261.000    2.417    0.228    0.543  116.822
  261.250    2.455    0.218    0.543  113.767
  261.500    2.488    0.221    0.550  113.572
  261.750    2.502    0.230    0.554  114.533
  262.000    2.489    0.237    0.550  114.520
  262.250    2.458    0.236    0.558  114.204
  262.500    2.445    0.240    0.570  113.097
  262.750    2.455    0.239    0.578  110.528
  263.000    2.456    0.233    0.583  108.019
  263.250    2.480    0.224    0.542  105.512
  263.500    2.532    0.224    0.538  103.855
  263.750    2.566    0.206    0.564  103.357
  264.000    2.600    0.184    0.589   98.232
  264.250    2.655    0.142    0.567   94.506
  264.500    2.705    0.105    0.531   95.711
  264.750    2.768    0.115    0.534  100.386
  265.000    2.794    0.230    0.543  105.180
  265.250    2.816    0.256    0.548  107.118
  265.500    2.817    0.222    0.539  109.054
  265.750    2.818    0.209    0.538  110.321
  266.000    2.793    0.214    0.538  111.100
  266.250    2.778    0.216    0.533  111.331
  266.500    2.748    0.212    0.535  110.831
  266.750    2.739    0.210    0.538  110.881
  267.000    2.730    0.205    0.516  111.234
  267.250    2.746    0.201    0.520  111.767
  267.500    2.767    0.200    0.533  112.728
  267.750    2.841    0.203    0.530  114.058
  268.000    2.923    0.199    0.523  115.993
  268.250    3.006    0.193    0.529  116.285
  268.500    3.104    0.184    0.523  114.507
  268.750    3.204    0.172    0.511  116.079
  269.000    3.296    0.173    0.498  117.101
  269.250    3.390    0.185    0.487  113.619
  269.500    3.481    0.191    0.479  109.954
  269.750    3.495    0.191    0.470  108.603
  270.000    3.471    0.186    0.463  107.858
  270.250    3.408    0.192    0.469  107.666
  270.500    3.297    0.194    0.497  107.714
  270.750    3.154    0.201    0.510  108.429
  271.000    3.057    0.199    0.518  109.334
  271.250    2.968    0.205    0.531  111.208
  271.500    2.888    0.212    0.543  111.988
  271.750    2.825    0.218    0.537  111.732
  272.000    2.795    0.222    0.524  113.728
  272.250    2.811    0.205    0.513  116.455
  272.500    2.876    0.189    0.521  116.991
  272.750    2.958    0.205    0.516  114.848
  273.000    3.020    0.213    0.509  112.584
  273.250    3.072    0.218    0.505  111.717
  273.500    3.102    0.207    0.517  108.964
  273.750    3.120    0.200    0.530  107.434
  274.000    3.139    0.193    0.527  105.413
  274.250    3.193    0.206    0.503  103.514
  274.500    3.296    0.217    0.465  102.953
  274.750    3.403    0.203    0.462  105.194
  275.000    3.286    0.193    0.472  106.825
  275.250    3.132    0.202    0.489  105.595
  275.500    3.047    0.198    0.509  102.844
  275.750    3.164    0.212    0.499   99.483
  276.000    3.473    0.228    0.476   96.608
  276.250    3.728    0.243    0.459   95.259
  276.500    3.914    0.250    0.446  101.270
  276.750    4.041    0.250    0.434  103.818
  277.000    4.096    0.250    0.433  107.154
  277.250    4.135    0.242    0.422  109.028
  277.500    4.183    0.231    0.429  101.042
  277.750    4.319    0.244    0.437   86.541
  278.000    4.501    0.302    0.431   74.781
  278.250    4.604    0.343    0.418   58.578
  278.500    4.299    0.359    0.391   46.877
  278.750    3.904    0.371    0.379   41.327
  279.000    3.533    0.346    0.382   37.541
  279.250    3.191    0.339    0.394   41.971
  279.500    2.898    0.325    0.417   47.740
  279.750    2.752    0.316    0.424   52.413
  280.000    2.667    0.307    0.416   55.080
  280.250    2.648    0.300    0.412   57.628
  280.500    2.674    0.301    0.414   60.903
  280.750    2.797    0.296    0.404   61.376
  281.000    3.134    0.290    0.401   63.252
  281.250    3.491    0.296    0.413   66.344
  281.500    4.068    0.304    0.424   71.080
  281.750    4.399    0.311    0.430   75.874
  282.000    4.767    0.311    0.435   78.238
  282.250    4.903    0.299    0.418   82.303
  282.500    4.860    0.275    0.403   84.302
  282.750    4.843    0.257    0.391   83.071
  283.000    4.900    0.240    0.382   79.955
  283.250    4.919    0.224    0.367   77.750
  283.500    5.022    0.216    0.361   80.112
  283.750    5.109    0.214    0.371   82.718
  284.000    5.082    0.220    0.382   84.409
  284.250    4.800    0.223    0.387   84.518
  284.500    4.669    0.228    0.392   84.506
  284.750    4.483    0.236    0.398   83.948
  285.000    4.242    0.229    0.411   81.135
  285.250    4.088    0.222    0.421   77.530
  285.500    3.783    0.243    0.433   75.267
  285.750    3.513    0.267    0.445   73.064
  286.000    3.281    0.289    0.444   75.303
  286.250    3.139    0.304    0.452   76.082
  286.500    3.014    0.315    0.468   74.852
  286.750    2.938    0.300    0.476   73.135
  287.000    2.922    0.293    0.473   72.026
  287.250    2.973    0.281    0.460   71.895
  287.500    3.018    0.279    0.457   72.552
  287.750    3.036    0.295    0.469   72.357
  288.000    3.020    0.291    0.473   73.198
  288.250    3.010    0.284    0.468   75.376
  288.500    2.989    0.282    0.459   78.041
  288.750    2.940    0.284    0.452   78.882
  289.000    2.876    0.285    0.447   78.201
  289.250    2.793    0.286    0.452   74.718
  289.500    2.742    0.302    0.470   72.698
  289.750    2.673    0.306    0.485   72.016
  290.000    2.615    0.303    0.480   70.725
  290.250    2.587    0.300    0.474   69.494
  290.500    2.568    0.301    0.476   69.362
  290.750    2.560    0.304    0.473   71.297
  291.000    2.561    0.307    0.466   73.051
  291.250    2.571    0.310    0.470   73.888
  291.500    2.615    0.312    0.473   73.694
  291.750    2.641    0.311    0.464   73.379
  292.000    2.711    0.301    0.456   74.888
  292.250    2.763    0.291    0.468   77.125
  292.500    2.821    0.277    0.478   78.577
  292.750    2.864    0.267    0.470   80.209
  293.000    2.903    0.277    0.464   80.014
  293.250    2.931    0.287    0.466   77.323
