~VERSION INFORMATION
 VERS.                 2.0:   CWLS LOG ASCII STANDARD -VERSION 2.0
 WRAP.                  NO:   ONE LINE PER DEPTH STEP
~WELL INFORMATION BLOCK
#MNEM.UNIT           DATA                    DESCRIPTION OF MNEMONIC
#---------    -------------------            -------------------------------
# Generated from Intellog Unique Number	CN_91_93/WELL/1076
WELL.         PETRO CANADA                   : Well_name    - WELL
LOC .         00/10-01-091-18W4/0            : Location     - LOCATION
UWI .         00/10-01-091-18W400            : Uwi          - UNIQUE WELL ID
ENTR.         JOETTE                         : Entered      - ENTERED BY
SRVC.         SCHLUMBERGER                   : Scn          - SERVICE COMPANY
DATE.         02/04/92                       : Date         - LOG DATE
STRT.F        196.85                         : top_depth    - START DEPTH
STOP.F        780.84                         : bot_depth    - STOP DEPTH
STEP.F        0.821                          : increment    - STEP LENGTH
 NULL. -999.2500:NULL Value
~CURVE INFORMATION BLOCK
#MNEM UNIT       ERCB CURVE CODE    CURVE DESCRIPTION
#-----------   ------------------   ----------------------------------
DEPT.F        00 001 00 00         : DEPTH        - DEPTH
ILD .OHMM     00 120 00 00         : RESD         - DEEP RESISTIVITY (DIL)
DPHI.V/V      00 890 00 00         : PHID         - DENSITY POROSITY (SANDSTONE)
NPHI.V/V      00 330 00 00         : PHIN         - NEUTRON POROSITY (SANDSTONE)
CALI.IN       00 280 01 00         : CAL          - CALIPER
GR  .API      00 310 00 00         : GR           - GAMMA RAY
~PARAMETER INFORMATION
#MNEM.UNIT           DATA             DESCRIPTION OF MNEMONIC
#---------         -----------     ------------------------------
GL  .F        1663.06              : gl           - GROUND LEVEL ELEVATION
EREF.F        1673.88              : kb           - ELEVATION OF DEPTH REFERENCE
DATM.F        1673.88              : datum        - DATUM ELEVATION
TDD .F        807.087              : tdd          - TOTAL DEPTH DRILLER
RUN .         ONE                  : Run          - RUN NUMBER
ENG .         BILL                 : Engineer     - RECORDING ENGINEER
WIT .         JIM                  : Witness      - WITNESSED BY
MUD .         GEL                  : Mud_type     - MUD TYPE
MATR.         SANDSTONE            : Logunit      - NEUTRON MATRIX
TMAX.F        77                   : BHT          - MAXIMUM RECORDED TEMPERATURE
BHTD.F        807.087              : BHTDEP       - MAXIMUM RECORDED TEMPERATURE
RMT .F        53.6                 : MDTP         - TEMPERATURE OF MUD
MUDD.LB/G     9.58333              : MWT          - MUD DENSITY
NEUT.         1                    : NEUTRON      - NEUTRON TYPE
RESI.         0                    : RESIST       - RESISTIVITY TYPE
RM  .OHMM     2.6                  : RM           - RESISTIVITY OF MUD
RMC .OHMM     2.6                  : RMC          - RESISTIVITY OF MUD CAKE
RMF .OHMM     2.6                  : RMF          - RESISTIVITY OF MUD FILTRATE
SUFT.F        39.2                 : SUFT         - SURFACE TEMPERATURE
~A  DEPTH     RESD     PHID     PHIN      CAL       GR
# ...
  316.601    9.153    0.283    0.534    6.888  100.878
  317.421    9.593    0.292    0.548    6.888   99.985
  318.241    9.775    0.297    0.531    6.888   97.895
  319.062    9.777    0.295    0.497    6.889   97.900
  319.882    9.779    0.288    0.478    6.909   99.400
  320.702    9.690    0.307    0.483    6.948   99.106
  321.522    9.163    0.318    0.511    7.007   93.425
  322.343    8.585    0.314    0.489    7.106   90.139
  323.163    8.913    0.313    0.481    7.185   85.955
  323.983    9.517    0.244    0.480    7.048   83.266
  324.803    9.699    0.199    0.466    6.950   84.767
  325.623    7.752    0.189    0.441    6.989   88.661
  326.444    7.469    0.214    0.435    7.048   91.657
  327.264    6.932    0.245    0.451    7.147   90.764
  328.084    6.374    0.281    0.470    7.285   83.288
  328.904    5.861    0.300    0.482    7.344   80.899
  329.724    5.143    0.300    0.477    7.305   83.896
  330.545    4.556    0.296    0.458    7.168   74.027
  331.365    4.036    0.304    0.462    6.972   71.638
  332.185    3.852    0.356    0.464    6.815   75.232
  333.005    3.746    0.409    0.472    6.717   83.914
  333.825    3.644    0.390    0.515    6.678   85.415
  334.646    3.644    0.347    0.554    6.659   83.325
  335.466    3.645    0.175    0.499    6.659   87.517
  336.286    3.749    0.201    0.490    6.679   94.702
  337.106    3.856    0.263    0.504    6.718  102.785
  337.927    3.893    0.294    0.536    6.817  101.294
  338.747    3.894    0.321    0.558    6.817  100.699
  339.567    3.752    0.318    0.564    6.739  104.892
  340.387    3.649    0.320    0.574    6.720  107.290
  341.207    3.650    0.316    0.583    6.700  106.697
  342.028    3.719    0.313    0.575    6.661  106.402
  342.848    3.790    0.313    0.577    6.642  106.108
  343.668    3.899    0.311    0.571    6.642  102.521
  344.488    3.973    0.282    0.532    6.643   96.543
  345.308    4.322    0.260    0.511    6.623   96.846
  346.129    4.659    0.271    0.559    6.624  101.937
  346.949    4.837    0.304    0.587    6.624  104.335
  347.769    5.022    0.291    0.595    6.624  101.048
  348.589    5.214    0.283    0.588    6.644   94.470
  349.409    5.264    0.297    0.593    6.644   90.585
  350.230    5.265    0.229    0.577    6.645   89.393
  351.050    5.266    0.207    0.482    6.665   92.988
  351.870    5.317    0.240    0.500    6.685   96.881
  352.690    5.368    0.320    0.546    6.704  100.476
  353.510    5.470    0.318    0.571    6.705  103.173
  354.331    5.420    0.309    0.587    6.705  104.376
  355.151    5.523    0.308    0.564    6.725  102.285
  355.971    5.174    0.310    0.532    6.764  100.195
  356.791    4.627    0.313    0.518    6.863   97.805
  357.612    5.274    0.306    0.509    6.942   93.322
  358.432    6.419    0.302    0.538    6.765   95.421
  359.252    7.525    0.303    0.547    6.648  101.708
  360.072    9.507    0.302    0.529    6.589  103.508
  360.892   10.940    0.297    0.514    6.589  101.718
  361.713   13.439    0.297    0.508    6.609  100.824
  362.533   15.321    0.299    0.503    6.649  101.427
  363.353   14.900    0.298    0.506    6.728  101.731
  364.173   13.700    0.281    0.507    6.944   95.452
  364.993   12.136    0.272    0.497    6.984   91.268
  365.814   10.355    0.242    0.477    6.984   87.683
  366.634    9.345    0.200    0.455    6.965   85.592
  367.454    8.434    0.185    0.398    6.945   79.912
  368.274    8.357    0.216    0.404    6.828   82.011
  369.094    9.264    0.281    0.424    6.828   82.315
  369.915   11.704    0.282    0.429    6.691   81.721
  370.735   14.111    0.263    0.438    6.534   85.914
  371.555   17.828    0.257    0.452    6.731   91.303
  372.375   18.684    0.256    0.458    6.633   95.197
  373.196   19.043    0.261    0.468    6.555   89.218
  374.016   19.769    0.271    0.474    6.535   83.239
  374.836   21.308    0.279    0.459    6.536   75.763
  375.656   22.123    0.194    0.428    6.556   71.280
  376.476   22.970    0.222    0.443    6.556   70.387
  377.297   23.627    0.243    0.450    6.674   78.768
  378.117   23.632    0.259    0.450    6.792   83.261
  378.937   23.859    0.268    0.444    6.851   82.068
  379.757   25.239    0.272    0.433    6.793   78.484
  380.577   26.699    0.287    0.411    6.754   74.598
  381.398   27.722    0.280    0.402    6.695   66.824
  382.218   25.730    0.277    0.397    6.597   65.632
  383.038   23.658    0.277    0.416    6.538   64.440
  383.858   22.165    0.269    0.410    6.421   62.948
  384.678   21.556    0.265    0.411    6.598   60.858
  385.499   21.360    0.261    0.415    6.696   60.264
  386.319   20.968    0.243    0.388    6.677   60.268
  387.139   19.645    0.187    0.364    6.638   61.171
  387.959   18.576    0.209    0.319    6.619   62.969
  388.780   17.242    0.240    0.368    6.619   66.863
  389.600   18.583    0.269    0.428    6.659   68.065
  390.420   11.869    0.306    0.442    6.600   67.172
  391.240    7.723    0.276    0.434    6.463   68.372
  392.060    5.891    0.244    0.384    6.542   72.267
  392.881    5.317    0.240    0.430    6.660   70.776
  393.701    5.028    0.205    0.384    6.758   67.788
  394.521    5.124    0.176    0.312    6.601   74.075
  395.341    5.471    0.215    0.386    6.661   89.338
  396.161    5.734    0.230    0.416    6.740   97.121
  396.982    6.123    0.262    0.509    6.818  104.606
  397.802    6.181    0.282    0.527    6.760  102.815
  398.622    6.182    0.291    0.538    6.662   98.032
  399.442    5.957    0.270    0.544    6.584   89.959
  400.262    5.793    0.130    0.521    6.545   81.885
  401.083    6.071    0.116    0.499    6.545   86.377
  401.903    6.304    0.160    0.489    6.643   99.247
  402.723    7.391    0.262    0.504    6.703  105.235
  403.543    9.337    0.266    0.520    6.801  108.830
  404.364    9.970    0.269    0.512    6.821  109.733
  405.184   10.647    0.268    0.511    6.684  109.138
  406.004   10.648    0.254    0.515    6.566  101.962
  406.824   10.356    0.218    0.492    6.606   96.282
  407.644    9.978    0.191    0.444    6.646   90.602
  408.465    9.614    0.188    0.429    6.705   87.913
  409.285    9.981    0.210    0.407    6.725   87.021
  410.105   10.961    0.236    0.404    6.764   86.427
  410.925   12.037    0.253    0.430    6.784   87.029
  411.745   13.981    0.262    0.445    6.843   87.034
  412.566   16.088    0.262    0.455    6.863   87.038
  413.386   18.168    0.260    0.465    6.785   86.145
  414.206   19.582    0.246    0.458    6.648   70.292
  415.026   19.404    0.228    0.442    6.648   62.518
  415.846   17.349    0.207    0.408    6.570   60.727
  416.667   12.512    0.233    0.389    6.354   62.228
  417.487   11.292    0.244    0.383    6.276   64.926
  418.307    8.694    0.259    0.409    6.394   68.819
  419.127    8.777    0.272    0.416    6.551   81.987
  419.948   13.748    0.258    0.428    6.650   91.566
  420.768   16.888    0.263    0.442    6.650   93.964
  421.588   19.800    0.272    0.459    6.611   88.583
  422.408   19.990    0.280    0.471    6.415   70.935
  423.228   15.247    0.262    0.454    6.317   64.358
  424.049   11.522    0.258    0.442    6.318   62.567
  424.869    8.388    0.277    0.429    6.357   63.469
  425.689    7.858    0.256    0.324    6.377   67.363
  426.509    8.083    0.165    0.336    6.417   85.917
  427.329    8.237    0.188    0.387    6.554   91.906
  428.150    8.239    0.209    0.445    6.672   94.303
  428.970    8.240    0.231    0.464    6.672   93.111
  429.790    8.319    0.242    0.479    6.693   91.320
  430.610    8.478    0.233    0.480    6.693   88.333
  431.430    8.720    0.229    0.464    6.693   87.142
  432.251    8.970    0.242    0.475    6.772   91.034
  433.071    9.401    0.251    0.491    6.851   92.236
  433.891   10.617    0.252    0.471    6.910   89.249
  434.711   12.682    0.236    0.449    6.734   90.450
  435.531   16.789    0.228    0.445    6.655   92.249
