~VERSION INFORMATION
 VERS.                 2.0:   CWLS LOG ASCII STANDARD -VERSION 2.0
 WRAP.                  NO:   ONE LINE PER DEPTH STEP
~WELL INFORMATION BLOCK
#MNEM.UNIT           DATA                    DESCRIPTION OF MNEMONIC
#---------    -------------------            -------------------------------
# Generated from Intellog Unique Number	CS_73_76/WELL/1968
WELL.         AMOCO                          : Well_name    - WELL
LOC .         00/10-18-073-04W4/0            : Location     - LOCATION
UWI .         00/10-18-073-04W4/0            : Uwi          - UNIQUE WELL ID
ENTR.         T                              : Entered      - ENTERED BY
SRVC.         SCHLUMBERGER                   : Scn          - SERVICE COMPANY
STRT.M        300                            : top_depth    - START DEPTH
STOP.M        515                            : bot_depth    - STOP DEPTH
STEP.M        0.25                           : increment    - STEP LENGTH
 NULL. -999.2500:NULL Value
~CURVE INFORMATION BLOCK
#MNEM UNIT       ERCB CURVE CODE    CURVE DESCRIPTION
#-----------   ------------------   ----------------------------------
DEPT.M        00 001 00 00         : DEPTH        - DEPTH
GR  .API      00 310 00 00         : GR           - GAMMA RAY
NPHI.V/V      00 330 00 00         : PHIN         - NEUTRON POROSITY (SANDSTONE)
DPHI.V/V      00 890 00 00         : PHID         - DENSITY POROSITY (SANDSTONE)
ILD .OHMM     00 120 00 00         : RESD         - DEEP RESISTIVITY (DIL)
~PARAMETER INFORMATION
#MNEM.UNIT           DATA             DESCRIPTION OF MNEMONIC
#---------         -----------     ------------------------------
GL  .M        695.3                : gl           - GROUND LEVEL ELEVATION
EREF.M        699.1                : kb           - ELEVATION OF DEPTH REFERENCE
DATM.M        699.1                : datum        - DATUM ELEVATION
TDD .M        530                  : tdd          - TOTAL DEPTH DRILLER
RUN .         ONE                  : Run          - RUN NUMBER
ENG .         BILL                 : Engineer     - RECORDING ENGINEER
WIT .         JIM                  : Witness      - WITNESSED BY
MUD .         GEL                  : Mud_type     - MUD TYPE
MATR.         SANDSTONE            : Logunit      - NEUTRON MATRIX
TMAX.C        23.8                 : BHT          - MAXIMUM RECORDED TEMPERATURE
BHTD.M        530                  : BHTDEP       - MAXIMUM RECORDED TEMPERATURE
MATR.         1                    : LOGUNIT      - NEUTRON MATRIX
RMT .C        25                   : MDTP         - TEMPERATURE OF MUD
NEUT.         1                    : NEUTRON      - NEUTRON TYPE
RESI.         0                    : RESIST       - RESISTIVITY TYPE
RMC .OHMM     5.7                  : RMC          - RESISTIVITY OF MUD CAKE
RMF .OHMM     6.6                  : RMF          - RESISTIVITY OF MUD FILTRATE
SUFT.C        15                   : SUFT         - SURFACE TEMPERATURE
~A  DEPTH       GR     PHIN     PHID     RESD
# ...
  430.500   65.247    0.402    0.383    1.297
  430.750   64.577    0.434    0.374    1.295
  431.000   64.545    0.453    0.351    1.318
  431.250   64.504    0.465    0.342    1.342
  431.500   63.833    0.480    0.348    1.340
  431.750   63.802    0.480    0.354    1.339
  432.000   63.739    0.458    0.353    1.337
  432.250   64.326    0.461    0.347    1.336
  432.500   64.893    0.466    0.346    1.385
  432.750   64.861    0.480    0.347    1.409
  433.000   64.820    0.499    0.351    1.435
  433.250   64.788    0.518    0.351    1.460
  433.500   65.355    0.523    0.352    1.487
  433.750   65.323    0.524    0.352    1.662
  434.000   64.663    0.524    0.352    1.930
  434.250   62.148    0.498    0.351    2.199
  434.500   60.870    0.483    0.351    2.412
  434.750   60.199    0.475    0.349    2.410
  435.000   60.168    0.477    0.344    2.275
  435.250   61.961    0.482    0.335    2.068
  435.500   63.166    0.479    0.325    1.953
  435.750   60.651    0.474    0.314    1.776
  436.000   55.663    0.467    0.304    1.646
  436.250   56.239    0.456    0.292    1.583
  436.500   61.134    0.435    0.256    1.673
  436.750   60.474    0.410    0.220    1.703
  437.000   59.195    0.441    0.216    1.765
  437.250   57.917    0.449    0.329    1.666
  437.500   57.257    0.448    0.341    1.603
  437.750   57.226    0.420    0.327    1.543
  438.000   58.410    0.395    0.241    1.484
  438.250   58.997    0.406    0.206    1.483
  438.500   60.790    0.431    0.263    1.481
  438.750   61.387    0.458    0.288    1.507
  439.000   62.582    0.463    0.313    1.506
  439.250   63.148    0.469    0.322    1.532
  439.500   63.715    0.473    0.333    1.559
  439.750   64.302    0.478    0.343    1.558
  440.000   64.270    0.479    0.357    1.556
  440.250   63.610    0.481    0.365    1.526
  440.500   63.569    0.477    0.368    1.552
  440.750   63.516    0.478    0.366    1.610
  441.000   64.093    0.489    0.363    1.639
  441.250   64.659    0.496    0.357    1.700
  441.500   64.638    0.490    0.347    1.763
  441.750   65.215    0.483    0.334    1.828
  442.000   68.883    0.490    0.310    1.896
  442.250   73.159    0.520    0.301    1.966
  442.500   72.499    0.534    0.329    2.040
  442.750   71.839    0.545    0.339    2.196
  443.000   71.808    0.553    0.331    2.278
  443.250   71.148    0.555    0.319    2.319
  443.500   71.704    0.562    0.310    2.108
  443.750   72.301    0.573    0.307    1.812
  444.000   73.496    0.550    0.304    1.500
  444.250   74.073    0.545    0.300    1.241
  444.500   73.402    0.545    0.296    1.087
  444.750   70.259    0.545    0.284    0.970
  445.000   68.991    0.501    0.260    0.916
  445.250   64.621    0.477    0.275    0.898
  445.500   57.159    0.384    0.305    0.897
  445.750   50.913    0.343    0.315    0.930
  446.000   49.037    0.346    0.323    0.983
  446.250   47.748    0.351    0.334    1.058
  446.500   48.325    0.363    0.357    1.252
  446.750   50.128    0.374    0.368    1.427
  447.000   51.952    0.390    0.366    1.752
  447.250   53.775    0.407    0.360    2.277
  447.500   55.568    0.423    0.358    3.072
  447.750   56.155    0.433    0.348    4.224
  448.000   56.742    0.444    0.340    5.489
  448.250   56.700    0.446    0.335    6.871
  448.500   57.266    0.452    0.333    7.540
  448.750   58.461    0.460    0.329    7.387
  449.000   59.048    0.464    0.327    7.239
  449.250   59.007    0.456    0.325    7.100
  449.500   56.471    0.461    0.323    6.457
  449.750   57.037    0.464    0.324    5.344
  450.000   58.253    0.463    0.326    3.807
  450.250   60.077    0.455    0.322    2.660
  450.500   62.508    0.445    0.316    2.081
  450.750   66.166    0.428    0.258    1.628
  451.000   68.608    0.429    0.251    1.204
  451.250   71.658    0.435    0.279    0.826
  451.500   75.326    0.440    0.295    0.723
  451.750   78.376    0.449    0.307    0.658
  452.000   78.314    0.450    0.298    0.621
  452.250   78.282    0.452    0.288    0.575
  452.500   78.251    0.455    0.272    0.574
  452.750   79.425    0.461    0.263    0.619
  453.000   80.631    0.471    0.268    0.666
  453.250   83.062    0.484    0.267    0.774
  453.500   81.165    0.500    0.255    1.125
  453.750   80.505    0.507    0.246    1.462
  454.000   80.474    0.503    0.248    1.729
  454.250   80.433    0.498    0.247    1.970
  454.500   79.123    0.496    0.243    2.082
  454.750   78.484    0.497    0.240    2.284
  455.000   76.576    0.490    0.240    2.413
  455.250   75.298    0.484    0.241    2.412
  455.500   74.009    0.479    0.239    2.454
  455.750   73.360    0.480    0.238    2.451
  456.000   73.360    0.480    0.244    2.449
  456.250   77.584    0.478    0.265    2.492
  456.500   76.337    0.482    0.271    2.490
  456.750   75.058    0.482    0.280    2.535
  457.000   73.151    0.476    0.258    2.679
  457.250   71.873    0.468    0.250    2.884
  457.500   71.213    0.463    0.249    2.992
  457.750   70.563    0.458    0.253    3.345
  458.000   69.264    0.455    0.260    3.882
  458.250   68.625    0.453    0.283    4.508
  458.500   67.347    0.452    0.288    5.537
  458.750   65.450    0.451    0.296    8.208
  459.000   61.677    0.451    0.319   14.139
  459.250   59.162    0.453    0.322   15.226
  459.500   57.266    0.458    0.330   15.791
  459.750   55.369    0.467    0.342   16.378
  460.000   52.843    0.477    0.351   16.669
  460.250   51.575    0.483    0.353   17.284
  460.500   50.926    0.483    0.353   17.587
  460.750   49.019    0.478    0.353   18.250
  461.000   48.369    0.474    0.354   18.922
  461.250   47.091    0.477    0.355   20.377
  461.500   47.039    0.477    0.353   20.740
  461.750   46.389    0.476    0.353   21.104
  462.000   46.347    0.476    0.351   21.492
  462.250   45.677    0.476    0.346   21.468
  462.500   45.645    0.475    0.344   20.647
  462.750   45.583    0.468    0.340   19.863
  463.000   45.531    0.459    0.336   19.477
  463.250   45.510    0.469    0.339   18.036
  463.500   45.468    0.470    0.344   17.681
  463.750   46.045    0.447    0.349   17.327
  464.000   46.621    0.445    0.352   17.317
  464.250   47.816    0.444    0.352   17.298
  464.500   49.011    0.450    0.352   17.935
  464.750   49.578    0.454    0.352   18.260
  465.000   49.546    0.455    0.351   18.938
  465.250   49.505    0.456    0.350   19.642
  465.500   49.453    0.454    0.351   18.199
  465.750   48.782    0.452    0.352   16.862
  466.000   48.761    0.452    0.351   14.763
  466.250   48.101    0.453    0.338   13.424
  466.500   47.441    0.454    0.316   12.442
  466.750   48.636    0.448    0.262   11.097
  467.000   51.057    0.437    0.253   10.480
  467.250   52.242    0.419    0.280    9.707
  467.500   52.221    0.419    0.307    9.341
  467.750   52.158    0.450    0.329    8.492
  468.000   52.138    0.452    0.336    8.327
  468.250   52.096    0.463    0.342    7.861
  468.500   52.662    0.468    0.347    7.563
  468.750   53.249    0.472    0.343    7.276
  469.000   53.815    0.471    0.330    6.867
  469.250   54.381    0.466    0.323    6.609
  469.500   54.361    0.460    0.312    5.896
  469.750   54.927    0.436    0.305    5.261
  470.000   54.895    0.426    0.298    4.695
  470.250   54.225    0.426    0.286    4.349
  470.500   54.183    0.433    0.279    3.955
  470.750   54.142    0.439    0.309    3.597
  471.000   54.718    0.446    0.316    3.270
  471.250   55.924    0.465    0.325    2.918
  471.500   57.108    0.468    0.331    2.704
  471.750   57.695    0.472    0.336    2.412
  472.000   59.498    0.479    0.336    2.235
  472.250   59.467    0.478    0.334    2.150
  472.500   56.333    0.471    0.333    2.148
  472.750   52.561    0.466    0.334    2.269
  473.000   52.519    0.467    0.338    2.310
  473.250   53.106    0.465    0.339    2.351
  473.500   55.538    0.461    0.336    2.349
  473.750   57.959    0.453    0.327    2.259
