~VERSION INFORMATION
 VERS.                 2.0:   CWLS LOG ASCII STANDARD -VERSION 2.0
 WRAP.                  NO:   ONE LINE PER DEPTH STEP
~WELL INFORMATION BLOCK
#MNEM.UNIT           DATA                    DESCRIPTION OF MNEMONIC
#---------    -------------------            -------------------------------
# Generated from Intellog Unique Number	CC_80_83/WELL/2330
NULL.         -999.25                        : NULL_VALUE
WELL.         KANDEX ET AL PORTAGE           : Well_name    - WELL              
LOC .         10-03-080-14W4                 : Location     - LOCATION          
UWI .         00/10-03-080-14W4/0            : Uwi          - UNIQUE WELL ID    
ENTR.         DW                             : Entered      - ENTERED BY        
SRVC.         SCHLUMBERGER                   : Scn          - SERVICE COMPANY   
DATE.         14 AUG 77                      : Date         - LOG DATE
STRT.M        274.32                         : top_depth    - START DEPTH       
STOP.M        524.42                         : bot_depth    - STOP DEPTH        
STEP.M        0.3048                         : increment    - STEP LENGTH       
~CURVE INFORMATION BLOCK
#MNEM UNIT       ERCB CURVE CODE    CURVE DESCRIPTION
#-----------   ------------------   ----------------------------------
DEPT.M        00 001 00 00         : DEPTH        - DEPTH                       
DPHI.V/V      00 890 00 00         : PHID         - DENSITY POROSITY (LIMESTONE)
NPHI.V/V      00 330 00 00         : PHIN         - NEUTRON POROSITY (LIMESTONE)
GR  .API      00 310 00 00         : GR           - GAMMA RAY                   
ILD .OHMM     00 120 00 00         : RESD         - DEEP RESISTIVITY (DIL)      
~PARAMETER INFORMATION       
#MNEM.UNIT           DATA             DESCRIPTION OF MNEMONIC
#---------         -----------     ------------------------------
GL  .M        696.773              : gl           - GROUND LEVEL ELEVATION      
EREF.M        701.65               : kb           - ELEVATION OF DEPTH REFERENCE
DATM.M        701.65               : datum        - DATUM ELEVATION             
TDD .M        531.876              : tdd          - TOTAL DEPTH DRILLER         
RUN .         ONE                  : Run          - RUN NUMBER                  
ENG .         BILL                 : Engineer     - RECORDING ENGINEER          
WIT .         JIM                  : Witness      - WITNESSED BY                
MUD .         GEL                  : Mud_type     - MUD TYPE                    
MATR.         LIMESTONE            : Logunit      - NEUTRON MATRIX              
TMAX.C        23.8889              : BHT          - MAXIMUM RECORDED TEMPERATURE
BHTD.M        533.4                : BHTDEP       - MAXIMUM RECORDED TEMPERATURE
MATR.         1                    : LOGUNIT      - NEUTRON MATRIX              
RMT .C        25                   : MDTP         - TEMPERATURE OF MUD          
NEUT.         1                    : NEUTRON      - NEUTRON TYPE                
RESI.         0                    : RESIST       - RESISTIVITY TYPE            
RMC .OHMM     0.25                 : RMC          - RESISTIVITY OF MUD CAKE     
RMF .OHMM     0.25                 : RMF          - RESISTIVITY OF MUD FILTRATE 
SUFT.C        4                    : SUFT         - SURFACE TEMPERATURE         
~A  DEPTH     PHID     PHIN       GR     RESD
# ...
  433.530    0.205    0.452   79.534    8.014
  433.835    0.256    0.456   81.379    7.554
  434.140    0.282    0.454   78.298    7.400
  434.445    0.272    0.443   77.680    7.390
  434.750    0.268    0.441   80.755    7.229
  435.055    0.260    0.445   78.291    7.219
  435.360    0.243    0.451   75.209    7.075
  435.665    0.220    0.457   75.207    6.797
  435.970    0.266    0.456   79.514    6.662
  436.275    0.263    0.450   81.358    6.520
  436.580    0.276    0.461   80.125    6.512
  436.885    0.260    0.469   81.353    6.500
  437.190    0.259    0.463   83.197    6.732
  437.495    0.239    0.453   81.963    6.722
  437.800    0.226    0.443   81.961    6.840
  438.105    0.238    0.443   86.884    6.829
  438.410    0.257    0.469   90.575    6.564
  438.715    0.242    0.456   89.956    5.848
  439.020    0.259    0.470   93.032    5.211
  439.325    0.257    0.490   97.338    4.734
  439.630    0.253    0.507   99.183    4.380
  439.935    0.242    0.511  100.412    4.373
  440.240    0.214    0.482   97.946    5.077
  440.545    0.204    0.463   89.941    6.358
  440.850    0.169    0.453   78.242    8.270
  441.155    0.081    0.411   72.699    9.423
  441.460    0.130    0.316   81.315    9.585
  441.765    0.185    0.394   99.781    8.869
  442.070    0.193    0.440   96.700    8.359
  442.375    0.206    0.461   89.925    8.194
  442.680    0.194    0.455   88.692    8.176
  442.985    0.172    0.456   88.689    8.472
  443.290    0.184    0.445   91.149    8.789
  443.595    0.169    0.435   91.763    9.451
  443.900    0.171    0.429   92.991    9.439
  444.205    0.158    0.435   95.451    9.606
  444.510    0.175    0.431   94.832    9.579
  444.815    0.200    0.426   92.983    9.389
  445.120    0.207    0.416   92.365    9.194
  445.425    0.179    0.420   94.825    9.182
  445.730    0.184    0.413   92.975    9.880
  446.035    0.207    0.412   88.664   10.057
  446.340    0.189    0.432   84.967   10.230
  446.645    0.091    0.415   83.118   10.010
  446.950    0.103    0.378   92.350    9.626
  447.255    0.185    0.409  101.582    9.078
  447.560    0.210    0.405  102.810    8.566
  447.865    0.193    0.404  104.039    7.778
  448.170    0.193    0.414  102.189    7.065
  448.475    0.198    0.444   99.724    6.295
  448.780    0.206    0.451  100.338    5.717
  449.085    0.204    0.458   99.719    5.093
  449.390    0.222    0.478   94.176    4.369
  449.695    0.255    0.521   91.096    3.545
  450.000    0.281    0.596   89.862    2.665
  450.305    0.271    0.595   89.243    2.329
  450.610    0.287    0.603   89.241    2.325
  450.915    0.291    0.605   89.239    2.456
  451.220    0.248    0.558   86.158    2.645
  451.525    0.222    0.487   82.462    3.070
  451.830    0.198    0.461   83.075    3.845
  452.135    0.187    0.428   82.456    4.816
  452.440    0.177    0.417   79.992    6.884
  452.745    0.179    0.404   75.680    7.844
  453.050    0.166    0.382   70.752    8.606
  453.355    0.077    0.318   69.518    8.922
  453.660    0.087    0.323   82.444    8.102
  453.965    0.103    0.407   92.291    7.083
  454.270    0.214    0.440   92.288    6.195
  454.575    0.232    0.463  102.751    5.117
  454.880    0.241    0.493  106.443    4.475
  455.185    0.247    0.527  107.055    4.063
  455.490    0.238    0.512  107.669    3.830
  455.795    0.174    0.487  108.897    3.754
  456.100    0.153    0.468  110.126    3.746
  456.405    0.192    0.495  110.739    3.741
  456.710    0.185    0.485  106.427    3.876
  457.015    0.167    0.473   99.037    4.095
  457.320    0.125    0.446   99.034    4.326
  457.625    0.135    0.431  117.500    4.442
  457.930    0.198    0.463  114.420    4.612
  458.235    0.209    0.515  115.033    5.067
  458.540    0.213    0.513  113.183    5.464
  458.845    0.198    0.471  106.409    5.892
  459.150    0.179    0.446   92.247    5.780
  459.455    0.187    0.386   75.624    6.116
  459.760    0.208    0.386   83.008    7.386
  460.065    0.206    0.434   84.237    9.801
  460.370    0.198    0.471   80.541   14.027
  460.675    0.183    0.417   78.691   14.564
  460.980    0.166    0.397   80.535   13.759
  461.285    0.235    0.395   78.071   12.756
  461.590    0.208    0.375   70.680   12.516
  461.895    0.119    0.349   72.525   12.512
  462.200    0.182    0.350   84.835   12.749
  462.505    0.208    0.390   71.289   13.239
  462.810    0.232    0.386   70.055   13.488
  463.115    0.229    0.372   83.596   13.743
  463.420    0.205    0.368  102.677   15.101
  463.725    0.194    0.388  110.678   18.582
  464.030    0.188    0.403  103.903   24.661
  464.335    0.220    0.417   95.282   32.114
  464.640    0.261    0.433   81.736   33.978
  464.945    0.294    0.387   71.884   32.101
  465.250    0.313    0.375   71.266   29.206
  465.555    0.270    0.385   76.804   24.638
  465.860    0.236    0.402   82.342   23.278
  466.165    0.242    0.411   84.186   22.411
  466.470    0.241    0.408   86.030   22.835
  466.775    0.229    0.395   87.874   25.090
  467.080    0.224    0.369   82.947   31.463
  467.385    0.210    0.379   68.785   43.360
  467.690    0.237    0.387   59.549   46.754
  467.995    0.256    0.365   58.315   44.172
  468.300    0.290    0.402   65.700   36.567
  468.605    0.290    0.428   76.162   28.604
  468.910    0.267    0.416   78.006   27.025
  469.215    0.256    0.395   78.004   29.137
  469.520    0.231    0.375   77.386   32.627
  469.825    0.209    0.359   72.459   35.852
  470.130    0.230    0.325   60.144   37.932
  470.435    0.246    0.302   58.910   37.216
  470.740    0.277    0.313   53.367   35.832
  471.045    0.283    0.314   55.827   33.854
  471.350    0.270    0.310   61.364   33.214
  471.655    0.245    0.310   60.131   33.842
  471.960    0.240    0.311   58.281   35.135
  472.265    0.262    0.323   59.510   34.473
  472.570    0.254    0.328   60.786   34.468
  472.875    0.253    0.334   62.628   33.818
  473.180    0.256    0.335   63.856   33.811
  473.485    0.253    0.344   65.700   34.449
  473.790    0.250    0.347   68.158   35.768
  474.095    0.248    0.350   68.770   38.568
  474.400    0.249    0.361   63.841   44.844
  474.705    0.274    0.359   61.989   48.356
  475.010    0.277    0.343   60.754   59.506
  475.315    0.219    0.360   58.286   67.900
  475.620    0.239    0.388   53.357   67.885
  475.925    0.260    0.398   50.274   66.606
  476.230    0.271    0.384   49.655   57.260
  476.535    0.257    0.366   59.502   48.303
  476.840    0.228    0.366   80.433   41.526
  477.145    0.221    0.387   85.971   37.073
  477.450    0.233    0.394   77.347   35.025
  477.755    0.253    0.373   69.338   35.686
  478.060    0.213    0.357   79.185   37.052
  478.365    0.224    0.367   72.409   42.279
  478.670    0.206    0.370   65.631   46.457
  478.975    0.224    0.376   67.475   55.050
  479.280    0.261    0.397   66.239   60.490
  479.585    0.281    0.430   48.380   64.000
  479.890    0.294    0.423   48.375   61.616
  480.195    0.272    0.413   55.145   60.457
  480.500    0.262    0.370   63.144   61.597
  480.805    0.286    0.397   61.909   63.956
  481.110    0.302    0.419   58.826   62.750
  481.415    0.297    0.425   56.975   54.973
  481.720    0.298    0.405   57.588   44.658
  482.025    0.299    0.388   63.125   43.814
  482.330    0.192    0.356   63.736   44.641
  482.635    0.213    0.356   56.960   50.938
  482.940    0.270    0.376   58.187   58.125
  483.245    0.286    0.395   62.493   67.588
  483.550    0.261    0.373   69.877   63.853
  483.855    0.245    0.365   76.031   55.942
  484.160    0.245    0.371   79.721   44.593
  484.465    0.230    0.378   75.407   37.621
  484.770    0.212    0.360   77.251   35.543
  485.075    0.212    0.367   79.709   36.903
  485.380    0.229    0.414   74.164   39.048
  485.685    0.269    0.407   64.925   42.102
  485.990    0.249    0.368   69.231   42.092
  486.295    0.253    0.359   70.457   42.086
