~VERSION INFORMATION
 VERS.                 2.0:   CWLS LOG ASCII STANDARD -VERSION 2.0
 WRAP.                  NO:   ONE LINE PER DEPTH STEP
~WELL INFORMATION BLOCK
#MNEM.UNIT           DATA                    DESCRIPTION OF MNEMONIC
#---------    -------------------            -------------------------------
# Generated from Intellog Unique Number	CS_73_76/WELL/2204
WELL.         CANADA CITIES SERVICE LTD      : Well_name    - WELL
LOC .         00/11-29-074-01W4/0            : Location     - LOCATION
UWI .         00/11-29-074-01W4/0            : Uwi          - UNIQUE WELL ID
ENTR.         SP                             : Entered      - ENTERED BY
SRVC.         SCHLUMBERGER                   : Scn          - SERVICE COMPANY
STRT.M        325                            : top_depth    - START DEPTH
STOP.M        575                            : bot_depth    - STOP DEPTH
STEP.M        0.25                           : increment    - STEP LENGTH
 NULL. -999.2500:NULL Value
~CURVE INFORMATION BLOCK
#MNEM UNIT       ERCB CURVE CODE    CURVE DESCRIPTION
#-----------   ------------------   ----------------------------------
DEPT.M        00 001 00 00         : DEPTH        - DEPTH
ILD .OHMM     00 120 00 00         : RESD         - DEEP RESISTIVITY (DIL)
DPHI.V/V      00 890 00 00         : PHID         - DENSITY POROSITY (LIMESTONE)
NPHI.V/V      00 330 00 00         : PHIN         - NEUTRON POROSITY (LIMESTONE)
GR  .API      00 310 00 00         : GR           - GAMMA RAY
~PARAMETER INFORMATION
#MNEM.UNIT           DATA             DESCRIPTION OF MNEMONIC
#---------         -----------     ------------------------------
GL  .M        693.6                : gl           - GROUND LEVEL ELEVATION
EREF.M        597                  : kb           - ELEVATION OF DEPTH REFERENCE
DATM.M        693.6                : datum        - DATUM ELEVATION
TDD .M        582                  : tdd          - TOTAL DEPTH DRILLER
RUN .         ONE                  : Run          - RUN NUMBER
ENG .         BILL                 : Engineer     - RECORDING ENGINEER
WIT .         JIM                  : Witness      - WITNESSED BY
MUD .         GEL                  : Mud_type     - MUD TYPE
MATR.         LIMESTONE            : Logunit      - NEUTRON MATRIX
TMAX.C        18.5                 : BHT          - MAXIMUM RECORDED TEMPERATURE
BHTD.M        582                  : BHTDEP       - MAXIMUM RECORDED TEMPERATURE
MATR.         1                    : LOGUNIT      - NEUTRON MATRIX
RMT .C        25                   : MDTP         - TEMPERATURE OF MUD
NEUT.         1                    : NEUTRON      - NEUTRON TYPE
RESI.         0                    : RESIST       - RESISTIVITY TYPE
RMC .OHMM     0.25                 : RMC          - RESISTIVITY OF MUD CAKE
RMF .OHMM     0.25                 : RMF          - RESISTIVITY OF MUD FILTRATE
SUFT.C        15                   : SUFT         - SURFACE TEMPERATURE
~A  DEPTH     RESD     PHID     PHIN       GR
# ...
  455.500    5.471    0.349    0.435   56.132
  455.750    5.573    0.346    0.440   57.966
  456.000    5.572    0.342    0.440   59.188
  456.250    5.572    0.331    0.445   60.410
  456.500    5.571    0.325    0.460   60.407
  456.750    5.570    0.334    0.472   56.731
  457.000    5.465    0.335    0.480   57.953
  457.250    5.363    0.340    0.471   58.562
  457.500    5.362    0.348    0.464   57.948
  457.750    5.361    0.348    0.468   58.557
  458.000    5.360    0.345    0.475   59.779
  458.250    5.460    0.350    0.481   61.612
  458.500    5.562    0.349    0.476   62.834
  458.750    5.667    0.341    0.470   64.056
  459.000    5.881    0.343    0.465   64.665
  459.250    5.991    0.349    0.454   65.275
  459.500    6.103    0.347    0.450   63.435
  459.750    6.218    0.334    0.446   60.372
  460.000    6.217    0.328    0.444   60.368
  460.250    6.215    0.323    0.455   60.978
  460.500    6.099    0.329    0.460   61.588
  460.750    6.098    0.328    0.469   62.810
  461.000    6.097    0.330    0.470   64.031
  461.250    6.096    0.332    0.460   65.253
  461.500    5.981    0.330    0.450   65.251
  461.750    5.980    0.322    0.437   68.921
  462.000    5.868    0.308    0.443   75.041
  462.250    5.867    0.245    0.450   79.324
  462.500    5.866    0.255    0.439   80.546
  462.750    5.756    0.270    0.432   79.930
  463.000    5.648    0.282    0.436   79.928
  463.250    5.648    0.283    0.438   79.925
  463.500    5.439    0.255    0.433   79.923
  463.750    5.238    0.244    0.448   81.144
  464.000    5.045    0.257    0.466   81.142
  464.250    4.950    0.268    0.470   78.690
  464.500    4.768    0.285    0.484   73.789
  464.750    4.423    0.299    0.485   69.501
  465.000    4.027    0.302    0.468   73.172
  465.250    3.736    0.280    0.474   75.618
  465.500    3.215    0.268    0.507   78.676
  465.750    2.873    0.267    0.536   81.123
  466.000    2.665    0.255    0.546   83.569
  466.250    2.519    0.257    0.557   84.790
  466.500    2.472    0.271    0.551   82.951
  466.750    2.426    0.255    0.520   79.888
  467.000    2.425    0.240    0.503   80.497
  467.250    2.471    0.244    0.514   83.555
  467.500    2.565    0.252    0.515   86.614
  467.750    2.763    0.258    0.526   89.060
  468.000    2.868    0.254    0.546   89.669
  468.250    3.269    0.240    0.563   86.605
  468.500    3.523    0.237    0.493   83.541
  468.750    3.941    0.230    0.463   80.478
  469.000    4.327    0.241    0.435   76.802
  469.250    4.840    0.234    0.413   73.125
  469.500    5.024    0.222    0.401   71.898
  469.750    5.313    0.217    0.400   70.059
  470.000    5.515    0.223    0.404   66.995
  470.250    5.618    0.235    0.409   65.156
  470.500    5.512    0.229    0.411   65.153
  470.750    5.410    0.245    0.407   68.211
  471.000    5.308    0.248    0.431   72.494
  471.250    4.833    0.230    0.453   77.389
  471.500    4.655    0.252    0.478   81.672
  471.750    4.567    0.254    0.464   84.731
  472.000    4.566    0.245    0.450   84.728
  472.250    4.652    0.248    0.445   84.726
  472.500    4.651    0.240    0.429   82.886
  472.750    4.650    0.241    0.420   83.496
  473.000    4.563    0.229    0.441   87.166
  473.250    4.477    0.240    0.447   90.225
  473.500    4.394    0.231    0.434   92.671
  473.750    4.393    0.223    0.448   90.832
  474.000    4.000    0.222    0.463   88.992
  474.250    3.711    0.224    0.471   88.990
  474.500    3.507    0.225    0.476   90.823
  474.750    3.442    0.229    0.487   92.045
  475.000    3.640    0.232    0.485   93.267
  475.250    3.849    0.234    0.489   93.264
  475.500    4.148    0.226    0.442   88.976
  475.750    4.640    0.235    0.418   82.238
  476.000    5.288    0.226    0.424   77.338
  476.250    5.593    0.226    0.418   73.662
  476.500    5.915    0.247    0.402   69.985
  476.750    6.025    0.267    0.394   68.146
  477.000    6.024    0.270    0.402   65.694
  477.250    6.023    0.250    0.410   65.692
  477.500    5.910    0.259    0.413   65.689
  477.750    6.021    0.264    0.413   65.686
  478.000    6.020    0.254    0.407   66.296
  478.250    6.019    0.252    0.403   67.518
  478.500    6.131    0.236    0.410   68.739
  478.750    6.130    0.238    0.406   69.348
  479.000    5.904    0.225    0.402   69.346
  479.250    5.793    0.215    0.418   69.343
  479.500    5.685    0.201    0.427   68.728
  479.750    5.475    0.182    0.409   67.501
  480.000    5.175    0.158    0.395   65.662
  480.250    4.801    0.216    0.405   63.823
  480.500    4.538    0.247    0.405   63.820
  480.750    4.209    0.283    0.391   65.654
  481.000    4.131    0.274    0.384   68.100
  481.250    3.978    0.274    0.399   69.934
  481.500    3.831    0.267    0.393   71.156
  481.750    3.760    0.260    0.405   71.765
  482.000    3.689    0.257    0.420   71.762
  482.250    3.620    0.288    0.426   71.147
  482.500    3.552    0.312    0.403   70.533
  482.750    3.551    0.331    0.393   64.408
  483.000    3.618    0.312    0.406   57.059
  483.250    3.686    0.302    0.392   63.178
  483.500    3.754    0.301    0.386   69.910
  483.750    3.825    0.294    0.376   73.580
  484.000    3.896    0.291    0.387   70.516
  484.250    3.969    0.288    0.391   68.677
  484.500    4.044    0.290    0.386   67.450
  484.750    4.276    0.286    0.383   68.671
  485.000    4.608    0.280    0.380   69.894
  485.250    4.783    0.261    0.372   72.340
  485.500    4.964    0.238    0.371   76.009
  485.750    4.964    0.220    0.377   77.232
  486.000    4.604    0.212    0.384   79.066
  486.250    4.038    0.235    0.393   69.268
  486.500    3.817    0.260    0.384   58.245
  486.750    3.411    0.302    0.375   47.834
  487.000    3.285    0.318    0.372   30.689
  487.250    3.164    0.306    0.365   25.788
  487.500    3.223    0.299    0.370   27.621
  487.750    3.345    0.292    0.356   30.068
  488.000    3.604    0.278    0.341   34.351
  488.250    3.741    0.246    0.345   38.634
  488.500    3.957    0.229    0.365   46.590
  488.750    4.031    0.247    0.360   52.710
  489.000    3.955    0.267    0.359   57.605
  489.250    3.809    0.274    0.360   56.990
  489.500    3.600    0.252    0.366   60.048
  489.750    3.533    0.246    0.361   61.271
  490.000    3.532    0.231    0.353   61.268
  490.250    3.532    0.237    0.365   58.204
  490.500    3.531    0.267    0.365   52.078
  490.750    3.465    0.270    0.361   49.627
  491.000    3.400    0.268    0.370   47.788
  491.250    3.154    0.258    0.373   46.561
  491.500    3.213    0.268    0.365   46.558
  491.750    3.335    0.269    0.357   49.616
  492.000    3.397    0.271    0.357   53.287
  492.250    3.461    0.251    0.359   57.570
  492.500    3.396    0.219    0.376   61.853
  492.750    3.210    0.247    0.389   53.279
  493.000    3.209    0.277    0.369   48.379
  493.250    3.034    0.283    0.360   43.478
  493.500    3.033    0.285    0.338   42.863
  493.750    3.033    0.278    0.351   48.983
  494.000    3.089    0.269    0.375   57.551
  494.250    3.147    0.264    0.368   56.936
  494.500    3.206    0.251    0.356   59.994
  494.750    3.266    0.238    0.352   63.665
  495.000    3.265    0.237    0.364   66.111
  495.250    3.326    0.243    0.377   65.497
  495.500    3.325    0.260    0.357   62.433
  495.750    3.325    0.260    0.339   61.818
  496.000    3.387    0.242    0.343   69.162
  496.250    3.451    0.235    0.367   75.894
  496.500    3.450    0.239    0.361   77.115
  496.750    3.515    0.231    0.366   74.663
  497.000    3.514    0.237    0.378   71.600
  497.250    3.448    0.247    0.376   59.965
  497.500    3.384    0.267    0.375   50.779
  497.750    3.198    0.259    0.381   55.674
  498.000    3.080    0.253    0.380   52.610
  498.250    2.966    0.285    0.367   44.648
  498.500    2.911    0.296    0.358   40.360
  498.750    2.910    0.299    0.356   36.684
