~VERSION INFORMATION
 VERS.                 2.0:   CWLS LOG ASCII STANDARD -VERSION 2.0
 WRAP.                  NO:   ONE LINE PER DEPTH STEP
~WELL INFORMATION BLOCK
#MNEM.UNIT           DATA                    DESCRIPTION OF MNEMONIC
#---------    -------------------            -------------------------------
# Generated from Intellog Unique Number	CS_67_68/WELL/850
LOC .         00/11-32-068-16W4/0            : Location     - LOCATION
UWI .         00/11-32-068-16W4/0            : Uwi          - UNIQUE WELL ID
ENTR.         SP                             : Entered      - ENTERED BY
SRVC.         SCHLUMBERGER                   : Scn          - SERVICE COMPANY
STRT.M        243.84                         : top_depth    - START DEPTH
STOP.M        487.34                         : bot_depth    - STOP DEPTH
STEP.M        0.25                           : increment    - STEP LENGTH
 NULL. -999.2500:NULL Value
~CURVE INFORMATION BLOCK
#MNEM UNIT       ERCB CURVE CODE    CURVE DESCRIPTION
#-----------   ------------------   ----------------------------------
DEPT.M        00 001 00 00         : DEPTH        - DEPTH
GR  .API      00 310 00 00         : GR           - GAMMA RAY
DPHI.V/V      00 890 00 00         : PHID         - DENSITY POROSITY (SANDSTONE)
NPHI.V/V      00 330 00 00         : PHIN         - NEUTRON POROSITY (SANDSTONE)
ILD .OHMM     00 120 00 00         : RESD         - DEEP RESISTIVITY (DIL)
~PARAMETER INFORMATION
#MNEM.UNIT           DATA             DESCRIPTION OF MNEMONIC
#---------         -----------     ------------------------------
GL  .M        558.576              : gl           - GROUND LEVEL ELEVATION
EREF.M        562.234              : kb           - ELEVATION OF DEPTH REFERENCE
DATM.M        558.576              : datum        - DATUM ELEVATION
TDD .M        494.995              : tdd          - TOTAL DEPTH DRILLER
RUN .         ONE                  : Run          - RUN NUMBER
ENG .         BILL                 : Engineer     - RECORDING ENGINEER
WIT .         JIM                  : Witness      - WITNESSED BY
MUD .         GEL                  : Mud_type     - MUD TYPE
MATR.         SANDSTONE            : Logunit      - NEUTRON MATRIX
TMAX.C        23.8889              : BHT          - MAXIMUM RECORDED TEMPERATURE
BHTD.M        494.995              : BHTDEP       - MAXIMUM RECORDED TEMPERATURE
MATR.         1                    : LOGUNIT      - NEUTRON MATRIX
RMT .C        25                   : MDTP         - TEMPERATURE OF MUD
NEUT.         1                    : NEUTRON      - NEUTRON TYPE
RESI.         0                    : RESIST       - RESISTIVITY TYPE
RMC .OHMM     0.25                 : RMC          - RESISTIVITY OF MUD CAKE
RMF .OHMM     0.25                 : RMF          - RESISTIVITY OF MUD FILTRATE
SUFT.C        15                   : SUFT         - SURFACE TEMPERATURE
~A  DEPTH       GR     PHID     PHIN     RESD
  243.840  142.013    0.212    0.496    2.473
  244.090  141.615    0.205    0.493    2.519
  244.340  139.658    0.214    0.484    2.523
  244.590  137.093    0.217    0.478    2.527
  244.840  138.038    0.212    0.472    2.545
  245.090  140.200    0.221    0.471    2.551
  245.340  141.343    0.222    0.475    2.567
  245.590  142.392    0.210    0.478    2.555
  245.840  143.653    0.206    0.496    2.572
  246.090  142.401    0.186    0.513    2.649
  246.340  140.047    0.211    0.522    2.734
  246.590  135.969    0.205    0.531    2.822
  246.840  134.644    0.205    0.537    2.867
  247.090  134.305    0.194    0.500    2.934
  247.340  132.079    0.147    0.492    3.000
  247.590  132.558    0.105    0.485    3.022
  247.840  136.911    0.203    0.495    3.024
  248.090  138.891    0.204    0.497    3.009
  248.340  138.258    0.206    0.481    2.972
  248.590  135.592    0.206    0.470    2.943
  248.840  133.306    0.187    0.480    2.924
  249.090  133.327    0.196    0.492    2.910
  249.340  135.389    0.210    0.503    2.880
  249.590  140.497    0.220    0.514    2.860
  249.840  143.435    0.201    0.515    2.831
  250.090  144.512    0.201    0.502    2.838
  250.340  143.510    0.206    0.497    2.858
  250.590  144.022    0.217    0.498    2.892
  250.840  146.320    0.219    0.491    2.921
  251.090  147.389    0.225    0.497    2.951
  251.340  147.607    0.228    0.502    2.960
  251.590  147.653    0.212    0.486    2.960
  251.840  146.151    0.221    0.477    2.931
  252.090  144.141    0.222    0.484    2.923
  252.340  142.525    0.206    0.495    2.973
  252.590  141.577    0.207    0.493    3.011
  252.840  140.420    0.218    0.482    3.042
  253.090  141.212    0.218    0.484    3.016
  253.340  145.318    0.199    0.490    2.983
  253.590  148.965    0.194    0.487    2.932
  253.840  151.893    0.198    0.494    2.866
  254.090  150.283    0.213    0.500    2.827
  254.340  145.704    0.209    0.491    2.843
  254.590  142.455    0.200    0.480    2.947
  254.840  141.030    0.207    0.474    3.067
  255.090  139.071    0.203    0.480    3.163
  255.340  132.298    0.192    0.481    3.221
  255.590  120.921    0.204    0.462    3.264
  255.840  109.794    0.214    0.373    3.248
  256.090   98.901    0.229    0.338    3.190
  256.340   68.701    0.230    0.312    3.289
  256.590   59.086    0.224    0.296    3.332
  256.840   54.339    0.182    0.285    3.246
  257.090   56.406    0.119    0.297    3.143
  257.340   68.659    0.095    0.326    3.014
  257.590   77.213    0.168    0.348    2.875
  257.840   80.796    0.201    0.378    2.770
  258.090   78.483    0.230    0.379    2.647
  258.340   77.656    0.241    0.378    2.614
  258.590   81.456    0.217    0.390    2.620
  258.840   82.212    0.216    0.386    2.682
  259.090   81.849    0.229    0.376    2.827
  259.340   84.157    0.226    0.383    2.901
  259.590   85.641    0.230    0.387    2.910
  259.840   83.750    0.232    0.393    2.900
  260.090   85.385    0.244    0.393    2.890
  260.340   87.142    0.251    0.393    2.819
  260.590   89.931    0.217    0.421    2.776
  260.840   96.221    0.183    0.476    2.759
  261.090  103.074    0.191    0.488    2.844
  261.340  107.298    0.205    0.475    2.941
  261.590  108.728    0.206    0.456    2.981
  261.840  108.941    0.209    0.449    3.013
  262.090  106.624    0.218    0.437    2.999
  262.340  102.882    0.224    0.428    2.965
  262.590  101.030    0.235    0.422    2.887
  262.840  103.024    0.235    0.459    2.821
  263.090  102.136    0.230    0.466    2.728
  263.340   99.451    0.240    0.456    2.656
  263.590   99.857    0.228    0.466    2.565
  263.840  103.297    0.239    0.468    2.493
  264.090  108.502    0.234    0.483    2.425
  264.340  112.894    0.212    0.500    2.359
  264.590  116.279    0.215    0.489    2.306
  264.840  114.415    0.230    0.478    2.313
  265.090  111.692    0.233    0.484    2.354
  265.340  108.897    0.240    0.493    2.377
  265.590  105.554    0.227    0.484    2.378
  265.840  101.297    0.223    0.459    2.360
  266.090   95.092    0.223    0.462    2.329
  266.340  100.494    0.224    0.479    2.280
  266.590  107.393    0.241    0.485    2.222
  266.840  113.978    0.262    0.471    2.199
  267.090  113.392    0.234    0.469    2.209
  267.340  111.121    0.234    0.476    2.237
  267.590  113.879    0.259    0.492    2.288
  267.840  115.930    0.239    0.505    2.354
  268.090  108.578    0.222    0.478    2.429
  268.340  104.990    0.217    0.465    2.516
  268.590  106.928    0.217    0.458    2.579
  268.840  106.453    0.220    0.440    2.598
  269.090   99.521    0.229    0.430    2.593
  269.340   98.541    0.234    0.427    2.572
  269.590  103.993    0.204    0.444    2.533
  269.840  111.006    0.201    0.467    2.466
  270.090  115.740    0.212    0.470    2.430
  270.340  113.440    0.230    0.468    2.396
  270.590  110.453    0.217    0.480    2.379
  270.840  113.324    0.199    0.494    2.368
  271.090  117.469    0.189    0.507    2.364
  271.340  116.262    0.194    0.517    2.366
  271.590  115.413    0.207    0.504    2.373
  271.840  117.098    0.204    0.499    2.365
  272.090  117.949    0.210    0.510    2.359
  272.340  117.708    0.204    0.513    2.342
  272.590  118.827    0.200    0.511    2.310
  272.840  121.759    0.209    0.509    2.292
  273.090  120.924    0.208    0.509    2.263
  273.340  118.153    0.214    0.508    2.246
  273.590  118.440    0.224    0.520    2.237
  273.840  118.711    0.225    0.528    2.233
  274.090  116.804    0.232    0.530    2.239
  274.340  113.457    0.230    0.522    2.245
  274.590  110.165    0.223    0.507    2.238
  274.840  108.344    0.228    0.521    2.224
  275.090  107.777    0.216    0.534    2.190
  275.340  108.984    0.232    0.525    2.172
  275.590  112.147    0.242    0.521    2.150
  275.840  111.035    0.222    0.528    2.151
  276.090  109.794    0.232    0.536    2.149
  276.340  110.403    0.238    0.537    2.155
  276.590  113.057    0.229    0.549    2.155
  276.840  116.991    0.229    0.566    2.141
  277.090  116.860    0.221    0.555    2.101
  277.340  113.115    0.230    0.539    2.044
  277.590  111.564    0.238    0.545    1.988
  277.840  113.130    0.240    0.563    1.946
  278.090  114.579    0.250    0.554    1.920
  278.340  117.365    0.248    0.531    1.912
  278.590  121.671    0.255    0.530    1.912
  278.840  123.548    0.261    0.547    1.921
  279.090  123.451    0.251    0.550    1.941
  279.340  118.771    0.248    0.555    1.961
  279.590  116.007    0.255    0.564    1.964
  279.840  116.201    0.265    0.562    1.948
  280.090  117.335    0.275    0.558    1.930
  280.340  119.516    0.281    0.544    1.920
  280.590  122.565    0.246    0.536    1.938
  280.840  119.999    0.257    0.547    1.977
  281.090  118.026    0.246    0.562    2.013
  281.340  116.300    0.237    0.570    2.054
  281.590  116.075    0.238    0.555    2.092
  281.840  117.976    0.237    0.540    2.122
  282.090  119.944    0.234    0.541    2.132
  282.340  119.335    0.249    0.549    2.128
  282.590  112.353    0.238    0.536    2.109
  282.840  109.790    0.244    0.540    2.118
  283.090  109.189    0.249    0.536    2.150
  283.340  109.430    0.253    0.530    2.225
  283.590  109.354    0.273    0.543    2.308
  283.840  110.686    0.292    0.558    2.360
  284.090  113.417    0.281    0.566    2.408
  284.340  114.869    0.248    0.565    2.439
  284.590  113.658    0.217    0.559    2.433
  284.840  113.906    0.224    0.543    2.418
  285.090  118.305    0.223    0.536    2.412
  285.340  121.322    0.244    0.528    2.438
  285.590  122.669    0.212    0.520    2.479
  285.840  119.200    0.207    0.518    2.524
  286.090  113.733    0.213    0.509    2.566
  286.340  111.865    0.192    0.497    2.620
  286.590  112.250    0.205    0.489    2.698
  286.840  114.422    0.203    0.486    2.759
  287.090  115.872    0.209    0.473    2.819
