~VERSION INFORMATION
 VERS.                 2.0:   CWLS LOG ASCII STANDARD -VERSION 2.0
 WRAP.                  NO:   ONE LINE PER DEPTH STEP
~WELL INFORMATION BLOCK
#MNEM.UNIT           DATA                    DESCRIPTION OF MNEMONIC
#---------    -------------------            -------------------------------
# Generated from Intellog Unique Number	CS_69_70/WELL/858
NULL.         -999.25                        : NULL_VALUE
WELL.         HB CS PITLOCHRIE               : Well_name    - WELL              
LOC .         00/10-04-070-12W4/0            : Location     - LOCATION          
UWI .         00/10-04-070-12W4/0            : Uwi          - UNIQUE WELL ID    
ENTR.         SP                             : Entered      - ENTERED BY        
SRVC.         SCHLUMBERGER                   : Scn          - SERVICE COMPANY   
STRT.M        286.512                        : top_depth    - START DEPTH       
STOP.M        493.512                        : bot_depth    - STOP DEPTH        
STEP.M        0.25                           : increment    - STEP LENGTH       
~CURVE INFORMATION BLOCK
#MNEM UNIT       ERCB CURVE CODE    CURVE DESCRIPTION
#-----------   ------------------   ----------------------------------
DEPT.M        00 001 00 00         : DEPTH        - DEPTH                       
GR  .API      00 310 00 00         : GR           - GAMMA RAY                   
DPHI.V/V      00 890 00 00         : PHID         - DENSITY POROSITY (SANDSTONE)
NPHI.V/V      00 330 00 00         : PHIN         - NEUTRON POROSITY (SANDSTONE)
ILD .OHMM     00 120 00 00         : RESD         - DEEP RESISTIVITY (DIL)      
~PARAMETER INFORMATION       
#MNEM.UNIT           DATA             DESCRIPTION OF MNEMONIC
#---------         -----------     ------------------------------
GL  .M        601.98               : gl           - GROUND LEVEL ELEVATION      
EREF.M        604.418              : kb           - ELEVATION OF DEPTH REFERENCE
DATM.M        601.98               : datum        - DATUM ELEVATION             
TDD .M        496.824              : tdd          - TOTAL DEPTH DRILLER         
RUN .         ONE                  : Run          - RUN NUMBER                  
ENG .         BILL                 : Engineer     - RECORDING ENGINEER          
WIT .         JIM                  : Witness      - WITNESSED BY                
MUD .         GEL                  : Mud_type     - MUD TYPE                    
MATR.         SANDSTONE            : Logunit      - NEUTRON MATRIX              
TMAX.C        21                   : BHT          - MAXIMUM RECORDED TEMPERATURE
BHTD.M        481.2                : BHTDEP       - MAXIMUM RECORDED TEMPERATURE
MATR.         1                    : LOGUNIT      - NEUTRON MATRIX              
RMT .C        25                   : MDTP         - TEMPERATURE OF MUD          
NEUT.         1                    : NEUTRON      - NEUTRON TYPE                
RESI.         0                    : RESIST       - RESISTIVITY TYPE            
RMC .OHMM     0.25                 : RMC          - RESISTIVITY OF MUD CAKE     
RMF .OHMM     0.25                 : RMF          - RESISTIVITY OF MUD FILTRATE 
SUFT.C        15                   : SUFT         - SURFACE TEMPERATURE         
~A  DEPTH       GR     PHID     PHIN     RESD
  286.512  104.142    0.221    0.569    2.617
  286.762  104.067    0.226    0.567    2.694
  287.012  103.941    0.232    0.565    2.791
  287.262  103.979    0.240    0.576    2.919
  287.512  101.398    0.247    0.592    3.105
  287.762   99.547    0.222    0.580    3.274
  288.012   99.114    0.227    0.573    3.362
  288.262  101.659    0.214    0.580    3.408
  288.512  101.100    0.200    0.565    3.362
  288.762  101.741    0.205    0.552    3.273
  289.012  104.847    0.212    0.545    3.166
  289.262  108.302    0.209    0.536    3.036
  289.512  109.602    0.209    0.534    2.909
  289.762  110.449    0.210    0.537    2.845
  290.012  109.261    0.208    0.540    2.826
  290.262  106.437    0.200    0.544    2.865
  290.512  104.045    0.193    0.540    2.958
  290.762  102.330    0.190    0.539    3.003
  291.012  107.287    0.193    0.550    3.073
  291.262  110.662    0.183    0.552    3.137
  291.512  109.288    0.206    0.565    3.210
  291.762  106.037    0.195    0.581    3.235
  292.012  103.653    0.211    0.573    3.246
  292.262  103.478    0.211    0.563    3.236
  292.512  105.284    0.217    0.564    3.254
  292.762  104.954    0.212    0.550    3.258
  293.012  103.239    0.216    0.547    3.255
  293.262  101.517    0.216    0.552    3.239
  293.512  101.583    0.226    0.550    3.197
  293.762  103.400    0.228    0.563    3.117
  294.012  105.694    0.247    0.572    3.007
  294.262  105.641    0.233    0.536    3.005
  294.512   97.149    0.223    0.521    3.075
  294.762   89.198    0.382    0.545    3.272
  295.012   84.465    0.455    0.577    3.588
  295.262   83.839    0.390    0.608    4.142
  295.512   80.464    0.329    0.469    4.480
  295.762   77.215    0.265    0.438    4.311
  296.012   73.221    0.255    0.424    4.132
  296.262   69.722    0.249    0.455    3.797
  296.512   67.444    0.270    0.455    3.626
  296.762   78.670    0.274    0.427    3.410
  297.012   87.397    0.261    0.415    3.376
  297.262   95.185    0.239    0.415    3.510
  297.512   99.924    0.213    0.437    3.988
  297.762  103.674    0.201    0.451    4.441
  298.012  103.516    0.217    0.464    4.765
  298.262  103.766    0.237    0.461    4.962
  298.512  104.767    0.220    0.464    5.024
  298.762  105.832    0.202    0.477    4.965
  299.012  108.971    0.212    0.463    4.936
  299.262  110.236    0.208    0.465    4.937
  299.512  110.589    0.186    0.484    4.894
  299.762  112.998    0.218    0.486    4.867
  300.012  110.457    0.229    0.476    4.858
  300.262  107.691    0.236    0.473    4.873
  300.512  106.057    0.232    0.484    4.884
  300.762  103.338    0.259    0.494    4.895
  301.012  100.997    0.253    0.504    4.920
  301.262   99.064    0.248    0.504    4.926
  301.512   97.446    0.259    0.493    4.910
  301.762   96.660    0.245    0.489    4.897
  302.012  100.180    0.218    0.498    4.898
  302.262  102.867    0.203    0.498    4.936
  302.512  104.397    0.197    0.514    5.016
  302.762  105.326    0.196    0.527    5.107
  303.012  103.563    0.205    0.523    5.524
  303.262  104.891    0.216    0.511    5.545
  303.512  105.830    0.200    0.503    5.606
  303.762  105.922    0.182    0.500    5.661
  304.012  106.316    0.184    0.483    5.763
  304.262  107.978    0.207    0.468    5.879
  304.512  109.170    0.206    0.460    5.994
  304.762  108.502    0.199    0.473    5.977
  305.012  103.548    0.180    0.492    5.860
  305.262   99.872    0.164    0.512    5.742
  305.512   96.667    0.182    0.497    5.680
  305.762   99.326    0.181    0.464    5.686
  306.012  105.882    0.166    0.460    5.701
  306.262  108.059    0.149    0.473    5.716
  306.512  109.138    0.179    0.477    5.721
  306.762  110.005    0.191    0.458    5.724
  307.012  109.197    0.187    0.475    5.723
  307.262  109.246    0.185    0.487    5.692
  307.512  109.669    0.177    0.494    5.634
  307.762  107.370    0.192    0.509    5.593
  308.012  104.940    0.205    0.512    5.629
  308.262  103.634    0.207    0.477    5.709
  308.512  103.482    0.202    0.450    5.847
  308.762  103.434    0.197    0.465    5.944
  309.012  104.238    0.196    0.493    6.229
  309.262  105.191    0.201    0.521    6.342
  309.512  105.408    0.233    0.506    6.430
  309.762  104.023    0.208    0.489    6.493
  310.012  102.716    0.194    0.470    6.539
  310.262  101.639    0.176    0.457    6.541
  310.512  100.932    0.175    0.461    6.547
  310.762   98.549    0.172    0.470    6.523
  311.012   97.050    0.157    0.480    6.535
  311.262   94.823    0.179    0.465    6.585
  311.512   91.829    0.175    0.457    6.609
  311.762   91.307    0.201    0.455    6.530
  312.012   93.492    0.216    0.445    6.338
  312.262   95.727    0.174    0.457    6.145
  312.512   96.106    0.176    0.472    6.069
  312.762   94.531    0.172    0.480    5.983
  313.012   91.317    0.189    0.487    6.064
  313.262   90.205    0.195    0.475    6.208
  313.512   89.380    0.168    0.477    6.309
  313.762   88.163    0.205    0.472    6.371
  314.012   84.339    0.220    0.439    6.377
  314.262   82.798    0.203    0.421    6.358
  314.512   85.443    0.175    0.426    6.308
  314.762   88.315    0.202    0.448    6.224
  315.012   91.758    0.206    0.450    6.143
  315.262   94.450    0.183    0.454    6.082
  315.512   94.065    0.165    0.458    6.053
  315.762   91.883    0.176    0.430    6.130
  316.012   93.376    0.195    0.431    6.103
  316.262   94.347    0.203    0.451    6.051
  316.512   94.585    0.201    0.478    5.996
  316.762   93.651    0.203    0.480    6.043
  317.012   95.119    0.215    0.469    6.122
  317.262   98.174    0.237    0.467    6.111
  317.512  102.811    0.274    0.459    5.994
  317.762  105.342    0.257    0.463    5.804
  318.012  107.903    0.240    0.472    5.526
  318.262  107.674    0.242    0.471    5.353
  318.512  103.326    0.250    0.463    5.238
  318.762   99.056    0.261    0.452    5.146
  319.012   97.616    0.268    0.443    5.100
  319.262  102.131    0.254    0.441    5.122
  319.512  102.813    0.246    0.440    5.130
  319.762  100.332    0.244    0.444    5.152
  320.012   99.207    0.243    0.442    5.237
  320.262  102.808    0.228    0.447    5.352
  320.512  105.150    0.221    0.449    5.463
  320.762  105.953    0.214    0.444    5.551
  321.012  105.792    0.203    0.446    5.651
  321.262  105.482    0.208    0.447    5.769
  321.512  103.745    0.215    0.463    5.886
  321.762  101.168    0.235    0.481    5.997
  322.012   97.594    0.278    0.504    6.093
  322.262   96.056    0.246    0.514    6.094
  322.512   97.496    0.221    0.491    6.046
  322.762  101.124    0.207    0.489    6.007
  323.012  104.428    0.216    0.492    5.828
  323.262  106.995    0.248    0.483    5.648
  323.512  108.374    0.268    0.477    5.390
  323.762  108.321    0.270    0.470    5.122
  324.012  106.195    0.259    0.467    4.816
  324.262  105.556    0.251    0.467    4.577
  324.512  104.909    0.221    0.491    4.355
  324.762  104.599    0.220    0.522    4.104
  325.012  104.064    0.234    0.553    3.996
  325.262  103.932    0.227    0.547    3.986
  325.512  104.819    0.244    0.540    4.062
  325.762  104.815    0.261    0.527    4.197
  326.012  102.619    0.275    0.518    4.254
  326.262  100.611    0.250    0.515    4.243
  326.512   96.273    0.230    0.532    4.096
  326.762   89.336    0.208    0.550    4.011
  327.012   83.244    0.259    0.507    3.936
  327.262   79.033    0.304    0.473    3.901
  327.512   78.174    0.317    0.469    3.975
  327.762   80.707    0.311    0.485    4.081
  328.012   80.470    0.303    0.500    4.241
  328.262   80.996    0.309    0.505    4.416
  328.512   84.555    0.289    0.492    4.606
  328.762   89.557    0.277    0.485    4.814
  329.012   93.725    0.263    0.483    5.051
  329.262   97.246    0.245    0.476    5.257
  329.512  100.997    0.234    0.497    5.414
  329.762  102.340    0.227    0.511    5.489
