~VERSION INFORMATION
 VERS.                 2.0:   CWLS LOG ASCII STANDARD -VERSION 2.0
 WRAP.                  NO:   ONE LINE PER DEPTH STEP
~WELL INFORMATION BLOCK
#MNEM.UNIT           DATA                    DESCRIPTION OF MNEMONIC
#---------    -------------------            -------------------------------
# Generated from Intellog Unique Number	CN_91_93/WELL/3217
WELL.         UNIVERSAL GAS CO.LTD.          : Well_name    - WELL
LOC .         00/11-30-092-19W4/0            : Location     - LOCATION
UWI .         00/11-30-092-19W4/0            : Uwi          - UNIQUE WELL ID
ENTR.         JOETTE                         : Entered      - ENTERED BY
SRVC.         SCHLUMBERGER                   : Scn          - SERVICE COMPANY
DATE.         04/14/92                       : Date         - LOG DATE
STRT.M        100                            : top_depth    - START DEPTH
STOP.M        255                            : bot_depth    - STOP DEPTH
STEP.M        0.25                           : increment    - STEP LENGTH
 NULL. -999.2500:NULL Value
~CURVE INFORMATION BLOCK
#MNEM UNIT       ERCB CURVE CODE    CURVE DESCRIPTION
#-----------   ------------------   ----------------------------------
DEPT.M        00 001 00 00         : DEPTH        - DEPTH
CALI.MM       00 280 01 00         : CAL          - CALIPER
GR  .API      00 310 00 00         : GR           - GAMMA RAY
NPHI.V/V      00 330 00 00         : PHIN         - NEUTRON POROSITY (SANDSTONE)
DPHI.V/V      00 890 00 00         : PHID         - DENSITY POROSITY (SANDSTONE)
ILD .OHMM     00 120 00 00         : RESD         - DEEP RESISTIVITY (DIL)
~PARAMETER INFORMATION
#MNEM.UNIT           DATA             DESCRIPTION OF MNEMONIC
#---------         -----------     ------------------------------
GL  .M        529                  : gl           - GROUND LEVEL ELEVATION
EREF.M        532                  : kb           - ELEVATION OF DEPTH REFERENCE
DATM.M        532                  : datum        - DATUM ELEVATION
TDD .M        306                  : tdd          - TOTAL DEPTH DRILLER
RUN .         ONE                  : Run          - RUN NUMBER
ENG .         BILL                 : Engineer     - RECORDING ENGINEER
WIT .         JIM                  : Witness      - WITNESSED BY
MUD .         GEL                  : Mud_type     - MUD TYPE
MATR.         SANDSTONE            : Logunit      - NEUTRON MATRIX
TMAX.C        20.5                 : BHT          - MAXIMUM RECORDED TEMPERATURE
BHTD.M        306                  : BHTDEP       - MAXIMUM RECORDED TEMPERATURE
RMT .C        23.8                 : MDTP         - TEMPERATURE OF MUD
MUDD.KG/M     1140                 : MWT          - MUD DENSITY
NEUT.         1                    : NEUTRON      - NEUTRON TYPE
RESI.         0                    : RESIST       - RESISTIVITY TYPE
RM  .OHMM     2.94                 : RM           - RESISTIVITY OF MUD
RMC .OHMM     2.94                 : RMC          - RESISTIVITY OF MUD CAKE
RMF .OHMM     2.7                  : RMF          - RESISTIVITY OF MUD FILTRATE
SUFT.C        4                    : SUFT         - SURFACE TEMPERATURE
~A  DEPTH      CAL       GR     PHIN     PHID     RESD
# ...
  136.500  229.897   94.062    0.595    0.435    4.879
  136.750  228.847   87.830    0.594    0.405    4.879
  137.000  229.871   94.669    0.578    0.401    4.878
  137.250  230.892  100.261    0.576    0.406    4.971
  137.500  232.954  100.255    0.570    0.414    4.877
  137.750  235.015  100.870    0.566    0.415    4.350
  138.000  236.040   98.995    0.555    0.406    4.187
  138.250  236.023   89.647    0.559    0.380    3.954
  138.500  236.006   90.883    0.588    0.368    3.879
  138.750  236.000   93.367    0.605    0.363    3.806
  139.000  235.987   96.469    0.599    0.371    3.953
  139.250  235.973   98.327    0.597    0.409    4.968
  139.500  232.845   98.945    0.602    0.441    6.362
  139.750  230.756   99.560    0.605    0.453    6.484
  140.000  228.665   95.194    0.613    0.453    6.864
  140.250  227.621   92.074    0.603    0.453    6.996
  140.500  226.570   88.329    0.581    0.450    6.995
  140.750  224.479   87.076    0.538    0.440    6.995
  141.000  224.466   86.446    0.527    0.392    6.994
  141.250  228.602   84.573    0.538    0.391    6.993
  141.500  231.701   88.299    0.560    0.395    6.992
  141.750  232.726   93.892    0.571    0.390    6.860
  142.000  231.675   96.374    0.568    0.381    6.991
  142.250  227.512   95.743    0.556    0.400    7.401
  142.500  226.458   90.756    0.549    0.407    7.836
  142.750  226.448   88.880    0.536    0.424    8.952
  143.000  226.432   87.005    0.536    0.434    9.477
  143.250  226.418   84.507    0.537    0.432   10.034
  143.500  226.405   88.857    0.534    0.402   10.226
  143.750  225.351   86.357    0.536    0.409    9.842
  144.000  225.341   83.237    0.565    0.422    8.947
  144.250  225.331   78.873    0.576    0.436    7.682
  144.500  225.315   75.130    0.563    0.447    6.852
  144.750  225.302   72.010    0.546    0.452    5.772
  145.000  226.323   75.735    0.527    0.449    5.051
  145.250  227.350   79.460    0.515    0.430    4.956
  145.500  228.374   81.322    0.498    0.407    4.955
  145.750  230.436   85.046    0.511    0.390    5.050
  146.000  232.488   87.530    0.554    0.372    5.245
  146.250  233.522   88.765    0.566    0.350    5.346
  146.500  234.546   87.513    0.559    0.325    5.448
  146.750  235.567   89.374    0.553    0.293    5.552
  147.000  235.557   95.589    0.581    0.332    5.658
  147.250  234.507   96.206    0.595    0.369    5.658
  147.500  232.419   93.083    0.589    0.416    5.551
  147.750  229.290   96.810    0.579    0.413    5.445
  148.000  227.201   99.294    0.569    0.421    5.445
  148.250  226.151   96.172    0.565    0.427    6.103
  148.500  226.131   96.164    0.567    0.418    7.967
  148.750  226.124   99.891    0.573    0.411   11.223
  149.000  225.070  102.373    0.591    0.411   12.343
  149.250  225.060   98.630    0.598    0.406   12.579
  149.500  225.041   92.397    0.592    0.394   11.435
  149.750  225.031   86.787    0.574    0.380   10.008
  150.000  225.021   82.422    0.540    0.375    8.926
  150.250  225.008   75.565    0.523    0.388    7.811
  150.500  224.991   72.446    0.499    0.402    7.377
  150.750  223.940   69.946    0.491    0.418    8.589
  151.000  223.927   71.808    0.502    0.437    8.427
  151.250  222.873   78.023    0.503    0.438    7.099
  151.500  222.867   81.752    0.521    0.421    6.332
  151.750  221.816   79.876    0.539    0.389    5.756
  152.000  221.799   73.021    0.530    0.275    5.436
  152.250  221.780   65.541    0.516    0.236    5.979
  152.500  221.773   66.156    0.482    0.243    6.575
  152.750  222.797  101.007    0.454    0.322    6.209
  153.000  222.784  108.469    0.526    0.356    5.753
  153.250  222.771  115.306    0.555    0.384    5.433
  153.500  222.758  117.168    0.578    0.376    5.131
  153.750  222.738  115.913    0.586    0.371    4.577
  154.000  222.731  112.172    0.567    0.361    4.161
  154.250  223.756  103.447    0.563    0.352    3.782
  154.500  224.776  102.819    0.599    0.356    3.438
  154.750  227.876  104.678    0.597    0.349    3.186
  155.000  230.972  105.915    0.580    0.327    3.373
  155.250  232.002  104.663    0.609    0.349    5.031
  155.500  231.989  101.540    0.594    0.356    6.822
  155.750  231.973  100.289    0.577    0.374    7.503
  156.000  229.885   99.034    0.591    0.427    8.905
  156.250  227.796   97.159    0.596    0.448   10.568
  156.500  226.746   89.681    0.577    0.439   13.030
  156.750  228.807   85.939    0.557    0.404   15.761
  157.000  231.907   82.816    0.534    0.392   20.187
  157.250  233.965   82.808    0.514    0.389   24.889
  157.500  229.802   84.668    0.506    0.399   27.898
  157.750  227.717   85.282    0.500    0.404   24.884
  158.000  225.629   80.919    0.485    0.392   18.346
  158.250  223.531   72.817    0.470    0.357   13.271
  158.500  222.484   65.964    0.400    0.330   11.180
  158.750  222.477   59.109    0.371    0.312   10.163
  159.000  224.532   57.231    0.368    0.258    8.894
  159.250  227.631   61.581    0.388    0.254   10.161
  159.500  228.659   68.418    0.436    0.288   10.554
  159.750  229.683   76.504    0.463    0.321   10.756
  160.000  229.670   83.966    0.484    0.332   10.553
  160.250  229.653   92.050    0.498    0.338    9.778
  160.500  229.643   84.573    0.512    0.365    8.237
  160.750  229.630   80.830    0.507    0.389    6.939
  161.000  231.692   83.312    0.474    0.389    5.521
  161.250  230.641   89.529    0.460    0.396    9.231
  161.500  227.516   92.011    0.543    0.388   11.600
  161.750  225.428   84.533    0.568    0.383   17.634
  162.000  225.414   72.698    0.581    0.404   27.322
  162.250  225.401   66.466    0.467    0.429   31.216
  162.500  226.425   58.363    0.447    0.423   43.973
  162.750  226.406   55.864    0.430    0.405   43.969
  163.000  226.396   53.990    0.386    0.353   43.965
  163.250  226.379   50.868    0.349    0.301   43.960
  163.500  226.366   50.860    0.347    0.240   22.145
  163.750  226.349   52.097    0.353    0.222   19.380
  164.000  226.343   54.581    0.364    0.230   12.038
  164.250  225.292   58.930    0.380    0.241   10.737
  164.500  225.276   62.035    0.393    0.242    7.916
  164.750  225.262   65.760    0.415    0.242    6.179
  165.000  225.249   66.999    0.440    0.247    6.297
  165.250  226.273   72.593    0.461    0.296    6.297
  165.500  226.260   79.433    0.510    0.354    6.925
  165.750  226.244   85.649    0.537    0.393    7.617
  166.000  226.237   85.641    0.559    0.408    8.377
  166.250  227.261   78.786    0.586    0.395    9.570
  166.500  231.395   78.156    0.510    0.311   10.132
  166.750  232.416   82.505    0.528    0.322   10.325
  167.000  232.402   89.965    0.516    0.369   10.130
  167.250  233.430   92.445    0.491    0.370    9.938
  167.500  234.454   92.439    0.488    0.355    9.937
  167.750  234.438   91.184    0.498    0.368   10.520
  168.000  234.425   88.686    0.522    0.375   12.019
  168.250  235.449   80.588    0.531    0.365   15.991
  168.500  233.364   71.241    0.545    0.214   20.480
  168.750  229.201   65.631    0.407    0.219   20.478
  169.000  228.150   63.135    0.374    0.234   18.265
  169.250  227.100   64.372    0.417    0.286   15.683
  169.500  226.049   68.720    0.461    0.316   13.988
  169.750  226.036   74.316    0.439    0.341   12.716
  170.000  227.060   81.778    0.489    0.316   12.715
  170.250  229.115   84.880    0.506    0.352   13.461
  170.500  228.068   81.760    0.520    0.382   14.804
  170.750  227.014   79.262    0.514    0.363   15.377
  171.000  223.888   73.652    0.489    0.282   15.376
  171.250  219.725   73.642    0.484    0.309   15.670
  171.500  219.715   75.503    0.489    0.335   16.909
  171.750  219.702   78.608    0.495    0.344   17.901
  172.000  222.801   82.335    0.499    0.373   18.244
  172.250  226.934   78.592    0.492    0.387   18.242
  172.500  228.996   71.114    0.481    0.349   16.583
  172.750  228.983   69.862    0.470    0.302   14.791
