~VERSION INFORMATION
 VERS.                 2.0:   CWLS LOG ASCII STANDARD -VERSION 2.0
 WRAP.                  NO:   ONE LINE PER DEPTH STEP
~WELL INFORMATION BLOCK
#MNEM.UNIT           DATA                    DESCRIPTION OF MNEMONIC
#---------    -------------------            -------------------------------
# Generated from Intellog Unique Number	CC_80_83/WELL/2392
NULL.         -999.25                        : NULL_VALUE
WELL.         BVX ET ALWATCHUSK              : Well_name    - WELL
LOC .         11-08-082-04W4                 : Location     - LOCATION          
UWI .         00/11-08-082-04W4/0            : Uwi          - UNIQUE WELL ID    
ENTR.         DW                             : Entered      - ENTERED BY        
SRVC.         SCHLUMBERGER                   : Scn          - SERVICE COMPANY   
DATE.         13 FEB 78                      : Date         - LOG DATE
STRT.M        97.536                         : top_depth    - START DEPTH       
STOP.M        307.847                        : bot_depth    - STOP DEPTH        
STEP.M        0.3048                         : increment    - STEP LENGTH       
~CURVE INFORMATION BLOCK
#MNEM UNIT       ERCB CURVE CODE    CURVE DESCRIPTION
#-----------   ------------------   ----------------------------------
DEPT.M        00 001 00 00         : DEPTH        - DEPTH                       
DPHI.V/V      00 890 00 00         : PHID         - DENSITY POROSITY (LIMESTONE)
NPHI.V/V      00 330 00 00         : PHIN         - NEUTRON POROSITY (LIMESTONE)
GR  .API      00 310 00 00         : GR           - GAMMA RAY                   
ILD .OHMM     00 120 00 00         : RESD         - DEEP RESISTIVITY (DIL)      
~PARAMETER INFORMATION       
#MNEM.UNIT           DATA             DESCRIPTION OF MNEMONIC
#---------         -----------     ------------------------------
GL  .M        457.2                : gl           - GROUND LEVEL ELEVATION      
EREF.M        460.248              : kb           - ELEVATION OF DEPTH REFERENCE
DATM.M        460.248              : datum        - DATUM ELEVATION             
TDD .M        320.04               : tdd          - TOTAL DEPTH DRILLER         
RUN .         ONE                  : Run          - RUN NUMBER                  
ENG .         BILL                 : Engineer     - RECORDING ENGINEER          
WIT .         JIM                  : Witness      - WITNESSED BY                
MUD .         GEL                  : Mud_type     - MUD TYPE                    
MATR.         LIMESTONE            : Logunit      - NEUTRON MATRIX              
TMAX.C        20                   : BHT          - MAXIMUM RECORDED TEMPERATURE
BHTD.M        320.04               : BHTDEP       - MAXIMUM RECORDED TEMPERATURE
MATR.         1                    : LOGUNIT      - NEUTRON MATRIX              
RMT .C        25                   : MDTP         - TEMPERATURE OF MUD          
NEUT.         1                    : NEUTRON      - NEUTRON TYPE                
RESI.         0                    : RESIST       - RESISTIVITY TYPE            
RMC .OHMM     0.25                 : RMC          - RESISTIVITY OF MUD CAKE     
RMF .OHMM     0.25                 : RMF          - RESISTIVITY OF MUD FILTRATE 
SUFT.C        15                   : SUFT         - SURFACE TEMPERATURE         
~A  DEPTH     PHID     PHIN       GR     RESD
# ...
  150.571    0.320    0.619   93.827    4.520
  150.876    0.271    0.640   96.914    2.867
  151.181    0.287    0.622   94.444    2.240
  151.485    0.303    0.625   94.444    2.075
  151.790    0.311    0.645   95.679    1.997
  152.095    0.297    0.631   98.765    2.034
  152.400    0.277    0.624  103.086    2.111
  152.705    0.278    0.636  102.469    2.234
  153.009    0.272    0.637  100.617    2.697
  153.314    0.277    0.614   98.765    2.908
  153.619    0.262    0.595   98.765    3.136
  153.924    0.261    0.570   97.531    3.786
  154.229    0.265    0.558   96.914    4.239
  154.533    0.261    0.544   93.210    4.486
  154.838    0.260    0.527   87.654    5.118
  155.143    0.252    0.543   88.272    5.622
  155.448    0.252    0.543   87.654    5.837
  155.752    0.268    0.515   87.037    5.945
  156.057    0.282    0.516   86.420    5.830
  156.362    0.291    0.527   82.099    5.827
  156.667    0.301    0.532   79.012    5.934
  156.972    0.301    0.526   79.012    6.160
  157.276    0.302    0.512   80.247    6.640
  157.581    0.301    0.500   81.481    6.893
  157.886    0.293    0.504   83.951    7.152
  158.191    0.280    0.515   86.420    7.149
  158.496    0.270    0.528   88.272    7.013
  158.800    0.275    0.544   83.333    6.746
  159.105    0.268    0.552   88.272    6.872
  159.410    0.256    0.531   90.124    6.998
  159.715    0.251    0.478   88.889    7.402
  160.020    0.255    0.466   89.506    7.683
  160.324    0.268    0.468   91.975    7.682
  160.629    0.268    0.478   88.272    7.821
  160.934    0.267    0.482   85.802    7.818
  161.239    0.272    0.489   85.185    7.815
  161.544    0.275    0.474   85.802    7.663
  161.848    0.266    0.501   85.185    7.515
  162.153    0.230    0.521   87.037    7.097
  162.458    0.238    0.534   91.975    6.452
  162.763    0.260    0.507   97.531    5.977
  163.068    0.250    0.480   96.914    5.862
  163.372    0.239    0.497   95.062    5.859
  163.677    0.291    0.508   91.358    6.198
  163.982    0.291    0.497   88.272    6.557
  164.287    0.275    0.497   90.124    6.677
  164.592    0.245    0.532   93.210    5.957
  164.896    0.234    0.547   98.148    4.655
  165.201    0.250    0.541   98.765    4.074
  165.506    0.276    0.551   97.531    3.995
  165.811    0.246    0.590   96.914    4.070
  166.115    0.245    0.600   98.148    4.471
  166.420    0.250    0.610   98.148    4.640
  166.725    0.247    0.584   96.914    4.381
  167.030    0.234    0.553   89.506    4.059
  167.335    0.275    0.531   84.568    3.981
  167.639    0.307    0.511   83.951    4.055
  167.944    0.314    0.507   90.741    5.284
  168.249    0.294    0.525   95.679    5.589
  168.554    0.273    0.568   94.444    4.536
  168.859    0.296    0.562   89.506    3.823
  169.163    0.296    0.518   87.654    3.283
  169.468    0.280    0.506   86.420    3.220
  169.773    0.271    0.517   92.593    3.537
  170.078    0.254    0.506   96.296    4.272
  170.383    0.210    0.482   95.679    6.476
  170.687    0.209    0.479   90.124    7.114
  170.992    0.233    0.487   82.099    7.386
  171.297    0.270    0.497   83.333    7.106
  171.602    0.256    0.516   84.568    6.221
  171.907    0.251    0.537   82.716    5.243
  172.211    0.262    0.531   81.481    4.950
  172.516    0.306    0.496   80.864    5.043
  172.821    0.311    0.500   83.951    5.540
  173.126    0.255    0.506   88.272    5.862
  173.431    0.220    0.508   91.975    6.082
  173.735    0.209    0.501   92.593    5.965
  174.040    0.240    0.496   90.124    5.963
  174.345    0.257    0.491   86.420    5.848
  174.650    0.254    0.495   83.333    5.733
  174.955    0.256    0.506   84.568    5.952
  175.259    0.259    0.513   91.358    6.296
  175.564    0.261    0.501   93.210    6.413
  175.869    0.244    0.482   92.593    6.532
  176.174    0.241    0.512   89.506    6.527
  176.478    0.261    0.496   87.037    6.522
  176.783    0.271    0.490   85.185    6.397
  177.088    0.273    0.500   81.481    6.394
  177.393    0.276    0.520   82.099    6.152
  177.698    0.281    0.544   87.654    5.921
  178.002    0.286    0.575   83.333    5.086
  178.307    0.306    0.599   78.395    3.754
  178.612    0.318    0.625   72.840    2.771
  178.917    0.318    0.612   72.840    2.380
  179.222    0.328    0.611   75.926    2.248
  179.526    0.338    0.605   78.395    2.247
  179.831    0.298    0.562   78.395    2.467
  180.136    0.280    0.492   75.309    2.660
  180.441    0.255    0.513   80.247    2.868
  180.746    0.236    0.526   82.716    3.531
  181.050    0.225    0.523   82.099    4.428
  181.355    0.247    0.502   81.481    5.149
  181.660    0.266    0.481   86.420    5.346
  181.965    0.249    0.450   90.741    5.548
  182.270    0.278    0.480   95.062    5.546
  182.574    0.285    0.510   95.679    4.854
  182.879    0.267    0.546   94.444    3.721
  183.184    0.267    0.528   90.124    3.448
  183.489    0.255    0.526   88.272    3.134
  183.794    0.260    0.541   87.654    3.133
  184.098    0.280    0.546   88.889    3.252
  184.403    0.262    0.546   91.358    3.312
  184.708    0.257    0.553   91.975    3.438
  185.013    0.261    0.572   90.741    3.436
  185.318    0.245    0.551   91.358    3.434
  185.622    0.268    0.559   91.358    3.432
  185.927    0.260    0.557   93.210    3.366
  186.232    0.265    0.547   94.444    3.364
  186.537    0.249    0.537   95.679    3.362
  186.841    0.236    0.551   95.679    3.423
  187.146    0.242    0.559   90.124    3.421
  187.451    0.245    0.553   88.889    3.419
  187.756    0.239    0.521   84.568    3.482
  188.061    0.255    0.495   81.481    3.548
  188.365    0.265    0.464   79.012    3.973
  188.670    0.259    0.482   80.864    4.533
  188.975    0.254    0.502   88.272    4.706
  189.280    0.249    0.516   89.506    4.793
  189.585    0.226    0.502   83.951    4.441
  189.889    0.189    0.471   78.395    4.697
  190.194    0.147    0.406   76.543    5.359
  190.499    0.130    0.450   79.630    5.564
  190.804    0.256    0.463   81.481    5.775
  191.109    0.275    0.437   77.160    5.557
  191.413    0.294    0.419   68.519    5.052
  191.718    0.343    0.406   59.877    4.954
  192.023    0.351    0.369   54.321    5.142
  192.328    0.355    0.371   64.815    5.238
  192.633    0.359    0.382   72.840    5.437
  192.937    0.335    0.412   74.074    5.434
  193.242    0.324    0.367   70.370    5.131
  193.547    0.371    0.266   58.642    4.244
  193.852    0.377    0.266   54.938    4.842
  194.157    0.379    0.364   59.259    5.849
  194.461    0.372    0.354   73.457    7.476
  194.766    0.360    0.348   75.309    7.332
  195.071    0.332    0.445   74.074    5.949
  195.376    0.324    0.416   72.840    5.110
  195.681    0.334    0.362   72.222    4.645
  195.985    0.341    0.332   73.457    4.914
  196.290    0.358    0.312   76.543    5.199
  196.595    0.340    0.287   82.099    5.819
  196.900    0.285    0.395   87.037    5.928
  197.204    0.220    0.405   90.124    5.813
  197.509    0.233    0.391   86.420    5.595
  197.814    0.244    0.379   82.099    4.991
  198.119    0.228    0.390   88.272    4.537
  198.424    0.205    0.423   95.062    4.203
  198.728    0.189    0.439   98.765    4.201
  199.033    0.186    0.460  101.235    4.121
  199.338    0.199    0.482  101.852    4.117
  199.643    0.202    0.469   98.765    4.115
  199.948    0.207    0.452   90.741    3.960
  200.252    0.204    0.439   86.420    3.600
  200.557    0.209    0.427   84.568    3.464
  200.862    0.225    0.411   82.716    3.271
  201.167    0.236    0.401   80.247    3.089
  201.472    0.245    0.395   78.395    3.029
  201.776    0.246    0.391   76.543    2.860
  202.081    0.238    0.392   75.926    2.650
  202.386    0.233    0.390   77.160    2.599
  202.691    0.242    0.384   79.012    2.548
  202.996    0.250    0.424   80.864    2.546
  203.300    0.252    0.414   84.568    2.545
