~VERSION INFORMATION
 VERS.                 2.0:   CWLS LOG ASCII STANDARD -VERSION 2.0
 WRAP.                  NO:   ONE LINE PER DEPTH STEP
~WELL INFORMATION BLOCK
#MNEM.UNIT           DATA                    DESCRIPTION OF MNEMONIC
#---------    -------------------            -------------------------------
# Generated from Intellog Unique Number	CS_69_70/WELL/2878
WELL.         AEC FISHER 10-27-69-03 W4M     : Well_name    - WELL
LOC .         00/10-27-069-03W4/0            : Location     - LOCATION
UWI .         00/10-27-069-03W4/0            : Uwi          - UNIQUE WELL ID
ENTR.         ANDERSEN                       : Entered      - ENTERED BY
SRVC.         SCHLUMBERGER                   : Scn          - SERVICE COMPANY
STRT.M        365                            : top_depth    - START DEPTH
STOP.M        605                            : bot_depth    - STOP DEPTH
STEP.M        0.25                           : increment    - STEP LENGTH
 NULL. -999.2500:NULL Value
~CURVE INFORMATION BLOCK
#MNEM UNIT       ERCB CURVE CODE    CURVE DESCRIPTION
#-----------   ------------------   ----------------------------------
DEPT.M        00 001 00 00         : DEPTH        - DEPTH
ILD .OHMM     00 120 00 00         : RESD         - DEEP RESISTIVITY (DIL)
GR  .API      00 310 00 00         : GR           - GAMMA RAY
CALI.MM       00 280 01 00         : CAL          - CALIPER
NPHI.V/V      00 330 00 00         : PHIN         - NEUTRON POROSITY (SANDSTONE)
DPHI.V/V      00 890 00 00         : PHID         - DENSITY POROSITY (SANDSTONE)
~PARAMETER INFORMATION
#MNEM.UNIT           DATA             DESCRIPTION OF MNEMONIC
#---------         -----------     ------------------------------
GL  .M        707                  : gl           - GROUND LEVEL ELEVATION
EREF.M        710.3                : kb           - ELEVATION OF DEPTH REFERENCE
DATM.M        710.3                : datum        - DATUM ELEVATION
TDD .M        612                  : tdd          - TOTAL DEPTH DRILLER
RUN .         ONE                  : Run          - RUN NUMBER
ENG .         BILL                 : Engineer     - RECORDING ENGINEER
WIT .         JIM                  : Witness      - WITNESSED BY
MUD .         GEL                  : Mud_type     - MUD TYPE
MATR.         SANDSTONE            : Logunit      - NEUTRON MATRIX
TMAX.C        25                   : BHT          - MAXIMUM RECORDED TEMPERATURE
BHTD.M        612                  : BHTDEP       - MAXIMUM RECORDED TEMPERATURE
MATR.         1                    : LOGUNIT      - NEUTRON MATRIX
RMT .C        22                   : MDTP         - TEMPERATURE OF MUD
NEUT.         1                    : NEUTRON      - NEUTRON TYPE
RESI.         0                    : RESIST       - RESISTIVITY TYPE
RMC .OHMM     2.54                 : RMC          - RESISTIVITY OF MUD CAKE
RMF .OHMM     4.82                 : RMF          - RESISTIVITY OF MUD FILTRATE
SUFT.C        15                   : SUFT         - SURFACE TEMPERATURE
~A  DEPTH     RESD       GR      CAL     PHIN     PHID
# ...
  511.000    6.577   92.614  166.376    0.458    0.240
  511.250    6.705   88.083  164.532    0.465    0.258
  511.500    6.716   82.413  162.676    0.470    0.280
  511.750    6.730   77.882  161.770    0.460    0.310
  512.000    6.866   74.491  160.864    0.444    0.316
  512.250    6.877   72.808  160.897    0.443    0.312
  512.500    7.019   73.403  160.940    0.454    0.319
  512.750    7.156   73.999  160.045    0.464    0.327
  513.000    7.304   75.740  160.077    0.460    0.321
  513.250    7.452   76.912  159.182    0.458    0.313
  513.500    7.464   77.501  159.236    0.461    0.301
  513.750    7.340   77.527  159.268    0.461    0.292
  514.000    6.960   76.983  159.311    0.452    0.282
  514.250    6.844   75.300  159.355    0.430    0.283
  514.500    6.730   73.618  159.398    0.425    0.276
  514.750    6.741   74.219  159.441    0.429    0.279
  515.000    6.752   76.524  160.455    0.431    0.290
  515.250    6.763   75.411  160.498    0.427    0.302
  515.500    6.651   77.721  160.531    0.424    0.309
  515.750    6.540   79.456  160.574    0.432    0.312
  516.000    5.869   78.336  160.617    0.440    0.314
  516.250    4.979   76.653  160.671    0.444    0.316
  516.500    3.997   75.540  161.653    0.445    0.316
  516.750    3.152   78.990  161.718    0.436    0.307
  517.000    2.724   88.699  161.750    0.412    0.295
  517.250    2.355   93.288  161.794    0.402    0.288
  517.500    2.112   91.029  161.837    0.477    0.304
  517.750    1.895   87.638  161.891    0.540    0.321
  518.000    1.764   82.544  161.923    0.564    0.336
  518.250    1.734   82.000  161.028    0.572    0.338
  518.500    1.737   82.033  161.082    0.565    0.343
  518.750    1.840   84.337  160.176    0.562    0.347
  519.000    1.911   87.211  160.208    0.565    0.337
  519.250    2.061   89.509  160.252    0.556    0.322
  519.500    2.305   90.104  160.295    0.557    0.324
  519.750    2.352   90.137  161.287    0.564    0.319
  520.000    2.399   89.030  162.280    0.563    0.310
  520.250    2.450   88.480  162.334    0.528    0.304
  520.500    2.454   91.930  163.327    0.503    0.305
  520.750    2.458   94.228  163.370    0.512    0.301
  521.000    2.461   95.969  163.424    0.527    0.305
  521.250    2.511   95.995  163.467    0.552    0.308
  521.500    2.809   95.451  164.460    0.562    0.312
  521.750    3.575   94.338  164.503    0.557    0.312
  522.000    4.807   90.946  164.546    0.510    0.306
  522.250    5.793   87.561  163.651    0.482    0.290
  522.500    5.911   85.302  163.694    0.461    0.278
  522.750    5.920   81.917  163.726    0.462    0.246
  523.000    5.716   79.089  164.730    0.458    0.169
  523.250    5.420   77.406  163.813    0.375    0.171
  523.500    5.228   82.564  163.867    0.408    0.196
  523.750    4.865   88.286  162.961    0.426    0.223
  524.000    4.527   93.439  163.004    0.440    0.246
  524.250    4.062   94.610  164.007    0.435    0.255
  524.500    3.780   95.775  164.040    0.463    0.257
  524.750    3.516   94.669  163.155    0.487    0.264
  525.000    3.272   92.979  163.177    0.504    0.259
  525.250    3.101   93.575  163.220    0.508    0.262
  525.500    2.994   94.740  165.173    0.490    0.273
  525.750    3.000   94.196  166.166    0.473    0.271
  526.000    3.005   96.501  166.220    0.479    0.251
  526.250    3.181  101.096  166.252    0.489    0.241
  526.500    3.493  102.831  166.295    0.480    0.247
  526.750    3.980  101.718  164.440    0.472    0.253
  527.000    4.136  100.605  163.534    0.474    0.261
  527.250    4.298   98.922  162.638    0.477    0.254
  527.500    4.554   98.371  162.692    0.466    0.249
  527.750    4.818   98.967  162.725    0.447    0.244
  528.000    5.291  100.708  162.768    0.424    0.237
  528.250    5.921  102.443  162.811    0.418    0.225
  528.500    7.002  103.608  162.855    0.423    0.216
  528.750    8.274  103.634  162.898    0.432    0.215
  529.000    9.781   85.433  162.963    0.439    0.219
  529.250   12.682   74.067  163.006    0.450    0.219
  529.500   13.928   57.005  163.049    0.279    0.192
  529.750   15.017   61.018  163.103    0.228    0.070
  530.000   15.321   66.171  163.125    0.238    0.096
  530.250   15.066   69.051  162.219    0.286    0.186
  530.500   14.280   67.362  161.313    0.387    0.222
  530.750   13.051   60.552  160.428    0.420    0.270
  531.000   13.073   58.876  160.461    0.427    0.309
  531.250   13.094   60.041  160.504    0.426    0.324
  531.500   13.359   66.339  161.496    0.419    0.328
  531.750   11.549   66.359  161.561    0.410    0.323
  532.000    9.623   71.511  161.583    0.393    0.314
  532.250    8.319   78.378  161.637    0.397    0.303
  532.500    7.058   72.139  161.680    0.420    0.298
  532.750    6.333   65.330  161.723    0.423    0.305
  533.000    6.116   56.812  161.767    0.385    0.319
  533.250    6.240   54.559  161.810    0.369    0.335
  533.500    6.482   54.016  161.864    0.368    0.336
  533.750    6.862   54.041  161.918    0.378    0.336
  534.000    7.003   54.067  161.961    0.384    0.339
  534.250    7.015   55.233  162.015    0.380    0.343
  534.500    7.160   62.100  162.048    0.367    0.348
  534.750    7.172   63.265  161.152    0.356    0.337
  535.000    7.183   65.007  161.185    0.355    0.321
  535.250    7.198   65.602  161.239    0.367    0.325
  535.500    7.204   63.913  161.271    0.373    0.324
  535.750    7.353   60.521  160.365    0.368    0.315
  536.000    7.505   62.256  160.419    0.387    0.312
  536.250    7.511   81.085  160.473    0.386    0.308
  536.500    7.667   83.959  160.495    0.376    0.306
  536.750    7.828   81.713  160.538    0.359    0.289
  537.000    7.983   84.011  160.581    0.335    0.255
  537.250    8.145   86.321  160.624    0.334    0.211
  537.500    8.307   84.075  160.678    0.346    0.191
  537.750    8.475   83.532  160.722    0.352    0.190
  538.000    8.492   81.279  160.765    0.347    0.184
  538.250    8.506   81.868  160.808    0.340    0.187
  538.500    8.517   84.742  160.851    0.346    0.198
  538.750    8.534   81.920  160.905    0.349    0.209
  539.000    8.243   78.542  160.938    0.342    0.221
  539.250    8.106   78.561  161.941    0.333    0.228
  539.500    7.826   82.574  161.984    0.340    0.232
  539.750    7.555   86.587  162.988    0.352    0.230
  540.000    7.429   89.461  163.031    0.365    0.218
  540.250    7.442   98.607  163.074    0.375    0.204
  540.500    7.454  100.342  163.117    0.379    0.186
  540.750    7.605   99.229  163.161    0.361    0.177
  541.000    7.475   96.976  163.215    0.344    0.177
  541.250    7.357   96.439  163.258    0.356    0.186
  541.500    7.235  102.154  163.290    0.370    0.191
  541.750    7.250  111.870  163.334    0.391    0.194
  542.000    7.256  108.478  163.377    0.404    0.194
  542.250    7.268  105.656  162.471    0.411    0.201
  542.500    7.280  105.113  162.536    0.392    0.208
  542.750    7.292  103.430  162.579    0.390    0.213
  543.000    7.303  101.747  162.622    0.395    0.205
  543.250    7.316   99.507  162.665    0.395    0.196
  543.500    7.331   97.249  162.709    0.402    0.189
  543.750    7.343   94.996  162.741    0.401    0.197
  544.000    7.223   96.161  162.784    0.365    0.215
  544.250    7.103  100.174  162.827    0.354    0.224
  544.500    6.985  101.339  162.892    0.390    0.209
  544.750    6.994  101.365  162.925    0.382    0.190
  545.000    7.136  105.385  162.979    0.393    0.194
  545.250    7.280  110.537  163.011    0.404    0.198
  545.500    7.434  107.722  163.065    0.399    0.188
  545.750    7.446  105.463  163.108    0.381    0.156
  546.000    7.458  102.641  163.173    0.367    0.144
  546.250    7.470   99.819  163.195    0.373    0.152
  546.500    7.343   96.997  163.249    0.381    0.162
  546.750    7.221  107.282  163.292    0.381    0.174
  547.000    7.236  105.029  164.285    0.378    0.174
  547.250    7.116  106.771  164.328    0.381    0.181
