~VERSION INFORMATION
 VERS.                 2.0:   CWLS LOG ASCII STANDARD -VERSION 2.0
 WRAP.                  NO:   ONE LINE PER DEPTH STEP
~WELL INFORMATION BLOCK
#MNEM.UNIT           DATA                    DESCRIPTION OF MNEMONIC
#---------    -------------------            -------------------------------
# Generated from Intellog Unique Number	CW_76_78/WELL/2586
WELL.         SCURRY ET AL DOUCETTE          : Well_name    - WELL
LOC .         00/12-22-078-02W5/0            : Location     - LOCATION
UWI .         00/12-22-078-02W5/0            : Uwi          - UNIQUE WELL ID
ENTR.         MAX                            : Entered      - ENTERED BY
SRVC.         WESTERN ATLAS                  : Scn          - SERVICE COMPANY
STRT.M        330                            : top_depth    - START DEPTH
STOP.M        585                            : bot_depth    - STOP DEPTH
STEP.M        0.25                           : increment    - STEP LENGTH
 NULL. -999.2500:NULL Value
~CURVE INFORMATION BLOCK
#MNEM UNIT       ERCB CURVE CODE    CURVE DESCRIPTION
#-----------   ------------------   ----------------------------------
DEPT.M        00 001 00 00         : DEPTH        - DEPTH
ILD .OHMM     00 120 00 00         : RESD         - DEEP RESISTIVITY (DIL)
NPHI.V/V      00 330 00 00         : PHIN         - NEUTRON POROSITY (SANDSTONE)
DPHI.V/V      00 890 00 00         : PHID         - DENSITY POROSITY (SANDSTONE)
CALI.MM       00 280 01 00         : CAL          - CALIPER
GR  .API      00 310 00 00         : GR           - GAMMA RAY
~PARAMETER INFORMATION
#MNEM.UNIT           DATA             DESCRIPTION OF MNEMONIC
#---------         -----------     ------------------------------
GL  .M        625.1                : gl           - GROUND LEVEL ELEVATION
EREF.M        629.33               : kb           - ELEVATION OF DEPTH REFERENCE
DATM.M        625.1                : datum        - DATUM ELEVATION
TDD .M        611.3                : tdd          - TOTAL DEPTH DRILLER
RUN .         ONE                  : Run          - RUN NUMBER
ENG .         BILL                 : Engineer     - RECORDING ENGINEER
WIT .         JIM                  : Witness      - WITNESSED BY
MUD .         GEL                  : Mud_type     - MUD TYPE
MATR.         SANDSTONE            : Logunit      - NEUTRON MATRIX
TMAX.C        29                   : BHT          - MAXIMUM RECORDED TEMPERATURE
BHTD.M        611.3                : BHTDEP       - MAXIMUM RECORDED TEMPERATURE
RMT .C        13                   : MDTP         - TEMPERATURE OF MUD
MUDD.KG/M     1170                 : MWT          - MUD DENSITY
NEUT.         1                    : NEUTRON      - NEUTRON TYPE
RESI.         0                    : RESIST       - RESISTIVITY TYPE
RM  .OHMM     5                    : RM           - RESISTIVITY OF MUD
RMC .OHMM     3.5                  : RMC          - RESISTIVITY OF MUD CAKE
RMF .OHMM     6                    : RMF          - RESISTIVITY OF MUD FILTRATE
SUFT.C        -5                   : SUFT         - SURFACE TEMPERATURE
~A  DEPTH     RESD     PHIN     PHID      CAL       GR
# ...
  512.500   10.720    0.361    0.172  209.600   85.223
  512.750   10.348    0.357    0.156  209.614   81.428
  513.000    9.988    0.354    0.146  208.654   83.484
  513.250    9.556    0.355    0.142  208.667   87.589
  513.500    9.225    0.358    0.131  208.681   93.746
  513.750    8.905    0.359    0.127  209.182   95.216
  514.000    8.989    0.361    0.142  210.663   95.517
  514.250    9.237    0.360    0.162  211.648   97.574
  514.500    9.664    0.359    0.167  211.662  101.681
  514.750   11.458    0.352    0.166  210.214  100.811
  515.000   14.080    0.333    0.170  207.790   94.966
  515.250   16.996    0.309    0.173  205.851   87.071
  515.500   21.454    0.277    0.144  204.889   77.129
  515.750   25.211    0.225    0.105  204.417   74.210
  516.000   29.102    0.196    0.065  204.430   67.780
  516.250   32.127    0.187   -0.016  204.932   65.448
  516.500   33.311    0.203   -0.012  204.947   66.627
  516.750   33.027    0.226    0.012  203.983   68.683
  517.000   29.414    0.240    0.031  203.997   71.912
  517.250   23.323    0.247    0.044  203.523   81.870
  517.500   18.997    0.273    0.115  200.611   89.489
  517.750   17.692    0.297    0.136  201.602   91.838
  518.000   16.479    0.317    0.158  204.053   91.554
  518.250   15.486    0.334    0.163  206.018   92.149
  518.500   15.223    0.342    0.162  206.519   92.450
  518.750   14.954    0.344    0.148  207.510   91.579
  519.000   14.055    0.345    0.141  208.013   92.173
  519.250   13.688    0.346    0.140  208.513   94.816
  519.500   13.451    0.345    0.148  209.014   98.630
  519.750   12.983    0.342    0.147  209.517   98.052
  520.000   11.985    0.340    0.143  210.019   98.354
  520.250   10.392    0.341    0.142  210.034  102.752
  520.500    9.173    0.343    0.147  211.023  111.248
  520.750    8.776    0.358    0.160  212.990  113.890
  521.000    8.702    0.370    0.155  210.563  105.704
  521.250    8.628    0.360    0.142  207.165  100.444
  521.500    8.709    0.357    0.140  205.715   95.184
  521.750    9.030    0.357    0.149  206.213   92.265
  522.000    9.447    0.356    0.157  206.229   92.273
  522.250    9.796    0.354    0.159  205.756   92.576
  522.500    9.978    0.351    0.162  204.306   91.999
  522.750   10.071    0.351    0.164  204.320   89.666
  523.000   10.075    0.352    0.150  204.334   86.747
  523.250   10.355    0.349    0.100  206.298   86.754
  523.500   10.640    0.352    0.078  209.241   96.129
  523.750   11.434    0.357    0.115  211.207   99.064
  524.000   13.926    0.365    0.151  210.730   89.122
  524.250   15.510    0.368    0.169  210.257   77.716
  524.500   20.111    0.362    0.220  207.344   63.967
  524.750   21.228    0.355    0.248  204.432   50.219
  525.000   23.434    0.339    0.275  202.496   41.740
  525.250   23.867    0.348    0.302  201.534   37.066
  525.500   23.876    0.353    0.316  201.546   32.686
  525.750   24.535    0.354    0.317  201.560   32.401
  526.000   26.606    0.349    0.314  200.112   33.578
  526.250   29.105    0.347    0.314  198.665   35.636
  526.500   33.596    0.350    0.314  198.188   36.230
  526.750   36.431    0.355    0.311  197.714   37.994
  527.000   38.453    0.360    0.305  198.706   39.174
  527.250   39.870    0.366    0.302  197.744   40.059
  527.500   41.340    0.367    0.300  195.807   41.825
  527.750   43.253    0.369    0.299  195.331   43.296
  528.000   43.253    0.369    0.295  196.320   43.891
  528.250   45.279    0.370    0.293  200.724   43.898
  528.500   46.935    0.372    0.296  203.180   42.443
  528.750   50.892    0.371    0.301  202.704   38.061
  529.000   55.181    0.365    0.301  201.742   33.972
  529.250   62.570    0.353    0.295  199.806   29.883
  529.500   72.228    0.344    0.290  197.867   26.088
  529.750   81.895    0.337    0.286  196.907   25.218
  530.000   92.850    0.330    0.275  196.924   24.640
  530.250  102.502    0.326    0.274  196.934   23.478
  530.500  101.627    0.322    0.282  196.949   22.315
  530.750   96.370    0.319    0.290  195.501   21.447
  531.000   92.186    0.319    0.294  195.025   20.871
  531.250   85.863    0.319    0.296  195.526   20.586
  531.500   80.688    0.320    0.293  196.030   21.471
  531.750   75.825    0.320    0.288  195.068   23.528
  532.000   69.373    0.320    0.285  194.595   23.829
  532.250   63.462    0.320    0.286  194.609   23.252
  532.500   54.539    0.321    0.290  194.135   23.847
  532.750   45.219    0.323    0.292  191.711   23.856
  533.000   41.001    0.325    0.290  190.751   22.692
  533.250   32.224    0.327    0.284  192.226   20.067
  533.500   28.444    0.329    0.283  192.239   19.782
  533.750   22.755    0.332    0.283  192.251   20.962
  534.000   16.062    0.333    0.283  192.265   21.848
  534.250   11.543    0.330    0.284  192.284   22.442
  534.500    9.071    0.325    0.288  192.296   22.451
  534.750    6.878    0.325    0.288  192.797   21.872
  535.000    5.964    0.322    0.287  192.811   23.345
  535.250    5.034    0.316    0.288  193.803   23.646
  535.500    4.731    0.315    0.290  194.301   25.996
  535.750    4.691    0.317    0.288  194.804   25.420
  536.000    4.735    0.321    0.284  195.307   24.257
  536.250    4.866    0.319    0.282  196.785   26.316
  536.500    4.956    0.315    0.282  197.772   27.785
  536.750    5.093    0.314    0.289  199.252   28.380
  537.000    5.187    0.312    0.292  199.754   28.681
  537.250    5.330    0.311    0.290  199.764   29.859
  537.500    5.478    0.311    0.287  199.779   30.160
  537.750    5.579    0.312    0.281  200.769   30.755
  538.000    5.785    0.314    0.270  201.759   32.226
  538.250    6.052    0.315    0.266  202.259   33.404
  538.500    6.681    0.315    0.262  202.276   36.633
  538.750    6.989    0.313    0.257  202.290   38.106
  539.000    7.119    0.311    0.250  201.816   38.992
  539.250    7.185    0.308    0.248  201.829   41.048
  539.500    7.253    0.302    0.253  203.308   42.520
  539.750    7.453    0.298    0.252  205.271   42.236
  540.000    7.868    0.271    0.228  205.772   41.074
  540.250    8.530    0.245    0.191  205.788   41.082
  540.500    9.333    0.235    0.160  204.829   42.556
  540.750    9.505    0.230    0.144  202.892   43.733
  541.000    9.341    0.259    0.136  201.930   47.546
  541.250    9.016    0.286    0.180  201.940   51.068
  541.500    8.549    0.305    0.228  201.955   51.663
  541.750    8.326    0.315    0.227  201.481   51.670
  542.000    8.256    0.322    0.224  202.474   53.726
  542.250    8.794    0.320    0.216  202.973   59.002
  542.500    9.201    0.315    0.211  203.476   62.817
  542.750    9.204    0.307    0.204  203.490   65.166
  543.000    8.884    0.311    0.198  203.991   67.516
  543.250    8.500    0.319    0.201  204.979   67.526
  543.500    8.353    0.329    0.211  205.970   65.779
  543.750    8.357    0.337    0.212  206.470   64.907
  544.000    8.360    0.337    0.199  203.558   66.379
  544.250    8.363    0.333    0.194  199.183   70.485
  544.500    8.292    0.328    0.184  198.709   74.006
  544.750    8.371    0.336    0.180  201.162   76.941
  545.000    8.602    0.344    0.172  203.616   72.558
  545.250    8.683    0.340    0.136  205.093   71.689
  545.500    8.533    0.323    0.095  207.058   75.503
  545.750    8.091    0.323    0.122  209.021   81.072
  546.000    7.672    0.338    0.163  210.013   80.202
  546.250    7.210    0.352    0.172  207.588   79.039
  546.500    6.898    0.357    0.163  203.701   81.975
  546.750    6.898    0.359    0.165  203.227   89.300
  547.000    6.842    0.360    0.180  204.702   92.821
  547.250    6.663    0.361    0.180  208.130   95.171
  547.500    6.375    0.361    0.178  207.656   98.986
  547.750    5.991    0.365    0.182  205.720  102.212
  548.000    5.731    0.370    0.180  205.734  102.221
  548.250    5.683    0.375    0.179  206.725  101.352
  548.500    5.736    0.378    0.176  210.153  100.774
  548.750    5.843    0.383    0.168  213.580   98.148
