~Version Information Block
VERS .                 2.00:  CWLS LOG ASCII STANDARD - VERSION 2.00
WRAP.                  NO:
~Well Information Block
#MNEM.UNIT        Data Type   Information
#---------- ----------------  -----------
STRT.M           130.2000:
STOP.M           354.0000:
STEP.M             0.3000:
NULL.           -999.2500:
COMP.  :COMPANY
WELL.  :WELL
FLD.   :FIELD
LOC.   :LOCATION
CTRY.  :COUNTRY
PROV.  :PROVINCE
SRVC.  :SERVICE COMPANY
DATE.  :LOG DATE
UWI.   00/10-08-083-05W4/0:UNIQUE WELL ID
~Parameter Information Block
#MNEM.UNIT            Value   Description
#---------- ----------------  -----------
PROJECT.             SURMOUNT:  
SET  .                  RAW:  
~Curve Information Block
#MNEM.UNIT          API CODE    Curve Description
#-----------    ------------    -------------------------------------
DEPT.M                      :   DEPTH
DPHI .V/V                   :   DPHI
DT   .us/m                  :   DT
GR   .API                   :   GR
ILD  .Ohmm                  :   ILD
NPHI .V/V                   :   NPHI
PHID .                      :   Created by graphical digitiser entry.
RHOB .gm/c3                 :   RHOB
~A  Depth           DPHI          DT          GR         ILD        NPHI        PHID        RHOB
# ...
279.6000       -999.2500   -999.2500     32.8573      1.6548      0.3707      0.3684   2042.1304
279.9000       -999.2500   -999.2500     31.5834      1.6114      0.3680      0.3627   2051.4651
280.2000       -999.2500   -999.2500     34.4775      1.6887      0.3708      0.3500   2072.4551
280.5000       -999.2500   -999.2500     39.9584      1.8341      0.3766      0.3486   2074.8606
280.8000       -999.2500   -999.2500     47.3894      2.0105      0.3729      0.3544   2065.2407
281.1000       -999.2500   -999.2500     56.9142      2.1985      0.3692      0.3455   2079.8894
281.4000       -999.2500   -999.2500     66.1251      2.5170      0.3809      0.2814   2185.6863
281.7000       -999.2500   -999.2500     70.9788      2.9028      0.3846      0.2352   2261.9802
282.0000       -999.2500   -999.2500     69.6292      2.9973      0.3816      0.2057   2310.5898
282.3000       -999.2500   -999.2500     62.5612      2.8712      0.3949      0.2847   2180.1780
282.6000       -999.2500   -999.2500     59.3339      2.7060      0.3991      0.3399   2089.2039
282.9000       -999.2500   -999.2500     59.5847      2.5615      0.3929      0.3354   2096.6223
283.2000       -999.2500   -999.2500     65.5603      2.6015      0.3884      0.2969   2160.0955
283.5000       -999.2500   -999.2500     69.3009      2.7285      0.4052      0.2968   2160.3401
283.8000       -999.2500   -999.2500     68.1205      2.9259      0.4016      0.3058   2145.4871
284.1000       -999.2500   -999.2500     75.2100      3.1692      0.4183      0.2725   2200.4419
284.4000       -999.2500   -999.2500     83.6109      3.4177      0.4380      0.2440   2247.3240
284.7000       -999.2500   -999.2500     83.9774      3.5226      0.4533      0.2281   2273.6174
285.0000       -999.2500   -999.2500     75.2326      3.5344      0.4481      0.2701   2204.3391
285.3000       -999.2500   -999.2500     69.0808      3.5172      0.3796      0.2941   2164.7273
285.6000       -999.2500   -999.2500     76.7741      3.4535      0.4043      0.2630   2216.0413
285.9000       -999.2500   -999.2500     79.9581      3.3708      0.4093      0.2514   2235.2000
286.2000       -999.2500   -999.2500     76.0525      3.2882      0.3883      0.2532   2232.2178
286.5000       -999.2500   -999.2500     75.0246      3.1888      0.4281      0.2520   2234.2402
286.8000       -999.2500   -999.2500     68.1322      3.0605      0.4354      0.2660   2211.1758
287.1000       -999.2500   -999.2500     61.4110      2.9220      0.4519      0.2806   2186.9436
287.4000       -999.2500   -999.2500     53.0850      2.7329      0.4164      0.2992   2156.3945
287.7000       -999.2500   -999.2500     50.2086      2.5079      0.3992      0.3211   2120.2461
288.0000       -999.2500   -999.2500     52.7453      2.3933      0.3893      0.3277   2109.2424
288.3000       -999.2500   -999.2500     50.9429      2.3365      0.3828      0.3122   2134.9204
288.6000       -999.2500   -999.2500     51.7064      2.3109      0.3805      0.3120   2135.1284
288.9000       -999.2500   -999.2500     54.2105      2.3756      0.3786      0.3000   2155.0308
289.2000       -999.2500   -999.2500     54.0752      2.4777      0.3861      0.2918   2168.5210
289.5000       -999.2500   -999.2500     49.9487      2.4271      0.3970      0.3034   2149.3394
289.8000       -999.2500   -999.2500     38.5291      2.2730      0.3788      0.3226   2117.7920
290.1000       -999.2500   -999.2500     33.5052      2.1487      0.3798      0.3412   2086.9888
290.4000       -999.2500   -999.2500     35.4720      2.0469      0.3897      0.3514   2070.1770
290.7000       -999.2500   -999.2500     37.5392      1.9456      0.3818      0.3533   2067.1086
291.0000       -999.2500   -999.2500     40.2302      1.8866      0.3797      0.3479   2075.9746
291.3000       -999.2500   -999.2500     40.7616      1.8787      0.3741      0.3420   2085.7446
291.6000       -999.2500   -999.2500     39.0249      1.8856      0.3673      0.3473   2077.0330
291.9000       -999.2500   -999.2500     44.2060      1.8925      0.3647      0.3368   2094.3560
292.2000       -999.2500   -999.2500     48.2037      1.9173      0.3762      0.3224   2118.0977
292.5000       -999.2500   -999.2500     47.1443      2.0078      0.3745      0.3270   2110.4885
292.8000       -999.2500   -999.2500     43.9954      2.0711      0.3861      0.3344   2098.1582
293.1000       -999.2500   -999.2500     40.2694      2.0488      0.3864      0.3364   2094.9072
293.4000       -999.2500   -999.2500     36.3513      1.9598      0.3764      0.3396   2089.7278
293.7000       -999.2500   -999.2500     30.8701      1.8519      0.3922      0.3548   2064.5286
294.0000       -999.2500   -999.2500     26.5792      1.7546      0.3934      0.3645   2048.6396
294.3000       -999.2500   -999.2500     29.3663      1.6858      0.3829      0.3658   2046.4266
294.6000       -999.2500   -999.2500     36.0238      1.6481      0.3584      0.3566   2061.6443
294.9000       -999.2500   -999.2500     43.6854      1.7179      0.3415      0.3462   2078.8291
295.2000       -999.2500   -999.2500     68.6452      1.9736      0.3430      0.3232   2116.7173
295.5000       -999.2500   -999.2500     89.1873      2.4168      0.3867      0.2451   2245.6487
295.8000       -999.2500   -999.2500     94.3666      3.0208      0.4274      0.2252   2278.4331
296.1000       -999.2500   -999.2500     89.7566      3.6101      0.4163      0.2379   2257.4407
296.4000       -999.2500   -999.2500     82.3863      4.0063      0.3895      0.2342   2263.4998
296.7000       -999.2500   -999.2500     78.5416      4.1165      0.3689      0.2212   2285.0515
297.0000       -999.2500   -999.2500     79.5572      4.1091      0.3587      0.2099   2303.7405
297.3000       -999.2500   -999.2500     77.9685      4.0220      0.3521      0.2233   2281.5264
297.6000       -999.2500   -999.2500     72.5353      3.8988      0.3510      0.2317   2267.6870
297.9000       -999.2500   -999.2500     68.2963      3.7756      0.3485      0.2223   2283.1780
298.2000       -999.2500   -999.2500     62.6827      3.6092      0.3553      0.2262   2276.7209
298.5000       -999.2500   -999.2500     56.2555      3.3054      0.3693      0.2514   2235.2173
298.8000       -999.2500   -999.2500     52.4901      2.9493      0.3859      0.2917   2168.7515
299.1000       -999.2500   -999.2500     55.8808      2.6463      0.3814      0.3146   2130.9778
299.4000       -999.2500   -999.2500     62.1364      2.6629      0.3667      0.2833   2182.5894
299.7000       -999.2500   -999.2500     61.2447      2.7908      0.3877      0.2785   2190.5403
300.0000       -999.2500   -999.2500     50.4248      2.7635      0.3948      0.2773   2192.4407
300.3000       -999.2500   -999.2500     38.3018      2.6611      0.3945      0.2860   2178.1711
300.6000       -999.2500   -999.2500     28.6989      2.5349      0.3920      0.3133   2133.0676
300.9000       -999.2500   -999.2500     22.9546      2.3986      0.3586      0.3277   2109.2986
301.2000       -999.2500   -999.2500     22.1903      2.2622      0.3252      0.2976   2158.9868
301.5000       -999.2500   -999.2500     25.9010      2.1259      0.3104      0.2946   2163.9546
301.8000       -999.2500   -999.2500     33.4476      2.0398      0.3104      0.3118   2135.5564
302.1000       -999.2500   -999.2500     38.8679      1.9825      0.3247      0.3114   2136.2458
302.4000       -999.2500   -999.2500     37.8702      1.9270      0.3472      0.3220   2118.7212
302.7000       -999.2500   -999.2500     36.7534      1.8959      0.3576      0.3345   2098.0361
303.0000       -999.2500   -999.2500     39.8129      1.9330      0.3677      0.3349   2097.4651
303.3000       -999.2500   -999.2500     47.1708      1.9981      0.4131      0.3340   2098.8479
303.6000       -999.2500   -999.2500     57.1472      2.1581      0.3690      0.3260   2112.1074
303.9000       -999.2500   -999.2500     68.4056      2.3815      0.3696      0.3085   2141.0503
304.2000       -999.2500   -999.2500     85.2555      2.6557      0.4500      0.2889   2173.2412
