~VERSION INFORMATION
 VERS.                 2.0:   CWLS LOG ASCII STANDARD -VERSION 2.0
 WRAP.                  NO:   ONE LINE PER DEPTH STEP
~WELL INFORMATION BLOCK
#MNEM.UNIT           DATA                    DESCRIPTION OF MNEMONIC
#---------    -------------------            -------------------------------
# Generated from Intellog Unique Number	CS_77_79/WELL/945
WELL.         DOME PETROLEUM LIMITED         : Well_name    - WELL
LOC .         00/10-11-077-16W4/0            : Location     - LOCATION
UWI .         00/10-11-077-16W4/0            : Uwi          - UNIQUE WELL ID
ENTR.         SP                             : Entered      - ENTERED BY
SRVC.         SCHLUMBERGER                   : Scn          - SERVICE COMPANY
STRT.M        310                            : top_depth    - START DEPTH
STOP.M        545                            : bot_depth    - STOP DEPTH
STEP.M        0.25                           : increment    - STEP LENGTH
 NULL. -999.2500:NULL Value
~CURVE INFORMATION BLOCK
#MNEM UNIT       ERCB CURVE CODE    CURVE DESCRIPTION
#-----------   ------------------   ----------------------------------
DEPT.M        00 001 00 00         : DEPTH        - DEPTH
DPHI.V/V      00 890 00 00         : PHID         - DENSITY POROSITY (LIMESTONE)
NPHI.V/V      00 330 00 00         : PHIN         - NEUTRON POROSITY (LIMESTONE)
GR  .API      00 310 00 00         : GR           - GAMMA RAY
ILD .OHMM     00 120 00 00         : RESD         - DEEP RESISTIVITY (DIL)
~PARAMETER INFORMATION
#MNEM.UNIT           DATA             DESCRIPTION OF MNEMONIC
#---------         -----------     ------------------------------
GL  .M        703                  : gl           - GROUND LEVEL ELEVATION
EREF.M        706.8                : kb           - ELEVATION OF DEPTH REFERENCE
DATM.M        703                  : datum        - DATUM ELEVATION
TDD .M        552                  : tdd          - TOTAL DEPTH DRILLER
RUN .         ONE                  : Run          - RUN NUMBER
ENG .         BILL                 : Engineer     - RECORDING ENGINEER
WIT .         JIM                  : Witness      - WITNESSED BY
MUD .         GEL                  : Mud_type     - MUD TYPE
MATR.         LIMESTONE            : Logunit      - NEUTRON MATRIX
TMAX.C        26                   : BHT          - MAXIMUM RECORDED TEMPERATURE
BHTD.M        552                  : BHTDEP       - MAXIMUM RECORDED TEMPERATURE
MATR.         1                    : LOGUNIT      - NEUTRON MATRIX
RMT .C        25                   : MDTP         - TEMPERATURE OF MUD
NEUT.         1                    : NEUTRON      - NEUTRON TYPE
RESI.         0                    : RESIST       - RESISTIVITY TYPE
RMC .OHMM     0.25                 : RMC          - RESISTIVITY OF MUD CAKE
RMF .OHMM     0.25                 : RMF          - RESISTIVITY OF MUD FILTRATE
SUFT.C        15                   : SUFT         - SURFACE TEMPERATURE
~A  DEPTH     PHID     PHIN       GR     RESD
# ...
  353.500    0.260    0.420  104.296    6.906
  353.750    0.260    0.410  104.906    6.908
  354.000    0.262    0.405  101.288    6.909
  354.250    0.265    0.404   91.014    7.042
  354.500    0.269    0.404   83.159    7.043
  354.750    0.291    0.414   78.327    7.178
  355.000    0.295    0.419   69.868    7.454
  355.250    0.286    0.427   66.853    7.741
  355.500    0.288    0.427   69.282    8.189
  355.750    0.292    0.416   70.496    8.665
  356.000    0.298    0.403   73.533    8.997
  356.250    0.335    0.397   74.142    9.699
  356.500    0.353    0.392   72.941    9.701
  356.750    0.366    0.392   68.716    9.704
  357.000    0.371    0.390   63.887    9.526
  357.250    0.372    0.395   59.057    9.008
  357.500    0.369    0.410   56.040    8.053
  357.750    0.344    0.421   54.233    7.474
  358.000    0.308    0.428   56.056    6.807
  358.250    0.286    0.429   62.722    6.085
  358.500    0.274    0.430   66.356    5.543
  358.750    0.262    0.429   74.834    5.241
  359.000    0.258    0.429   82.102    5.443
  359.250    0.264    0.427   85.133    5.978
  359.500    0.278    0.425   84.534    6.946
  359.750    0.305    0.423   77.287    7.630
  360.000    0.325    0.423   73.664    8.072
  360.250    0.343    0.423   67.020    8.541
  360.500    0.360    0.424   62.797    8.704
  360.750    0.371    0.427   60.988    8.231
  361.000    0.370    0.431   59.789    7.783
  361.250    0.356    0.434   64.638    7.499
  361.500    0.332    0.436   68.274    7.224
  361.750    0.302    0.437   71.910    6.961
  362.000    0.285    0.437   79.178    6.962
  362.250    0.292    0.431   84.024    6.964
  362.500    0.309    0.424   87.058    7.650
  362.750    0.316    0.411   86.459    7.796
  363.000    0.322    0.395   82.233    8.404
  363.250    0.326    0.391   77.403    8.406
  363.500    0.306    0.391   74.992    7.949
  363.750    0.294    0.397   78.634    7.517
  364.000    0.286    0.398   79.850    6.976
  364.250    0.272    0.392   81.067    6.120
  364.500    0.278    0.391   81.074    5.370
  364.750    0.275    0.396   79.875    5.371
  365.000    0.286    0.411   77.465    5.578
  365.250    0.283    0.426   76.865    5.685
  365.500    0.259    0.440   78.691    5.903
  365.750    0.260    0.442   80.511    7.391
  366.000    0.248    0.437   79.315   10.954
  366.250    0.255    0.429   77.505   12.491
  366.500    0.294    0.380   72.070   14.243
  366.750    0.316    0.352   65.424   15.939
  367.000    0.305    0.336   58.779   16.864
  367.250    0.298    0.317   52.133   16.868
  367.500    0.294    0.296   47.305   16.253
  367.750    0.288    0.292   42.472   15.083
  368.000    0.290    0.301   36.433   13.739
  368.250    0.328    0.310   34.022   12.515
  368.500    0.336    0.328   38.267   12.286
  368.750    0.338    0.336   40.086   12.061
  369.000    0.336    0.342   46.145   12.063
  369.250    0.335    0.341   47.967   11.842
  369.500    0.337    0.340   49.791   11.625
  369.750    0.334    0.357   49.798   11.849
  370.000    0.313    0.362   47.991   12.077
  370.250    0.307    0.363   44.981   11.206
  370.500    0.297    0.357   43.778   11.001
  370.750    0.294    0.357   42.575   11.211
  371.000    0.316    0.360   42.587   10.802
  371.250    0.325    0.369   43.802   10.214
  371.500    0.329    0.383   47.441    9.843
  371.750    0.329    0.394   49.867    9.845
  372.000    0.318    0.406   53.503    9.846
  372.250    0.317    0.410   56.539    9.849
  372.500    0.320    0.404   57.148    9.851
  372.750    0.315    0.399   57.160    9.670
  373.000    0.321    0.393   54.750    9.494
  373.250    0.308    0.388   53.548    9.320
  373.500    0.319    0.386   53.553    9.149
  373.750    0.324    0.387   54.169    8.982
  374.000    0.333    0.387   55.386    8.984
  374.250    0.338    0.394   58.419    8.985
  374.500    0.353    0.394   60.848    8.988
  374.750    0.359    0.392   61.464    8.990
  375.000    0.365    0.387   60.866    8.992
  375.250    0.373    0.388   60.267    8.994
  375.500    0.376    0.389   57.859    8.996
  375.750    0.358    0.392   57.865    8.999
  376.000    0.356    0.392   57.871    9.000
  376.250    0.358    0.394   58.487    9.173
  376.500    0.355    0.395   59.100    9.525
  376.750    0.360    0.395   59.108    9.527
  377.000    0.358    0.395   58.517    9.711
  377.250    0.353    0.391   57.917    9.712
  377.500    0.359    0.389   57.923   10.085
  377.750    0.347    0.390   58.536   10.473
  378.000    0.338    0.394   58.544   10.475
  378.250    0.334    0.395   57.346   10.676
  378.500    0.337    0.394   58.565   10.677
  378.750    0.346    0.394   59.780   10.681
  379.000    0.338    0.395   61.002   10.683
  379.250    0.334    0.399   61.614   10.487
  379.500    0.336    0.400   61.621   10.295
  379.750    0.333    0.400   62.232   10.107
  380.000    0.335    0.391   61.639   10.301
  380.250    0.356    0.390   60.435   10.303
  380.500    0.334    0.392   59.234   10.305
  380.750    0.331    0.396   59.853   10.307
  381.000    0.327    0.395   60.463   10.505
  381.250    0.333    0.389   61.677   10.312
  381.500    0.338    0.385   63.504   10.510
  381.750    0.337    0.383   64.114   10.711
  382.000    0.335    0.381   61.707   10.714
  382.250    0.329    0.386   59.898   10.919
  382.500    0.323    0.387   57.492   10.922
  382.750    0.323    0.384   56.894   10.924
  383.000    0.327    0.384   56.294   10.724
  383.250    0.333    0.391   55.700   10.726
  383.500    0.349    0.401   55.707   10.932
  383.750    0.357    0.407   55.717   10.934
  384.000    0.363    0.412   56.938   11.143
  384.250    0.364    0.409   55.125   11.357
  384.500    0.363    0.403   56.953   11.574
  384.750    0.365    0.399   58.776   11.578
  385.000    0.361    0.393   59.389   11.799
  385.250    0.344    0.388   60.005   11.802
  385.500    0.335    0.390   60.011   11.804
  385.750    0.328    0.396   59.412   11.807
  386.000    0.324    0.398   58.209   11.810
  386.250    0.337    0.397   56.404   11.594
  386.500    0.335    0.393   55.806   11.382
  386.750    0.337    0.390   54.001   10.966
  387.000    0.356    0.392   52.799   10.765
  387.250    0.356    0.398   52.810   10.568
  387.500    0.346    0.402   52.818   10.182
  387.750    0.336    0.402   52.826    9.996
  388.000    0.334    0.394   52.231    9.999
  388.250    0.337    0.388   51.636   10.000
  388.500    0.353    0.380   51.035    9.818
  388.750    0.365    0.380   48.020    9.820
  389.000    0.376    0.382   45.004    9.822
  389.250    0.363    0.387   42.596    9.825
  389.500    0.357    0.392   41.394    9.645
  389.750    0.348    0.394   40.794    9.647
  390.000    0.340    0.386   39.593    9.470
  390.250    0.337    0.381   38.392    9.296
  390.500    0.338    0.380   37.191    9.298
  390.750    0.326    0.384   37.199    9.301
  391.000    0.330    0.384   37.208    9.303
  391.250    0.330    0.382   37.820    9.306
  391.500    0.329    0.378   37.829    9.484
  391.750    0.337    0.378   38.441    9.309
  392.000    0.332    0.383   39.666    9.140
  392.250    0.336    0.390   40.882    9.141
  392.500    0.339    0.393   41.495    9.493
  392.750    0.345    0.395   42.106    9.495
  393.000    0.343    0.396   42.719    9.678
  393.250    0.345    0.398   42.726    9.680
  393.500    0.350    0.405   39.106    9.682
  393.750    0.344    0.410   37.906    9.683
  394.000    0.349    0.417   37.309    9.686
  394.250    0.354    0.413   37.922    9.872
  394.500    0.357    0.408   38.535    9.874
  394.750    0.361    0.397   39.147    9.876
  395.000    0.363    0.393   40.367    9.878
  395.250    0.374    0.384   41.587    9.698
  395.500    0.366    0.378   43.411    9.700
  395.750    0.361    0.373   44.626    9.702
  396.000    0.361    0.368   44.032    9.705
  396.250    0.368    0.374   43.434    9.526
  396.500    0.356    0.378   42.835    9.529
  396.750    0.346    0.385   42.849    9.712
