~VERSION INFORMATION
 VERS.                 2.0:   CWLS LOG ASCII STANDARD -VERSION 2.0
 WRAP.                  NO:   ONE LINE PER DEPTH STEP
~WELL INFORMATION BLOCK
#MNEM.UNIT           DATA                    DESCRIPTION OF MNEMONIC
#---------    -------------------            -------------------------------
# Generated from Intellog Unique Number	CW_76_78/WELL/1033
WELL.         SUNCOR DROWNED 12-29           : Well_name    - WELL
LOC .         00/12-29-076-22W4/0            : Location     - LOCATION
UWI .         00/12-29-076-22W4/0            : Uwi          - UNIQUE WELL ID
ENTR.         JAYE                           : Entered      - ENTERED BY
SRVC.         SCHLUMBERGER                   : Scn          - SERVICE COMPANY
DATE.         25 FEB 83                      : Date         - LOG DATE
STRT.M        470                            : top_depth    - START DEPTH
STOP.M        690                            : bot_depth    - STOP DEPTH
STEP.M        0.25                           : increment    - STEP LENGTH
 NULL. -999.2500:NULL Value
~CURVE INFORMATION BLOCK
#MNEM UNIT       ERCB CURVE CODE    CURVE DESCRIPTION
#-----------   ------------------   ----------------------------------
DEPT.M        00 001 00 00         : DEPTH        - DEPTH
ILD .OHMM     00 120 00 00         : RESD         - DEEP RESISTIVITY (DIL)
NPHI.V/V      00 330 00 00         : PHIN         - NEUTRON POROSITY (SANDSTONE)
DPHI.V/V      00 890 00 00         : PHID         - DENSITY POROSITY (SANDSTONE)
GR  .API      00 310 00 00         : GR           - GAMMA RAY
CALI.MM       00 280 01 00         : CAL          - CALIPER
~PARAMETER INFORMATION
#MNEM.UNIT           DATA             DESCRIPTION OF MNEMONIC
#---------         -----------     ------------------------------
GL  .M        748.9                : gl           - GROUND LEVEL ELEVATION
EREF.M        752.9                : kb           - ELEVATION OF DEPTH REFERENCE
DATM.M        748.9                : datum        - DATUM ELEVATION
TDD .M        1180                 : tdd          - TOTAL DEPTH DRILLER
RUN .         ONE                  : Run          - RUN NUMBER
ENG .         GAGGING              : Engineer     - RECORDING ENGINEER
WIT .         LYSZKIEWICH          : Witness      - WITNESSED BY
BASE.         EDM                  : Branch       - HOME BASE OF LOGGING UNIT
MUD .         GEL CHEM             : Mud_type     - MUD TYPE
MATR.         SANDSTONE            : Logunit      - NEUTRON MATRIX
TMAX.C        34.4                 : BHT          - MAXIMUM RECORDED TEMPERATURE
BHTD.M        1177                 : BHTDEP       - MAXIMUM RECORDED TEMPERATURE
RMT .C        16.6                 : MDTP         - TEMPERATURE OF MUD
MUDD.KG/M     9.5                  : MWT          - MUD DENSITY
NEUT.         1                    : NEUTRON      - NEUTRON TYPE
RESI.         0                    : RESIST       - RESISTIVITY TYPE
RM  .OHMM     3.648                : RM           - RESISTIVITY OF MUD
RMC .OHMM     0                    : RMC          - RESISTIVITY OF MUD CAKE
RMF .OHMM     2.673                : RMF          - RESISTIVITY OF MUD FILTRATE
SUFT.C        0                    : SUFT         - SURFACE TEMPERATURE
~A  DEPTH     RESD     PHIN     PHID       GR      CAL
# ...
  543.000    4.082    0.498    0.260   75.305  219.530
  543.250    4.079    0.481    0.278   67.688  218.813
  543.500    4.162    0.469    0.256   62.239  218.303
  543.750    4.425    0.446    0.195   65.156  218.000
  544.000    4.847    0.359    0.141   66.832  217.905
  544.250    5.271    0.333    0.191   67.765  217.909
  544.500    5.449    0.443    0.251   66.592  218.224
  544.750    5.517    0.483    0.267   66.967  218.748
  545.000    5.463    0.479    0.260   68.767  218.960
  545.250    5.398    0.453    0.251   71.497  219.071
  545.500    5.158    0.458    0.255   72.678  219.076
  545.750    4.893    0.476    0.260   71.071  219.496
  546.000    4.710    0.458    0.252   72.500  219.810
  546.250    4.628    0.452    0.244   75.663  220.230
  546.500    4.583    0.469    0.255   78.022  220.545
  546.750    4.597    0.491    0.253   76.476  221.377
  547.000    4.664    0.470    0.244   76.232  222.520
  547.250    4.714    0.452    0.231   76.669  223.868
  547.500    4.746    0.466    0.221   76.611  225.733
  547.750    4.682    0.483    0.221   76.243  228.837
  548.000    4.524    0.456    0.231   74.636  233.181
  548.250    4.364    0.444    0.239   72.657  240.416
  548.500    4.241    0.435    0.252   71.174  246.824
  548.750    4.144    0.420    0.264   69.814  259.015
  549.000    4.012    0.455    0.275   68.827  264.392
  549.250    3.877    0.475    0.287   69.078  256.446
  549.500    3.753    0.472    0.274   71.127  245.402
  549.750    3.634    0.480    0.253   74.228  236.941
  550.000    3.544    0.486    0.231   76.710  224.039
  550.250    3.562    0.495    0.219   78.697  217.333
  550.500    3.689    0.508    0.233   81.179  213.932
  550.750    3.937    0.489    0.253   78.332  211.976
  551.000    4.329    0.473    0.270   70.591  211.260
  551.250    4.636    0.441    0.280   69.169  211.679
  551.500    5.042    0.419    0.262   71.156  212.201
  551.750    5.360    0.422    0.247   73.452  212.827
  552.000    5.582    0.441    0.223   74.013  213.349
  552.250    5.632    0.460    0.236   73.707  213.665
  552.500    5.606    0.465    0.228   76.313  214.292
  552.750    5.429    0.467    0.237   74.458  214.505
  553.000    5.255    0.449    0.226   69.567  214.510
  553.250    5.183    0.443    0.222   68.456  214.621
  553.500    5.142    0.434    0.224   70.504  214.834
  553.750    5.168    0.433    0.224   75.031  214.839
  554.000    5.166    0.463    0.227   77.389  215.154
  554.250    5.124    0.478    0.239   74.046  215.160
  554.500    5.083    0.487    0.255   73.369  215.580
  554.750    4.995    0.469    0.240   74.116  216.309
  555.000    4.937    0.470    0.193   74.801  217.244
  555.250    4.943    0.455    0.175   74.681  220.451
  555.500    4.968    0.414    0.158   72.640  222.316
  555.750    5.069    0.287    0.112   65.580  222.426
  556.000    5.318    0.248    0.070   57.715  221.916
  556.250    6.482    0.245    0.068   62.366  220.786
  556.500    8.774    0.280    0.110   68.132  219.966
  556.750   10.186    0.331    0.145   73.402  220.076
  557.000    9.661    0.408    0.184   73.220  220.081
  557.250    7.902    0.462    0.235   68.143  220.707
  557.500    6.427    0.463    0.256   69.014  221.643
  557.750    5.357    0.448    0.237   70.814  222.681
  558.000    4.696    0.456    0.218   72.987  224.960
  558.250    4.226    0.468    0.217   73.363  226.617
  558.500    4.115    0.470    0.216   71.817  229.618
  558.750    4.182    0.459    0.210   68.971  233.032
  559.000    4.299    0.435    0.204   69.845  236.859
  559.250    4.436    0.436    0.202   70.403  242.751
  559.500    4.543    0.469    0.193   74.186  248.024
  559.750    4.687    0.480    0.210   69.047  241.525
  560.000    4.899    0.463    0.239   67.192  235.644
  560.250    5.112    0.436    0.246   70.418  236.580
  560.500    5.404    0.452    0.239   73.705  238.651
  560.750    5.618    0.468    0.221   75.939  240.517
  561.000    5.552    0.443    0.200   73.093  241.349
  561.250    5.237    0.435    0.297   69.627  241.355
  561.500    5.041    0.461    0.328   67.524  240.948
  561.750    4.718    0.453    0.327   69.510  242.090
  562.000    4.270    0.447    0.408   76.206  246.433
  562.250    3.923    0.537    0.434   79.927  255.733
  562.500    3.720    0.573    0.363   77.081  242.212
  562.750    3.725    0.502    0.276   71.322  224.973
  563.000    4.229    0.467    0.206   72.069  219.919
  563.250    4.854    0.452    0.184   69.966  220.649
  563.500    5.520    0.401    0.170   69.289  222.204
  563.750    6.267    0.407    0.186   71.151  223.861
  564.000    6.370    0.420    0.205   75.554  225.520
  564.250    6.075    0.423    0.219   79.213  226.972
  564.500    5.793    0.431    0.219   78.907  228.837
  564.750    5.505    0.445    0.214   76.866  234.213
  565.000    5.270    0.443    0.211   77.427  242.376
  565.250    5.140    0.438    0.205   78.608  249.405
  565.500    5.137    0.450    0.197   80.533  254.574
  565.750    5.164    0.442    0.196   79.050  255.096
  566.000    5.199    0.441    0.207   77.505  254.896
  566.250    5.197    0.440    0.205   77.570  256.452
  566.500    5.213    0.436    0.192   78.874  256.664
  566.750    5.279    0.426    0.196   79.869  250.990
  567.000    5.325    0.451    0.199   79.316  245.214
  567.250    5.333    0.452    0.200   73.867  243.052
  567.500    5.339    0.443    0.208   71.392  244.607
  567.750    5.347    0.444    0.197   72.945  249.157
  568.000    5.284    0.467    0.183   76.109  254.739
  568.250    5.144    0.459    0.198   78.467  253.403
  568.500    5.055    0.420    0.207   80.887  250.207
  568.750    5.033    0.438    0.194   77.668  248.045
  569.000    5.059    0.454    0.175   76.247  248.981
  569.250    5.075    0.476    0.191   79.411  249.504
  569.500    5.082    0.490    0.209   77.122  245.482
  569.750    5.136    0.486    0.224   73.161  229.276
  570.000    5.201    0.453    0.222   71.429  221.537
  570.250    5.267    0.435    0.214   70.318  218.549
  570.500    5.557    0.445    0.203   69.640  216.593
  570.750    6.087    0.426    0.181   69.210  216.186
  571.000    6.496    0.357    0.158   69.585  216.192
  571.250    6.565    0.378    0.190   71.633  215.992
  571.500    6.736    0.426    0.214   75.541  215.688
  571.750    6.721    0.441    0.235   79.758  216.418
  572.000    6.494    0.429    0.243   80.071  217.146
  572.250    6.216    0.433    0.228   79.455  218.289
  572.500    6.007    0.439    0.200   81.751  219.740
  572.750    5.827    0.446    0.221   84.667  222.018
  573.000    5.705    0.455    0.231   85.414  224.709
  573.250    5.628    0.442    0.223   81.205  228.123
  573.500    5.603    0.439    0.209   81.456  232.569
  573.750    5.580    0.438    0.193   82.018  237.119
  574.000    5.555    0.436    0.193   80.597  240.326
  574.250    5.572    0.432    0.212   78.122  243.225
  574.500    5.580    0.426    0.213   76.515  246.121
  574.750    5.608    0.416    0.209   76.023  250.878
  575.000    5.563    0.404    0.200   75.778  255.738
  575.250    5.561    0.429    0.193   75.472  258.841
  575.500    5.557    0.445    0.199   75.290  262.565
  575.750    5.523    0.438    0.206   74.798  266.909
  576.000    5.521    0.422    0.205   73.996  270.425
  576.250    5.537    0.413    0.203   75.859  273.427
  576.500    5.554    0.430    0.210   77.721  276.221
  576.750    5.541    0.429    0.217   80.823  277.466
  577.000    5.540    0.428    0.213   79.897  278.299
  577.250    5.536    0.434    0.199   75.874  278.408
  577.500    5.584    0.451    0.203   76.435  276.452
  577.750    5.708    0.429    0.204   77.554  274.806
  578.000    5.833    0.413    0.193   78.053  273.264
  578.250    5.930    0.424    0.189   77.809  272.753
  578.500    5.994    0.426    0.194   77.379  271.933
  578.750    6.059    0.411    0.187   76.640  271.216
  579.000    6.099    0.415    0.181   75.900  270.707
  579.250    6.211    0.435    0.182   74.416  270.609
