~VERSION INFORMATION
 VERS.                 2.0:   CWLS LOG ASCII STANDARD -VERSION 2.0
 WRAP.                  NO:   ONE LINE PER DEPTH STEP
~WELL INFORMATION BLOCK
#MNEM.UNIT           DATA                    DESCRIPTION OF MNEMONIC
#---------    -------------------            -------------------------------
# Generated from Intellog Unique Number	CW_73_75/WELL/1051
WELL.         CHIEFCO LILY LAKE 13-07        : Well_name    - WELL
LOC .         00/13-07-075-05W5/0            : Location     - LOCATION
UWI .         00/13-07-075-05W5/0            : Uwi          - UNIQUE WELL ID
ENTR.         JAYE                           : Entered      - ENTERED BY
SRVC.         SCHLUMBERGER                   : Scn          - SERVICE COMPANY
DATE.         14 JAN 84                      : Date         - LOG DATE
STRT.M        625                            : top_depth    - START DEPTH
STOP.M        870                            : bot_depth    - STOP DEPTH
STEP.M        0.25                           : increment    - STEP LENGTH
 NULL. -999.2500:NULL Value
~CURVE INFORMATION BLOCK
#MNEM UNIT       ERCB CURVE CODE    CURVE DESCRIPTION
#-----------   ------------------   ----------------------------------
DEPT.M        00 001 00 00         : DEPTH        - DEPTH
ILD .OHMM     00 120 00 00         : RESD         - DEEP RESISTIVITY (DIL)
NPHI.V/V      00 330 00 00         : PHIN         - NEUTRON POROSITY (SANDSTONE)
DPHI.V/V      00 890 00 00         : PHID         - DENSITY POROSITY (SANDSTONE)
GR  .API      00 310 00 00         : GR           - GAMMA RAY
CALI.MM       00 280 01 00         : CAL          - CALIPER
~PARAMETER INFORMATION
#MNEM.UNIT           DATA             DESCRIPTION OF MNEMONIC
#---------         -----------     ------------------------------
GL  .M        873.9                : gl           - GROUND LEVEL ELEVATION
EREF.M        876                  : kb           - ELEVATION OF DEPTH REFERENCE
DATM.M        873.9                : datum        - DATUM ELEVATION
TDD .M        889                  : tdd          - TOTAL DEPTH DRILLER
RUN .         ONE                  : Run          - RUN NUMBER
ENG .         BRANDSTROM           : Engineer     - RECORDING ENGINEER
WIT .         KUCHINSKI            : Witness      - WITNESSED BY
BASE.         5202                 : Branch       - HOME BASE OF LOGGING UNIT
MUD .         GEL CHEM             : Mud_type     - MUD TYPE
MATR.         SANDSTONE            : Logunit      - NEUTRON MATRIX
TMAX.C        31                   : BHT          - MAXIMUM RECORDED TEMPERATURE
BHTD.M        890.5                : BHTDEP       - MAXIMUM RECORDED TEMPERATURE
RMT .C        31                   : MDTP         - TEMPERATURE OF MUD
MUDD.KG/M     1110                 : MWT          - MUD DENSITY
NEUT.         1                    : NEUTRON      - NEUTRON TYPE
RESI.         0                    : RESIST       - RESISTIVITY TYPE
RM  .OHMM     7.829                : RM           - RESISTIVITY OF MUD
RMC .OHMM     0                    : RMC          - RESISTIVITY OF MUD CAKE
RMF .OHMM     8.115                : RMF          - RESISTIVITY OF MUD FILTRATE
SUFT.C        0                    : SUFT         - SURFACE TEMPERATURE
~A  DEPTH     RESD     PHIN     PHID       GR      CAL
  625.000    1.790    0.500    0.224   95.337  201.968
  625.250    1.824    0.496    0.221   96.293  207.287
  625.500    1.838    0.506    0.210   99.421  209.299
  625.750    1.839    0.574    0.208  101.061  208.932
  626.000    1.839    0.583    0.225  102.331  206.918
  626.250    1.826    0.567    0.223   97.897  208.410
  626.500    1.819    0.538    0.216   97.186  209.905
  626.750    1.823    0.525    0.218  100.312  211.506
  627.000    1.875    0.540    0.217  105.858  210.107
  627.250    1.937    0.536    0.209  109.854  207.060
  627.500    1.981    0.545    0.197  107.654  203.800
  627.750    2.008    0.536    0.214  102.476  205.715
  628.000    2.058    0.517    0.213   98.540  207.722
  628.250    2.097    0.514    0.209  104.023  206.635
  628.500    2.166    0.532    0.209  106.161  204.207
  628.750    2.262    0.533    0.211  103.277  201.574
  629.000    2.440    0.532    0.220   90.724  199.761
  629.250    2.607    0.538    0.227   78.231  198.365
  629.500    2.785    0.414    0.229   67.662  197.280
  629.750    2.953    0.400    0.225   62.610  196.497
  630.000    2.987    0.425    0.214   70.078  194.801
  630.250    2.926    0.482    0.198   80.645  193.809
  630.500    2.899    0.496    0.213   87.243  192.419
  630.750    3.022    0.488    0.231   81.942  191.433
  631.000    3.150    0.451    0.243   73.852  190.649
  631.250    3.309    0.408    0.235   70.659  189.571
  631.500    3.417    0.395    0.225   70.566  189.102
  631.750    3.431    0.439    0.246   71.525  188.732
  632.000    3.292    0.469    0.267   65.913  188.576
  632.250    3.201    0.470    0.272   60.799  188.427
  632.500    3.268    0.457    0.277   57.915  188.369
  632.750    3.420    0.439    0.273   58.193  188.414
  633.000    3.479    0.419    0.266   60.206  189.083
  633.250    3.480    0.406    0.254   60.855  190.473
  633.500    3.422    0.394    0.237   65.347  192.591
  633.750    3.352    0.502    0.217   77.215  196.049
  634.000    3.315    0.528    0.207   77.927  197.441
  634.250    3.379    0.398    0.183   54.836  197.283
  634.500    3.529    0.329    0.158   46.870  196.714
  634.750    3.763    0.353    0.168   62.397  196.245
  635.000    4.104    0.405    0.177   72.405  196.198
  635.250    4.295    0.413    0.157   53.592  196.140
  635.500    4.129    0.314    0.123   51.515  196.187
  635.750    3.895    0.393    0.135   65.986  196.240
  636.000    3.466    0.448    0.180   92.234  196.389
  636.250    3.173    0.506    0.234  102.429  196.345
  636.500    3.039    0.531    0.261   91.860  196.287
  636.750    3.085    0.509    0.283   75.341  196.330
  637.000    3.272    0.484    0.314   61.485  196.488
  637.250    3.502    0.476    0.338   51.042  197.156
  637.500    3.576    0.460    0.348   45.304  198.138
  637.750    3.509    0.445    0.337   52.651  199.318
  638.000    3.380    0.433    0.293   63.029  200.098
  638.250    3.305    0.461    0.264   73.968  200.559
  638.500    3.306    0.490    0.234   81.746  200.602
  638.750    3.356    0.495    0.249   80.969  200.551
  639.000    3.402    0.476    0.280   78.892  200.611
  639.250    3.428    0.462    0.300   83.697  200.548
  639.500    3.435    0.470    0.291   88.684  200.700
  639.750    3.442    0.472    0.285   86.670  200.848
  640.000    3.404    0.443    0.276   81.367  201.111
  640.250    3.322    0.428    0.263   76.747  201.153
  640.500    3.279    0.445    0.247   79.938  200.173
  640.750    3.348    0.464    0.263   84.492  198.572
  641.000    3.464    0.450    0.286   76.464  198.002
  641.250    3.591    0.442    0.286   73.270  198.768
  641.500    3.729    0.434    0.279   77.453  200.576
  641.750    3.808    0.435    0.266   78.351  202.390
  642.000    3.830    0.441    0.249   77.636  203.673
  642.250    3.809    0.451    0.252   80.021  204.648
  642.500    3.781    0.484    0.244   86.558  204.286
  642.750    3.718    0.503    0.237   91.486  203.410
  643.000    3.670    0.517    0.247   88.169  202.629
  643.250    3.664    0.452    0.261   74.313  201.546
  643.500    3.699    0.407    0.273   68.269  200.660
  643.750    3.721    0.435    0.263   65.880  199.779
  644.000    3.735    0.473    0.250   66.098  199.105
  644.250    3.764    0.492    0.243   65.816  198.441
  644.500    3.765    0.498    0.243   68.201  198.276
  644.750    3.787    0.490    0.242   72.011  198.121
  645.000    3.830    0.480    0.253   67.578  197.755
  645.250    3.817    0.482    0.274   65.624  197.494
  645.500    3.796    0.482    0.292   69.498  197.748
  645.750    3.642    0.471    0.290   70.517  198.526
  646.000    3.340    0.450    0.256   69.804  199.500
  646.250    2.945    0.478    0.181   75.784  200.892
  646.500    2.660    0.514    0.180   92.923  203.629
  646.750    2.533    0.544    0.208  118.054  207.499
  647.000    2.458    0.563    0.203  113.001  211.476
  647.250    2.473    0.514    0.173  109.001  216.176
  647.500    2.588    0.482    0.175  106.551  218.804
  647.750    2.822    0.454    0.189  102.990  219.685
  648.000    3.027    0.442    0.201  100.475  214.048
  648.250    3.185    0.483    0.259   97.281  207.697
  648.500    3.365    0.510    0.290   88.200  202.581
  648.750    3.449    0.460    0.282   75.150  199.325
  649.000    3.535    0.422    0.250   64.953  197.718
  649.250    3.616    0.445    0.261   56.181  196.630
  649.500    3.692    0.460    0.297   51.375  196.888
  649.750    3.770    0.449    0.310   46.570  197.659
  650.000    3.864    0.437    0.312   45.177  198.952
  650.250    3.961    0.429    0.309   48.923  199.410
  650.500    4.029    0.419    0.297   54.160  199.566
  650.750    4.083    0.406    0.276   53.633  199.309
  651.000    4.146    0.413    0.270   47.030  198.946
  651.250    4.218    0.433    0.290   42.720  198.679
  651.500    4.274    0.424    0.304   40.644  198.316
  651.750    4.291    0.404    0.307   40.485  198.057
  652.000    4.316    0.415    0.301   42.501  197.800
  652.250    4.325    0.429    0.293   43.705  197.747
  652.500    4.317    0.426    0.290   45.532  197.487
  652.750    4.270    0.412    0.287   47.300  197.533
  653.000    4.246    0.406    0.289   47.145  197.480
  653.250    4.255    0.411    0.296   45.870  197.433
  653.500    4.280    0.400    0.309   42.925  197.482
  653.750    4.305    0.406    0.331   40.476  197.731
  654.000    4.297    0.419    0.328   39.575  197.987
  654.250    4.290    0.425    0.317   40.349  197.929
  654.500    4.282    0.422    0.314   41.809  197.460
  654.750    4.275    0.432    0.315   42.581  196.787
  655.000    4.252    0.445    0.310   43.290  196.842
  655.250    4.260    0.462    0.306   43.568  196.888
  655.500    4.269    0.462    0.306   42.976  197.252
  655.750    4.294    0.436    0.315   41.397  197.408
  656.000    4.327    0.426    0.322   39.818  197.550
  656.250    4.394    0.442    0.323   38.976  197.811
  656.500    4.436    0.463    0.327   38.072  197.963
  656.750    4.428    0.435    0.334   37.297  197.911
  657.000    4.412    0.430    0.341   37.148  197.956
  657.250    4.339    0.449    0.336   37.482  197.908
  657.500    4.266    0.436    0.329   37.393  198.055
  657.750    4.219    0.424    0.324   37.171  198.108
  658.000    4.212    0.414    0.320   36.826  198.256
  658.250    4.236    0.419    0.316   36.236  198.523
  658.500    4.301    0.430    0.313   36.267  198.463
  658.750    4.392    0.419    0.304   36.294  198.305
  659.000    4.536    0.365    0.292   38.185  198.250
  659.250    4.614    0.320    0.253   43.605  198.410
  659.500    4.632    0.344    0.244   47.788  198.454
  659.750    4.538    0.392    0.273   48.936  198.499
  660.000    4.354    0.406    0.295   49.955  198.656
  660.250    4.155    0.404    0.278   56.368  198.802
  660.500    4.055    0.417    0.258   66.687  199.369
  660.750    3.980    0.438    0.249   87.854  200.968
  661.000    3.980    0.447    0.240  100.963  202.051
  661.250    3.974    0.449    0.240   97.771  202.721
