~VERSION INFORMATION
 VERS.                 2.0:   CWLS LOG ASCII STANDARD -VERSION 2.0
 WRAP.                  NO:   ONE LINE PER DEPTH STEP
~WELL INFORMATION BLOCK
#MNEM.UNIT           DATA                    DESCRIPTION OF MNEMONIC
#---------    -------------------            -------------------------------
# Generated from Intellog Unique Number	CS_67_68/WELL/838
WELL.         FISHER CREEK                   : Well_name    - WELL
LOC .         00/11-16-068-05W4/0            : Location     - LOCATION
UWI .         00/11-16-068-05W4/0            : Uwi          - UNIQUE WELL ID
ENTR.         SP                             : Entered      - ENTERED BY
SRVC.         SCHLUMBERGER                   : Scn          - SERVICE COMPANY
STRT.M        335                            : top_depth    - START DEPTH
STOP.M        555                            : bot_depth    - STOP DEPTH
STEP.M        0.25                           : increment    - STEP LENGTH
 NULL. -999.2500:NULL Value
~CURVE INFORMATION BLOCK
#MNEM UNIT       ERCB CURVE CODE    CURVE DESCRIPTION
#-----------   ------------------   ----------------------------------
DEPT.M        00 001 00 00         : DEPTH        - DEPTH
ILD .OHMM     00 120 00 00         : RESD         - DEEP RESISTIVITY (DIL)
DPHI.V/V      00 890 00 00         : PHID         - DENSITY POROSITY (LIMESTONE)
NPHI.V/V      00 330 00 00         : PHIN         - NEUTRON POROSITY (LIMESTONE)
GR  .API      00 310 00 00         : GR           - GAMMA RAY
~PARAMETER INFORMATION
#MNEM.UNIT           DATA             DESCRIPTION OF MNEMONIC
#---------         -----------     ------------------------------
GL  .M        683.92               : gl           - GROUND LEVEL ELEVATION
EREF.M        687.58               : kb           - ELEVATION OF DEPTH REFERENCE
DATM.M        683.92               : datum        - DATUM ELEVATION
TDD .M        568                  : tdd          - TOTAL DEPTH DRILLER
RUN .         ONE                  : Run          - RUN NUMBER
ENG .         BILL                 : Engineer     - RECORDING ENGINEER
WIT .         JIM                  : Witness      - WITNESSED BY
MUD .         GEL                  : Mud_type     - MUD TYPE
MATR.         LIMESTONE            : Logunit      - NEUTRON MATRIX
TMAX.C        24                   : BHT          - MAXIMUM RECORDED TEMPERATURE
BHTD.M        568                  : BHTDEP       - MAXIMUM RECORDED TEMPERATURE
MATR.         1                    : LOGUNIT      - NEUTRON MATRIX
RMT .C        25                   : MDTP         - TEMPERATURE OF MUD
NEUT.         1                    : NEUTRON      - NEUTRON TYPE
RESI.         0                    : RESIST       - RESISTIVITY TYPE
RMC .OHMM     0.25                 : RMC          - RESISTIVITY OF MUD CAKE
RMF .OHMM     0.25                 : RMF          - RESISTIVITY OF MUD FILTRATE
SUFT.C        15                   : SUFT         - SURFACE TEMPERATURE
~A  DEPTH     RESD     PHID     PHIN       GR
# ...
  422.000    5.517    0.324    0.465   59.887
  422.250    5.437    0.320    0.451   60.312
  422.500    5.428    0.318    0.443   57.404
  422.750    5.470    0.321    0.451   55.647
  423.000    5.523    0.334    0.470   55.406
  423.250    5.576    0.348    0.486   56.498
  423.500    5.599    0.349    0.493   58.559
  423.750    5.675    0.342    0.477   60.621
  424.000    5.751    0.338    0.474   59.409
  424.250    5.851    0.334    0.466   56.380
  424.500    5.919    0.330    0.452   58.805
  424.750    5.888    0.328    0.440   59.412
  425.000    5.856    0.328    0.450   55.413
  425.250    5.814    0.340    0.457   55.717
  425.500    5.805    0.350    0.445   58.263
  425.750    5.839    0.338    0.439   58.264
  426.000    5.885    0.327    0.450   58.447
  426.250    5.942    0.326    0.462   59.296
  426.500    5.988    0.333    0.470   59.964
  426.750    6.012    0.334    0.472   60.874
  427.000    6.037    0.324    0.461   62.147
  427.250    6.016    0.316    0.457   61.542
  427.500    6.028    0.313    0.458   62.149
  427.750    6.019    0.322    0.457   65.423
  428.000    5.998    0.315    0.456   68.090
  428.250    5.988    0.305    0.463   64.334
  428.500    6.024    0.299    0.469   63.304
  428.750    6.071    0.291    0.476   66.881
  429.000    6.107    0.281    0.493   70.336
  429.250    6.143    0.272    0.500   74.459
  429.500    6.180    0.265    0.486   77.368
  429.750    6.193    0.265    0.479   78.642
  430.000    6.218    0.272    0.477   78.522
  430.250    6.220    0.275    0.487   77.068
  430.500    6.233    0.295    0.503   74.281
  430.750    6.200    0.336    0.531   75.615
  431.000    6.120    0.308    0.588   77.556
  431.250    5.986    0.274    0.553   79.435
  431.500    5.799    0.258    0.547   77.800
  431.750    5.639    0.291    0.558   79.498
  432.000    5.453    0.327    0.569   81.499
  432.250    5.224    0.299    0.548   82.590
  432.500    5.051    0.274    0.522   82.773
  432.750    4.839    0.254    0.529   82.289
  433.000    4.601    0.242    0.517   81.684
  433.250    4.474    0.238    0.492   81.624
  433.500    4.425    0.241    0.471   81.443
  433.750    4.443    0.247    0.463   78.717
  434.000    4.597    0.246    0.471   77.566
  434.250    4.703    0.249    0.463   77.931
  434.500    4.866    0.258    0.481   78.659
  434.750    4.895    0.262    0.487   77.993
  435.000    4.842    0.261    0.491   75.812
  435.250    4.798    0.262    0.492   72.359
  435.500    4.754    0.261    0.491   69.026
  435.750    4.676    0.261    0.495   78.785
  436.000    4.624    0.265    0.505   83.392
  436.250    4.481    0.268    0.516   85.756
  436.500    4.406    0.280    0.527   85.818
  436.750    4.309    0.294    0.577   83.091
  437.000    4.206    0.313    0.601   78.001
  437.250    4.145    0.333    0.569   74.305
  437.500    4.091    0.350    0.518   74.549
  437.750    4.147    0.362    0.504   74.428
  438.000    4.531    0.353    0.515   67.823
  438.250    5.035    0.065    0.532   61.824
  438.500    5.681    0.049    0.459   57.219
  438.750    6.629    0.048    0.237   52.189
  439.000    7.751    0.297    0.305   52.372
  439.250    8.630    0.339    0.390   55.888
  439.500    9.047    0.365    0.467   58.859
  439.750    9.187    0.379    0.489   61.163
  440.000    8.179    0.381    0.500   61.103
  440.250    6.960    0.382    0.506   58.013
  440.500    6.266    0.379    0.493   57.590
  440.750    5.792    0.368    0.481   57.894
  441.000    5.374    0.363    0.488   56.561
  441.250    5.138    0.362    0.488   58.562
  441.500    5.063    0.368    0.478   60.926
  441.750    5.102    0.362    0.473   59.412
  442.000    5.133    0.360    0.485   58.383
  442.250    5.134    0.360    0.495   59.414
  442.500    5.165    0.363    0.500   61.112
  442.750    5.215    0.352    0.501   62.022
  443.000    5.246    0.338    0.486   58.326
  443.250    5.287    0.127    0.285   51.660
  443.500    5.532    0.022    0.219   43.600
  443.750    6.882   -0.009    0.204   37.298
  444.000    8.973   -0.010    0.196   37.905
  444.250   11.289    0.049    0.332   48.088
  444.500   12.880    0.281    0.373   53.361
  444.750   12.108    0.337    0.415   59.302
  445.000    8.949    0.347    0.433   63.424
  445.250    7.064    0.352    0.448   67.364
  445.500    5.966    0.349    0.489   70.153
  445.750    5.096    0.355    0.504   67.548
  446.000    5.253    0.333    0.502   62.337
  446.250    5.591    0.319    0.493   60.277
  446.500    5.752    0.328    0.483   62.884
  446.750    5.786    0.348    0.476   65.248
  447.000    5.810    0.358    0.472   66.461
  447.250    5.757    0.365    0.476   65.796
  447.500    5.672    0.366    0.470   64.160
  447.750    5.579    0.356    0.482   65.312
  448.000    5.528    0.353    0.506   68.041
  448.250    5.520    0.346    0.524   68.951
  448.500    5.552    0.338    0.534   67.315
  448.750    5.627    0.338    0.507   65.619
  449.000    5.682    0.339    0.487   64.287
  449.250    5.705    0.331    0.489   64.227
  449.500    5.579    0.319    0.515   65.258
  449.750    5.425    0.314    0.515   66.532
  450.000    5.247    0.308    0.505   67.866
  450.250    5.209    0.307    0.498   69.200
  450.500    5.190    0.315    0.486   70.716
  450.750    5.144    0.317    0.472   71.808
  451.000    5.135    0.310    0.485   72.294
  451.250    5.117    0.305    0.493   71.567
  451.500    5.080    0.301    0.483   73.750
  451.750    5.053    0.319    0.478   74.842
  452.000    5.054    0.336    0.474   70.358
  452.250    5.123    0.330    0.471   67.692
  452.500    5.290    0.325    0.470   71.087
  452.750    5.505    0.317    0.482   69.936
  453.000    5.706    0.301    0.494   72.362
  453.250    5.983    0.270    0.504   74.665
  453.500    6.109    0.253    0.515   77.394
  453.750    5.908    0.276    0.526   76.970
  454.000    5.440    0.293    0.522   74.729
  454.250    5.076    0.299    0.521   75.881
  454.500    4.502    0.295    0.555   79.397
  454.750    3.817    0.293    0.569   81.338
  455.000    3.105    0.288    0.563   82.914
  455.250    2.707    0.296    0.563   81.279
  455.500    2.479    0.311    0.585   79.037
  455.750    2.344    0.320    0.603   77.220
  456.000    2.279    0.319    0.578   78.190
  456.250    2.225    0.309    0.581   80.616
  456.500    2.205    0.302    0.597   81.647
  456.750    2.209    0.307    0.582   81.223
  457.000    2.269    0.297    0.579   80.558
  457.250    2.361    0.291    0.567   80.013
  457.500    2.470    0.289    0.549   79.954
  457.750    2.585    0.293    0.531   80.924
  458.000    2.736    0.321    0.557   82.440
  458.250    2.836    0.341    0.580   82.562
  458.500    2.913    0.356    0.560   79.472
  458.750    3.194    0.366    0.508   75.897
  459.000    3.871    0.372    0.478   71.353
  459.250    5.000    0.338    0.469   65.960
  459.500    6.568    0.111    0.414   59.233
  459.750    8.201    0.091    0.332   54.386
  460.000   10.957    0.079    0.304   51.296
  460.250   12.572    0.094    0.316   50.933
  460.500   12.790    0.164    0.394   53.419
  460.750   10.172    0.334    0.442   57.541
  461.000    7.704    0.382    0.480   60.572
  461.250    6.278    0.395    0.526   61.846
  461.500    4.974    0.401    0.538   65.180
  461.750    4.412    0.359    0.508   67.787
  462.000    4.140    0.323    0.480   67.909
  462.250    4.227    0.308    0.488   69.061
  462.500    4.358    0.295    0.499   71.183
  462.750    4.621    0.287    0.500   71.851
  463.000    4.799    0.290    0.491   70.458
  463.250    5.040    0.282    0.502   72.035
  463.500    5.205    0.277    0.507   72.520
  463.750    5.386    0.281    0.491   71.127
  464.000    5.449    0.281    0.478   70.340
  464.250    5.522    0.273    0.467   72.159
  464.500    5.566    0.266    0.469   73.312
  464.750    5.546    0.291    0.466   72.343
  465.000    5.506    0.317    0.462   72.465
  465.250    5.385    0.326    0.466   74.406
