~VERSION INFORMATION
 VERS.                 2.0:   CWLS LOG ASCII STANDARD -VERSION 2.0
 WRAP.                  NO:   ONE LINE PER DEPTH STEP
~WELL INFORMATION BLOCK
#MNEM.UNIT           DATA                    DESCRIPTION OF MNEMONIC
#---------    -------------------            -------------------------------
# Generated from Intellog Unique Number	CS_73_76/WELL/2199
WELL.         SIEBENS OIL & GAS LTD.         : Well_name    - WELL
LOC .         00/11-08-074-09W4/0            : Location     - LOCATION
UWI .         00/11-08-074-09W4/0            : Uwi          - UNIQUE WELL ID
ENTR.         SP                             : Entered      - ENTERED BY
SRVC.         SCHLUMBERGER                   : Scn          - SERVICE COMPANY
STRT.M        298.704                        : top_depth    - START DEPTH
STOP.M        481.454                        : bot_depth    - STOP DEPTH
STEP.M        0.25                           : increment    - STEP LENGTH
 NULL. -999.2500:NULL Value
~CURVE INFORMATION BLOCK
#MNEM UNIT       ERCB CURVE CODE    CURVE DESCRIPTION
#-----------   ------------------   ----------------------------------
DEPT.M        00 001 00 00         : DEPTH        - DEPTH
GR  .API      00 310 00 00         : GR           - GAMMA RAY
DPHI.V/V      00 890 00 00         : PHID         - DENSITY POROSITY (SANDSTONE)
NPHI.V/V      00 330 00 00         : PHIN         - NEUTRON POROSITY (SANDSTONE)
ILD .OHMM     00 120 00 00         : RESD         - DEEP RESISTIVITY (DIL)
~PARAMETER INFORMATION
#MNEM.UNIT           DATA             DESCRIPTION OF MNEMONIC
#---------         -----------     ------------------------------
GL  .M        666.598              : gl           - GROUND LEVEL ELEVATION
EREF.M        670.255              : kb           - ELEVATION OF DEPTH REFERENCE
DATM.M        666.598              : datum        - DATUM ELEVATION
TDD .M        493.776              : tdd          - TOTAL DEPTH DRILLER
RUN .         ONE                  : Run          - RUN NUMBER
ENG .         BILL                 : Engineer     - RECORDING ENGINEER
WIT .         JIM                  : Witness      - WITNESSED BY
MUD .         GEL                  : Mud_type     - MUD TYPE
MATR.         SANDSTONE            : Logunit      - NEUTRON MATRIX
TMAX.C        13.3333              : BHT          - MAXIMUM RECORDED TEMPERATURE
BHTD.M        493.776              : BHTDEP       - MAXIMUM RECORDED TEMPERATURE
MATR.         1                    : LOGUNIT      - NEUTRON MATRIX
RMT .C        25                   : MDTP         - TEMPERATURE OF MUD
NEUT.         1                    : NEUTRON      - NEUTRON TYPE
RESI.         0                    : RESIST       - RESISTIVITY TYPE
RMC .OHMM     0.25                 : RMC          - RESISTIVITY OF MUD CAKE
RMF .OHMM     0.25                 : RMF          - RESISTIVITY OF MUD FILTRATE
SUFT.C        15                   : SUFT         - SURFACE TEMPERATURE
~A  DEPTH       GR     PHID     PHIN     RESD
  298.704  104.581    0.189    0.501    3.685
  298.954  106.749    0.191    0.510    3.570
  299.204  104.769    0.188    0.517    3.554
  299.454  103.986    0.200    0.519    3.549
  299.704  103.240    0.207    0.511    3.650
  299.954  103.958    0.196    0.504    3.851
  300.204  102.385    0.190    0.493    4.093
  300.454  100.792    0.183    0.477    4.200
  300.704  102.344    0.173    0.459    4.104
  300.954  103.831    0.177    0.465    3.925
  301.204  104.638    0.174    0.481    3.812
  301.454  103.224    0.147    0.499    3.895
  301.704   96.303    0.111    0.456    4.253
  301.954   89.830    0.091    0.418    4.572
  302.204   90.727    0.123    0.415    5.111
  302.454   93.359    0.161    0.419    5.689
  302.704   94.277    0.167    0.414    6.319
  302.954   90.609    0.178    0.407    7.196
  303.204   83.926    0.189    0.402    7.878
  303.454   80.403    0.218    0.377    8.993
  303.704   76.362    0.214    0.352   10.041
  303.954   71.615    0.186    0.346    9.483
  304.204   75.717    0.163    0.378    8.204
  304.454   84.258    0.169    0.404    7.035
  304.704   94.868    0.185    0.425    6.288
  304.954   99.137    0.192    0.427    5.821
  305.204   97.870    0.168    0.440    5.530
  305.454   98.100    0.182    0.456    5.486
  305.704   98.513    0.185    0.452    5.406
  305.954   98.784    0.183    0.459    5.675
  306.204   98.204    0.177    0.469    6.237
  306.454   94.150    0.198    0.472    7.053
  306.704   88.108    0.221    0.475    7.687
  306.954   81.231    0.235    0.468    7.770
  307.204   74.800    0.213    0.450    7.080
  307.454   73.443    0.163    0.430    6.507
  307.704   82.115    0.162    0.470    6.139
  307.954   94.160    0.180    0.483    5.971
  308.204  103.828    0.189    0.478    5.659
  308.454   99.764    0.176    0.465    5.607
  308.704   96.171    0.159    0.458    5.652
  308.954   95.479    0.152    0.447    5.967
  309.204   94.993    0.168    0.451    6.033
  309.454   94.004    0.179    0.455    6.332
  309.704   93.024    0.194    0.449    6.812
  309.954   88.992    0.228    0.458    7.561
  310.204   79.759    0.259    0.464    9.053
  310.454   58.558    0.281    0.460   11.432
  310.704   48.387    0.289    0.443   14.469
  310.954   44.447    0.286    0.424   18.372
  311.204   47.139    0.298    0.405   19.544
  311.454   49.008    0.264    0.397   18.752
  311.704   50.889    0.250    0.392   17.170
  311.954   51.834    0.242    0.380   16.271
  312.204   53.439    0.227    0.370   15.935
  312.454   56.621    0.228    0.382   15.953
  312.704   58.054    0.228    0.392   16.166
  312.954   55.398    0.236    0.394   17.463
  313.204   53.525    0.247    0.401   19.349
  313.454   52.521    0.248    0.404   19.626
  313.704   52.173    0.261    0.397   18.883
  313.954   52.492    0.262    0.394   18.115
  314.204   53.386    0.258    0.393   16.774
  314.454   55.056    0.245    0.392   16.085
  314.704   56.591    0.225    0.389   15.101
  314.954   58.689    0.232    0.397   14.882
  315.204   58.090    0.245    0.399   16.539
  315.454   56.153    0.254    0.397   17.705
  315.704   53.233    0.265    0.402   19.613
  315.954   50.353    0.268    0.402   20.770
  316.204   48.907    0.269    0.407   21.748
  316.454   49.292    0.273    0.404   20.595
  316.704   52.117    0.278    0.394   17.601
  316.954   58.376    0.250    0.386   15.051
  317.204   67.995    0.200    0.395   13.313
  317.454   75.784    0.204    0.389   12.540
  317.704   76.218    0.195    0.382   11.401
  317.954   74.266    0.192    0.382   10.967
  318.204   73.892    0.201    0.391   10.832
  318.454   74.777    0.196    0.391   10.310
  318.704   78.504    0.170    0.393    9.357
  318.954   85.019    0.164    0.395    8.709
  319.204   87.326    0.149    0.398    7.899
  319.454   89.534    0.164    0.417    7.329
  319.704   93.540    0.172    0.442    6.790
  319.954   97.243    0.157    0.457    6.414
  320.204  100.933    0.162    0.464    6.230
  320.454  101.869    0.174    0.467    6.035
  320.704   98.282    0.171    0.458    6.006
  320.954   95.989    0.164    0.446    6.123
  321.204   97.370    0.163    0.430    6.114
  321.454   95.664    0.175    0.420    6.299
  321.704   93.188    0.183    0.416    6.577
  321.954   91.520    0.188    0.425    6.648
  322.204   95.083    0.195    0.446    6.571
  322.454   97.523    0.186    0.458    6.472
  322.704   98.487    0.172    0.463    6.336
  322.954   97.048    0.161    0.446    6.347
  323.204   96.813    0.154    0.425    6.359
  323.454  101.454    0.154    0.443    6.220
  323.704  104.991    0.150    0.463    6.232
  323.954  106.343    0.159    0.481    6.151
  324.204  105.126    0.168    0.488    6.118
  324.454  106.697    0.168    0.481    6.119
  324.704  107.013    0.164    0.473    5.992
  324.954  105.776    0.157    0.476    5.981
  325.204  103.198    0.167    0.466    5.893
  325.454  103.345    0.167    0.446    5.904
  325.704  105.036    0.161    0.435    5.778
  325.954  106.438    0.155    0.437    5.796
  326.204  108.386    0.164    0.446    5.661
  326.454  114.799    0.162    0.456    5.793
  326.704  119.164    0.161    0.462    6.051
  326.954  122.847    0.168    0.460    6.492
  327.204  123.426    0.177    0.456    7.344
  327.454  122.303    0.195    0.453    8.362
  327.704  121.029    0.206    0.447    9.998
  327.954  117.653    0.233    0.428   11.571
  328.204  114.149    0.246    0.418   12.819
  328.454  108.392    0.266    0.411   13.780
  328.704  104.081    0.265    0.410   13.960
  328.954   99.142    0.248    0.412   13.730
  329.204  100.344    0.218    0.417   13.148
  329.454  101.738    0.213    0.421   12.142
  329.704  104.024    0.211    0.419   11.443
  329.954  105.998    0.206    0.421   10.776
  330.204  103.100    0.229    0.430   10.844
  330.454  101.917    0.212    0.425   11.607
  330.704   99.549    0.212    0.421   12.480
  330.954   92.344    0.244    0.419   13.495
  331.204   79.926    0.254    0.409   14.620
  331.454   67.959    0.245    0.401   15.778
  331.704   66.455    0.255    0.402   16.803
  331.954   67.242    0.265    0.402   17.447
  332.204   67.544    0.274    0.389   17.745
  332.454   71.393    0.269    0.392   17.250
  332.704   78.430    0.261    0.397   16.360
  332.954   85.116    0.249    0.388   14.689
  333.204   88.632    0.227    0.379   13.118
  333.454   95.330    0.199    0.382   12.254
  333.704  102.695    0.193    0.388   11.319
  333.954  106.876    0.169    0.404   10.728
  334.204  108.290    0.172    0.416   10.047
  334.454  111.715    0.179    0.423    9.824
  334.704  111.090    0.198    0.418    9.800
  334.954  108.004    0.208    0.402    9.646
  335.204  107.037    0.187    0.403    9.641
  335.454  103.721    0.198    0.399    9.617
  335.704   97.864    0.187    0.400    9.188
  335.954   99.890    0.185    0.418    8.513
  336.204  109.901    0.194    0.439    7.713
  336.454  116.700    0.194    0.456    6.924
  336.704  118.719    0.203    0.469    6.772
  336.954  109.125    0.220    0.478    6.916
  337.204  103.146    0.237    0.471    7.881
  337.454  101.025    0.247    0.458    8.601
  337.704  100.106    0.241    0.454    9.425
  337.954  100.144    0.237    0.452    9.549
  338.204  103.953    0.235    0.450    9.447
  338.454  106.186    0.232    0.445    9.284
  338.704  102.433    0.230    0.437    9.232
  338.954   97.917    0.228    0.439    8.954
  339.204   95.782    0.223    0.446    8.833
  339.454   97.144    0.216    0.438    8.798
  339.704  100.642    0.211    0.444    8.792
  339.954  102.493    0.222    0.445    8.796
  340.204  105.388    0.223    0.425    8.834
  340.454  107.126    0.220    0.417    8.956
  340.704  107.510    0.210    0.414    9.052
  340.954  106.501    0.213    0.417    9.108
  341.204  101.183    0.216    0.423    9.257
  341.454   96.968    0.211    0.428    9.476
  341.704   94.490    0.204    0.446    9.479
  341.954   93.942    0.211    0.464    9.623
