~VERSION INFORMATION
 VERS.                 2.0:   CWLS LOG ASCII STANDARD -VERSION 2.0
 WRAP.                  NO:   ONE LINE PER DEPTH STEP
~WELL INFORMATION BLOCK
#MNEM.UNIT           DATA                    DESCRIPTION OF MNEMONIC
#---------    -------------------            -------------------------------
# Generated from Intellog Unique Number	CW_82_90/WELL/3083
WELL.         UNION ET AL MCLEAN             : Well_name    - WELL
LOC .         00/14-22-087-19W4/0            : Location     - LOCATION
UWI .         00/14-22-087-19W4/0            : Uwi          - UNIQUE WELL ID
ENTR.         MAX                            : Entered      - ENTERED BY
SRVC.         SCHLUMBERGER                   : Scn          - SERVICE COMPANY
STRT.M        50                             : top_depth    - START DEPTH
STOP.M        237                            : bot_depth    - STOP DEPTH
STEP.M        0.25                           : increment    - STEP LENGTH
 NULL. -999.2500:NULL Value
~CURVE INFORMATION BLOCK
#MNEM UNIT       ERCB CURVE CODE    CURVE DESCRIPTION
#-----------   ------------------   ----------------------------------
DEPT.M        00 001 00 00         : DEPTH        - DEPTH
GR  .API      00 310 00 00         : GR           - GAMMA RAY
CALI.MM       00 280 01 00         : CAL          - CALIPER
DPHI.V/V      00 890 00 00         : PHID         - DENSITY POROSITY (SANDSTONE)
NPHI.V/V      00 330 00 00         : PHIN         - NEUTRON POROSITY (SANDSTONE)
ILD .OHMM     00 120 00 00         : RESD         - DEEP RESISTIVITY (DIL)
~PARAMETER INFORMATION
#MNEM.UNIT           DATA             DESCRIPTION OF MNEMONIC
#---------         -----------     ------------------------------
GL  .M        515                  : gl           - GROUND LEVEL ELEVATION
EREF.M        518.6                : kb           - ELEVATION OF DEPTH REFERENCE
DATM.M        515                  : datum        - DATUM ELEVATION
TDD .M        238                  : tdd          - TOTAL DEPTH DRILLER
RUN .         ONE                  : Run          - RUN NUMBER
ENG .         BILL                 : Engineer     - RECORDING ENGINEER
WIT .         JIM                  : Witness      - WITNESSED BY
MUD .         GEL                  : Mud_type     - MUD TYPE
MATR.         SANDSTONE            : Logunit      - NEUTRON MATRIX
TMAX.C        21.4                 : BHT          - MAXIMUM RECORDED TEMPERATURE
BHTD.M        238                  : BHTDEP       - MAXIMUM RECORDED TEMPERATURE
MATR.         1                    : LOGUNIT      - NEUTRON MATRIX
RMT .C        18.8                 : MDTP         - TEMPERATURE OF MUD
NEUT.         1                    : NEUTRON      - NEUTRON TYPE
RESI.         0                    : RESIST       - RESISTIVITY TYPE
RMC .OHMM     6.85                 : RMC          - RESISTIVITY OF MUD CAKE
RMF .OHMM     7.06                 : RMF          - RESISTIVITY OF MUD FILTRATE
SUFT.C        -15                  : SUFT         - SURFACE TEMPERATURE
~A  DEPTH       GR      CAL     PHID     PHIN     RESD
# ...
  196.000   79.511  314.827    0.206    0.469   12.552
  196.250   78.270  314.717    0.196    0.454   12.638
  196.500   77.320  314.641    0.185    0.462   12.842
  196.750   76.365  314.553    0.157    0.455   12.693
  197.000   77.813  313.956    0.133    0.413   13.637
  197.250   83.430  312.385    0.150    0.400   15.485
  197.500   85.177  306.820    0.180    0.410   16.786
  197.750   85.124  301.753    0.199    0.422   16.138
  198.000   84.766  303.159    0.207    0.425   14.143
  198.250   82.622  307.033    0.203    0.431   14.640
  198.500   78.984  310.939    0.183    0.441   15.869
  198.750   77.437  315.831    0.187    0.419   16.887
  199.000   77.086  318.244    0.223    0.425   17.648
  199.250   76.130  318.632    0.230    0.444   16.651
  199.500   74.285  317.062    0.200    0.430   15.007
  199.750   73.641  315.480    0.129    0.415   17.031
  200.000   78.967  317.395    0.146    0.416   17.797
  200.250   80.109  319.797    0.174    0.409   16.036
  200.500   81.537  320.196    0.192    0.424   14.726
  200.750   83.589  320.108    0.209    0.444   14.964
  201.000   83.530  314.034    0.210    0.420   17.145
  201.250   82.282  311.965    0.181    0.419   15.030
  201.500   81.930  310.860    0.166    0.414   14.051
  201.750   83.073  309.300    0.144    0.382   17.337
  202.000   85.410  305.207    0.179    0.361   21.784
  202.250   87.150  303.636    0.213    0.371   23.383
  202.500   86.500  302.043    0.240    0.360   23.775
  202.750   84.947  301.468    0.226    0.364   22.036
  203.000   83.706  301.381    0.205    0.361   20.406
  203.250   82.451  302.278    0.192    0.347   20.748
  203.500   80.015  303.684    0.168    0.329   22.491
  203.750   75.468  305.090    0.124    0.296   33.069
  204.000   80.507  306.496    0.070    0.272   49.090
  204.250   82.546  307.913    0.015    0.261   61.699
  204.500   84.286  309.319    0.066    0.348   36.686
  204.750   89.611  311.212    0.123    0.377   24.368
  205.000   91.052  312.120    0.177    0.392   17.588
  205.250   89.207  312.541    0.193    0.407   18.205
  205.500   89.141  312.432    0.211    0.391   20.102
  205.750   89.394  312.355    0.208    0.391   20.053
  206.000   89.049  312.256    0.204    0.414   19.102
  206.250   88.392  311.681    0.203    0.421   18.881
  206.500   86.547  311.084    0.197    0.405   18.841
  206.750   81.707  310.012    0.176    0.381   20.044
  207.000   78.361  308.917    0.160    0.358   22.978
  207.250   81.303  308.829    0.096    0.337   24.445
  207.500   88.428  309.737    0.138    0.404   18.318
  207.750   91.954  310.158    0.184    0.428   13.978
  208.000   92.505  311.056    0.202    0.464   11.909
  208.250   92.738  311.466    0.219    0.459   11.143
  208.500   92.393  312.872    0.212    0.447   10.612
  208.750   91.139  314.256    0.207    0.455   10.389
  209.000   89.001  314.688    0.206    0.461   10.467
  209.250   82.077  314.102    0.198    0.428   10.935
  209.500   76.639  311.027    0.105    0.405   12.295
  209.750   76.580  309.943    0.029    0.340   15.316
  210.000   78.626  310.353    0.053    0.305   24.030
  210.250   79.164  311.261    0.218    0.325   42.118
  210.500   80.014  313.154    0.229    0.340   40.856
  210.750   82.053  314.062    0.213    0.387   26.897
  211.000   86.189  314.472    0.198    0.438   21.088
  211.250   89.423  314.883    0.191    0.426   20.475
  211.500   90.260  314.784    0.195    0.405   20.238
  211.750   90.805  315.194    0.193    0.399   18.574
  212.000   91.941  317.087    0.189    0.425   15.693
  212.250   92.791  318.504    0.185    0.425   12.653
  212.500   93.940  319.921    0.183    0.417   12.507
  212.750   95.674  320.320    0.182    0.403   12.596
  213.000   97.719  320.222    0.189    0.393   12.799
  213.250  100.355  321.152    0.189    0.401   12.647
  213.500  102.095  321.551    0.189    0.436   12.048
  213.750  103.225  321.463    0.187    0.449   10.755
  214.000  104.081  316.407    0.159    0.436   10.058
  214.250  109.705  310.819    0.113    0.386   10.707
  214.500  114.440  314.228    0.127    0.388   13.457
  214.750  116.479  318.124    0.173    0.434   16.451
  215.000  111.041  317.538    0.136    0.443   13.392
  215.250  102.019  313.965    0.096    0.400   10.898
  215.500  102.265  311.874    0.053    0.345   14.216
  215.750  106.700  313.291    0.087    0.359   19.595
  216.000  112.617  315.682    0.154    0.381   24.629
  216.250  114.363  315.594    0.191    0.448   22.820
  216.500  114.596  314.511    0.191    0.457   19.098
  216.750  115.148  314.423    0.194    0.444   17.860
  217.000  115.998  314.335    0.188    0.423   18.143
  217.250  116.835  316.239    0.172    0.403   18.099
  217.500  115.587  314.646    0.183    0.411   18.060
  217.750  111.949  313.552    0.198    0.409   17.840
  218.000  110.097  312.988    0.179    0.396   17.797
  218.250  110.044  312.889    0.183    0.394   17.919
  218.500  108.504  311.794    0.190    0.391   18.041
  218.750  105.159  310.213    0.166    0.352   18.338
  219.000   97.637  309.649    0.143    0.309   19.696
  219.250   89.510  309.550    0.029    0.269   22.782
  219.500   83.482  309.462    0.003    0.200   35.080
  219.750   85.521  309.374    0.002    0.218   47.047
  220.000   94.126  309.287    0.002    0.286   78.742
  220.250  100.354  309.188    0.012    0.343   81.506
  220.500  107.479  309.100    0.181    0.343   29.972
  220.750  107.121  309.499    0.205    0.353   21.237
  221.000  104.977  309.920    0.202    0.355   20.997
  221.250  105.522  310.331    0.197    0.348   21.337
  221.500  106.671  310.730    0.188    0.353   21.675
  221.750  108.703  310.664    0.182    0.361   21.424
  222.000  110.741  310.576    0.183    0.378   20.788
  222.250  111.592  311.473    0.194    0.389   20.744
  222.500  114.520  311.385    0.191    0.393   20.498
  222.750  114.773  311.309    0.177    0.390   20.068
  223.000  113.226  311.697    0.163    0.382   19.300
  223.250  106.594  311.598    0.142    0.382   19.782
  223.500  107.139  311.521    0.137    0.394   21.648
  223.750  111.262  311.444    0.155    0.424   22.012
  224.000  114.503  311.335    0.180    0.443   20.004
  224.250  117.737  311.269    0.198    0.463   18.376
  224.500  119.769  311.181    0.207    0.471   15.665
  224.750  120.619  311.093    0.188    0.466   13.482
  225.000  119.670  311.492    0.172    0.460   11.179
  225.250  116.331  311.913    0.165    0.450   10.263
  225.500   93.259  311.826    0.174    0.437    9.681
  225.750   76.469  310.720    0.205    0.449    9.840
  226.000   62.666  310.643    0.262    0.432   13.315
  226.250   56.624  310.544    0.320    0.410   24.001
  226.500   55.383  310.456    0.324    0.393   73.889
  226.750   57.116  310.369    0.314    0.370  130.749
  227.000   60.954  310.292    0.313    0.375  205.081
  227.250   66.884  310.204    0.305    0.393  208.396
  227.500   71.014  310.105    0.279    0.382  128.571
  227.750   74.845  310.028    0.202    0.370   81.574
  228.000   77.183  310.439    0.181    0.363   49.407
  228.250   76.533  311.336    0.172    0.357   40.591
  228.500   77.376  311.248    0.162    0.354   32.139
  228.750   88.385  312.167    0.157    0.359   25.206
  229.000  110.747  315.554    0.163    0.371   22.309
  229.250  120.262  320.446    0.155    0.412   17.822
  229.500  121.086  321.852    0.164    0.476   16.068
  229.750  119.552  319.263    0.209    0.471   12.037
  230.000  116.213  317.184    0.185    0.457    6.586
  230.250  110.484  317.605    0.167    0.437    5.026
  230.500  105.345  316.521    0.189    0.423    4.527
  230.750  102.896  315.415    0.184    0.415    5.095
  231.000  100.161  317.341    0.166    0.414    6.579
  231.250   99.809  321.237    0.170    0.444    7.337
  231.500  103.939  319.644    0.215    0.435    8.176
  231.750  105.374  312.585    0.215    0.421    8.079
  232.000  102.041  313.482    0.190    0.408    7.628
  232.250   94.811  311.890    0.248    0.388    7.199
