~VERSION INFORMATION
 VERS.                 2.0:   CWLS LOG ASCII STANDARD -VERSION 2.0
 WRAP.                  NO:   ONE LINE PER DEPTH STEP
~WELL INFORMATION BLOCK
#MNEM.UNIT           DATA                    DESCRIPTION OF MNEMONIC
#---------    -------------------            -------------------------------
# Generated from Intellog Unique Number	CS_77_79/WELL/1014
WELL.         ICGR CHARD                     : Well_name    - WELL
LOC .         00/12-20-079-05W4/0            : Location     - LOCATION
UWI .         00/12-20-079-05W4/0            : Uwi          - UNIQUE WELL ID
ENTR.         JHS                            : Entered      - ENTERED BY
SRVC.         SCHLUMBERGER                   : Scn          - SERVICE COMPANY
STRT.M        105                            : top_depth    - START DEPTH
STOP.M        325                            : bot_depth    - STOP DEPTH
STEP.M        0.25                           : increment    - STEP LENGTH
 NULL. -999.2500:NULL Value
~CURVE INFORMATION BLOCK
#MNEM UNIT       ERCB CURVE CODE    CURVE DESCRIPTION
#-----------   ------------------   ----------------------------------
DEPT.M        00 001 00 00         : DEPTH        - DEPTH
DPHI.V/V      00 890 00 00         : PHID         - DENSITY POROSITY (LIMESTONE)
NPHI.V/V      00 330 00 00         : PHIN         - NEUTRON POROSITY (LIMESTONE)
GR  .API      00 310 00 00         : GR           - GAMMA RAY
ILD .OHMM     00 120 00 00         : RESD         - DEEP RESISTIVITY (DIL)
RHOB.KG/M3    00 350 00 00         : DENS         - BULK DENSITY
~PARAMETER INFORMATION
#MNEM.UNIT           DATA             DESCRIPTION OF MNEMONIC
#---------         -----------     ------------------------------
GL  .M        478.6                : gl           - GROUND LEVEL ELEVATION
EREF.M        481.6                : kb           - ELEVATION OF DEPTH REFERENCE
DATM.M        481.6                : datum        - DATUM ELEVATION
TDD .M        335                  : tdd          - TOTAL DEPTH DRILLER
RUN .         ONE                  : Run          - RUN NUMBER
ENG .         BILL                 : Engineer     - RECORDING ENGINEER
WIT .         JIM                  : Witness      - WITNESSED BY
MUD .         GEL                  : Mud_type     - MUD TYPE
MATR.         LIMESTONE            : Logunit      - NEUTRON MATRIX
TMAX.C        25                   : BHT          - MAXIMUM RECORDED TEMPERATURE
BHTD.M        335                  : BHTDEP       - MAXIMUM RECORDED TEMPERATURE
MATR.         1                    : LOGUNIT      - NEUTRON MATRIX
RMT .C        25                   : MDTP         - TEMPERATURE OF MUD
NEUT.         1                    : NEUTRON      - NEUTRON TYPE
RESI.         0                    : RESIST       - RESISTIVITY TYPE
RMC .OHMM     0.25                 : RMC          - RESISTIVITY OF MUD CAKE
RMF .OHMM     0.25                 : RMF          - RESISTIVITY OF MUD FILTRATE
SUFT.C        15                   : SUFT         - SURFACE TEMPERATURE
~A  DEPTH     PHID     PHIN       GR     RESD     DENS
# ...
  251.000    0.288    0.436   90.627    5.837 2217.920
  251.250    0.229    0.423   95.494    6.063 2318.330
  251.500    0.219    0.404   95.532    6.297 2335.140
  251.750    0.201    0.385   96.769    6.666 2366.580
  252.000    0.185    0.372   96.803    6.924 2393.850
  252.250    0.187    0.380   94.410    7.192 2389.810
  252.500    0.195    0.391   95.659    7.333 2377.350
  252.750    0.209    0.400   98.710    7.202 2352.380
  253.000    0.210    0.407  101.161    7.074 2350.380
  253.250    0.182    0.423   97.563    6.945 2398.540
  253.500    0.175    0.414   91.539    6.696 2411.180
  253.750    0.182    0.393   83.105    6.574 2398.730
  254.000    0.195    0.382   85.559    6.458 2375.870
  254.250    0.197    0.374   86.801    6.583 2373.860
  254.500    0.212    0.376   85.010    6.467 2346.810
  254.750    0.205    0.393   82.624    6.470 2359.450
  255.000    0.206    0.415   79.631    6.352 2357.470
  255.250    0.222    0.411   74.215    6.238 2330.390
  255.500    0.244    0.397   63.364    6.012 2292.890
  255.750    0.257    0.370   65.813    5.688 2270.020
  256.000    0.218    0.377   74.911    5.587 2336.980
  256.250    0.191    0.387   84.020    5.589 2383.050
  256.500    0.184    0.381   88.892    6.028 2395.680
  256.750    0.186    0.369   90.737    6.380 2391.630
  257.000    0.197    0.394   88.348    6.505 2372.930
  257.250    0.201    0.389   81.119    6.389 2366.730
  257.500    0.212    0.377   78.128    6.272 2348.030
  257.750    0.216    0.380   78.152    5.934 2339.790
  258.000    0.201    0.414   76.374    5.719 2367.040
  258.250    0.211    0.412   75.198    5.514 2348.340
  258.500    0.235    0.428   73.409    5.413 2308.740
  258.750    0.242    0.447   67.999    5.121 2296.320
  259.000    0.259    0.407   64.404    4.936 2267.160
  259.250    0.267    0.368   66.245    4.848 2252.630
  259.500    0.244    0.390   72.925    4.761 2292.440
  259.750    0.243    0.408   81.426    4.675 2294.650
  260.000    0.232    0.420   88.715    4.678 2313.540
  260.250    0.232    0.443   88.746    4.770 2313.630
  260.500    0.251    0.425   86.964    4.862 2280.300
  260.750    0.259    0.408   83.981    4.865 2267.890
  261.000    0.243    0.404   83.999    4.869 2295.150
  261.250    0.224    0.416   87.662    4.872 2326.580
  261.500    0.246    0.431   90.110    4.875 2289.100
  261.750    0.253    0.429   87.124    4.877 2276.630
  262.000    0.256    0.412   84.120    4.791 2272.570
  262.250    0.266    0.411   76.897    4.705 2255.950
  262.500    0.265    0.410   72.695    4.620 2256.040
  262.750    0.252    0.402   72.725    4.537 2279.160
  263.000    0.252    0.395   78.806    4.456 2279.250
  263.250    0.242    0.392   86.700    4.543 2296.070
  263.500    0.225    0.391   90.970    4.632 2325.400
  263.750    0.227    0.409   91.599    4.721 2321.350
  264.000    0.252    0.414   90.424    4.636 2279.660
  264.250    0.265    0.403   83.794    4.554 2256.770
  264.500    0.247    0.388   77.777    4.556 2288.210
  264.750    0.227    0.399   89.302    4.647 2321.750
  265.000    0.218    0.414   94.172    4.648 2336.490
  265.250    0.217    0.414   87.553    4.739 2338.660
  265.500    0.229    0.419   90.001    4.655 2317.890
  265.750    0.234    0.433   95.475    4.486 2309.610
  266.000    0.243    0.399   85.221    4.244 2295.100
  266.250    0.263    0.387   72.555    3.940 2259.680
  266.500    0.284    0.395   66.534    3.658 2224.250
  266.750    0.312    0.382   57.493    3.526 2176.290
  267.000    0.305    0.369   51.472    3.463 2188.940
  267.250    0.273    0.356   66.625    3.529 2243.370
  267.500    0.254    0.391   75.731    3.599 2274.830
  267.750    0.257    0.389   79.389    3.809 2270.740
  268.000    0.264    0.381   82.445    3.957 2258.300
  268.250    0.275    0.399   76.427    3.885 2239.590
  268.500    0.299    0.417   65.569    3.541 2197.910
  268.750    0.313    0.396   57.739    3.350 2175.030
  269.000    0.309    0.402   54.745    3.169 2181.390
  269.250    0.319    0.402   51.154    3.054 2164.810
  269.500    0.329    0.386   39.687    2.944 2148.160
  269.750    0.357    0.375   31.257    2.785 2100.210
  270.000    0.365    0.401   29.465    2.735 2085.730
  270.250    0.361    0.405   34.337    2.788 2092.060
  270.500    0.330    0.405   42.841    3.007 2146.490
  270.750    0.309    0.414   48.912    3.243 2182.110
  271.000    0.295    0.402   53.786    3.369 2205.190
  271.250    0.282    0.381   52.608    3.370 2228.280
  271.500    0.306    0.368   47.198    3.310 2186.600
  271.750    0.338    0.377   41.179    3.190 2132.370
  272.000    0.341    0.407   36.365    3.076 2126.210
  272.250    0.328    0.390   34.580    3.020 2149.310
  272.500    0.322    0.406   35.225    3.022 2159.840
  272.750    0.319    0.419   35.257    3.023 2164.120
  273.000    0.323    0.402   33.465    3.025 2157.970
  273.250    0.329    0.385   32.287    3.027 2147.650
  273.500    0.330    0.390   36.553    3.029 2145.630
  273.750    0.339    0.400   34.769    3.146 2131.090
  274.000    0.348    0.386   31.784    3.148 2114.490
  274.250    0.334    0.373   33.625    3.210 2139.670
  274.500    0.326    0.371   36.073    3.212 2152.290
  274.750    0.341    0.393   34.892    3.154 2127.340
  275.000    0.353    0.412   28.882    3.040 2106.530
  275.250    0.360    0.408   25.894    2.876 2094.130
  275.500    0.361    0.400   25.919    2.772 2092.140
  275.750    0.365    0.402   25.941    2.672 2085.940
  276.000    0.373    0.393   27.190    2.624 2071.430
  276.250    0.379    0.393   26.008    2.577 2061.080
  276.500    0.377    0.405   28.458    2.579 2065.350
  276.750    0.356    0.406   29.099    2.629 2100.980
  277.000    0.349    0.385   29.124    2.680 2113.610
  277.250    0.330    0.374   35.202    2.784 2145.060
  277.500    0.312    0.373   41.883    2.892 2176.510
  277.750    0.303    0.391   37.086    3.119 2191.230
  278.000    0.314    0.390   35.294    3.301 2172.540
  278.250    0.301    0.381   43.793    3.493 2195.610
  278.500    0.286    0.389   47.449    3.561 2220.800
  278.750    0.291    0.395   42.643    3.498 2212.550
  279.000    0.313    0.400   36.625    3.435 2175.030
  279.250    0.318    0.400   40.894    3.373 2166.770
  279.500    0.304    0.392   40.931    3.313 2189.860
  279.750    0.287    0.380   41.561    3.316 2219.220
  280.000    0.276    0.371   47.637    3.380 2238.120
  280.250    0.273    0.365   53.719    3.446 2242.400
  280.500    0.265    0.369   59.195    3.580 2257.130
  280.750    0.250    0.370   64.067    3.788 2282.310
  281.000    0.233    0.362   68.931    4.086 2311.660
  281.250    0.219    0.375   68.360    4.324 2334.750
  281.500    0.241    0.367   56.895    4.409 2297.230
  281.750    0.267    0.361   50.281    4.171 2253.470
  282.000    0.286    0.377   48.497    3.945 2220.140
  282.250    0.310    0.387   47.315    3.663 2180.530
  282.500    0.327    0.391   44.316    3.401 2151.380
  282.750    0.336    0.379   39.513    3.217 2134.770
  283.000    0.298    0.375   38.942    3.219 2199.650
  283.250    0.292    0.384   45.625    3.161 2210.190
  283.500    0.292    0.374   49.893    3.284 2210.310
  283.750    0.293    0.368   51.138    3.286 2208.300
  284.000    0.291    0.372   49.955    3.478 2212.620
  284.250    0.287    0.370   48.772    3.547 2218.960
  284.500    0.283    0.374   46.381    3.615 2225.340
  284.750    0.285    0.377   43.988    3.617 2223.350
  285.000    0.293    0.357   40.402    3.688 2208.820
  285.250    0.289    0.338   39.214    3.690 2215.200
  285.500    0.288    0.330   41.666    3.623 2217.390
  285.750    0.288    0.349   48.349    3.626 2217.490
  286.000    0.281    0.380   54.426    3.697 2230.130
  286.250    0.274    0.387   53.855    3.631 2240.660
  286.500    0.274    0.397   47.848    3.565 2240.770
  286.750    0.332    0.396   43.640    3.437 2142.670
  287.000    0.330    0.396   41.849    3.312 2144.880
  287.250    0.322    0.399   40.075    3.193 2159.590
