~VERSION INFORMATION
 VERS.                 2.0:   CWLS LOG ASCII STANDARD -VERSION 2.0
 WRAP.                  NO:   ONE LINE PER DEPTH STEP
~WELL INFORMATION BLOCK
#MNEM.UNIT           DATA                    DESCRIPTION OF MNEMONIC
#---------    -------------------            -------------------------------
# Generated from Intellog Unique Number	CS_69_70/WELL/899
WELL.         BOW VALLEY INDUSTRIES          : Well_name    - WELL
LOC .         00/11-26-069-12W4/0            : Location     - LOCATION
UWI .         00/11-26-069-12W4/0            : Uwi          - UNIQUE WELL ID
ENTR.         SP                             : Entered      - ENTERED BY
SRVC.         SCHLUMBERGER                   : Scn          - SERVICE COMPANY
STRT.M        265                            : top_depth    - START DEPTH
STOP.M        470                            : bot_depth    - STOP DEPTH
STEP.M        0.25                           : increment    - STEP LENGTH
 NULL. -999.2500:NULL Value
~CURVE INFORMATION BLOCK
#MNEM UNIT       ERCB CURVE CODE    CURVE DESCRIPTION
#-----------   ------------------   ----------------------------------
DEPT.M        00 001 00 00         : DEPTH        - DEPTH
ILD .OHMM     00 120 00 00         : RESD         - DEEP RESISTIVITY (DIL)
DPHI.V/V      00 890 00 00         : PHID         - DENSITY POROSITY (LIMESTONE)
NPHI.V/V      00 330 00 00         : PHIN         - NEUTRON POROSITY (LIMESTONE)
GR  .API      00 310 00 00         : GR           - GAMMA RAY
~PARAMETER INFORMATION
#MNEM.UNIT           DATA             DESCRIPTION OF MNEMONIC
#---------         -----------     ------------------------------
GL  .M        587.6                : gl           - GROUND LEVEL ELEVATION
EREF.M        590.3                : kb           - ELEVATION OF DEPTH REFERENCE
DATM.M        587.6                : datum        - DATUM ELEVATION
TDD .M        475                  : tdd          - TOTAL DEPTH DRILLER
RUN .         ONE                  : Run          - RUN NUMBER
ENG .         BILL                 : Engineer     - RECORDING ENGINEER
WIT .         JIM                  : Witness      - WITNESSED BY
MUD .         GEL                  : Mud_type     - MUD TYPE
MATR.         LIMESTONE            : Logunit      - NEUTRON MATRIX
TMAX.C        14.4                 : BHT          - MAXIMUM RECORDED TEMPERATURE
BHTD.M        475                  : BHTDEP       - MAXIMUM RECORDED TEMPERATURE
MATR.         1                    : LOGUNIT      - NEUTRON MATRIX
RMT .C        25                   : MDTP         - TEMPERATURE OF MUD
NEUT.         1                    : NEUTRON      - NEUTRON TYPE
RESI.         0                    : RESIST       - RESISTIVITY TYPE
RMC .OHMM     0.25                 : RMC          - RESISTIVITY OF MUD CAKE
RMF .OHMM     0.25                 : RMF          - RESISTIVITY OF MUD FILTRATE
SUFT.C        15                   : SUFT         - SURFACE TEMPERATURE
~A  DEPTH     RESD     PHID     PHIN       GR
# ...
  395.500    3.959    0.270    0.541  102.021
  395.750    3.968    0.272    0.533  102.589
  396.000    3.933    0.277    0.539  101.458
  396.250    3.891    0.272    0.563  101.058
  396.500    3.750    0.260    0.576  101.318
  396.750    3.601    0.251    0.556  101.827
  397.000    3.395    0.256    0.551  101.427
  397.250    3.265    0.271    0.583  100.898
  397.500    3.089    0.276    0.595   98.131
  397.750    2.956    0.297    0.595   97.544
  398.000    2.802    0.320    0.614   98.051
  398.250    2.705    0.331    0.625   96.070
  398.500    2.569    0.297    0.568   92.996
  398.750    2.376    0.277    0.526   93.323
  399.000    2.154    0.257    0.484   94.921
  399.250    2.041    0.262    0.524   96.588
  399.500    2.136    0.280    0.566   97.455
  399.750    2.247    0.269    0.556   97.780
  400.000    2.382    0.256    0.500   96.528
  400.250    2.515    0.273    0.477   94.240
  400.500    2.641    0.287    0.462   84.555
  400.750    2.779    0.291    0.446   80.752
  401.000    2.853    0.288    0.431   82.049
  401.250    2.892    0.277    0.430   85.043
  401.500    2.920    0.270    0.444   87.677
  401.750    2.927    0.271    0.450   86.846
  402.000    2.912    0.281    0.462   83.896
  402.250    2.881    0.283    0.483   86.892
  402.500    2.850    0.256    0.482   89.034
  402.750    2.862    0.227    0.481   90.756
  403.000    2.928    0.207    0.494   88.351
  403.250    3.029    0.212    0.489   85.519
  403.500    3.278    0.219    0.450   85.482
  403.750    3.340    0.223    0.449   86.777
  404.000    3.462    0.236    0.440   88.802
  404.250    3.575    0.205    0.391   89.429
  404.500    3.685    0.207    0.392   87.268
  404.750    3.776    0.236    0.418   85.467
  405.000    3.907    0.253    0.447   86.160
  405.250    3.990    0.249    0.467   89.400
  405.500    4.074    0.240    0.479   92.208
  405.750    4.199    0.236    0.462   94.413
  406.000    4.304    0.243    0.468   95.405
  406.250    4.298    0.212    0.483   91.969
  406.500    4.181    0.135    0.460   81.189
  406.750    4.053    0.092    0.418   74.111
  407.000    4.077    0.126    0.379   75.529
  407.250    4.210    0.186    0.370   82.468
  407.500    4.421    0.215    0.405   89.774
  407.750    4.608    0.241    0.417   93.859
  408.000    4.697    0.250    0.427   96.975
  408.250    4.535    0.249    0.435   97.724
  408.500    4.157    0.241    0.435   97.387
  408.750    3.970    0.235    0.443   95.948
  409.000    3.805    0.232    0.452   94.091
  409.250    3.660    0.233    0.464   92.108
  409.500    3.574    0.238    0.472   89.886
  409.750    3.570    0.246    0.457   88.570
  410.000    3.577    0.250    0.451   87.197
  410.250    3.620    0.245    0.440   89.341
  410.500    3.683    0.244    0.430   93.308
  410.750    3.698    0.245    0.420   96.243
  411.000    3.706    0.244    0.448   98.693
  411.250    3.729    0.241    0.455  100.048
  411.500    3.758    0.236    0.435   98.006
  411.750    3.788    0.232    0.411   99.123
  412.000    3.825    0.237    0.400  102.239
  412.250    3.913    0.237    0.406  104.625
  412.500    3.966    0.232    0.418  105.981
  412.750    4.013    0.235    0.412   99.510
  413.000    4.067    0.242    0.394  102.328
  413.250    4.114    0.233    0.403  106.533
  413.500    4.163    0.223    0.425  109.955
  413.750    4.188    0.220    0.440  103.421
  414.000    4.181    0.229    0.427   95.613
  414.250    4.023    0.254    0.420   91.266
  414.500    3.653    0.288    0.469   87.161
  414.750    3.411    0.299    0.505   84.452
  415.000    3.103    0.308    0.518   87.206
  415.250    2.665    0.270    0.509   89.654
  415.500    2.447    0.277    0.498   92.350
  415.750    2.272    0.292    0.510   93.883
  416.000    2.146    0.307    0.545   95.790
  416.250    2.049    0.322    0.559   96.963
  416.500    2.027    0.324    0.508   96.255
  416.750    2.047    0.305    0.464   92.878
  417.000    2.079    0.288    0.452   90.898
  417.250    2.204    0.282    0.471   90.737
  417.500    2.288    0.281    0.481   91.001
  417.750    2.429    0.283    0.451   90.781
  418.000    2.523    0.273    0.458   90.316
  418.250    2.591    0.271    0.482   88.457
  418.500    2.641    0.282    0.513   79.316
  418.750    2.671    0.019    0.502   69.324
  419.000    2.697    0.008    0.261   64.066
  419.250    2.822    0.004    0.242   66.456
  419.500    3.087    0.077    0.264   74.972
  419.750    3.428    0.126    0.323   85.431
  420.000    3.814    0.156    0.381   90.974
  420.250    4.157    0.179    0.425   91.242
  420.500    4.414    0.197    0.436   90.107
  420.750    4.627    0.205    0.443   92.739
  421.000    4.410    0.215    0.443   96.646
  421.250    3.916    0.219    0.452   96.180
  421.500    3.523    0.236    0.465   90.499
  421.750    3.358    0.250    0.474   87.850
  422.000    3.304    0.141    0.414   90.420
  422.250    3.318    0.131    0.400   94.022
  422.500    3.432    0.164    0.413   97.566
  422.750    3.531    0.202    0.423   96.738
  423.000    3.626    0.214    0.414   95.482
  423.250    3.654    0.218    0.411   95.443
  423.500    3.636    0.260    0.490   94.678
  423.750    3.577    0.253    0.522   97.186
  424.000    3.486    0.239    0.507  100.731
  424.250    3.113    0.254    0.504  102.326
  424.500    2.822    0.256    0.527  103.077
  424.750    2.577    0.257    0.532  103.525
  425.000    2.362    0.258    0.523  103.544
  425.250    2.337    0.238    0.516   99.563
  425.500    2.320    0.229    0.510  101.889
  425.750    2.334    0.222    0.542  106.220
  426.000    2.353    0.233    0.567  108.425
  426.250    2.393    0.232    0.523  107.232
  426.500    2.495    0.228    0.486  111.260
  426.750    2.571    0.233    0.490  114.497
  427.000    2.650    0.239    0.526  115.916
  427.250    2.711    0.247    0.548  115.693
  427.500    2.707    0.253    0.548  115.472
  427.750    2.505    0.243    0.551  114.645
  428.000    2.365    0.237    0.555  108.355
  428.250    2.254    0.232    0.559   95.998
  428.500    2.234    0.235    0.523   86.190
  428.750    2.273    0.241    0.460   84.269
  429.000    2.391    0.239    0.419   84.047
  429.250    2.646    0.232    0.422   85.344
  429.500    2.884    0.228    0.437   77.476
  429.750    3.179    0.229    0.452   71.552
  430.000    3.477    0.245    0.444   69.633
  430.250    3.797    0.290    0.383   65.284
  430.500    4.131    0.286    0.333   58.995
  430.750    4.420    0.208    0.328   53.070
  431.000    4.764    0.063    0.271   49.512
  431.250    5.182    0.045    0.259   51.293
  431.500    5.896    0.066    0.313   51.072
  431.750    7.186    0.081    0.366   50.001
  432.000    9.008    0.039    0.307   54.879
  432.250   10.267    0.177    0.258   60.363
  432.500   11.466    0.255    0.288   63.781
  432.750   12.289    0.265    0.326   66.532
  433.000   12.317    0.250    0.341   69.406
  433.250   10.576    0.240    0.353   73.554
  433.500    8.669    0.237    0.359   82.012
  433.750    7.092    0.234    0.365   89.436
  434.000    5.770    0.229    0.380   99.772
  434.250    5.085    0.223    0.392  108.956
  434.500    4.294    0.226    0.400   72.085
  434.750    3.877    0.251    0.389   63.249
  435.000    3.482    0.273    0.383   56.958
  435.250    3.282    0.303    0.378   50.971
  435.500    3.059    0.313    0.375   64.708
  435.750    2.835    0.317    0.373   75.833
  436.000    2.713    0.305    0.376   83.380
  436.250    2.664    0.297    0.384   82.249
  436.500    2.670    0.289    0.389   78.570
  436.750    2.752    0.287    0.394   84.840
  437.000    2.863    0.281    0.401   92.994
  437.250    2.961    0.276    0.405   99.205
  437.500    3.098    0.264    0.404  106.995
  437.750    3.235    0.246    0.400  113.811
  438.000    3.404    0.224    0.394  115.107
  438.250    3.554    0.215    0.387  106.575
  438.500    3.760    0.236    0.403  101.197
  438.750    3.949    0.248    0.407  108.740
