~VERSION INFORMATION
 VERS.                 2.0:   CWLS LOG ASCII STANDARD -VERSION 2.0
 WRAP.                  NO:   ONE LINE PER DEPTH STEP
~WELL INFORMATION BLOCK
#MNEM.UNIT           DATA                    DESCRIPTION OF MNEMONIC
#---------    -------------------            -------------------------------
# Generated from Intellog Unique Number	CS_71_72/WELL/850
WELL.         BVX ET AL DIXON                : Well_name    - WELL
LOC .         00/10-03-072-15W4/0            : Location     - LOCATION
UWI .         00/10-03-072-15W4/0            : Uwi          - UNIQUE WELL ID
ENTR.         SP                             : Entered      - ENTERED BY
SRVC.         SCHLUMBERGER                   : Scn          - SERVICE COMPANY
STRT.M        290                            : top_depth    - START DEPTH
STOP.M        475                            : bot_depth    - STOP DEPTH
STEP.M        0.25                           : increment    - STEP LENGTH
 NULL. -999.2500:NULL Value
~CURVE INFORMATION BLOCK
#MNEM UNIT       ERCB CURVE CODE    CURVE DESCRIPTION
#-----------   ------------------   ----------------------------------
DEPT.M        00 001 00 00         : DEPTH        - DEPTH
ILD .OHMM     00 120 00 00         : RESD         - DEEP RESISTIVITY (DIL)
DPHI.V/V      00 890 00 00         : PHID         - DENSITY POROSITY (LIMESTONE)
NPHI.V/V      00 330 00 00         : PHIN         - NEUTRON POROSITY (LIMESTONE)
GR  .API      00 310 00 00         : GR           - GAMMA RAY
~PARAMETER INFORMATION
#MNEM.UNIT           DATA             DESCRIPTION OF MNEMONIC
#---------         -----------     ------------------------------
GL  .M        609.7                : gl           - GROUND LEVEL ELEVATION
EREF.M        613                  : kb           - ELEVATION OF DEPTH REFERENCE
DATM.M        609.7                : datum        - DATUM ELEVATION
TDD .M        476                  : tdd          - TOTAL DEPTH DRILLER
RUN .         ONE                  : Run          - RUN NUMBER
ENG .         BILL                 : Engineer     - RECORDING ENGINEER
WIT .         JIM                  : Witness      - WITNESSED BY
MUD .         GEL                  : Mud_type     - MUD TYPE
MATR.         LIMESTONE            : Logunit      - NEUTRON MATRIX
TMAX.C        23                   : BHT          - MAXIMUM RECORDED TEMPERATURE
BHTD.M        476                  : BHTDEP       - MAXIMUM RECORDED TEMPERATURE
MATR.         1                    : LOGUNIT      - NEUTRON MATRIX
RMT .C        25                   : MDTP         - TEMPERATURE OF MUD
NEUT.         1                    : NEUTRON      - NEUTRON TYPE
RESI.         0                    : RESIST       - RESISTIVITY TYPE
RMC .OHMM     0.25                 : RMC          - RESISTIVITY OF MUD CAKE
RMF .OHMM     0.25                 : RMF          - RESISTIVITY OF MUD FILTRATE
SUFT.C        15                   : SUFT         - SURFACE TEMPERATURE
~A  DEPTH     RESD     PHID     PHIN       GR
# ...
  333.500    5.573    0.236    0.424  102.666
  333.750    5.575    0.249    0.419   99.639
  334.000    5.578    0.266    0.429   94.188
  334.250    5.580    0.272    0.436   91.767
  334.500    5.687    0.276    0.445   88.744
  334.750    5.794    0.288    0.459   86.933
  335.000    5.906    0.290    0.465   85.728
  335.250    6.018    0.268    0.454   88.778
  335.500    6.134    0.249    0.451   89.392
  335.750    6.136    0.247    0.459   87.579
  336.000    6.253    0.251    0.468   82.733
  336.250    6.255    0.139    0.440   79.706
  336.500    6.258    0.144    0.405   90.654
  336.750    6.260    0.185    0.379   94.304
  337.000    6.148    0.228    0.414   97.349
  337.250    5.927    0.215    0.435  101.615
  337.500    5.713    0.232    0.436  102.836
  337.750    5.610    0.250    0.450  106.493
  338.000    5.613    0.228    0.459  110.760
  338.250    5.615    0.172    0.466  112.590
  338.500    5.515    0.208    0.472  113.206
  338.750    5.516    0.225    0.479  109.570
  339.000    5.622    0.243    0.482  104.723
  339.250    5.729    0.232    0.471  100.485
  339.500    5.839    0.235    0.453   98.063
  339.750    6.062    0.269    0.437   92.612
  340.000    6.177    0.282    0.427   91.404
  340.250    6.180    0.279    0.436   89.593
  340.500    6.183    0.286    0.448   87.176
  340.750    6.072    0.287    0.447   86.578
  341.000    6.074    0.282    0.436   95.097
  341.250    6.076    0.264    0.430   98.747
  341.500    5.967    0.241    0.451  103.008
  341.750    5.647    0.244    0.459  101.805
  342.000    5.344    0.252    0.436   98.776
  342.250    5.248    0.239    0.416   97.573
  342.500    5.250    0.252    0.439  101.231
  342.750    5.252    0.248    0.468  103.061
  343.000    5.353    0.241    0.501  104.901
  343.250    5.557    0.266    0.490  104.910
  343.500    5.662    0.266    0.460  104.922
  343.750    5.988    0.252    0.460  104.322
  344.000    6.334    0.234    0.469  103.115
  344.250    6.454    0.247    0.452  101.909
  344.500    6.577    0.251    0.440   98.884
  344.750    6.829    0.229    0.433   97.680
  345.000    6.959    0.235    0.429  100.726
  345.250    6.962    0.243    0.424  103.167
  345.500    7.095    0.224    0.422  103.176
  345.750    6.967    0.247    0.418  101.368
  346.000    6.970    0.260    0.424   97.738
  346.250    6.719    0.278    0.430   96.529
  346.500    6.598    0.291    0.436   92.902
  346.750    6.363    0.300    0.446   90.481
  347.000    6.248    0.281    0.453   88.667
  347.250    6.250    0.264    0.440   86.856
  347.500    6.252    0.260    0.428   92.939
  347.750    6.141    0.250    0.414   96.592
  348.000    6.143    0.245    0.430   83.854
  348.250    6.145    0.277    0.455   79.610
  348.500    6.034    0.313    0.489   72.336
  348.750    5.926    0.358    0.431   68.702
  349.000    5.819    0.337    0.412   65.677
  349.250    5.407    0.314    0.416   65.690
  349.500    5.309    0.320    0.431   66.305
  349.750    5.118    0.325    0.428   66.314
  350.000    4.935    0.324    0.434   66.932
  350.250    4.846    0.321    0.443   68.766
  350.500    4.760    0.324    0.435   67.561
  350.750    5.126    0.331    0.430   66.357
  351.000    5.128    0.337    0.426   65.762
  351.250    5.036    0.338    0.418   66.377
  351.500    5.038    0.333    0.407   68.209
  351.750    5.134    0.319    0.396   74.302
  352.000    5.136    0.305    0.394   76.740
  352.250    5.235    0.298    0.387   78.571
  352.500    5.335    0.294    0.392   79.791
  352.750    5.239    0.290    0.420   79.194
  353.000    5.241    0.294    0.434   77.992
  353.250    5.146    0.310    0.450   76.180
  353.500    5.149    0.331    0.447   74.974
  353.750    5.151    0.337    0.446   74.989
  354.000    5.153    0.340    0.443   74.389
  354.250    5.252    0.314    0.438   73.792
  354.500    5.453    0.300    0.430   73.198
  354.750    5.660    0.289    0.436   71.992
  355.000    5.876    0.256    0.427   70.787
  355.250    6.214    0.194    0.410   68.976
  355.500    6.451    0.070    0.328   78.098
  355.750    6.697    0.190    0.364   87.218
  356.000    6.699    0.221    0.399   93.300
  356.250    6.579    0.235    0.429   96.350
  356.500    6.112    0.237    0.453   95.751
  356.750    5.677    0.239    0.470   92.122
  357.000    5.373    0.259    0.485   87.273
  357.250    5.277    0.272    0.478   83.638
  357.500    5.478    0.290    0.470   78.181
  357.750    5.901    0.334    0.498   69.692
  358.000    6.242    0.383    0.519   64.842
  358.250    6.360    0.340    0.563   59.387
  358.500    6.019    0.322    0.454   56.364
  358.750    5.489    0.319    0.413   54.552
  359.000    5.390    0.313    0.417   55.170
  359.250    5.007    0.319    0.431   55.181
  359.500    4.828    0.323    0.441   55.797
  359.750    4.740    0.323    0.446   57.635
  360.000    4.570    0.324    0.448   58.249
  360.250    4.489    0.335    0.431   58.865
  360.500    4.490    0.336    0.425   60.705
  360.750    4.492    0.332    0.429   61.320
  361.000    4.493    0.340    0.428   61.937
  361.250    4.580    0.331    0.420   62.552
  361.500    4.582    0.329    0.413   63.172
  361.750    4.583    0.329    0.418   63.180
  362.000    4.585    0.333    0.423   63.798
  362.250    4.673    0.319    0.429   65.029
  362.500    4.674    0.314    0.420   65.647
  362.750    4.764    0.322    0.426   65.656
  363.000    4.766    0.333    0.419   65.663
  363.250    4.680    0.326    0.418   65.066
  363.500    4.682    0.345    0.439   63.864
  363.750    4.683    0.331    0.449   63.875
  364.000    4.600    0.328    0.449   65.713
  364.250    4.602    0.344    0.438   66.938
  364.500    4.519    0.344    0.425   68.163
  364.750    4.521    0.343    0.428   68.170
  365.000    4.522    0.339    0.433   68.176
  365.250    4.524    0.328    0.425   67.581
  365.500    4.526    0.328    0.427   67.592
  365.750    4.613    0.337    0.438   67.603
  366.000    4.700    0.327    0.445   67.614
  366.250    4.790    0.317    0.452   67.629
  366.500    4.882    0.314    0.442   68.248
  366.750    5.163    0.308    0.433   67.652
  367.000    5.460    0.315    0.423   67.660
  367.250    5.882    0.300    0.417   67.669
  367.500    6.699    0.291    0.393   67.677
  367.750    7.351    0.272    0.218   68.304
  368.000    8.851    0.123    0.195   68.313
  368.250   11.264    0.024    0.193   68.322
  368.500   14.073    0.036    0.204   68.331
  368.750   14.883    0.079    0.246   68.945
  369.000   11.703    0.130    0.293   69.567
  369.250    9.728    0.263    0.362   70.181
  369.500    7.650    0.300    0.408   72.015
  369.750    6.478    0.311    0.434   75.671
  370.000    5.095    0.306    0.432   78.110
  370.250    5.003    0.298    0.430   81.160
  370.500    5.491    0.290    0.427   82.385
  370.750    5.700    0.278    0.434   82.390
  371.000    6.029    0.266    0.434   77.543
  371.250    6.030    0.248    0.440   73.301
  371.500    6.032    0.238    0.451   75.741
  371.750    5.816    0.243    0.460   80.612
  372.000    5.606    0.284    0.458   83.055
  372.250    5.208    0.306    0.446   82.456
  372.500    5.021    0.334    0.440   84.288
  372.750    5.117    0.306    0.430   90.983
  373.000    5.119    0.265    0.426   94.025
  373.250    5.027    0.250    0.431  100.721
  373.500    4.757    0.233    0.457  103.156
  373.750    4.258    0.236    0.464  106.814
  374.000    3.883    0.228    0.464  107.428
  374.250    3.608    0.242    0.458  107.445
  374.500    3.478    0.244    0.467  106.240
  374.750    3.544    0.242    0.492  105.639
  375.000    3.890    0.242    0.511  103.223
  375.250    4.269    0.254    0.476  101.408
  375.500    4.431    0.261    0.446   96.568
  375.750    4.864    0.249    0.453   94.755
  376.000    5.144    0.238    0.465   92.944
  376.250    5.340    0.299    0.474   92.344
  376.500    5.544    0.279    0.459   92.357
  376.750    5.649    0.255    0.448   92.365
