~VERSION INFORMATION
 VERS.                 2.0:   CWLS LOG ASCII STANDARD -VERSION 2.0
 WRAP.                  NO:   ONE LINE PER DEPTH STEP
~WELL INFORMATION BLOCK
#MNEM.UNIT           DATA                    DESCRIPTION OF MNEMONIC
#---------    -------------------            -------------------------------
# Generated from Intellog Unique Number	CS_71_72/WELL/886
WELL.         SULPETRO LIMITED               : Well_name    - WELL
LOC .         00/11-05-071-10W4/0            : Location     - LOCATION
UWI .         00/11-05-071-10W4/0            : Uwi          - UNIQUE WELL ID
ENTR.         SP                             : Entered      - ENTERED BY
SRVC.         SCHLUMBERGER                   : Scn          - SERVICE COMPANY
STRT.M        300                            : top_depth    - START DEPTH
STOP.M        535                            : bot_depth    - STOP DEPTH
STEP.M        0.25                           : increment    - STEP LENGTH
 NULL. -999.2500:NULL Value
~CURVE INFORMATION BLOCK
#MNEM UNIT       ERCB CURVE CODE    CURVE DESCRIPTION
#-----------   ------------------   ----------------------------------
DEPT.M        00 001 00 00         : DEPTH        - DEPTH
ILD .OHMM     00 120 00 00         : RESD         - DEEP RESISTIVITY (DIL)
DPHI.V/V      00 890 00 00         : PHID         - DENSITY POROSITY (LIMESTONE)
NPHI.V/V      00 330 00 00         : PHIN         - NEUTRON POROSITY (LIMESTONE)
GR  .API      00 310 00 00         : GR           - GAMMA RAY
~PARAMETER INFORMATION
#MNEM.UNIT           DATA             DESCRIPTION OF MNEMONIC
#---------         -----------     ------------------------------
GL  .M        651.97               : gl           - GROUND LEVEL ELEVATION
EREF.M        654.8                : kb           - ELEVATION OF DEPTH REFERENCE
DATM.M        651.97               : datum        - DATUM ELEVATION
TDD .M        539                  : tdd          - TOTAL DEPTH DRILLER
RUN .         ONE                  : Run          - RUN NUMBER
ENG .         BILL                 : Engineer     - RECORDING ENGINEER
WIT .         JIM                  : Witness      - WITNESSED BY
MUD .         GEL                  : Mud_type     - MUD TYPE
MATR.         LIMESTONE            : Logunit      - NEUTRON MATRIX
TMAX.C        25                   : BHT          - MAXIMUM RECORDED TEMPERATURE
BHTD.M        539                  : BHTDEP       - MAXIMUM RECORDED TEMPERATURE
MATR.         1                    : LOGUNIT      - NEUTRON MATRIX
RMT .C        25                   : MDTP         - TEMPERATURE OF MUD
NEUT.         1                    : NEUTRON      - NEUTRON TYPE
RESI.         0                    : RESIST       - RESISTIVITY TYPE
RMC .OHMM     0.25                 : RMC          - RESISTIVITY OF MUD CAKE
RMF .OHMM     0.25                 : RMF          - RESISTIVITY OF MUD FILTRATE
SUFT.C        15                   : SUFT         - SURFACE TEMPERATURE
~A  DEPTH     RESD     PHID     PHIN       GR
# ...
  474.000    6.204    0.160    0.297   79.352
  474.250    6.089    0.163    0.280   83.093
  474.500    5.898    0.189    0.324   84.203
  474.750    5.682    0.214    0.331   79.742
  475.000    5.422    0.220    0.334   77.362
  475.250    5.282    0.230    0.340   77.614
  475.500    5.213    0.242    0.353   78.112
  475.750    5.242    0.246    0.367   78.180
  476.000    5.690    0.240    0.380   77.761
  476.250    5.410    0.236    0.369   76.667
  476.500    5.605    0.238    0.357   75.449
  476.750    5.828    0.236    0.347   78.763
  477.000    6.005    0.228    0.344   78.525
  477.250    6.129    0.224    0.357   72.410
  477.500    6.209    0.219    0.356   72.786
  477.750    6.208    0.224    0.345   76.957
  478.000    6.254    0.228    0.345   81.496
  478.250    6.468    0.207    0.354   84.013
  478.500    7.021    0.181    0.304   82.919
  478.750    7.439    0.159    0.272   83.600
  479.000    7.911    0.099    0.260   87.528
  479.250    8.397    0.058    0.278   90.105
  479.500    8.781    0.191    0.325   92.256
  479.750    9.098    0.231    0.340   78.855
  480.000    9.080    0.254    0.300   62.700
  480.250    9.638    0.272    0.281   63.259
  480.500   10.269    0.274    0.274   68.288
  480.750   10.799    0.250    0.284   71.233
  481.000   11.314    0.243    0.293   72.710
  481.250   11.548    0.233    0.282   78.290
  481.500   11.249    0.217    0.294   86.074
  481.750   10.735    0.215    0.280   91.530
  482.000    9.741    0.229    0.273   97.232
  482.250    8.692    0.235    0.266  100.668
  482.500    7.902    0.237    0.291  102.818
  482.750    7.388    0.225    0.309  106.255
  483.000    7.063    0.211    0.343  104.364
  483.250    7.063    0.216    0.359   97.026
  483.500    7.115    0.227    0.313   91.584
  483.750    7.195    0.238    0.308   93.796
  484.000    7.262    0.240    0.305   96.681
  484.250    7.248    0.242    0.302   99.505
  484.500    7.034    0.227    0.299  117.207
  484.750    6.466    0.206    0.300  129.460
  485.000    6.382    0.194    0.331  122.672
  485.250    6.346    0.199    0.354  108.720
  485.500    6.513    0.207    0.373   91.217
  485.750    6.786    0.227    0.398   74.878
  486.000    7.017    0.248    0.367   68.885
  486.250    7.162    0.269    0.341   73.486
  486.500    7.243    0.264    0.319   76.615
  486.750    7.121    0.245    0.332   80.422
  487.000    6.873    0.240    0.352   82.143
  487.250    6.546    0.240    0.377   83.863
  487.500    6.377    0.239    0.314   76.707
  487.750    6.329    0.220    0.264   76.287
  488.000    6.448    0.196    0.237   87.315
  488.250    6.680    0.180    0.260  100.180
  488.500    7.429    0.168    0.297  110.229
  488.750    7.583    0.166    0.319  105.523
  489.000    8.155    0.176    0.329   99.224
  489.250    8.512    0.192    0.341   92.436
  489.500    9.036    0.207    0.340   80.627
  489.750    9.627    0.231    0.323   70.655
  490.000   10.068    0.242    0.308   74.765
  490.250   10.237    0.229    0.296   83.222
  490.500   10.141    0.213    0.288   90.885
  490.750   10.103    0.195    0.349   94.503
  491.000   10.235    0.192    0.363   92.183
  491.250   10.466    0.209    0.355   75.110
  491.500   10.863    0.221    0.329   68.015
  491.750   11.233    0.226    0.308   71.941
  492.000   11.212    0.236    0.302   75.501
  492.250    9.893    0.257    0.297   77.713
  492.500    7.574    0.271    0.293   78.883
  492.750    6.087    0.251    0.295   89.299
  493.000    5.252    0.219    0.313  107.735
  493.250    4.695    0.192    0.331  117.846
  493.500    4.406    0.160    0.361  125.507
  493.750    4.324    0.131    0.394  122.698
  494.000    4.268    0.123    0.399  123.379
  494.250    4.348    0.141    0.388  129.081
  494.500    4.738    0.145    0.404  128.905
  494.750    5.358    0.146    0.401  129.341
  495.000    6.494    0.148    0.415  131.308
  495.250    8.124    0.164    0.441  120.540
  495.500   10.145    0.213    0.469   83.629
  495.750   12.810    0.245    0.422   62.208
  496.000   17.012    0.278    0.360   52.236
  496.250   21.124    0.303    0.345   49.427
  496.500   21.320    0.305    0.358   49.865
  496.750   19.637    0.301    0.373   50.179
  497.000   17.134    0.297    0.385   50.186
  497.250   15.034    0.295    0.386   50.928
  497.500   12.356    0.293    0.360   55.834
  497.750   10.661    0.292    0.339   61.230
  498.000    9.079    0.290    0.327   64.788
  498.250    7.863    0.288    0.329   67.796
  498.500    7.283    0.287    0.353   68.906
  498.750    6.746    0.284    0.354   71.975
  499.000    6.319    0.282    0.329   76.329
  499.250    5.996    0.276    0.314   79.459
  499.500    6.154    0.264    0.324   81.549
  499.750    6.006    0.255    0.336   84.250
  500.000    5.917    0.246    0.317   87.626
  500.250    6.028    0.234    0.292   89.470
  500.500    6.061    0.219    0.275   90.825
  500.750    6.303    0.206    0.283   93.465
  501.000    6.482    0.197    0.293   97.391
  501.250    6.628    0.187    0.299  105.053
  501.500    6.628    0.179    0.307  113.204
  501.750    6.553    0.176    0.318  120.008
  502.000    6.419    0.186    0.323  125.647
  502.250    6.359    0.182    0.315  128.900
  502.500    6.371    0.172    0.302  113.234
  502.750    6.588    0.173    0.314   82.690
  503.000    6.674    0.210    0.308   71.310
  503.250    6.825    0.225    0.298   63.788
  503.500    6.901    0.232    0.293   71.265
  503.750    6.811    0.235    0.287   86.456
  504.000    6.415    0.209    0.277  104.893
  504.250    6.215    0.183    0.266  115.615
  504.500    6.054    0.151    0.259  122.235
  504.750    6.053    0.130    0.258  126.895
  505.000    6.167    0.106    0.257  125.986
  505.250    6.473    0.096    0.261  121.707
  505.500    6.558    0.105    0.272  119.327
  505.750    6.922    0.124    0.290  117.315
  506.000    7.458    0.147    0.318  111.874
  506.250    8.141    0.175    0.337  103.248
  506.500    8.723    0.204    0.328   89.480
  506.750   11.222    0.239    0.322   72.223
  507.000   12.114    0.250    0.331   58.883
  507.250   12.692    0.244    0.359   56.443
  507.500   13.573    0.254    0.353   55.410
  507.750   14.247    0.258    0.327   55.050
  508.000   14.461    0.262    0.310   55.670
  508.250   14.787    0.256    0.312   56.230
  508.500   15.092    0.250    0.321   56.298
  508.750   15.176    0.245    0.316   55.938
  509.000   14.812    0.254    0.310   55.334
  509.250   14.977    0.261    0.312   54.790
  509.500   15.173    0.265    0.301   56.880
  509.750   15.371    0.262    0.290   61.542
  510.000   15.689    0.252    0.297   64.548
  510.250   16.013    0.248    0.328   67.739
  510.500   16.375    0.270    0.341   64.013
  510.750   16.620    0.287    0.335   59.919
  511.000   16.774    0.297    0.331   55.517
  511.250   16.555    0.302    0.328   52.096
  511.500   15.449    0.289    0.323   53.023
  511.750   13.863    0.276    0.314   55.969
  512.000   12.840    0.260    0.327   58.671
  512.250   11.826    0.252    0.355   60.762
  512.500   10.832    0.271    0.352   61.747
  512.750    9.611    0.278    0.345   59.429
  513.000    7.959    0.269    0.335   54.662
  513.250    6.566    0.266    0.322   52.158
  513.500    5.297    0.271    0.333   50.146
  513.750    4.140    0.278    0.356   46.786
  514.000    3.721    0.287    0.355   42.141
  514.250    3.486    0.294    0.329   43.864
  514.500    3.358    0.283    0.314   45.217
  514.750    3.216    0.277    0.301   44.613
  515.000    3.110    0.285    0.324   40.519
  515.250    2.996    0.300    0.333   35.935
  515.500    2.907    0.306    0.350   32.697
  515.750    2.822    0.310    0.381   29.215
  516.000    2.764    0.308    0.379   26.468
  516.250    2.723    0.297    0.362   27.026
  516.500    2.702    0.293    0.355   30.096
  516.750    2.662    0.293    0.381   31.757
  517.000    2.647    0.301    0.365   30.174
  517.250    2.608    0.304    0.352   27.916
