~VERSION INFORMATION
 VERS.                 2.0:   CWLS LOG ASCII STANDARD -VERSION 2.0
 WRAP.                  NO:   ONE LINE PER DEPTH STEP
~WELL INFORMATION BLOCK
#MNEM.UNIT           DATA                    DESCRIPTION OF MNEMONIC
#---------    -------------------            -------------------------------
# Generated from Intellog Unique Number	CS_71_72/WELL/862
WELL.         HB PITLOCHRIE                  : Well_name    - WELL
LOC .         00/10-20-071-12W4/0            : Location     - LOCATION
UWI .         00/10-20-071-12W4/0            : Uwi          - UNIQUE WELL ID
ENTR.         SP                             : Entered      - ENTERED BY
SRVC.         SCHLUMBERGER                   : Scn          - SERVICE COMPANY
STRT.M        262.128                        : top_depth    - START DEPTH
STOP.M        490.378                        : bot_depth    - STOP DEPTH
STEP.M        0.25                           : increment    - STEP LENGTH
 NULL. -999.2500:NULL Value
~CURVE INFORMATION BLOCK
#MNEM UNIT       ERCB CURVE CODE    CURVE DESCRIPTION
#-----------   ------------------   ----------------------------------
DEPT.M        00 001 00 00         : DEPTH        - DEPTH
GR  .API      00 310 00 00         : GR           - GAMMA RAY
DPHI.V/V      00 890 00 00         : PHID         - DENSITY POROSITY (SANDSTONE)
NPHI.V/V      00 330 00 00         : PHIN         - NEUTRON POROSITY (SANDSTONE)
ILD .OHMM     00 120 00 00         : RESD         - DEEP RESISTIVITY (DIL)
~PARAMETER INFORMATION
#MNEM.UNIT           DATA             DESCRIPTION OF MNEMONIC
#---------         -----------     ------------------------------
GL  .M        592.836              : gl           - GROUND LEVEL ELEVATION
EREF.M        595.884              : kb           - ELEVATION OF DEPTH REFERENCE
DATM.M        592.836              : datum        - DATUM ELEVATION
TDD .M        492.252              : tdd          - TOTAL DEPTH DRILLER
RUN .         ONE                  : Run          - RUN NUMBER
ENG .         BILL                 : Engineer     - RECORDING ENGINEER
WIT .         JIM                  : Witness      - WITNESSED BY
MUD .         GEL                  : Mud_type     - MUD TYPE
MATR.         SANDSTONE            : Logunit      - NEUTRON MATRIX
TMAX.C        16.1111              : BHT          - MAXIMUM RECORDED TEMPERATURE
BHTD.M        492.252              : BHTDEP       - MAXIMUM RECORDED TEMPERATURE
MATR.         1                    : LOGUNIT      - NEUTRON MATRIX
RMT .C        25                   : MDTP         - TEMPERATURE OF MUD
NEUT.         1                    : NEUTRON      - NEUTRON TYPE
RESI.         0                    : RESIST       - RESISTIVITY TYPE
RMC .OHMM     0.25                 : RMC          - RESISTIVITY OF MUD CAKE
RMF .OHMM     0.25                 : RMF          - RESISTIVITY OF MUD FILTRATE
SUFT.C        15                   : SUFT         - SURFACE TEMPERATURE
~A  DEPTH       GR     PHID     PHIN     RESD
  262.128  108.900    0.234    0.599    2.393
  262.378  104.341    0.080    0.578    2.408
  262.628  101.575    0.021    0.555    2.387
  262.878  105.195    0.005    0.535    2.424
  263.128  111.729    0.116    0.543    2.497
  263.378  116.012    0.203    0.552    2.582
  263.628  118.246    0.225    0.549    2.555
  263.878  117.563    0.212    0.520    2.539
  264.128  116.769    0.221    0.501    2.702
  264.378  117.727    0.236    0.480    2.923
  264.628  115.209    0.217    0.471    3.023
  264.878  113.673    0.207    0.493    2.983
  265.128  116.508    0.197    0.517    2.914
  265.378  119.850    0.192    0.514    2.835
  265.628  122.689    0.216    0.507    2.724
  265.878  125.019    0.231    0.523    2.593
  266.128  122.356    0.219    0.529    2.501
  266.378  120.895    0.238    0.545    2.414
  266.628  121.745    0.252    0.569    2.371
  266.878  121.300    0.221    0.580    2.358
  267.128  119.188    0.205    0.552    2.441
  267.378  117.582    0.196    0.533    2.525
  267.628  117.342    0.188    0.541    2.593
  267.878  118.155    0.176    0.559    2.633
  268.128  119.036    0.176    0.547    2.656
  268.378  117.862    0.187    0.523    2.670
  268.628  115.268    0.191    0.511    2.672
  268.878  116.290    0.182    0.505    2.668
  269.128  115.944    0.197    0.507    2.668
  269.378  114.471    0.197    0.516    2.667
  269.628  111.393    0.212    0.531    2.660
  269.878  108.998    0.208    0.539    2.639
  270.128  108.790    0.219    0.527    2.604
  270.378  109.243    0.231    0.513    2.483
  270.628  109.897    0.209    0.502    2.331
  270.878  109.536    0.187    0.526    2.285
  271.128  108.922    0.206    0.541    2.282
  271.378  106.290    0.218    0.504    2.449
  271.628  103.125    0.235    0.480    2.949
  271.878   97.560    0.255    0.467    3.505
  272.128   89.749    0.281    0.528    4.088
  272.378   83.913    0.325    0.536    4.639
  272.628   79.360    0.307    0.454    5.107
  272.878   72.655    0.278    0.401    5.404
  273.128   70.271    0.294    0.381    5.272
  273.378   68.606    0.294    0.379    4.984
  273.628   62.029    0.287    0.381    4.868
  273.878   53.510    0.292    0.374    4.929
  274.128   48.948    0.304    0.346    5.216
  274.378   44.123    0.305    0.323    5.549
  274.628   39.995    0.317    0.312    5.753
  274.878   42.000    0.326    0.325    5.825
  275.128   53.487    0.300    0.346    5.774
  275.378   77.075    0.279    0.362    5.538
  275.628   88.736    0.261    0.377    5.326
  275.878   98.835    0.210    0.411    4.964
  276.128  111.837    0.212    0.447    4.706
  276.378  112.348    0.214    0.445    4.628
  276.628  112.311    0.217    0.430    4.775
  276.878  116.405    0.204    0.430    4.897
  277.128  118.084    0.223    0.442    4.974
  277.378  118.076    0.198    0.452    4.989
  277.628  117.617    0.227    0.447    4.932
  277.878  122.143    0.231    0.441    4.804
  278.128  127.096    0.203    0.450    4.660
  278.378  129.669    0.148    0.458    4.509
  278.628  131.081    0.147    0.466    4.290
  278.878  129.345    0.054    0.474    4.019
  279.128  125.099   -0.023    0.479    4.020
  279.378  119.424    0.215    0.482    4.218
  279.628  112.592    0.223    0.476    4.462
  279.878  107.130    0.253    0.467    4.711
  280.128  106.860    0.263    0.460    4.964
  280.378  107.692    0.263    0.460    5.111
  280.628  107.817    0.251    0.457    5.177
  280.878  106.019    0.239    0.454    5.109
  281.128  100.276    0.237    0.448    4.989
  281.378   90.703    0.265    0.455    4.863
  281.628   75.184    0.287    0.447    4.609
  281.878   75.031    0.295    0.430    4.439
  282.128   79.329    0.285    0.420    4.456
  282.378   84.008    0.265    0.426    4.511
  282.628   88.268    0.239    0.419    4.505
  282.878   95.177    0.222    0.430    4.463
  283.128   98.915    0.207    0.451    4.365
  283.378   98.982    0.191    0.465    4.234
  283.628  101.148    0.250    0.468    4.073
  283.878  104.604    0.279    0.502    3.774
  284.128  108.290    0.291    0.519    3.361
  284.378  111.789    0.274    0.522    3.043
  284.628  107.413    0.285    0.492    2.940
  284.878  101.327    0.317    0.470    2.899
  285.128   96.496    0.332    0.465    2.932
  285.378   95.696    0.294    0.486    3.018
  285.628   99.237    0.265    0.499    3.338
  285.878  102.868    0.236    0.484    3.773
  286.128  103.596    0.221    0.463    4.164
  286.378  102.656    0.222    0.456    4.475
  286.628  103.483    0.213    0.455    4.682
  286.878  103.575    0.203    0.469    4.813
  287.128  101.630    0.209    0.493    4.871
  287.378  100.446    0.214    0.515    4.814
  287.628   98.254    0.231    0.525    4.636
  287.878   95.366    0.242    0.530    4.646
  288.128   98.668    0.257    0.509    4.791
  288.378  101.497    0.256    0.487    4.922
  288.628  103.459    0.232    0.480    5.052
  288.878  104.318    0.181    0.474    5.187
  289.128  100.961    0.148    0.465    5.285
  289.378   96.684    0.122    0.460    5.398
  289.628   92.542    0.143    0.423    5.511
  289.878   97.800    0.224    0.447    5.637
  290.128  103.633    0.252    0.463    5.696
  290.378  109.234    0.259    0.466    5.683
  290.628  115.146    0.231    0.470    5.588
  290.878  120.139    0.228    0.481    5.321
  291.128  122.985    0.216    0.492    4.741
  291.378  125.668    0.215    0.499    4.184
  291.628  127.845    0.215    0.504    3.834
  291.878  130.538    0.216    0.511    3.611
  292.128  132.298    0.208    0.520    3.490
  292.378  133.038    0.193    0.529    3.426
  292.628  131.740    0.168    0.533    3.446
  292.878  129.041    0.149    0.483    3.525
  293.128  129.813    0.111    0.458    3.785
  293.378  132.455    0.183    0.448    4.228
  293.628  131.840    0.211    0.452    4.508
  293.878  130.676    0.199    0.460    4.827
  294.128  126.121    0.195    0.458    5.130
  294.378  123.682    0.226    0.447    5.458
  294.628  122.783    0.253    0.437    5.674
  294.878  119.838    0.268    0.461    5.870
  295.128  116.427    0.276    0.467    5.910
  295.378  113.415    0.272    0.455    5.825
  295.628  111.655    0.263    0.449    5.736
  295.878  114.530    0.262    0.455    5.624
  296.128  116.641    0.247    0.463    5.510
  296.378  119.493    0.229    0.465    5.359
  296.628  121.426    0.235    0.476    5.129
  296.878  122.264    0.231    0.483    4.937
  297.128  115.898    0.255    0.482    4.793
  297.378  107.379    0.256    0.477    4.833
  297.628   99.452    0.282    0.477    4.909
  297.878   93.062    0.328    0.460    5.071
  298.128  102.936    0.304    0.445    5.351
  298.378  109.867    0.270    0.436    5.512
  298.628  116.219    0.249    0.430    5.678
  298.878  120.926    0.231    0.425    5.817
  299.128  125.503    0.213    0.420    5.970
  299.378  125.486    0.225    0.427    6.029
  299.628  124.954    0.235    0.433    6.024
  299.878  127.072    0.209    0.442    5.923
  300.128  127.403    0.204    0.451    5.687
  300.378  126.156    0.205    0.467    5.300
  300.628  124.162    0.217    0.483    5.048
  300.878  120.601    0.227    0.505    4.975
  301.128  117.544    0.205    0.505    4.932
  301.378  114.565    0.190    0.494    5.024
  301.628  112.989    0.193    0.488    5.152
  301.878  114.571    0.210    0.479    5.305
  302.128  114.255    0.216    0.475    5.372
  302.378  117.770    0.208    0.483    4.938
  302.628  120.314    0.210    0.495    4.461
  302.878  115.978    0.204    0.504    3.970
  303.128  113.290    0.210    0.498    3.692
  303.378  110.969    0.210    0.481    3.630
  303.628  108.979    0.221    0.467    3.776
  303.878  107.645    0.251    0.461    4.201
  304.128  109.340    0.253    0.456    4.738
  304.378  112.544    0.257    0.461    5.177
  304.628  116.436    0.229    0.481    5.486
  304.878  118.426    0.214    0.499    5.437
  305.128  121.125    0.201    0.504    4.966
  305.378  120.043    0.221    0.492    4.737
