~VERSION INFORMATION
 VERS.                 2.0:   CWLS LOG ASCII STANDARD -VERSION 2.0
 WRAP.                  NO:   ONE LINE PER DEPTH STEP
~WELL INFORMATION BLOCK
#MNEM.UNIT           DATA                    DESCRIPTION OF MNEMONIC
#---------    -------------------            -------------------------------
# Generated from Intellog Unique Number	CS_73_76/WELL/3263
WELL.         BOW VALLEY EXPLORATION         : Well_name    - WELL
LOC .         00/11-12-076-13W4/0            : Location     - LOCATION
UWI .         00/11-12-076-13W4/0            : Uwi          - UNIQUE WELL ID
ENTR.         SP                             : Entered      - ENTERED BY
SRVC.         SCHLUMBERGER                   : Scn          - SERVICE COMPANY
STRT.M        350                            : top_depth    - START DEPTH
STOP.M        580                            : bot_depth    - STOP DEPTH
STEP.M        0.25                           : increment    - STEP LENGTH
 NULL. -999.2500:NULL Value
~CURVE INFORMATION BLOCK
#MNEM UNIT       ERCB CURVE CODE    CURVE DESCRIPTION
#-----------   ------------------   ----------------------------------
DEPT.M        00 001 00 00         : DEPTH        - DEPTH
ILD .OHMM     00 120 00 00         : RESD         - DEEP RESISTIVITY (DIL)
NPHI.V/V      00 330 00 00         : PHIN         - NEUTRON POROSITY (LIMESTONE)
DPHI.V/V      00 890 00 00         : PHID         - DENSITY POROSITY (LIMESTONE)
GR  .API      00 310 00 00         : GR           - GAMMA RAY
~PARAMETER INFORMATION
#MNEM.UNIT           DATA             DESCRIPTION OF MNEMONIC
#---------         -----------     ------------------------------
GL  .M        728.9                : gl           - GROUND LEVEL ELEVATION
EREF.M        731.6                : kb           - ELEVATION OF DEPTH REFERENCE
DATM.M        728.9                : datum        - DATUM ELEVATION
TDD .M        593                  : tdd          - TOTAL DEPTH DRILLER
RUN .         ONE                  : Run          - RUN NUMBER
ENG .         BILL                 : Engineer     - RECORDING ENGINEER
WIT .         JIM                  : Witness      - WITNESSED BY
MUD .         GEL                  : Mud_type     - MUD TYPE
MATR.         LIMESTONE            : Logunit      - NEUTRON MATRIX
TMAX.C        22                   : BHT          - MAXIMUM RECORDED TEMPERATURE
BHTD.M        593                  : BHTDEP       - MAXIMUM RECORDED TEMPERATURE
MATR.         1                    : LOGUNIT      - NEUTRON MATRIX
RMT .C        25                   : MDTP         - TEMPERATURE OF MUD
NEUT.         1                    : NEUTRON      - NEUTRON TYPE
RESI.         0                    : RESIST       - RESISTIVITY TYPE
RMC .OHMM     0.25                 : RMC          - RESISTIVITY OF MUD CAKE
RMF .OHMM     0.25                 : RMF          - RESISTIVITY OF MUD FILTRATE
SUFT.C        15                   : SUFT         - SURFACE TEMPERATURE
~A  DEPTH     RESD     PHIN     PHID       GR
  350.000    4.023    0.518    0.214  106.452
  350.250    4.023    0.513    0.214  105.847
  350.500    4.097    0.487    0.200  104.637
  350.750    4.096    0.481    0.181  108.871
  351.000    4.095    0.489    0.194  109.476
  351.250    3.943    0.494    0.212  108.871
  351.500    3.870    0.504    0.196  108.266
  351.750    3.798    0.519    0.208  111.290
  352.000    3.727    0.528    0.196  114.315
  352.250    3.656    0.535    0.192  115.524
  352.500    3.588    0.536    0.200  114.315
  352.750    3.654    0.517    0.199  113.105
  353.000    3.721    0.530    0.199  112.500
  353.250    3.933    0.537    0.201  111.290
  353.500    4.081    0.545    0.201  111.290
  353.750    4.234    0.539    0.193  110.685
  354.000    4.474    0.505    0.198  108.266
  354.250    4.230    0.484    0.204  107.056
  354.500    4.075    0.462    0.208  102.218
  354.750    4.150    0.481    0.223   99.798
  355.000    4.812    0.499    0.240   99.798
  355.250    6.847    0.517    0.275   99.194
  355.500    9.212    0.537    0.306   94.355
  355.750   10.882    0.563    0.333   89.516
  356.000   11.937    0.580    0.364   84.677
  356.250   12.385    0.429    0.401   78.024
  356.500   13.089    0.417    0.345   74.395
  356.750   14.094    0.419    0.233   94.355
  357.000   15.459    0.418    0.213   96.774
  357.250   15.742    0.415    0.193   92.540
  357.500   15.739    0.393    0.151   85.887
  357.750   15.159    0.356    0.076   80.444
  358.000   14.600    0.327    0.007   75.000
  358.250   14.328    0.345    0.043   71.976
  358.500   14.057    0.376    0.248   79.839
  358.750   13.795    0.401    0.259   88.911
  359.000   13.538    0.416    0.274   88.911
  359.250   12.800    0.430    0.283   86.492
  359.500   11.880    0.424    0.289   84.677
  359.750   11.874    0.415    0.263   85.887
  360.000   12.319    0.410    0.253   86.492
  360.250   12.782    0.421    0.248   87.702
  360.500   13.509    0.441    0.265   88.306
  360.750   13.758    0.458    0.287   88.911
  361.000   13.500    0.436    0.268   85.887
  361.250   12.764    0.427    0.265   87.097
  361.500   10.796    0.420    0.244   88.306
  361.750    9.836    0.418    0.233   91.936
  362.000    8.795    0.418    0.223  101.008
  362.250    8.317    0.422    0.216  117.339
  362.500    7.862    0.418    0.206  119.153
  362.750    7.716    0.415    0.209  115.524
  363.000    7.858    0.415    0.192  116.734
  363.250    8.618    0.424    0.197  116.734
  363.500   10.374    0.434    0.213  116.129
  363.750   12.486    0.441    0.228  105.847
  364.000   15.310    0.452    0.260   97.379
  364.250   17.428    0.444    0.277   93.145
  364.500   18.079    0.419    0.297   87.702
  364.750   18.074    0.424    0.283   88.911
  365.000   17.411    0.429    0.276   91.331
  365.250   16.771    0.436    0.283   93.750
  365.500   15.564    0.427    0.292   93.750
  365.750   15.274    0.417    0.295   96.774
  366.000   15.266    0.423    0.295  102.218
  366.250   15.263    0.427    0.287  104.637
  366.500   15.835    0.418    0.276  105.847
  366.750   16.737    0.407    0.265  106.452
  367.000   17.043    0.418    0.271  104.637
  367.250   17.355    0.415    0.275   92.540
  367.500   17.677    0.374    0.233   87.097
  367.750   17.999    0.326    0.213   76.210
  368.000   18.332    0.351    0.193   71.371
  368.250   19.018    0.357    0.177   75.000
  368.500   19.368    0.364    0.201   79.839
  368.750   19.362    0.381    0.235   81.048
  369.000   18.999    0.369    0.258   64.718
  369.250   18.642    0.381    0.246   62.903
  369.500   17.956    0.387    0.223   61.089
  369.750   16.359    0.374    0.234   60.484
  370.000   14.361    0.360    0.246   64.718
  370.250   11.488    0.379    0.234   71.371
  370.500   10.085    0.397    0.201   92.540
  370.750    8.853    0.403    0.145  101.613
  371.000    7.627    0.406    0.173  109.476
  371.250    6.949    0.412    0.195  116.129
  371.500    6.330    0.417    0.176  118.548
  371.750    5.985    0.421    0.123  122.177
  372.000    5.873    0.426    0.118  125.202
  372.250    5.870    0.446    0.141  129.435
  372.500    5.869    0.464    0.156  133.065
  372.750    5.760    0.481    0.139  134.274
  373.000    5.652    0.497    0.124  129.435
  373.250    5.444    0.491    0.100  124.597
  373.500    5.052    0.479    0.091  126.411
  373.750    4.689    0.477    0.112  128.831
  374.000    4.271    0.488    0.106  137.903
  374.250    4.039    0.505    0.122  139.113
  374.500    3.679    0.518    0.147  140.323
  374.750    3.544    0.541    0.169  139.113
  375.000    3.543    0.541    0.174  139.113
  375.250    4.109    0.529    0.186  139.718
  375.500    4.765    0.529    0.214  140.323
  375.750    6.412    0.535    0.209  137.298
  376.000    9.466    0.535    0.227  131.855
  376.250   10.577    0.464    0.244  128.831
  376.500   11.388    0.435    0.250  123.387
  376.750   11.599    0.442    0.239  115.524
  377.000   12.034    0.447    0.232  113.105
  377.250   12.253    0.451    0.232  115.524
  377.500   12.250    0.453    0.234  117.339
  377.750   12.246    0.420    0.238  118.548
  378.000   12.240    0.423    0.250  110.081
  378.250   12.238    0.426    0.274  101.008
  378.500   11.786    0.422    0.282   96.169
  378.750   11.567    0.428    0.258   96.774
  379.000    9.967    0.441    0.218   99.798
  379.250    7.826    0.451    0.186  109.476
  379.500    7.130    0.461    0.176  130.645
  379.750    7.966    0.467    0.162  129.435
  380.000    8.578    0.451    0.173  128.226
  380.250   10.135    0.447    0.184  128.831
  380.500   11.537    0.430    0.187  127.016
  380.750   12.656    0.412    0.203  122.177
  381.000   13.128    0.409    0.210  119.758
  381.250   13.371    0.415    0.214  120.363
  381.500   13.121    0.420    0.224  119.153
  381.750   13.117    0.424    0.234  113.710
  382.000   12.871    0.438    0.244  105.242
  382.250   12.398    0.440    0.251   97.379
  382.500   11.506    0.417    0.240   93.750
  382.750   10.878    0.418    0.216  102.823
  383.000   10.479    0.424    0.184  116.734
  383.250    9.546    0.417    0.199  128.831
  383.500    9.196    0.408    0.205  130.040
  383.750    9.192    0.399    0.206  128.831
  384.000    9.361    0.392    0.205  126.411
  384.250   10.460    0.414    0.192  126.411
  384.500   11.907    0.425    0.185  126.411
  384.750   12.823    0.429    0.190  120.968
  385.000   13.807    0.427    0.192  109.476
  385.250   15.143    0.415    0.193   92.540
  385.500   15.708    0.409    0.209   77.419
  385.750   15.416    0.406    0.225   75.000
  386.000   14.308    0.404    0.258   80.444
  386.250   12.102    0.416    0.265   86.492
  386.500   10.823    0.428    0.258   99.194
  386.750    9.501    0.421    0.246  107.056
  387.000    8.035    0.420    0.220  116.129
  387.250    7.186    0.438    0.194  122.782
  387.500    6.794    0.443    0.192  125.806
  387.750    6.544    0.450    0.188  124.597
  388.000    6.789    0.453    0.180  123.387
  388.250    7.310    0.467    0.180  120.363
  388.500    8.169    0.481    0.191  114.919
  388.750    8.961    0.493    0.215  107.056
  389.000    8.472    0.469    0.237  102.218
  389.250    7.437    0.456    0.251   94.960
  389.500    6.775    0.452    0.253   91.331
  389.750    6.406    0.456    0.232  105.242
  390.000    6.286    0.478    0.222  119.758
  390.250    6.168    0.491    0.226  121.573
  390.500    6.642    0.492    0.223  120.968
  390.750    7.151    0.480    0.220  120.363
  391.000    7.990    0.461    0.225  121.573
  391.250    8.446    0.446    0.221  119.758
  391.500    9.613    0.449    0.221  117.339
  391.750    9.976    0.441    0.228  111.290
  392.000   10.942    0.433    0.234  108.871
  392.250   12.226    0.438    0.240  103.427
  392.500   12.921    0.439    0.252   99.194
  392.750   12.918    0.440    0.264   91.936
  393.000   12.675    0.451    0.279   87.097
  393.250   11.986    0.455    0.262   96.169
