~VERSION INFORMATION
 VERS.                 2.0:   CWLS LOG ASCII STANDARD -VERSION 2.0
 WRAP.                  NO:   ONE LINE PER DEPTH STEP
~WELL INFORMATION BLOCK
#MNEM.UNIT           DATA                    DESCRIPTION OF MNEMONIC
#---------    -------------------            -------------------------------
# Generated from Intellog Unique Number	CS_73_76/WELL/3279
WELL.         BAAY LAND CONSULTANTS LTD.     : Well_name    - WELL
LOC .         00/16-04-075-05W4/0            : Location     - LOCATION
UWI .         00/16-04-075-05W4/0            : Uwi          - UNIQUE WELL ID
ENTR.         SP                             : Entered      - ENTERED BY
SRVC.         SCHLUMBERGER                   : Scn          - SERVICE COMPANY
STRT.M        243.84                         : top_depth    - START DEPTH
STOP.M        460.09                         : bot_depth    - STOP DEPTH
STEP.M        0.25                           : increment    - STEP LENGTH
 NULL. -999.2500:NULL Value
~CURVE INFORMATION BLOCK
#MNEM UNIT       ERCB CURVE CODE    CURVE DESCRIPTION
#-----------   ------------------   ----------------------------------
DEPT.M        00 001 00 00         : DEPTH        - DEPTH
GR  .API      00 310 00 00         : GR           - GAMMA RAY
DPHI.V/V      00 890 00 00         : PHID         - DENSITY POROSITY (SANDSTONE)
NPHI.V/V      00 330 00 00         : PHIN         - NEUTRON POROSITY (SANDSTONE)
ILD .OHMM     00 120 00 00         : RESD         - DEEP RESISTIVITY (DIL)
~PARAMETER INFORMATION
#MNEM.UNIT           DATA             DESCRIPTION OF MNEMONIC
#---------         -----------     ------------------------------
GL  .M        649.834              : gl           - GROUND LEVEL ELEVATION
EREF.M        652.272              : kb           - ELEVATION OF DEPTH REFERENCE
DATM.M        649.834              : datum        - DATUM ELEVATION
TDD .M        559.308              : tdd          - TOTAL DEPTH DRILLER
RUN .         ONE                  : Run          - RUN NUMBER
ENG .         BILL                 : Engineer     - RECORDING ENGINEER
WIT .         JIM                  : Witness      - WITNESSED BY
MUD .         GEL                  : Mud_type     - MUD TYPE
MATR.         SANDSTONE            : Logunit      - NEUTRON MATRIX
TMAX.C        26.6667              : BHT          - MAXIMUM RECORDED TEMPERATURE
BHTD.M        559.308              : BHTDEP       - MAXIMUM RECORDED TEMPERATURE
MATR.         1                    : LOGUNIT      - NEUTRON MATRIX
RMT .C        25                   : MDTP         - TEMPERATURE OF MUD
NEUT.         1                    : NEUTRON      - NEUTRON TYPE
RESI.         0                    : RESIST       - RESISTIVITY TYPE
RMC .OHMM     0.25                 : RMC          - RESISTIVITY OF MUD CAKE
RMF .OHMM     0.25                 : RMF          - RESISTIVITY OF MUD FILTRATE
SUFT.C        15                   : SUFT         - SURFACE TEMPERATURE
~A  DEPTH       GR     PHID     PHIN     RESD
# ...
  287.340   80.013    0.298    0.432    9.399
  287.590   93.370    0.265    0.411    8.846
  287.840  101.211    0.236    0.422    8.323
  288.090  108.161    0.201    0.446    7.832
  288.340  110.831    0.207    0.468    7.366
  288.590  112.755    0.219    0.483    7.062
  288.840  115.751    0.222    0.475    6.811
  289.090  116.964    0.234    0.487    6.476
  289.340  114.115    0.245    0.500    6.464
  289.590  110.468    0.252    0.508    6.452
  289.840  105.420    0.202    0.509    6.560
  290.090  103.248    0.216    0.504    6.612
  290.340  105.023    0.245    0.502    6.820
  290.590  103.350    0.269    0.498    6.899
  290.840  103.184    0.277    0.491    7.066
  291.090  102.507    0.271    0.481    7.199
  291.340   99.294    0.278    0.470    7.175
  291.590   97.397    0.275    0.458    7.329
  291.840   96.572    0.268    0.454    7.452
  292.090   99.471    0.245    0.452    7.435
  292.340  102.204    0.240    0.444    7.596
  292.590  103.159    0.240    0.435    7.713
  292.840  102.203    0.253    0.431    7.707
  293.090  102.867    0.249    0.426    7.876
  293.340  106.945    0.230    0.428    7.872
  293.590  111.773    0.228    0.467    7.649
  293.840  105.105    0.236    0.486    7.419
  294.090   98.527    0.247    0.488    6.964
  294.340   92.956    0.246    0.482    6.742
  294.590   85.408    0.270    0.489    6.405
  294.840   75.981    0.292    0.455    6.343
  295.090   69.228    0.282    0.430    6.163
  295.340   80.142    0.265    0.425    6.070
  295.590   88.013    0.236    0.454    5.811
  295.840   94.922    0.209    0.484    5.821
  296.090   97.750    0.231    0.529    5.930
  296.340   97.098    0.254    0.546    5.840
  296.590   94.725    0.276    0.531    6.169
  296.840   87.660    0.283    0.483    6.446
  297.090   83.737    0.265    0.459    6.661
  297.340   80.661    0.235    0.435    6.867
  297.590   82.546    0.238    0.451    6.946
  297.840   85.926    0.258    0.454    6.926
  298.090   87.751    0.245    0.446    6.493
  298.340   89.757    0.234    0.436    6.231
  298.590   90.932    0.226    0.449    6.021
  298.840   91.427    0.235    0.465    5.918
  299.090   90.579    0.240    0.478    5.908
  299.340   88.144    0.243    0.493    5.902
  299.590   86.790    0.236    0.498    5.911
  299.840   85.123    0.223    0.464    5.789
  300.090   84.210    0.209    0.442    5.676
  300.340   83.206    0.205    0.440    5.689
  300.590   81.828    0.257    0.432    5.526
  300.840   77.114    0.266    0.441    5.469
  301.090   72.402    0.277    0.450    5.301
  301.340   69.130    0.284    0.453    5.138
  301.590   69.344    0.272    0.451    5.075
  301.840   71.918    0.265    0.441    4.917
  302.090   75.121    0.276    0.433    4.887
  302.340   78.048    0.287    0.436    4.884
  302.590   81.983    0.278    0.441    4.882
  302.840   84.392    0.272    0.448    4.880
  303.090   85.120    0.261    0.457    4.879
  303.340   80.242    0.241    0.476    4.890
  303.590   70.379    0.240    0.488    4.691
  303.840   66.121    0.260    0.511    4.509
  304.090   65.192    0.305    0.527    4.161
  304.340   62.389    0.327    0.505    4.050
  304.590   60.073    0.330    0.447    3.967
  304.840   58.958    0.327    0.447    3.974
  305.090   56.471    0.333    0.447    3.898
  305.340   55.987    0.335    0.440    3.975
  305.590   57.917    0.331    0.433    3.965
  305.840   61.466    0.333    0.446    3.963
  306.090   63.455    0.335    0.454    3.955
  306.340   65.412    0.331    0.466    4.038
  306.590   65.515    0.326    0.472    4.025
  306.840   64.340    0.322    0.470    4.133
  307.090   62.336    0.319    0.465    4.259
  307.340   60.823    0.310    0.459    4.357
  307.590   58.057    0.317    0.460    4.518
  307.840   55.272    0.329    0.459    4.662
  308.090   52.281    0.307    0.487    4.711
  308.340   49.570    0.301    0.442    4.737
  308.590   46.576    0.301    0.424    4.512
  308.840   44.127    0.294    0.424    4.369
  309.090   44.105    0.284    0.410    4.235
  309.340   46.899    0.296    0.392    4.098
  309.590   52.579    0.287    0.401    4.060
  309.840   56.594    0.282    0.421    4.013
  310.090   59.198    0.292    0.432    3.940
  310.340   51.777    0.303    0.439    4.099
  310.590   46.386    0.312    0.415    4.082
  310.840   43.684    0.303    0.407    3.997
  311.090   43.258    0.310    0.417    3.990
  311.340   42.782    0.317    0.428    3.860
  311.590   43.340    0.325    0.427    3.863
  311.840   45.408    0.317    0.415    3.776
  312.090   46.412    0.323    0.428    3.786
  312.340   44.963    0.317    0.424    3.671
  312.590   43.382    0.312    0.426    3.638
  312.840   43.760    0.321    0.433    3.524
  313.090   45.455    0.330    0.426    3.436
  313.340   47.014    0.306    0.432    3.440
  313.590   49.250    0.299    0.431    3.328
  313.840   48.972    0.309    0.420    3.302
  314.090   45.896    0.311    0.412    3.193
  314.340   44.584    0.301    0.409    3.161
  314.590   44.900    0.305    0.418    3.061
  314.840   47.495    0.300    0.427    2.968
  315.090   48.537    0.304    0.430    2.880
  315.340   48.771    0.309    0.422    2.798
  315.590   49.304    0.318    0.418    2.756
  315.840   49.593    0.328    0.433    2.747
  316.090   50.640    0.328    0.447    2.744
  316.340   51.231    0.320    0.460    2.748
  316.590   51.239    0.329    0.464    2.687
  316.840   50.618    0.319    0.433    2.691
  317.090   49.647    0.299    0.410    2.696
  317.340   48.672    0.292    0.402    2.637
  317.590   47.700    0.304    0.405    2.593
  317.840   46.715    0.313    0.426    2.568
  318.090   47.680    0.323    0.447    2.486
  318.340   56.321    0.335    0.477    2.407
  318.590   62.603    0.315    0.490    2.387
  318.840   65.599    0.309    0.486    2.313
  319.090   65.570    0.311    0.483    2.285
  319.340   64.893    0.321    0.491    2.229
  319.590   61.308    0.332    0.498    2.186
  319.840   59.697    0.310    0.485    2.163
  320.090   56.724    0.305    0.473    2.102
  320.340   56.032    0.306    0.482    2.106
  320.590   55.372    0.300    0.488    2.061
  320.840   55.407    0.303    0.488    2.056
  321.090   55.963    0.294    0.481    2.027
  321.340   55.481    0.320    0.489    1.988
  321.590   54.279    0.313    0.497    1.949
  321.840   55.801    0.321    0.502    1.921
  322.090   57.849    0.312    0.480    1.914
  322.340   58.438    0.301    0.472    1.911
  322.590   57.938    0.301    0.478    1.875
  322.840   58.495    0.314    0.488    1.875
  323.090   59.045    0.323    0.491    1.876
  323.340   59.396    0.323    0.487    1.838
  323.590   57.643    0.311    0.484    1.841
  323.840   56.740    0.314    0.476    1.807
  324.090   56.279    0.311    0.471    1.805
  324.340   58.088    0.314    0.473    1.804
  324.590   60.604    0.308    0.479    1.806
  324.840   61.305    0.309    0.479    1.769
  325.090   59.609    0.318    0.476    1.735
  325.340   60.019    0.318    0.479    1.711
  325.590   62.657    0.327    0.483    1.707
  325.840   63.874    0.333    0.493    1.671
  326.090   64.908    0.335    0.498    1.649
  326.340   65.037    0.327    0.484    1.631
  326.590   65.060    0.319    0.472    1.608
  326.840   65.428    0.310    0.474    1.611
  327.090   65.638    0.310    0.485    1.575
  327.340   65.692    0.312    0.495    1.578
  327.590   64.727    0.312    0.482    1.577
  327.840   64.614    0.300    0.478    1.575
  328.090   66.633    0.309    0.478    1.601
  328.340   68.415    0.301    0.477    1.614
  328.590   69.401    0.310    0.467    1.666
  328.840   73.022    0.306    0.462    1.715
  329.090   74.903    0.268    0.467    1.817
  329.340   75.823    0.248    0.467    1.891
  329.590   78.959    0.254    0.475    1.924
  329.840   84.032    0.261    0.501    1.963
  330.090   87.498    0.270    0.524    1.993
  330.340   90.849    0.267    0.548    2.057
  330.590   92.747    0.257    0.551    2.069
