~VERSION INFORMATION
 VERS.                 2.0:   CWLS LOG ASCII STANDARD -VERSION 2.0
 WRAP.                  NO:   ONE LINE PER DEPTH STEP
~WELL INFORMATION BLOCK
#MNEM.UNIT           DATA                    DESCRIPTION OF MNEMONIC
#---------    -------------------            -------------------------------
# Generated from Intellog Unique Number	CW_82_90/WELL/3457
WELL.         TEXACO WOODEN                  : Well_name    - WELL
LOC .         00/16-29-088-23W4/0            : Location     - LOCATION
UWI .         00/16-29-088-23W4/0            : Uwi          - UNIQUE WELL ID
ENTR.         MAX                            : Entered      - ENTERED BY
SRVC.         WESTERN ATLAS                  : Scn          - SERVICE COMPANY
STRT.M        95                             : top_depth    - START DEPTH
STOP.M        270                            : bot_depth    - STOP DEPTH
STEP.M        0.25                           : increment    - STEP LENGTH
 NULL. -999.2500:NULL Value
~CURVE INFORMATION BLOCK
#MNEM UNIT       ERCB CURVE CODE    CURVE DESCRIPTION
#-----------   ------------------   ----------------------------------
DEPT.M        00 001 00 00         : DEPTH        - DEPTH
GR  .API      00 310 00 00         : GR           - GAMMA RAY
CALI.MM       00 280 01 00         : CAL          - CALIPER
DPHI.V/V      00 890 00 00         : PHID         - DENSITY POROSITY (SANDSTONE)
NPHI.V/V      00 330 00 00         : PHIN         - NEUTRON POROSITY (SANDSTONE)
ILD .OHMM     00 120 00 00         : RESD         - DEEP RESISTIVITY (DIL)
~PARAMETER INFORMATION
#MNEM.UNIT           DATA             DESCRIPTION OF MNEMONIC
#---------         -----------     ------------------------------
GL  .M        503                  : gl           - GROUND LEVEL ELEVATION
EREF.M        506                  : kb           - ELEVATION OF DEPTH REFERENCE
DATM.M        503                  : datum        - DATUM ELEVATION
TDD .M        272                  : tdd          - TOTAL DEPTH DRILLER
RUN .         ONE                  : Run          - RUN NUMBER
ENG .         BILL                 : Engineer     - RECORDING ENGINEER
WIT .         JIM                  : Witness      - WITNESSED BY
MUD .         GEL                  : Mud_type     - MUD TYPE
MATR.         SANDSTONE            : Logunit      - NEUTRON MATRIX
TMAX.C        21                   : BHT          - MAXIMUM RECORDED TEMPERATURE
BHTD.M        272                  : BHTDEP       - MAXIMUM RECORDED TEMPERATURE
MATR.         1                    : LOGUNIT      - NEUTRON MATRIX
RMT .C        18                   : MDTP         - TEMPERATURE OF MUD
NEUT.         1                    : NEUTRON      - NEUTRON TYPE
RESI.         0                    : RESIST       - RESISTIVITY TYPE
RMC .OHMM     3                    : RMC          - RESISTIVITY OF MUD CAKE
RMF .OHMM     3.7                  : RMF          - RESISTIVITY OF MUD FILTRATE
SUFT.C        1                    : SUFT         - SURFACE TEMPERATURE
~A  DEPTH       GR      CAL     PHID     PHIN     RESD
# ...
  204.500  110.651  242.538    0.208    0.378   12.553
  204.750  116.036  244.556    0.200    0.390   10.835
  205.000  120.827  248.573    0.194    0.388    8.372
  205.250  123.232  251.097    0.185    0.384    7.362
  205.500  124.448  252.117    0.176    0.378    7.098
  205.750  122.977  253.150    0.175    0.374    7.167
  206.000  120.915  252.684    0.176    0.374    7.510
  206.250  120.045  249.745    0.186    0.366    8.016
  206.500  120.660  247.794    0.201    0.365    8.171
  206.750  122.169  247.328    0.207    0.372    8.174
  207.000  126.064  254.321    0.208    0.382    8.254
  207.250  129.663  255.355    0.206    0.388    8.108
  207.500  130.579  256.383    0.205    0.370    7.818
  207.750  129.711  256.415    0.200    0.358    7.539
  208.000  129.432  256.951    0.198    0.363    7.404
  208.250  129.749  256.987    0.197    0.365    7.687
  208.500  131.265  256.521    0.200    0.364    7.834
  208.750  132.175  254.575    0.202    0.365    7.767
  209.000  133.394  254.611    0.207    0.371    7.285
  209.250  134.908  255.639    0.210    0.371    7.089
  209.500  135.520  254.194    0.210    0.368    6.774
  209.750  135.541  253.729    0.211    0.386    6.353
  210.000  134.671  252.767    0.213    0.389    6.182
  210.250  132.610  248.341    0.214    0.363    6.301
  210.500  131.737  247.375    0.216    0.356    6.664
  210.750  131.157  246.923    0.216    0.353    7.178
  211.000  129.095  245.961    0.215    0.347    7.805
  211.250  126.137  242.023    0.208    0.341    8.563
  211.500  124.073  239.084    0.188    0.336    9.932
  211.750  122.008  241.106    0.176    0.328   10.216
  212.000  119.050  246.108    0.192    0.318   10.413
  212.250  117.581  245.154    0.214    0.328   10.227
  212.500  118.199  245.181    0.224    0.340    9.592
  212.750  122.987  246.707    0.224    0.351    8.997
  213.000  128.077  247.735    0.224    0.358    8.756
  213.250  128.995  247.279    0.223    0.354    8.760
  213.500  129.014  247.310    0.222    0.348    8.765
  213.750  129.631  247.346    0.223    0.350    8.610
  214.000  131.148  247.882    0.223    0.364    8.379
  214.250  132.060  248.424    0.223    0.382    8.306
  214.500  132.975  248.455    0.222    0.393    8.310
  214.750  133.297  248.991    0.222    0.391    8.316
  215.000  133.614  249.018    0.222    0.367    8.319
  215.250  132.742  248.069    0.223    0.358    8.249
  215.500  130.379  247.599    0.223    0.353    8.252
  215.750  129.209  247.138    0.223    0.353    8.031
  216.000  130.427  246.185    0.222    0.363    7.744
  216.250  131.343  245.724    0.220    0.369    7.198
  216.500  131.657  244.270    0.220    0.368    7.069
  216.750  132.277  243.312    0.223    0.370    7.008
  217.000  132.593  241.858    0.225    0.382    7.011
  217.250  129.340  241.898    0.229    0.389    6.887
  217.500  130.550  240.936    0.232    0.391    6.702
  217.750  132.657  239.983    0.232    0.391    6.463
  218.000  135.068  238.529    0.232    0.388    5.896
  218.250  136.576  237.575    0.230    0.393    4.950
  218.500  138.689  237.602    0.228    0.408    4.005
  218.750  139.006  237.642    0.223    0.405    3.587
  219.000  135.151  237.678    0.216    0.379    3.096
  219.250  128.915  237.718    0.205    0.370    3.041
  219.500  122.083  239.740    0.198    0.362    3.306
  219.750  116.740  241.767    0.206    0.362    3.730
  220.000  114.676  243.780    0.192    0.389    4.247
  220.250  116.187  245.806    0.182    0.378    4.971
  220.500  120.976  246.835    0.169    0.365    6.038
  220.750  122.788  247.367    0.170    0.361    7.267
  221.000  118.340  247.900    0.183    0.350    7.474
  221.250  115.679  248.933    0.204    0.350    7.274
  221.500  122.256  249.962    0.207    0.367    7.145
  221.750  129.729  252.973    0.202    0.376    7.018
  222.000  135.708  257.478    0.197    0.370    6.522
  222.250  134.843  262.484    0.195    0.362    6.347
  222.500  133.369  263.517    0.200    0.357    6.351
  222.750  131.007  262.560    0.204    0.358    6.532
  223.000  130.134  264.085    0.205    0.362    6.782
  223.250  130.454  264.618    0.203    0.352    6.975
  223.500  130.475  262.166    0.198    0.346    7.044
  223.750  130.204  261.705    0.191    0.339    6.919
  224.000  129.326  261.248    0.181    0.325    7.117
  224.250  126.963  258.308    0.157    0.307    8.178
  224.500  125.793  257.346    0.133    0.290    9.662
  224.750  120.451  256.389    0.076    0.260   11.954
  225.000  112.725  254.438    0.071    0.242   16.220
  225.250  107.979  256.956    0.096    0.228   23.479
  225.500  105.914  257.493    0.119    0.223   34.301
  225.750  105.342  255.542    0.149    0.235   31.583
  226.000  107.157  254.088    0.183    0.250   28.287
  226.250  109.559  253.631    0.212    0.328   25.099
  226.500  112.856  253.162    0.217    0.366   20.309
  226.750  113.476  253.197    0.202    0.367   13.536
  227.000  112.005  252.745    0.186    0.354   10.654
  227.250  109.647  252.776    0.167    0.345   10.464
  227.500  107.280  253.313    0.156    0.329   11.273
  227.750  104.023  255.339    0.151    0.303   12.834
  228.000  100.474  256.359    0.145    0.295   15.446
  228.250   99.897  256.400    0.145    0.292   14.221
  228.500  100.514  255.934    0.166    0.300   12.276
  228.750  100.533  253.983    0.200    0.324   11.302
  229.000  102.941  253.522    0.223    0.339   10.218
  229.250  104.753  255.052    0.218    0.353    9.761
  229.500  106.264  255.584    0.194    0.359    9.948
  229.750  108.369  255.620    0.168    0.347   11.121
  230.000  108.688  255.656    0.132    0.329   12.089
  230.250  108.419  255.691    0.124    0.312   12.784
  230.500  108.135  255.736    0.142    0.302   13.152
  230.750  108.459  255.266    0.157    0.320   13.279
  231.000  108.779  254.313    0.167    0.333   13.044
  231.250  111.777  253.852    0.163    0.350   12.695
  231.500  117.758  254.885    0.161    0.346   12.018
  231.750  117.484  255.909    0.176    0.320   10.763
  232.000  116.609  256.446    0.181    0.328   10.283
  232.250  118.423  256.477    0.173    0.350    9.914
  232.500  123.508  257.519    0.163    0.342    9.832
  232.750  125.317  257.546    0.152    0.335    9.391
  233.000  122.361  257.081    0.154    0.333    9.310
  233.250  120.595  256.123    0.161    0.335    9.577
  233.500  119.719  255.165    0.162    0.339    9.850
  233.750  118.552  253.716    0.155    0.344   10.133
  234.000  116.487  252.758    0.156    0.348   10.137
  234.250  114.423  251.800    0.166    0.355    9.866
  234.500  112.656  252.337    0.165    0.367    9.602
  234.750  117.450  253.867    0.160    0.367    9.696
  235.000  117.764  253.898    0.167    0.346    9.615
  235.250  118.086  253.934    0.173    0.350    9.796
  235.500  120.492  253.969    0.178    0.366    9.623
  235.750  123.493  254.009    0.174    0.371    9.717
  236.000  123.511  254.049    0.168    0.369    9.722
  236.250  122.346  254.085    0.169    0.363    9.638
  236.500  121.471  254.608    0.171    0.357    9.467
  236.750  121.194  254.644    0.175    0.356    9.471
  237.000  121.216  254.680    0.176    0.366    9.477
  237.250  121.538  254.715    0.167    0.363    9.308
  237.500  121.854  253.762    0.158    0.354    9.228
  237.750  121.578  253.301    0.147    0.350    9.148
  238.000  121.301  253.337    0.134    0.345    9.153
  238.250  120.136  253.878    0.130    0.342    9.415
  238.500  119.559  254.406    0.134    0.333    9.509
  238.750  118.388  255.430    0.155    0.336    9.425
  239.000  120.198  257.452    0.170    0.363    9.172
  239.250  125.880  258.485    0.169    0.377    8.845
  239.500  127.988  259.013    0.170    0.362    8.768
  239.750  127.413  259.545    0.169    0.358    8.854
  240.000  128.033  259.093    0.166    0.353    9.024
  240.250  130.143  259.133    0.158    0.348    9.720
  240.500  132.247  259.160    0.151    0.340   10.667
  240.750  133.463  258.699    0.151    0.333   11.385
