~VERSION INFORMATION
 VERS.                 2.0:   CWLS LOG ASCII STANDARD -VERSION 2.0
 WRAP.                  NO:   ONE LINE PER DEPTH STEP
~WELL INFORMATION BLOCK
#MNEM.UNIT           DATA                    DESCRIPTION OF MNEMONIC
#---------    -------------------            -------------------------------
# Generated from Intellog Unique Number	CW_82_90/WELL/3454
WELL.         TEXACO CORN LAKE               : Well_name    - WELL
LOC .         00/11-24-088-25W4/0            : Location     - LOCATION
UWI .         00/11-24-088-25W4/0            : Uwi          - UNIQUE WELL ID
ENTR.         MAX                            : Entered      - ENTERED BY
SRVC.         SCHLUMBERGER                   : Scn          - SERVICE COMPANY
STRT.M        190                            : top_depth    - START DEPTH
STOP.M        422                            : bot_depth    - STOP DEPTH
STEP.M        0.25                           : increment    - STEP LENGTH
 NULL. -999.2500:NULL Value
~CURVE INFORMATION BLOCK
#MNEM UNIT       ERCB CURVE CODE    CURVE DESCRIPTION
#-----------   ------------------   ----------------------------------
DEPT.M        00 001 00 00         : DEPTH        - DEPTH
ILD .OHMM     00 120 00 00         : RESD         - DEEP RESISTIVITY (DIL)
NPHI.V/V      00 330 00 00         : PHIN         - NEUTRON POROSITY (SANDSTONE)
DPHI.V/V      00 890 00 00         : PHID         - DENSITY POROSITY (SANDSTONE)
CALI.MM       00 280 01 00         : CAL          - CALIPER
GR  .API      00 310 00 00         : GR           - GAMMA RAY
~PARAMETER INFORMATION
#MNEM.UNIT           DATA             DESCRIPTION OF MNEMONIC
#---------         -----------     ------------------------------
GL  .M        623.1                : gl           - GROUND LEVEL ELEVATION
EREF.M        626.7                : kb           - ELEVATION OF DEPTH REFERENCE
DATM.M        623.1                : datum        - DATUM ELEVATION
TDD .M        424.8                : tdd          - TOTAL DEPTH DRILLER
RUN .         ONE                  : Run          - RUN NUMBER
ENG .         BILL                 : Engineer     - RECORDING ENGINEER
WIT .         JIM                  : Witness      - WITNESSED BY
MUD .         GEL                  : Mud_type     - MUD TYPE
MATR.         SANDSTONE            : Logunit      - NEUTRON MATRIX
TMAX.C        31                   : BHT          - MAXIMUM RECORDED TEMPERATURE
BHTD.M        424.8                : BHTDEP       - MAXIMUM RECORDED TEMPERATURE
MATR.         1                    : LOGUNIT      - NEUTRON MATRIX
RMT .C        21                   : MDTP         - TEMPERATURE OF MUD
NEUT.         1                    : NEUTRON      - NEUTRON TYPE
RESI.         0                    : RESIST       - RESISTIVITY TYPE
RMC .OHMM     4.03                 : RMC          - RESISTIVITY OF MUD CAKE
RMF .OHMM     4.45                 : RMF          - RESISTIVITY OF MUD FILTRATE
SUFT.C        -15                  : SUFT         - SURFACE TEMPERATURE
~A  DEPTH     RESD     PHIN     PHID      CAL       GR
# ...
  226.500   11.484    0.433    0.281  226.622   45.251
  226.750   11.729    0.443    0.304  226.684   45.591
  227.000   11.649    0.437    0.319  228.258   48.017
  227.250   11.044    0.424    0.327  228.330   50.432
  227.500    9.811    0.426    0.334  228.906   54.347
  227.750    8.476    0.431    0.334  232.961   57.650
  228.000    7.598    0.440    0.327  237.479   61.263
  228.250    6.878    0.449    0.324  245.465   64.579
  228.500    6.766    0.465    0.339  240.113   65.511
  228.750    7.239    0.469    0.366  238.713   65.856
  229.000    7.893    0.477    0.396  241.276   67.388
  229.250    8.136    0.471    0.360  250.744   68.332
  229.500    8.086    0.445    0.318  239.464   66.004
  229.750    7.951    0.427    0.292  234.605   66.053
  230.000    7.471    0.428    0.277  233.205   69.666
  230.250    6.453    0.442    0.267  233.792   73.865
  230.500    5.270    0.448    0.268  230.405   77.774
  230.750    4.597    0.458    0.229  231.475   81.676
  231.000    4.356    0.472    0.213  235.510   87.357
  231.250    4.247    0.483    0.216  236.590   92.168
  231.500    4.505    0.492    0.242  242.096   91.031
  231.750    4.600    0.477    0.262  242.682   89.586
  232.000    4.653    0.468    0.274  236.836   85.788
  232.250    4.621    0.475    0.284  240.870   83.466
  232.500    4.547    0.499    0.303  240.952   85.287
  232.750    4.475    0.509    0.284  245.491   87.115
  233.000    4.444    0.520    0.268  255.968   87.461
  233.250    4.415    0.516    0.252  250.595   86.034
  233.500    4.345    0.508    0.248  243.267   87.862
  233.750    4.317    0.494    0.242  246.817   89.097
  234.000    4.246    0.486    0.235  249.874   89.449
  234.250    4.216    0.481    0.227  251.417   88.602
  234.500    4.073    0.486    0.227  253.990   87.466
  234.750    3.970    0.494    0.234  251.087   86.039
  235.000    3.870    0.508    0.245  246.239   85.786
  235.250    3.773    0.500    0.259  248.781   88.219
  235.500    3.646    0.507    0.256  249.368   89.145
  235.750    3.553    0.534    0.234  246.486   89.200
  236.000    3.402    0.529    0.223  246.568   88.663
  236.250    3.315    0.522    0.229  245.178   88.409
  236.500    3.143    0.512    0.229  245.250   84.605
  236.750    2.952    0.516    0.233  244.838   83.179
  237.000    2.722    0.523    0.243  243.438   83.524
  237.250    2.557    0.534    0.268  242.038   83.864
  237.500    2.564    0.543    0.287  237.179   83.320
  237.750    2.743    0.538    0.281  227.875   82.493
  238.000    3.162    0.533    0.277  221.535   81.047
  238.250    3.609    0.523    0.272  221.617   73.384
  238.500    4.319    0.488    0.267  222.687   62.465
  238.750    5.725    0.458    0.259  223.757   56.586
  239.000    6.600    0.452    0.270  227.791   52.183
  239.250    6.998    0.445    0.316  225.413   47.490
  239.500    7.281    0.422    0.334  225.001   45.761
  239.750    7.370    0.403    0.306  228.541   47.594
  240.000    7.185    0.409    0.292  232.092   49.718
  240.250    6.619    0.415    0.288  235.138   52.145
  240.500    6.219    0.424    0.281  234.736   53.078
  240.750    6.232    0.441    0.271  233.336   52.546
  241.000    6.549    0.445    0.265  231.926   50.811
  241.250    7.072    0.428    0.272  226.080   49.075
  241.500    7.708    0.416    0.285  226.162   47.050
  241.750    8.171    0.419    0.297  225.750   43.548
  242.000    8.504    0.416    0.300  223.866   39.151
  242.250    8.685    0.410    0.290  222.466   36.539
  242.500    8.872    0.430    0.309  221.539   36.576
  242.750    8.975    0.417    0.308  220.644   38.700
  243.000    9.081    0.411    0.304  219.727   42.010
  243.250    9.277    0.423    0.309  218.821   46.808
  243.500    9.300    0.427    0.313  220.396   52.785
  243.750    9.410    0.424    0.318  220.972   53.427
  244.000    9.433    0.420    0.319  221.054   51.401
  244.250    9.457    0.413    0.299  219.674   47.894
  244.500    9.477    0.404    0.292  220.240   46.164
  244.750    9.504    0.402    0.288  220.816   46.510
  245.000    9.524    0.405    0.285  220.888   47.455
  245.250    9.551    0.406    0.282  219.992   48.992
  245.500    9.489    0.410    0.287  219.570   52.006
  245.750    9.512    0.416    0.301  220.146   55.013
  246.000    9.444    0.418    0.302  220.249   59.218
  246.250    9.380    0.418    0.297  219.826   63.121
  246.500    9.316    0.418    0.292  219.919   69.104
  246.750    9.170    0.426    0.286  219.991   71.235
  247.000    9.108    0.436    0.285  220.093   73.069
  247.250    8.879    0.427    0.293  220.165   73.698
  247.500    8.654    0.417    0.292  220.237   72.272
  247.750    8.129    0.409    0.299  220.813   67.275
  248.000    7.707    0.429    0.331  220.411   64.070
  248.250    7.654    0.465    0.367  219.999   67.973
  248.500    7.676    0.471    0.400  220.585   70.091
  248.750    7.910    0.458    0.433  220.173   72.814
  249.000    8.544    0.448    0.361  220.739   73.160
  249.250    9.144    0.440    0.317  221.809   72.326
  249.500    8.832    0.444    0.311  222.890   71.776
  249.750    7.917    0.441    0.314  223.466   71.825
  250.000    7.230    0.449    0.311  225.020   71.282
  250.250    7.248    0.462    0.306  231.040   71.924
  250.500    7.406    0.462    0.286  238.049   72.282
  250.750    7.356    0.442    0.271  240.591   73.214
  251.000    7.238    0.436    0.236  234.250   75.635
  251.250    7.254    0.423    0.227  226.932   78.352
  251.500    7.411    0.419    0.228  228.002   76.925
  251.750    7.711    0.420    0.227  226.098   73.707
  252.000    8.173    0.421    0.226  223.216   70.206
  252.250    8.504    0.418    0.229  221.816   70.842
  252.500    8.607    0.415    0.232  221.908   72.076
  252.750    8.469    0.424    0.237  221.980   73.910
  253.000    8.334    0.433    0.246  221.578   75.145
  253.250    7.753    0.429    0.241  221.681   74.910
  253.500    7.218    0.435    0.237  220.754   74.663
  253.750    6.969    0.448    0.234  219.848   74.700
  254.000    7.120    0.456    0.221  221.412   75.046
  254.250    7.341    0.458    0.224  224.459   73.613
  254.500    7.428    0.445    0.235  223.553   71.297
  254.750    7.376    0.441    0.252  223.645   71.643
  255.000    6.928    0.444    0.270  223.737   72.877
  255.250    5.765    0.445    0.274  223.305   73.810
  255.500    4.933    0.457    0.269  223.891   75.940
  255.750    4.144    0.482    0.266  228.924   77.774
  256.000    3.647    0.495    0.271  226.556   78.416
  256.250    3.331    0.492    0.282  225.630   78.163
  256.500    3.403    0.500    0.296  225.701   77.329
  256.750    3.779    0.512    0.310  227.286   75.297
  257.000    4.396    0.553    0.320  237.743   72.975
  257.250    6.336    0.526    0.306  233.862   73.617
  257.500    6.842    0.475    0.294  225.052   73.672
  257.750    7.460    0.450    0.276  222.653   71.943
  258.000    7.621    0.434    0.265  222.252   70.504
  258.250    7.499    0.439    0.261  222.344   67.293
  258.500    7.309    0.462    0.270  221.922   66.162
  258.750    7.196    0.471    0.281  222.014   66.798
  259.000    7.143    0.483    0.272  222.096   64.180
  259.250    7.165    0.481    0.268  222.168   63.642
  259.500    7.181    0.469    0.277  222.250   63.691
  259.750    7.132    0.454    0.292  222.332   63.741
  260.000    7.081    0.450    0.284  222.414   62.011
  260.250    7.099    0.454    0.271  222.002   60.282
  260.500    7.185    0.461    0.259  221.600   60.331
  260.750    7.342    0.457    0.239  222.187   59.498
  261.000    7.494    0.441    0.219  222.269   62.215
  261.250    7.515    0.434    0.225  222.351   63.449
  261.500    7.533    0.445    0.268  222.433   62.010
  261.750    7.554    0.446    0.292  221.033   59.404
  262.000    7.573    0.438    0.287  220.127   60.034
  262.250    7.589    0.441    0.279  219.715   61.269
  262.500    7.535    0.447    0.288  221.773   61.324
  262.750    7.556    0.452    0.299  222.853   60.787
