~VERSION INFORMATION
 VERS.                 2.0:   CWLS LOG ASCII STANDARD -VERSION 2.0
 WRAP.                  NO:   ONE LINE PER DEPTH STEP
~WELL INFORMATION BLOCK
#MNEM.UNIT           DATA                    DESCRIPTION OF MNEMONIC
#---------    -------------------            -------------------------------
# Generated from Intellog Unique Number	CN_91_93/WELL/2745
NULL.         -999.2500                      : Null_value
WELL.         11-10-093-18W4                 : Well_name    - WELL              
LOC .         00/11-10-093-18W4/0            : Location     - LOCATION          
UWI .         00/11-10-093-18W400            : Uwi          - UNIQUE WELL ID    
ENTR.         JOETTE                         : Entered      - ENTERED BY        
SRVC.         SCHLUMBERGER                   : Scn          - SERVICE COMPANY   
DATE.         03/23/92                       : Date         - LOG DATE          
STRT.M        110                            : top_depth    - START DEPTH       
STOP.M        250                            : bot_depth    - STOP DEPTH        
STEP.M        0.25                           : increment    - STEP LENGTH       
~CURVE INFORMATION BLOCK
#MNEM UNIT       ERCB CURVE CODE    CURVE DESCRIPTION
#-----------   ------------------   ----------------------------------
DEPT.M        00 001 00 00         : DEPTH        - DEPTH                       
CALI.MM       00 280 01 00         : CAL          - CALIPER                     
GR  .API      00 310 00 00         : GR           - GAMMA RAY                   
NPHI.V/V      00 330 00 00         : PHIN         - NEUTRON POROSITY (SANDSTONE)
DPHI.V/V      00 890 00 00         : PHID         - DENSITY POROSITY (SANDSTONE)
ILD .OHMM     00 120 00 00         : RESD         - DEEP RESISTIVITY (DIL)      
~PARAMETER INFORMATION       
#MNEM.UNIT           DATA             DESCRIPTION OF MNEMONIC
#---------         -----------     ------------------------------
GL  .M        515.7                : gl           - GROUND LEVEL ELEVATION      
EREF.M        518.7                : kb           - ELEVATION OF DEPTH REFERENCE
DATM.M        518.7                : datum        - DATUM ELEVATION             
TDD .M        252.7                : tdd          - TOTAL DEPTH DRILLER         
RUN .         ONE                  : Run          - RUN NUMBER                  
ENG .         BILL                 : Engineer     - RECORDING ENGINEER          
WIT .         JIM                  : Witness      - WITNESSED BY                
MUD .         GEL                  : Mud_type     - MUD TYPE                    
MATR.         SANDSTONE            : Logunit      - NEUTRON MATRIX              
TMAX.C        24                   : BHT          - MAXIMUM RECORDED TEMPERATURE
BHTD.M        252.7                : BHTDEP       - MAXIMUM RECORDED TEMPERATURE
RMT .C        23                   : MDTP         - TEMPERATURE OF MUD          
MUDD.KG/M     1130                 : MWT          - MUD DENSITY                 
NEUT.         1                    : NEUTRON      - NEUTRON TYPE                
RESI.         0                    : RESIST       - RESISTIVITY TYPE            
RM  .OHMM     3.8                  : RM           - RESISTIVITY OF MUD          
RMC .OHMM     3.66                 : RMC          - RESISTIVITY OF MUD CAKE     
RMF .OHMM     3.66                 : RMF          - RESISTIVITY OF MUD FILTRATE 
SUFT.C        4                    : SUFT         - SURFACE TEMPERATURE         
~A  DEPTH      CAL       GR     PHIN     PHID     RESD
# ...
  146.500  206.823   78.876    0.462    0.144    6.913
  146.750  205.877   86.358    0.435    0.118    6.671
  147.000  203.455   93.239    0.426    0.180    6.148
  147.250  201.019   99.823    0.434    0.239    5.877
  147.500  198.597   98.664    0.439    0.269    5.882
  147.750  198.650   96.015    0.435    0.273    6.219
  148.000  197.710   92.175    0.416    0.250    7.684
  148.250  196.771   83.868    0.389    0.234    9.408
  148.500  195.335   80.922    0.385    0.223   10.039
  148.750  195.891   77.678    0.362    0.160   11.744
  149.000  201.411   86.942    0.310    0.109   11.539
  149.250  205.924   93.232    0.351    0.168   10.831
  149.500  204.985   91.477    0.393    0.184    9.892
  149.750  203.052   83.170    0.423    0.178   10.362
  150.000  202.609   76.348    0.394    0.111   12.803
  150.250  203.648   74.295    0.349    0.076   13.915
  150.500  206.680   80.883    0.269    0.107   13.548
  150.750  211.213   86.577    0.304    0.199   11.084
  151.000  215.237   88.094    0.341    0.244   10.123
  151.250  219.261   92.002    0.367    0.245    8.281
  151.500  222.299   90.243    0.369    0.236    7.773
  151.750  224.828   93.261    0.377    0.238    7.638
  152.000  227.356   93.587    0.388    0.236    7.715
  152.250  229.904   91.831    0.403    0.240    7.720
  152.500  229.904   89.782    0.410    0.252    7.450
  152.750  231.030   95.171    0.402    0.242    6.678
  153.000  232.056  100.270    0.392    0.237    5.719
  153.250  232.095  102.387    0.405    0.233    5.223
  153.500  232.095  102.716    0.431    0.235    5.040
  153.750  232.208   99.174    0.448    0.240    4.998
  154.000  232.255   84.609    0.446    0.237    6.063
  154.250  231.811   75.110    0.460    0.200    7.356
  154.500  230.382   68.292    0.441    0.175    8.067
  154.750  227.947   71.302    0.357    0.261    9.879
  155.000  224.532   71.040    0.376    0.297   10.256
  155.250  223.089   72.557    0.391    0.312   10.454
  155.500  222.659   75.270    0.404    0.299   10.558
  155.750  223.209   75.897    0.412    0.263   10.861
  156.000  223.798   76.826    0.409    0.213   10.970
  156.250  224.321   86.984    0.401    0.171   10.978
  156.500  224.354   89.998    0.402    0.205   10.402
  156.750  224.917   93.898    0.402    0.220    9.585
  157.000  224.956   98.997    0.401    0.240    7.222
  157.250  225.010  103.500    0.397    0.249    6.534
  157.500  224.566  100.847    0.400    0.257    5.394
  157.750  222.641   96.714    0.409    0.243    5.110
  158.000  218.220   95.550    0.438    0.246    5.021
  158.250  211.324   97.071    0.431    0.242    5.309
  158.500  205.923   97.409    0.424    0.242    6.681
  158.750  205.480   98.326    0.418    0.245    6.811
  159.000  206.526  101.046    0.435    0.241    6.572
  159.250  203.111   98.394    0.460    0.240    7.076
  159.500  200.172   86.807    0.473    0.235    9.850
  159.750  197.744   79.095    0.447    0.193   12.172
  160.000  195.818   73.468    0.397    0.125   14.364
  160.250  196.857   74.993    0.281    0.050   18.584
  160.500  200.901   80.382    0.295    0.123   20.014
  160.750  203.932   89.059    0.324    0.188   19.845
  161.000  203.932   90.877    0.354    0.255   15.942
  161.250  205.031   92.990    0.375    0.239   11.160
  161.500  208.049   96.298    0.389    0.227    9.384
  161.750  210.101  101.099    0.400    0.223    7.891
  162.000  210.651  104.705    0.419    0.213    7.475
  162.250  211.200  106.527    0.413    0.214    7.016
  162.500  211.200  105.964    0.432    0.229    6.585
  162.750  211.796  105.396    0.441    0.225    5.959
  163.000  211.856  107.215    0.433    0.222    5.442
  163.250  211.412  111.718    0.423    0.223    5.202
  163.500  211.412  117.110    0.439    0.212    4.928
  163.750  211.049  123.397    0.475    0.209    4.711
  164.000  210.083  124.624    0.492    0.214    4.587
  164.250  208.640  116.610    0.480    0.184    4.633
  164.500  206.714   98.173    0.489    0.187    5.884
  164.750  205.271   76.166    0.542    0.158    7.474
  165.000  202.843   64.281    0.485    0.013    7.974
  165.250  202.916   78.914    0.253    0.072    8.129
  165.500  204.445   91.752    0.251    0.133    8.062
  165.750  204.445  105.484    0.279    0.168    7.498
  166.000  206.563  114.753    0.303    0.194    6.785
  166.250  208.092  114.197    0.429    0.209    6.083
  166.500  209.138  113.331    0.399    0.211    5.763
  166.750  209.184  116.039    0.373    0.213    7.251
  167.000  209.237  111.016    0.368    0.218    9.467
  167.250  208.794  106.275    0.366    0.229   10.384
  167.500  207.848  100.350    0.355    0.227   11.081
  167.750  204.929   99.493    0.382    0.221   11.505
  168.000  202.494   95.351    0.354    0.199   11.620
  168.250  201.554   94.196    0.306    0.108   11.953
  168.500  209.059   98.095    0.317    0.133   12.409
  168.750  214.076  102.594    0.379    0.159   12.195
  169.000  215.122  104.115    0.412    0.185   11.553
  169.250  215.122  100.871    0.421    0.203   10.942
  169.500  214.738   97.925    0.414    0.221    9.901
  169.750  214.785   94.978    0.402    0.223    9.293
  170.000  221.304   97.695    0.407    0.214    8.967
  170.250  222.846  100.705    0.429    0.219    8.893
  170.500  223.396   99.251    0.448    0.216    9.148
  170.750  221.463   97.492    0.419    0.213    9.409
  171.000  217.042   97.226    0.385    0.227   10.133
  171.250  210.146   91.600    0.360    0.244   12.294
  171.500  210.206   89.551    0.348    0.193   13.120
  171.750  210.749   91.961    0.310    0.136   14.000
  172.000  210.842   90.806    0.332    0.156   14.402
  172.250  210.855   90.238    0.358    0.180   13.641
  172.500  210.921   90.572    0.344    0.185   14.424
  172.750  210.961   92.097    0.295    0.121   16.870
  173.000  211.511   95.099    0.270    0.167   17.358
  173.250  213.059  100.495    0.300    0.211   17.358
  173.500  215.111  101.421    0.321    0.233   17.224
  173.750  216.647   99.669    0.339    0.229   14.751
  174.000  217.686   98.804    0.345    0.238   13.595
  174.250  219.242   98.840    0.345    0.257   12.880
  174.500  219.288   99.169    0.345    0.246   12.540
  174.750  220.340  101.588    0.348    0.233   12.097
  175.000  222.869  103.697    0.369    0.223   11.780
  175.250  225.907  108.200    0.372    0.212   11.366
  175.500  226.450  111.512    0.369    0.208   11.065
  175.750  226.013  111.539    0.367    0.205   10.676
  176.000  223.081  109.784    0.368    0.203   10.589
  176.250  219.163  106.842    0.371    0.212   10.589
  176.500  213.763  105.381    0.370    0.214   10.607
  176.750  212.817  104.821    0.366    0.198   11.009
  177.000  214.862  109.916    0.363    0.197   11.430
  177.250  217.397  112.628    0.366    0.215   11.131
  177.500  217.450  108.792    0.382    0.213    9.978
  177.750  216.007  105.246    0.398    0.208    8.866
  178.000  213.578  101.402    0.429    0.173    8.874
  178.250  212.142   98.456    0.398    0.107    9.732
  178.500  211.699  102.959    0.361    0.103   10.384
  178.750  213.261  109.245    0.294    0.139   10.584
  179.000  216.293  112.851    0.328    0.188   10.307
  179.250  217.332  108.122    0.372    0.205    9.586
  179.500  217.875  105.469    0.419    0.206    8.998
  179.750  217.875  106.398    0.397    0.211    8.760
  180.000  218.007  105.239    0.371    0.227    9.179
  180.250  217.537  104.084    0.371    0.230    9.796
  180.500  217.094  106.196    0.396    0.230    9.625
  180.750  217.094  123.502    0.415    0.238    7.385
  181.000  216.711  114.599    0.456    0.253    4.465
  181.250  215.288  108.376    0.509    0.252    3.720
  181.500  213.852  102.154    0.478    0.232    3.723
  181.750  212.416   95.042    0.444    0.212    5.327
  182.000  211.469   91.194    0.390    0.136    6.582
  182.250  213.012   99.271    0.313    0.093    8.207
  182.500  216.539  110.025    0.313    0.095    9.002
  182.750  219.074  106.789    0.342    0.168    9.608
