~VERSION INFORMATION
 VERS.                 2.0:   CWLS LOG ASCII STANDARD -VERSION 2.0
 WRAP.                  NO:   ONE LINE PER DEPTH STEP
~WELL INFORMATION BLOCK
#MNEM.UNIT           DATA                    DESCRIPTION OF MNEMONIC
#---------    -------------------            -------------------------------
# Generated from Intellog Unique Number	CS_77_79/WELL/963
WELL.         CDN OXY ET AL GRAHAM           : Well_name    - WELL
LOC .         00/10-26-079-04W4/0            : Location     - LOCATION
UWI .         00/10-26-079-04W4/0            : Uwi          - UNIQUE WELL ID
ENTR.         JHS                            : Entered      - ENTERED BY
SRVC.         SCHLUMBERGER                   : Scn          - SERVICE COMPANY
STRT.M        100                            : top_depth    - START DEPTH
STOP.M        325                            : bot_depth    - STOP DEPTH
STEP.M        0.25                           : increment    - STEP LENGTH
 NULL. -999.2500:NULL Value
~CURVE INFORMATION BLOCK
#MNEM UNIT       ERCB CURVE CODE    CURVE DESCRIPTION
#-----------   ------------------   ----------------------------------
DEPT.M        00 001 00 00         : DEPTH        - DEPTH
DPHI.V/V      00 890 00 00         : PHID         - DENSITY POROSITY (LIMESTONE)
NPHI.V/V      00 330 00 00         : PHIN         - NEUTRON POROSITY (LIMESTONE)
GR  .API      00 310 00 00         : GR           - GAMMA RAY
ILD .OHMM     00 120 00 00         : RESD         - DEEP RESISTIVITY (DIL)
~PARAMETER INFORMATION
#MNEM.UNIT           DATA             DESCRIPTION OF MNEMONIC
#---------         -----------     ------------------------------
GL  .M        474.32               : gl           - GROUND LEVEL ELEVATION
EREF.M        477.97               : kb           - ELEVATION OF DEPTH REFERENCE
DATM.M        477.97               : datum        - DATUM ELEVATION
TDD .M        335                  : tdd          - TOTAL DEPTH DRILLER
RUN .         ONE                  : Run          - RUN NUMBER
ENG .         BILL                 : Engineer     - RECORDING ENGINEER
WIT .         JIM                  : Witness      - WITNESSED BY
MUD .         GEL                  : Mud_type     - MUD TYPE
MATR.         LIMESTONE            : Logunit      - NEUTRON MATRIX
TMAX.C        19                   : BHT          - MAXIMUM RECORDED TEMPERATURE
BHTD.M        335                  : BHTDEP       - MAXIMUM RECORDED TEMPERATURE
MATR.         1                    : LOGUNIT      - NEUTRON MATRIX
RMT .C        25                   : MDTP         - TEMPERATURE OF MUD
NEUT.         1                    : NEUTRON      - NEUTRON TYPE
RESI.         0                    : RESIST       - RESISTIVITY TYPE
RMC .OHMM     0.25                 : RMC          - RESISTIVITY OF MUD CAKE
RMF .OHMM     0.25                 : RMF          - RESISTIVITY OF MUD FILTRATE
SUFT.C        15                   : SUFT         - SURFACE TEMPERATURE
~A  DEPTH     PHID     PHIN       GR     RESD
# ...
  274.000    0.342    0.358   43.088    1.280
  274.250    0.343    0.345   42.477    1.234
  274.500    0.348    0.345   40.635    1.234
  274.750    0.336    0.353   38.793    1.234
  275.000    0.331    0.360   41.255    1.235
  275.250    0.337    0.345   44.946    1.259
  275.500    0.339    0.345   43.720    1.259
  275.750    0.336    0.365   43.107    1.236
  276.000    0.323    0.388   46.184    1.236
  276.250    0.318    0.380   48.031    1.334
  276.500    0.315    0.355   48.034    1.494
  276.750    0.304    0.349   53.569    1.705
  277.000    0.275    0.337   60.334    1.771
  277.250    0.274    0.335   62.182    1.805
  277.500    0.307    0.339   57.266    1.739
  277.750    0.311    0.358   46.203    1.644
  278.000    0.303    0.365   65.877    1.497
  278.250    0.301    0.339   94.774    1.415
  278.500    0.300    0.323   88.014    1.338
  278.750    0.318    0.358   43.755    1.265
  279.000    0.348    0.392   32.077    1.242
  279.250    0.344    0.403   32.081    1.242
  279.500    0.337    0.387   34.541    1.266
  279.750    0.323    0.378   41.306    1.418
  280.000    0.319    0.370   53.604    1.501
  280.250    0.323    0.349   79.427    1.559
  280.500    0.302    0.380   80.044    1.560
  280.750    0.323    0.381   36.400    1.531
  281.000    0.332    0.346   29.640    1.448
  281.250    0.327    0.333   29.643    1.448
  281.500    0.310    0.329   30.260    1.533
  281.750    0.291    0.330   35.795    1.685
  282.000    0.262    0.349   53.011    1.783
  282.250    0.242    0.369   64.080    1.818
  282.500    0.262    0.369   60.394    1.888
  282.750    0.274    0.350   49.946    1.854
  283.000    0.284    0.371   47.489    1.820
  283.250    0.286    0.369   39.501    1.890
  283.500    0.275    0.338   54.257    2.078
  283.750    0.265    0.357   70.244    2.199
  284.000    0.257    0.372   75.165    2.372
  284.250    0.239    0.369   64.716    2.418
  284.500    0.228    0.356   69.637    2.329
  284.750    0.230    0.371   66.566    2.161
  285.000    0.248    0.359   47.511    1.967
  285.250    0.276    0.348   34.604    1.791
  285.500    0.285    0.324   37.066    1.631
  285.750    0.291    0.319   34.610    1.632
  286.000    0.297    0.332   35.227    1.727
  286.250    0.274    0.309   51.214    1.863
  286.500    0.274    0.319   64.127    1.935
  286.750    0.269    0.345   61.670    2.010
  287.000    0.255    0.333   48.148    2.010
  287.250    0.249    0.297   30.323    2.011
  287.500    0.258    0.292   37.703    2.012
  287.750    0.265    0.309   36.476    2.013
  288.000    0.264    0.330   34.020    1.976
  288.250    0.275    0.304   36.481    1.977
  288.500    0.270    0.293   34.025    1.941
  288.750    0.266    0.296   30.339    1.905
  289.000    0.271    0.291   29.113    1.835
  289.250    0.266    0.301   29.730    1.802
  289.500    0.260    0.303   29.733    1.837
  289.750    0.281    0.313   31.580    1.872
  290.000    0.284    0.345   37.115    1.838
  290.250    0.265    0.344   46.339    1.771
  290.500    0.268    0.307   46.342    1.643
  290.750    0.298    0.317   37.738    1.583
  291.000    0.309    0.346   32.208    1.525
  291.250    0.317    0.339   29.752    1.469
  291.500    0.314    0.343   30.984    1.469
  291.750    0.303    0.347   35.905    1.555
  292.000    0.293    0.352   44.514    1.616
  292.250    0.279    0.370   50.050    1.616
  292.500    0.276    0.382   51.896    1.586
  292.750    0.299    0.370   50.055    1.528
  293.000    0.313    0.379   35.303    1.472
  293.250    0.339    0.371   29.159    1.446
  293.500    0.335    0.373   35.309    1.474
  293.750    0.311    0.381   37.771    1.502
  294.000    0.279    0.374   53.142    1.503
  294.250    0.279    0.366   58.063    1.503
  294.500    0.295    0.408   49.459    1.476
  294.750    0.301    0.361   35.323    1.449
  295.000    0.296    0.338   31.022    1.422
  295.250    0.297    0.324   28.566    1.396
  295.500    0.290    0.317   26.725    1.534
  295.750    0.275    0.308   25.497    1.624
  296.000    0.242    0.291   24.886    1.594
  296.250    0.219    0.271   26.733    1.479
  296.500    0.226    0.267   23.662    1.322
  296.750    0.291    0.303   20.591    1.273
  297.000    0.306    0.350   17.520    1.182
  297.250    0.313    0.353   16.907    1.096
  297.500    0.330    0.352   17.525    1.076
  297.750    0.340    0.374   18.757    1.077
  298.000    0.342    0.353   21.834    1.097
  298.250    0.335    0.344   22.451    1.098
  298.500    0.318    0.384   20.610    1.119
  298.750    0.314    0.353   18.768    1.119
  299.000    0.323    0.350   15.697    1.163
  299.250    0.324    0.339   15.699    1.163
  299.500    0.313    0.325   31.686    1.186
  299.750    0.296    0.351   38.451    1.186
  300.000    0.298    0.382   24.314    1.186
  300.250    0.307    0.351   18.784    1.187
  300.500    0.272    0.353   16.943    1.210
  300.750    0.246    0.335   39.077    1.257
  301.000    0.240    0.320   44.612    1.330
  301.250    0.250    0.335   40.312    1.408
  301.500    0.271    0.352   35.396    1.463
  301.750    0.296    0.347   30.481    1.519
  302.000    0.303    0.344   32.328    1.491
  302.250    0.281    0.341   47.700    1.464
  302.500    0.271    0.339   47.702    1.465
  302.750    0.264    0.355   45.247    1.610
  303.000    0.244    0.369   52.011    1.837
  303.250    0.211    0.361  103.038    2.096
  303.500    0.085    0.362  103.656    2.485
  303.750    0.016    0.438   88.905    2.783
  304.000    0.173    0.409   75.383    3.117
  304.250    0.222    0.394   60.631    3.002
  304.500    0.186    0.374   75.388    2.947
  304.750    0.189    0.399  110.432    3.179
  305.000    0.179    0.428  119.042    3.365
  305.250    0.189    0.460  119.659    3.181
  305.500    0.206    0.484  115.359    3.065
  305.750    0.198    0.474  109.828    3.009
  306.000    0.192    0.474  106.757    2.954
  306.250    0.200    0.500  104.301    2.955
  306.500    0.266    0.523  100.616    3.187
  306.750    0.316    0.477   91.396    3.569
  307.000    0.244    0.452   98.776    4.151
  307.250    0.201    0.421  103.083    4.477
  307.500    0.157    0.370  102.470    4.829
  307.750    0.153    0.342   82.801    4.741
  308.000    0.177    0.316   68.664    4.653
  308.250    0.185    0.293   60.061    4.237
  308.500    0.175    0.302   58.833    3.858
  308.750    0.184    0.321   53.918    3.320
  309.000    0.204    0.316   49.003    2.966
  309.250    0.217    0.303   45.932    2.505
  309.500    0.238    0.321   41.631    2.076
  309.750    0.261    0.345   34.872    1.890
  310.000    0.286    0.343   32.416    1.689
  310.250    0.272    0.341   40.410    1.689
  310.500    0.267    0.345   47.790    1.659
  310.750    0.247    0.340   54.555    1.628
  311.000    0.239    0.332   62.550    1.539
  311.250    0.289    0.340   29.355    1.428
  311.500    0.310    0.352   22.596    1.325
  311.750    0.304    0.335   18.910    1.229
  312.000    0.300    0.329   19.527    1.162
  312.250    0.302    0.329   25.063    1.120
  312.500    0.303    0.320   25.065    1.120
  312.750    0.303    0.320   21.380    1.100
  313.000    0.293    0.327   17.079    1.100
  313.250    0.288    0.314   17.697    1.100
  313.500    0.292    0.317   16.470    1.122
  313.750    0.397    0.332   16.473    1.187
  314.000    0.299    0.348   17.090    1.233
  314.250    0.281    0.330   19.552    1.257
  314.500    0.271    0.314   23.243    1.234
  314.750    0.267    0.321   28.779    1.235
  315.000    0.284    0.343   26.937    1.212
  315.250    0.313    0.362   21.407    1.236
  315.500    0.316    0.344   17.107    1.308
  315.750    0.297    0.322   22.642    1.521
  316.000    0.269    0.312   32.481    1.769
  316.250    0.241    0.304   36.788    2.136
  316.500    0.140    0.316   41.708    2.628
  316.750    0.097    0.330   64.456    2.999
  317.000    0.119    0.326   77.369    3.488
  317.250    0.115    0.315   80.446    4.292
