~VERSION INFORMATION
 VERS.                 2.0:   CWLS LOG ASCII STANDARD -VERSION 2.0
 WRAP.                  NO:   ONE LINE PER DEPTH STEP
~WELL INFORMATION BLOCK
#MNEM.UNIT           DATA                    DESCRIPTION OF MNEMONIC
#---------    -------------------            -------------------------------
# Generated from Intellog Unique Number	CW_82_90/WELL/3440
WELL.         TEXACO CORN LAKE               : Well_name    - WELL
LOC .         00/10-21-088-25W4/0            : Location     - LOCATION
UWI .         00/10-21-088-25W4/0            : Uwi          - UNIQUE WELL ID
ENTR.         MAX                            : Entered      - ENTERED BY
SRVC.         SCHLUMBERGER                   : Scn          - SERVICE COMPANY
STRT.M        260                            : top_depth    - START DEPTH
STOP.M        462                            : bot_depth    - STOP DEPTH
STEP.M        0.25                           : increment    - STEP LENGTH
 NULL. -999.2500:NULL Value
~CURVE INFORMATION BLOCK
#MNEM UNIT       ERCB CURVE CODE    CURVE DESCRIPTION
#-----------   ------------------   ----------------------------------
DEPT.M        00 001 00 00         : DEPTH        - DEPTH
ILD .OHMM     00 120 00 00         : RESD         - DEEP RESISTIVITY (DIL)
NPHI.V/V      00 330 00 00         : PHIN         - NEUTRON POROSITY (SANDSTONE)
DPHI.V/V      00 890 00 00         : PHID         - DENSITY POROSITY (SANDSTONE)
CALI.MM       00 280 01 00         : CAL          - CALIPER
GR  .API      00 310 00 00         : GR           - GAMMA RAY
~PARAMETER INFORMATION
#MNEM.UNIT           DATA             DESCRIPTION OF MNEMONIC
#---------         -----------     ------------------------------
GL  .M        659.7                : gl           - GROUND LEVEL ELEVATION
EREF.M        663                  : kb           - ELEVATION OF DEPTH REFERENCE
DATM.M        659.7                : datum        - DATUM ELEVATION
TDD .M        465.5                : tdd          - TOTAL DEPTH DRILLER
RUN .         ONE                  : Run          - RUN NUMBER
ENG .         BILL                 : Engineer     - RECORDING ENGINEER
WIT .         JIM                  : Witness      - WITNESSED BY
MUD .         GEL                  : Mud_type     - MUD TYPE
MATR.         SANDSTONE            : Logunit      - NEUTRON MATRIX
TMAX.C        33.4                 : BHT          - MAXIMUM RECORDED TEMPERATURE
BHTD.M        465.5                : BHTDEP       - MAXIMUM RECORDED TEMPERATURE
MATR.         1                    : LOGUNIT      - NEUTRON MATRIX
RMT .C        15.6                 : MDTP         - TEMPERATURE OF MUD
NEUT.         1                    : NEUTRON      - NEUTRON TYPE
RESI.         0                    : RESIST       - RESISTIVITY TYPE
RMC .OHMM     2.17                 : RMC          - RESISTIVITY OF MUD CAKE
RMF .OHMM     2.17                 : RMF          - RESISTIVITY OF MUD FILTRATE
SUFT.C        -5                   : SUFT         - SURFACE TEMPERATURE
~A  DEPTH     RESD     PHIN     PHID      CAL       GR
# ...
  442.500    9.426    0.379    0.150  220.548  129.114
  442.750    8.534    0.380    0.131  220.122  122.366
  443.000    8.708    0.420    0.153  220.189  123.878
  443.250    8.332    0.435    0.190  220.256  125.986
  443.500    7.828    0.447    0.186  225.253  126.331
  443.750    7.355    0.446    0.178  227.306  125.485
  444.000    7.101    0.422    0.167  226.880  123.152
  444.250    7.178    0.399    0.159  227.422  119.654
  444.500    7.669    0.370    0.144  223.552  114.968
  444.750    8.114    0.374    0.076  222.142  109.097
  445.000    8.278    0.401    0.050  222.717  111.505
  445.250    7.849    0.440    0.087  223.268  115.684
  445.500    7.375    0.461    0.192  224.319  119.859
  445.750    7.319    0.474    0.186  224.870  122.257
  446.000    7.468    0.482    0.161  225.930  124.960
  446.250    7.760    0.465    0.128  227.481  122.632
  446.500    8.443    0.439    0.112  223.602  118.838
  446.750    9.013    0.388    0.085  222.684  119.173
  447.000    9.538    0.416    0.157  223.243  122.757
  447.250    9.642    0.432    0.193  224.303  127.818
  447.500    9.142    0.417    0.181  225.838  134.651
  447.750    8.513    0.406    0.176  227.398  138.836
  448.000    9.008    0.401    0.170  226.956  137.985
  448.250    9.533    0.404    0.175  224.562  130.046
  448.500   10.373    0.403    0.162  223.160  126.252
  448.750   10.775    0.398    0.138  222.727  122.152
  449.000   11.193    0.377    0.092  223.294  117.171
  449.250   11.320    0.322    0.051  223.861  115.440
  449.500   11.133    0.317    0.063  224.913  117.852
  449.750   10.848    0.370    0.089  227.440  121.722
  450.000   10.382    0.396    0.171  227.999  135.057
  450.250    9.486    0.418    0.193  225.597  142.785
  450.500    7.700    0.418    0.200  222.243  145.478
  450.750    7.502    0.412    0.186  222.785  143.156
  451.000    7.515    0.413    0.189  224.321  140.538
  451.250    7.597    0.427    0.159  226.865  136.744
  451.500    7.403    0.431    0.123  227.424  132.349
  451.750    6.957    0.427    0.089  226.990  132.389
  452.000    6.656    0.410    0.086  227.549  138.336
  452.250    6.313    0.419    0.174  230.570  143.406
  452.500    6.206    0.447    0.192  233.598  142.265
  452.750    6.105    0.470    0.198  233.673  141.714
  453.000    6.006    0.520    0.196  232.247  141.760
  453.250    5.904    0.564    0.195  231.337  141.795
  453.500    5.702    0.542    0.189  234.850  141.840
  453.750    5.507    0.529    0.204  244.277  141.574
  454.000    5.465    0.527    0.210  240.398  139.843
  454.250    5.681    0.540    0.213  232.589  138.701
  454.500    6.066    0.516    0.192  229.210  138.746
  454.750    6.537    0.469    0.180  226.816  138.486
  455.000    6.982    0.458    0.172  226.883  140.303
  455.250    6.867    0.443    0.156  226.950  144.183
  455.500    6.879    0.428    0.187  227.033  148.062
  455.750    7.279    0.428    0.189  227.091  148.397
  456.000    7.849    0.428    0.173  226.658  141.645
  456.250    8.004    0.421    0.157  226.733  132.234
  456.500    7.872    0.409    0.131  227.292  131.088
  456.750    7.534    0.396    0.112  227.359  138.817
  457.000    7.340    0.408    0.109  227.425  143.577
  457.250    7.155    0.458    0.123  227.492  148.648
  457.500    7.301    0.463    0.169  227.559  148.983
  457.750    7.381    0.463    0.159  227.626  146.656
  458.000    7.459    0.449    0.107  226.725  142.266
  458.250    7.611    0.435    0.082  225.807  137.876
  458.500    7.623    0.416    0.069  225.857  132.305
  458.750    7.172    0.422    0.106  225.924  129.091
  459.000    7.174    0.437    0.182  225.991  122.344
  459.250    6.929    0.443    0.193  227.051  119.430
  459.500    6.569    0.442    0.185  227.610  117.694
  459.750    6.173    0.437    0.175  227.676  116.552
  460.000    6.016    0.435    0.177  228.235  115.711
  460.250    5.810    0.439    0.171  228.311  115.451
  460.500    5.819    0.448    0.170  228.377  114.901
  460.750    5.934    0.471    0.191  229.912  114.941
  461.000    6.167    0.477    0.199  232.449  114.685
  461.250    6.292    0.463    0.202  235.961  114.440
  461.500    6.419    0.452    0.197  237.997  114.475
  461.750    6.551    0.442    0.193  233.642  114.520
  462.000    6.621    0.432    0.193  230.255  114.590
