~VERSION INFORMATION
 VERS.                 2.0:   CWLS LOG ASCII STANDARD -VERSION 2.0
 WRAP.                  NO:   ONE LINE PER DEPTH STEP
~WELL INFORMATION BLOCK
#MNEM.UNIT           DATA                    DESCRIPTION OF MNEMONIC
#---------    -------------------            -------------------------------
# Generated from Intellog Unique Number	CW_76_78/WELL/2579
WELL.         10-23-078-23W4                 : Well_name    - WELL
LOC .         00/10-23-078-23W4/0            : Location     - LOCATION
UWI .         00/10-23-078-23W4/0            : Uwi          - UNIQUE WELL ID
ENTR.         MAX                            : Entered      - ENTERED BY
SRVC.         SCHLUMBERGER                   : Scn          - SERVICE COMPANY
STRT.M        207.264                        : top_depth    - START DEPTH
STOP.M        493.764                        : bot_depth    - STOP DEPTH
STEP.M        0.25                           : increment    - STEP LENGTH
 NULL. -999.2500:NULL Value
~CURVE INFORMATION BLOCK
#MNEM UNIT       ERCB CURVE CODE    CURVE DESCRIPTION
#-----------   ------------------   ----------------------------------
DEPT.M        00 001 00 00         : DEPTH        - DEPTH
ILD .OHMM     00 120 00 00         : RESD         - DEEP RESISTIVITY (DIL)
NPHI.V/V      00 330 00 00         : PHIN         - NEUTRON POROSITY (SANDSTONE)
DPHI.V/V      00 890 00 00         : PHID         - DENSITY POROSITY (SANDSTONE)
CALI.MM       00 280 01 00         : CAL          - CALIPER
GR  .API      00 310 00 00         : GR           - GAMMA RAY
~PARAMETER INFORMATION
#MNEM.UNIT           DATA             DESCRIPTION OF MNEMONIC
#---------         -----------     ------------------------------
GL  .M        566.623              : gl           - GROUND LEVEL ELEVATION
EREF.M        570.159              : kb           - ELEVATION OF DEPTH REFERENCE
DATM.M        566.623              : datum        - DATUM ELEVATION
TDD .M        495.91               : tdd          - TOTAL DEPTH DRILLER
RUN .         ONE                  : Run          - RUN NUMBER
ENG .         BILL                 : Engineer     - RECORDING ENGINEER
WIT .         JIM                  : Witness      - WITNESSED BY
MUD .         GEL                  : Mud_type     - MUD TYPE
MATR.         SANDSTONE            : Logunit      - NEUTRON MATRIX
TMAX.C        21.6667              : BHT          - MAXIMUM RECORDED TEMPERATURE
BHTD.M        495.91               : BHTDEP       - MAXIMUM RECORDED TEMPERATURE
RMT .C        14.4444              : MDTP         - TEMPERATURE OF MUD
MUDD.KG/M     9000                 : MWT          - MUD DENSITY
NEUT.         1                    : NEUTRON      - NEUTRON TYPE
RESI.         0                    : RESIST       - RESISTIVITY TYPE
RM  .OHMM     6                    : RM           - RESISTIVITY OF MUD
RMC .OHMM     4.35                 : RMC          - RESISTIVITY OF MUD CAKE
RMF .OHMM     7.02                 : RMF          - RESISTIVITY OF MUD FILTRATE
SUFT.C        -6.66667             : SUFT         - SURFACE TEMPERATURE
~A  DEPTH     RESD     PHIN     PHID      CAL       GR
# ...
  426.264   89.098    0.339    0.283  197.106   29.875
  426.514   74.295    0.345    0.280  197.562   31.023
  426.764   72.269    0.356    0.279  198.999   31.588
  427.014   66.571    0.356    0.278  199.455   32.448
  427.264   55.515    0.350    0.275  199.391   33.300
  427.514   51.607    0.348    0.266  199.353   34.747
  427.764   45.025    0.349    0.253  199.796   37.664
  428.014   37.886    0.355    0.265  199.745   40.300
  428.264   34.278    0.364    0.269  199.681   43.816
  428.514   28.321    0.375    0.268  200.124   44.964
  428.764   27.056    0.365    0.268  199.585   44.634
  429.014   24.923    0.366    0.259  199.028   46.085
  429.264   23.592    0.361    0.248  198.971   48.123
  429.514   22.945    0.352    0.245  198.426   51.638
  429.764   22.318    0.358    0.252  198.368   54.263
  430.014   21.512    0.370    0.244  198.368   56.885
  430.264   20.546    0.373    0.247  197.741   58.627
  430.514   19.626    0.372    0.257  197.215   60.673
  430.764   18.410    0.383    0.257  197.164   65.665
  431.014   16.956    0.385    0.243  197.094   64.154
  431.264   16.198    0.393    0.233  197.049   64.124
  431.514   14.923    0.368    0.229  197.505   66.753
  431.764   13.138    0.342    0.213  197.448   74.700
  432.014   10.857    0.344    0.172  197.891   83.237
  432.264    8.732    0.389    0.107  200.841   87.639
  432.514    8.191    0.399    0.117  201.785   86.132
  432.764    8.411    0.398    0.155  203.747   78.117
  433.014   10.636    0.405    0.200  206.685   69.811
  433.264   15.831    0.420    0.209  207.141   61.217
  433.514   29.551    0.415    0.223  206.590   53.797
  433.764   39.815    0.401    0.226  201.530   48.445
  434.014   56.640    0.390    0.219  200.472   48.707
  434.264   65.424    0.369    0.236  201.428   51.930
  434.514   51.671    0.356    0.237  200.864   55.146
  434.764   36.943    0.339    0.210  200.319   57.480
  435.014   29.179    0.308    0.174  200.268   61.586
  435.264   21.050    0.264    0.114  201.718   71.601
  435.514   16.930    0.298    0.145  203.662   78.369
  435.764   19.556    0.350    0.174  203.605   83.066
  436.014   33.038    0.384    0.187  202.553   81.555
  436.264   55.324    0.404    0.186  201.489   69.412
  436.514  189.372    0.422    0.215  201.451   58.152
  436.764  210.965    0.435    0.263  201.400   49.255
  437.014  201.513    0.428    0.282  201.843   41.536
  437.264  189.031    0.427    0.296  201.285   40.028
  437.514  159.047    0.414    0.293  201.228   39.108
  437.764  159.047    0.394    0.284  201.690   41.449
  438.014  150.466    0.390    0.279  201.132   48.214
  438.264  109.537    0.384    0.274  201.068   49.650
  438.514  101.819    0.381    0.263  201.017   50.218
  438.764   87.252    0.384    0.261  200.979   50.775
  439.014   73.423    0.379    0.263  200.916   50.453
  439.264   71.415    0.372    0.263  194.868   51.306
  439.514   66.986    0.376    0.262  196.818   53.344
  439.764   62.833    0.385    0.257  198.755   53.314
  440.014   59.477    0.384    0.257  197.710   52.988
  440.264   57.850    0.384    0.245  197.159   52.951
  440.514   55.752    0.383    0.247  197.095   51.743
  440.764   55.752    0.378    0.245  198.545   53.485
  441.014   54.693    0.379    0.244  199.001   56.705
  441.264   50.377    0.376    0.236  199.444   60.216
  441.514   48.562    0.373    0.240  195.884   62.546
  441.764   46.383    0.378    0.237  197.334   61.039
  442.014   45.117    0.379    0.228  200.285   59.532
  442.264   43.484    0.377    0.225  200.728   58.615
  442.514   42.680    0.371    0.231  200.177   58.880
  442.764   41.509    0.366    0.237  198.625   60.615
  443.014   40.738    0.357    0.243  200.075   60.881
  443.264   40.738    0.347    0.228  201.525   60.854
  443.514   40.307    0.346    0.221  203.469   61.711
  443.764   40.301    0.353    0.210  203.418   61.976
  444.014   39.912    0.351    0.203  203.373   65.484
  444.264   37.102    0.350    0.185  202.309   73.139
  444.514   32.965    0.348    0.172  202.245   80.790
  444.764   18.457    0.351    0.163  202.207   85.192
  445.014   15.390    0.357    0.155  202.150   87.521
  445.264   14.700    0.367    0.150  202.105   85.419
  445.514   14.961    0.340    0.143  201.554   82.435
  445.764   16.221    0.314    0.144  200.996   79.749
  446.014   17.430    0.301    0.153  197.937   77.947
  446.264   18.061    0.306    0.160  201.382   76.436
  446.514   17.250    0.324    0.159  204.332   76.406
  446.764   16.035    0.329    0.150  204.281   76.667
  447.014   14.771    0.348    0.152  203.730   77.224
  447.264   14.110    0.359    0.154  203.173   76.903
  447.514   13.356    0.372    0.149  202.621   73.619
  447.764   13.107    0.395    0.149  202.570   70.634
  448.014   13.460    0.390    0.160  202.526   67.351
  448.264   14.077    0.406    0.180  201.968   62.003
  448.514   15.540    0.422    0.247  201.411   58.723
  448.764   17.003    0.454    0.285  199.359   57.806
  449.014   18.434    0.501    0.306  197.313   59.837
  449.264   19.807    0.535    0.325  198.250   62.466
  449.514   21.092    0.547    0.343  199.700   65.689
  449.764   22.869    0.513    0.336  201.150   64.477
  450.014   25.944    0.519    0.319  200.586   58.830
  450.264   29.970    0.544    0.304  199.040   48.751
  450.514   33.387    0.636    0.352  196.988   46.653
  450.764   22.203    0.705    0.395  196.431   46.623
  451.014   13.984    0.752    0.420  197.874   48.070
  451.264    8.267    0.727    0.430  198.830   54.532
  451.514    7.278    0.703    0.417  199.773   61.600
  451.764    6.827    0.673    0.329  198.722   74.570
  452.014    6.580    0.599    0.297  198.671   94.629
  452.264    6.580    0.643    0.293  198.613   90.758
  452.514    6.513    0.636    0.291  198.575   92.202
  452.764    6.451    0.618    0.275  200.012   97.789
  453.014    6.564    0.597    0.233  201.963  102.781
  453.264    6.617    0.541    0.195  203.412  101.270
  453.514    6.860    0.529    0.170  203.855   94.150
  453.764    7.372    0.519    0.168  204.311   89.093
  454.014    8.138    0.491    0.191  204.760   85.806
  454.264    7.915    0.414    0.218  204.703   87.552
  454.514    7.699    0.446    0.234  205.152   94.022
  454.764    8.051    0.480    0.229  205.095   97.533
  455.014    9.819    0.504    0.221  204.050   99.571
  455.264   11.976    0.504    0.205  199.477   97.772
  455.514   15.145    0.476    0.198  198.939   84.739
  455.764   19.501    0.450    0.234  199.388   73.478
  456.014   21.727    0.426    0.272  202.339   60.445
  456.264   27.477    0.407    0.278  204.783   58.048
  456.514   26.483    0.388    0.273  204.732   60.082
  456.764   21.493    0.375    0.267  204.681   65.078
  457.014   20.715    0.382    0.253  204.681   70.957
  457.264   21.078    0.368    0.241  205.054   76.839
  457.514   22.045    0.360    0.236  205.022   78.571
  457.764   26.643    0.359    0.226  205.471   77.366
  458.014   32.200    0.356    0.213  205.414   74.674
  458.264   35.553    0.349    0.197  205.357   67.549
  458.514   54.375    0.286    0.175  205.306   60.425
  458.764   82.412    0.242    0.127  205.755   51.236
  459.014  103.282    0.198    0.058  205.704   48.252
  459.264  105.101    0.110    0.027  206.154   42.017
  459.514   83.761    0.136    0.032  206.103   34.298
  459.764   60.436    0.150    0.061  206.039   34.567
  460.014   49.041    0.187    0.101  205.481   42.514
  460.264   40.166    0.259    0.159  203.936   48.980
  460.514   36.008    0.249    0.197  200.877   55.449
  460.764   29.489    0.270    0.205  198.825   61.328
  461.014   22.057    0.318    0.237  198.774   63.665
  461.264   19.776    0.383    0.237  198.723   68.362
  461.514   17.254    0.408    0.230  202.174   74.237
  461.764   15.752    0.396    0.255  203.624   88.093
  462.014   14.249    0.375    0.250  202.066   92.793
  462.264   13.126    0.397    0.247  203.009   95.123
  462.514   12.201    0.409    0.245  201.457  101.596
