~VERSION INFORMATION
 VERS.                 2.0:   CWLS LOG ASCII STANDARD -VERSION 2.0
 WRAP.                  NO:   ONE LINE PER DEPTH STEP
~WELL INFORMATION BLOCK
#MNEM.UNIT           DATA                    DESCRIPTION OF MNEMONIC
#---------    -------------------            -------------------------------
# Generated from Intellog Unique Number	CW_73_75/WELL/903
WELL.         CDN SUP ET AL FRANCIS 10-01    : Well_name    - WELL
LOC .         00/10-01-074-21W4/0            : Location     - LOCATION
UWI .         00/10-01-074-21W4/0            : Uwi          - UNIQUE WELL ID
ENTR.         JAYE                           : Entered      - ENTERED BY
SRVC.         SCHLUMBERGER                   : Scn          - SERVICE COMPANY
DATE.         16 FEB 75                      : Date         - LOG DATE
STRT.M        396.24                         : top_depth    - START DEPTH
STOP.M        636.99                         : bot_depth    - STOP DEPTH
STEP.M        0.25                           : increment    - STEP LENGTH
 NULL. -999.2500:NULL Value
~CURVE INFORMATION BLOCK
#MNEM UNIT       ERCB CURVE CODE    CURVE DESCRIPTION
#-----------   ------------------   ----------------------------------
DEPT.M        00 001 00 00         : DEPTH        - DEPTH
DPHI.V/V      00 890 00 00         : PHID         - DENSITY POROSITY (SANDSTONE)
NPHI.V/V      00 330 00 00         : PHIN         - NEUTRON POROSITY (SANDSTONE)
GR  .API      00 310 00 00         : GR           - GAMMA RAY
CALI.MM       00 280 01 00         : CAL          - CALIPER
ILD .OHMM     00 120 00 00         : RESD         - DEEP RESISTIVITY (DIL)
~PARAMETER INFORMATION
#MNEM.UNIT           DATA             DESCRIPTION OF MNEMONIC
#---------         -----------     ------------------------------
GL  .M        708.05               : gl           - GROUND LEVEL ELEVATION
EREF.M        710.489              : kb           - ELEVATION OF DEPTH REFERENCE
DATM.M        708.05               : datum        - DATUM ELEVATION
TDD .M        694.944              : tdd          - TOTAL DEPTH DRILLER
RUN .         ONE                  : Run          - RUN NUMBER
ENG .         LLOYD                : Engineer     - RECORDING ENGINEER
WIT .         NESSIER              : Witness      - WITNESSED BY
BASE.         EDMONTON             : Branch       - HOME BASE OF LOGGING UNIT
MUD .         GEL                  : Mud_type     - MUD TYPE
MATR.         SANDSTONE            : Logunit      - NEUTRON MATRIX
TMAX.C        26.1111              : BHT          - MAXIMUM RECORDED TEMPERATURE
BHTD.M        695.249              : BHTDEP       - MAXIMUM RECORDED TEMPERATURE
RMT .C        4.44444              : MDTP         - TEMPERATURE OF MUD
MUDD.KG/M     1104                 : MWT          - MUD DENSITY
NEUT.         1                    : NEUTRON      - NEUTRON TYPE
RESI.         0                    : RESIST       - RESISTIVITY TYPE
RM  .OHMM     5.12                 : RM           - RESISTIVITY OF MUD
RMC .OHMM     0                    : RMC          - RESISTIVITY OF MUD CAKE
RMF .OHMM     3.6                  : RMF          - RESISTIVITY OF MUD FILTRATE
SUFT.C        -17.7778             : SUFT         - SURFACE TEMPERATURE
~A  DEPTH     PHID     PHIN       GR      CAL     RESD
# ...
  469.240    0.332    0.455   45.376  162.479    8.464
  469.490    0.334    0.456   47.202  162.493    8.466
  469.740    0.343    0.449   47.150  162.710    8.452
  469.990    0.342    0.435   45.947  162.725    8.424
  470.240    0.330    0.436   45.409  162.740    8.457
  470.490    0.322    0.457   45.782  162.551    8.474
  470.740    0.330    0.458   46.397  162.258    8.524
  470.990    0.322    0.452   46.768  162.067    8.526
  471.240    0.318    0.447   46.898  161.975    8.528
  471.490    0.317    0.435   47.997  161.888    8.546
  471.740    0.329    0.434   49.884  161.902    8.563
  471.990    0.323    0.442   51.347  161.916    8.566
  472.240    0.336    0.448   51.537  162.034    8.552
  472.490    0.339    0.456   49.365  162.664    8.539
  472.740    0.333    0.475   48.221  163.087    8.525
  472.990    0.347    0.478   47.018  163.923    8.496
  473.240    0.342    0.467   46.481  164.860    8.483
  473.490    0.334    0.438   46.488  165.491    8.485
  473.740    0.328    0.442   46.680  164.890    8.487
  473.990    0.328    0.451   47.537  164.187    8.504
  474.240    0.329    0.459   48.273  163.892    8.507
  474.490    0.325    0.450   48.583  163.804    8.509
  474.740    0.315    0.445   49.017  163.510    8.495
  474.990    0.322    0.448   49.873  163.423    8.498
  475.240    0.331    0.465   51.032  163.028    8.547
  475.490    0.331    0.476   51.465  163.041    8.549
  475.740    0.327    0.471   51.231  163.057    8.583
  475.990    0.324    0.481   49.058  163.068    8.633
  476.240    0.321    0.468   50.279  162.569    8.634
  476.490    0.312    0.451   52.287  162.789    8.637
  476.740    0.307    0.428   54.962  163.421    8.639
  476.990    0.296    0.418   56.304  163.638    8.641
  477.240    0.300    0.433   55.100  163.552    8.596
  477.490    0.311    0.441   54.502  163.667    8.535
  477.740    0.323    0.443   54.935  163.990    8.381
  477.990    0.315    0.444   56.943  164.005    8.261
  478.240    0.310    0.446   59.073  164.121    8.172
  478.490    0.299    0.450   61.506  164.547    8.070
  478.740    0.314    0.456   63.939  164.869    7.998
  478.990    0.307    0.445   66.371  164.577    7.942
  479.240    0.300    0.429   69.107  164.386    8.002
  479.490    0.303    0.434   73.358  163.783    8.108
  479.740    0.313    0.447   77.306  163.488    8.230
  479.990    0.312    0.464   76.102  163.297    8.370
  480.240    0.315    0.483   74.535  163.312    8.449
  480.490    0.310    0.489   74.907  163.533    8.498
  480.740    0.312    0.485   73.279  163.546    8.500
  480.990    0.313    0.480   71.893  163.561    8.425
  481.240    0.309    0.483   71.114  163.575    8.213
  481.490    0.298    0.493   73.062  163.589    8.006
  481.740    0.277    0.498   76.767  163.500    7.790
  481.990    0.268    0.497   80.898  163.104    7.455
  482.240    0.271    0.484   84.178  162.810    6.980
  482.490    0.290    0.478   88.550  163.236    6.631
  482.740    0.264    0.481   93.044  164.378    6.162
  482.990    0.244    0.479   94.265  167.266    5.591
  483.240    0.216    0.471   93.303  173.027    5.111
  483.490    0.201    0.461   92.948  177.557    4.776
  483.740    0.207    0.467   92.411  178.290    4.430
  483.990    0.239    0.487   91.935  176.560    4.391
  484.240    0.199    0.477   91.579  174.317    4.632
  484.490    0.189    0.470   93.285  172.074    5.089
  484.740    0.208    0.471   95.051  170.651    5.632
  484.990    0.195    0.480   94.695  169.742    6.120
  485.240    0.188    0.479   91.977  168.832    6.516
  485.490    0.200    0.475   91.682  168.539    6.554
  485.740    0.193    0.473   93.024  168.553    6.460
  485.990    0.205    0.478   93.335  169.901    6.137
  486.240    0.224    0.493   92.253  172.584    5.427
  486.490    0.222    0.496   91.474  176.190    4.924
  486.740    0.207    0.499   91.421  179.590    4.339
  486.990    0.214    0.502   91.915  184.019    3.816
  487.240    0.224    0.523   93.862  188.034    3.488
  487.490    0.240    0.528   95.447  191.026    3.514
  487.740    0.251    0.538   93.455  185.190    3.681
  487.990    0.268    0.541   90.858  180.175    3.869
  488.240    0.268    0.531   87.350  180.806    4.022
  488.490    0.280    0.517   84.208  179.794    4.213
  488.740    0.284    0.507   84.579  176.831    4.372
  488.990    0.243    0.463   83.436  174.385    4.536
  489.240    0.226    0.466   82.112  172.140    4.690
  489.490    0.263    0.490   80.726  170.101    4.814
  489.740    0.298    0.471   78.796  168.269    4.913
  489.990    0.299    0.450   76.621  166.743    5.024
  490.240    0.308    0.459   68.873  165.834    5.044
  490.490    0.332    0.449   64.216  165.335    5.018
  490.740    0.336    0.440   64.163  165.658    5.019
  490.990    0.337    0.449   66.050  166.492    5.048
  491.240    0.336    0.459   67.573  166.918    5.181
  491.490    0.328    0.466   66.672  166.726    5.317
  491.740    0.318    0.440   64.621  166.432    5.704
  491.990    0.321    0.428   64.811  165.831    6.359
  492.240    0.299    0.415   65.667  165.845    7.103
  492.490    0.258    0.389   64.525  166.682    8.276
  492.740    0.219    0.355   59.745  167.721    9.485
  492.990    0.159    0.287   60.298  168.967    9.682
  493.240    0.172    0.300   61.883  166.107    9.508
  493.490    0.213    0.349   64.014  163.968    9.320
  493.740    0.287    0.403   65.233  163.264    9.085
  493.990    0.336    0.416   66.152  163.688    8.792
  494.240    0.334    0.414   65.978  164.113    8.665
  494.490    0.329    0.407   63.380  164.641    8.620
  494.740    0.324    0.405   62.783  164.654    8.357
  494.990    0.306    0.421   62.306  164.976    8.452
  495.240    0.256    0.385   60.617  165.607    8.627
  495.490    0.124    0.273   59.596  166.031    8.724
  495.740    0.098    0.217   59.058  166.045    8.380
  495.990    0.081    0.210   60.704  165.855    7.874
  496.240    0.128    0.288   62.834  165.355    6.912
  496.490    0.172    0.354   61.690  164.756    6.146
  496.740    0.307    0.468   62.062  164.154    5.546
  496.990    0.328    0.472   63.464  163.655    5.377
  497.240    0.329    0.466   64.443  163.462    5.339
  497.490    0.327    0.476   65.057  163.066    5.243
  497.740    0.321    0.471   64.338  162.774    5.139
  497.990    0.327    0.462   63.983  162.480    5.112
  498.240    0.341    0.464   64.719  162.188    5.114
  498.490    0.338    0.449   65.636  161.995    5.153
  498.740    0.326    0.441   66.251  162.316    5.192
  498.990    0.321    0.450   66.078  162.639    5.203
  499.240    0.313    0.468   64.813  162.653    5.195
  499.490    0.299    0.479   66.033  162.774    5.167
  499.740    0.290    0.478   69.193  162.990    5.188
  499.990    0.310    0.466   69.263  163.005    5.218
  500.240    0.310    0.461   68.544  163.121    5.258
  500.490    0.306    0.469   68.129  163.243    5.288
  500.740    0.303    0.469   68.318  163.564    5.299
  500.990    0.300    0.468   68.630  163.781    5.300
  501.240    0.308    0.479   69.608  163.898    5.253
  501.490    0.303    0.469   70.222  164.014    5.197
  501.740    0.295    0.454   70.231  164.335    5.160
  501.990    0.296    0.464   70.422  164.965    5.143
  502.240    0.299    0.473   70.309  165.699    5.106
  502.490    0.297    0.475   70.741  166.229    5.070
  502.740    0.291    0.465   71.538  166.241    5.053
  502.990    0.288    0.457   71.849  166.357    5.045
  503.240    0.300    0.450   71.676  166.372    5.037
  503.490    0.317    0.446   71.563  166.387    5.019
  503.740    0.315    0.442   71.753  166.298    5.030
  503.990    0.313    0.433   72.610  165.904    5.050
  504.240    0.317    0.430   72.861  165.710    5.051
  504.490    0.316    0.446   72.990  165.623    5.062
  504.740    0.309    0.454   74.514  165.636    5.091
  504.990    0.279    0.465   76.644  165.549    5.149
  505.240    0.273    0.474   77.076  165.665    5.246
  505.490    0.279    0.484   73.388  165.783    5.354
