~VERSION INFORMATION
 VERS.                 2.0:   CWLS LOG ASCII STANDARD -VERSION 2.0
 WRAP.                  NO:   ONE LINE PER DEPTH STEP
~WELL INFORMATION BLOCK
#MNEM.UNIT           DATA                    DESCRIPTION OF MNEMONIC
#---------    -------------------            -------------------------------
# Generated from Intellog Unique Number	CS_77_79/WELL/981
WELL.         CANON SIEBANS COWPAR           : Well_name    - WELL
LOC .         00/10-33-079-04W4/0            : Location     - LOCATION
UWI .         00/10-33-079-04W4/0            : Uwi          - UNIQUE WELL ID
ENTR.         JHS                            : Entered      - ENTERED BY
SRVC.         SCHLUMBERGER                   : Scn          - SERVICE COMPANY
STRT.M        103.632                        : top_depth    - START DEPTH
STOP.M        319.882                        : bot_depth    - STOP DEPTH
STEP.M        0.25                           : increment    - STEP LENGTH
 NULL. -999.2500:NULL Value
~CURVE INFORMATION BLOCK
#MNEM UNIT       ERCB CURVE CODE    CURVE DESCRIPTION
#-----------   ------------------   ----------------------------------
DEPT.M        00 001 00 00         : DEPTH        - DEPTH
RHOB.KG/M3    00 350 00 00         : DENS         - BULK DENSITY
GR  .API      00 310 00 00         : GR           - GAMMA RAY
DPHI.V/V      00 890 00 00         : PHID         - DENSITY POROSITY (SANDSTONE)
NPHI.V/V      00 330 00 00         : PHIN         - NEUTRON POROSITY (SANDSTONE)
ILD .OHMM     00 120 00 00         : RESD         - DEEP RESISTIVITY (DIL)
~PARAMETER INFORMATION
#MNEM.UNIT           DATA             DESCRIPTION OF MNEMONIC
#---------         -----------     ------------------------------
GL  .M        470.916              : gl           - GROUND LEVEL ELEVATION
EREF.M        474.269              : kb           - ELEVATION OF DEPTH REFERENCE
DATM.M        474.269              : datum        - DATUM ELEVATION
TDD .M        329.184              : tdd          - TOTAL DEPTH DRILLER
RUN .         ONE                  : Run          - RUN NUMBER
ENG .         BILL                 : Engineer     - RECORDING ENGINEER
WIT .         JIM                  : Witness      - WITNESSED BY
MUD .         GEL                  : Mud_type     - MUD TYPE
MATR.         SANDSTONE            : Logunit      - NEUTRON MATRIX
TMAX.C        60                   : BHT          - MAXIMUM RECORDED TEMPERATURE
BHTD.M        329.184              : BHTDEP       - MAXIMUM RECORDED TEMPERATURE
MATR.         1                    : LOGUNIT      - NEUTRON MATRIX
RMT .C        25                   : MDTP         - TEMPERATURE OF MUD
NEUT.         1                    : NEUTRON      - NEUTRON TYPE
RESI.         0                    : RESIST       - RESISTIVITY TYPE
RMC .OHMM     0.25                 : RMC          - RESISTIVITY OF MUD CAKE
RMF .OHMM     0.25                 : RMF          - RESISTIVITY OF MUD FILTRATE
SUFT.C        15                   : SUFT         - SURFACE TEMPERATURE
~A  DEPTH     DENS       GR     PHID     PHIN     RESD
# ...
  140.132   -0.000   93.814    0.237    0.462    8.676
  140.382   -0.000   94.534    0.241    0.488    8.519
  140.632    0.000   93.688    0.235    0.502    8.235
  140.882    0.000   90.334    0.235    0.482    8.207
  141.132    0.000   95.291    0.246    0.482    8.375
  141.382   -0.000   97.555    0.224    0.478    8.638
  141.632   -0.000   86.824    0.212    0.459    8.639
  141.882    0.000   87.961    0.200    0.460    8.209
  142.132    0.000   91.109    0.164    0.474    7.970
  142.382    0.000   88.873    0.224    0.489    7.753
  142.632   -0.000   89.196    0.212    0.500    7.761
  142.882   -0.000   89.049    0.232    0.490    7.756
  143.132   -0.000   87.489    0.232    0.475    7.740
  143.382    0.000   88.096    0.222    0.469    7.507
  143.632    0.000   87.426    0.222    0.478    7.079
  143.882    0.000   84.364    0.232    0.496    6.667
  144.132   -0.000   81.596    0.267    0.520    6.361
  144.382   -0.000   85.347    0.245    0.547    6.209
  144.632   -0.000   86.964    0.232    0.487    6.218
  144.882    0.000   85.920    0.279    0.486    6.063
  145.132    0.000   86.808    0.246    0.514    5.803
  145.382   -0.000   88.691    0.237    0.545    5.284
  145.632   -0.000   93.624    0.270    0.540    4.647
  145.882   -0.000   96.264    0.233    0.523    4.024
  146.132    0.000   99.945    0.233    0.521    3.797
  146.382    0.000   99.874    0.219    0.542    3.783
  146.632    0.000   94.994    0.216    0.543    3.869
  146.882   -0.000   92.037    0.227    0.553    4.179
  147.132   -0.000   91.698    0.236    0.570    4.488
  147.382   -0.000   90.610    0.253    0.552    4.716
  147.632    0.000   88.407    0.243    0.517    4.743
  147.882    0.000   92.774    0.250    0.523    4.598
  148.132   -0.000   98.544    0.231    0.521    4.375
  148.382   -0.000  101.886    0.202    0.541    4.178
  148.632   -0.000  102.254    0.203    0.544    3.881
  148.882    0.000   97.252    0.242    0.538    3.781
  149.132    0.000   94.006    0.222    0.564    3.665
  149.382    0.000   99.043    0.233    0.579    3.657
  149.632   -0.000   98.039    0.255    0.589    4.204
  149.882   -0.000   83.037    0.235    0.577    4.961
  150.132   -0.000   78.222    0.231    0.525    4.947
  150.382    0.000   82.225    0.269    0.463    4.805
  150.632    0.000   85.743    0.263    0.513    4.669
  150.882    0.000   94.145    0.235    0.554    4.439
  151.132   -0.000   97.630    0.231    0.541    4.396
  151.382   -0.000   94.730    0.216    0.530    4.279
  151.632    0.000   90.397    0.222    0.550    4.204
  151.882    0.000   94.409    0.266    0.560    4.251
  152.132    0.000   94.337    0.241    0.561    4.285
  152.382   -0.000   88.981    0.243    0.538    4.495
  152.632   -0.000   87.810    0.203    0.527    4.720
  152.882   -0.000   87.491    0.235    0.522    5.078
  153.132    0.000   86.065    0.248    0.508    5.374
  153.382    0.000   82.036    0.242    0.490    5.867
  153.632    0.000   77.816    0.241    0.479    6.412
  153.882   -0.000   74.807    0.241    0.504    6.806
  154.132   -0.000   72.560    0.262    0.514    7.247
  154.382    0.000   73.283    0.245    0.522    7.394
  154.632    0.000   79.878    0.233    0.511    7.674
  154.882    0.000   79.856    0.272    0.499    7.816
  155.132   -0.000   77.145    0.260    0.515    7.938
  155.382   -0.000   74.316    0.249    0.528    8.275
  155.632   -0.000   76.202    0.262    0.491    8.633
  155.882    0.000   79.283    0.253    0.483    9.180
  156.132    0.000   79.363    0.259    0.494    9.394
  156.382    0.000   79.412    0.255    0.495    9.169
  156.632   -0.000   78.610    0.278    0.475    8.914
  156.882   -0.000   76.069    0.265    0.468    8.462
  157.132   -0.000   75.884    0.254    0.476    8.227
  157.382    0.000   78.025    0.249    0.491    8.122
  157.632    0.000   78.450    0.276    0.478    8.069
  157.882   -0.000   78.341    0.265    0.484    8.220
  158.132   -0.000   75.371    0.237    0.495    8.313
  158.382   -0.000   73.290    0.309    0.494    8.367
  158.632    0.000   73.996    0.252    0.498    8.369
  158.882    0.000   75.815    0.243    0.508    8.362
  159.132    0.000   76.155    0.277    0.510    8.343
  159.382   -0.000   79.765    0.287    0.487    8.218
  159.632   -0.000   82.649    0.266    0.479    8.057
  159.882   -0.000   83.156    0.246    0.479    7.904
  160.132    0.000   80.244    0.270    0.474    7.896
  160.382    0.000   78.185    0.260    0.480    8.057
  160.632    0.000   77.886    0.254    0.479    8.201
  160.882   -0.000   77.561    0.241    0.473    8.294
  161.132   -0.000   75.457    0.253    0.465    8.313
  161.382    0.000   72.602    0.264    0.461    8.050
  161.632    0.000   73.485    0.240    0.470    7.993
  161.882    0.000   76.556    0.265    0.485    7.601
  162.132   -0.000   79.488    0.231    0.499    7.374
  162.382   -0.000   81.747    0.281    0.511    7.091
  162.632   -0.000   81.701    0.262    0.522    6.670
  162.882    0.000   83.826    0.245    0.516    6.383
  163.132    0.000   83.805    0.240    0.503    6.218
  163.382    0.000   82.816    0.257    0.509    6.096
  163.632   -0.000   83.725    0.223    0.541    6.091
  163.882   -0.000   83.836    0.256    0.524    6.251
  164.132    0.000   80.539    0.276    0.525    6.437
  164.382    0.000   79.247    0.260    0.533    6.916
  164.632    0.000   78.349    0.251    0.523    7.390
  164.882   -0.000   82.349    0.264    0.503    7.710
  165.132   -0.000   76.585    0.247    0.485    8.192
  165.382   -0.000   74.150    0.252    0.492    8.494
  165.632    0.000   77.875    0.241    0.481    8.639
  165.882    0.000   80.284    0.243    0.470    8.466
  166.132    0.000   81.139    0.260    0.485    8.114
  166.382   -0.000   79.222    0.251    0.476    7.387
  166.632   -0.000   76.627    0.237    0.451    7.429
  166.882   -0.000   81.365    0.232    0.447    7.294
  167.132    0.000   84.307    0.235    0.457    6.652
  167.382    0.000   89.650    0.234    0.510    5.730
  167.632   -0.000   91.015    0.239    0.533    5.452
  167.882   -0.000   87.911    0.230    0.534    5.073
  168.132   -0.000   89.660    0.222    0.537    4.924
  168.382    0.000   95.308    0.215    0.547    4.705
  168.632    0.000   97.932    0.213    0.558    4.568
  168.882    0.000   98.987    0.239    0.544    4.318
  169.132   -0.000  100.295    0.218    0.544    3.950
  169.382   -0.000   96.240    0.225    0.561    3.494
  169.632   -0.000   93.410    0.253    0.580    3.175
  169.882    0.000   95.495    0.245    0.586    2.810
  170.132    0.000  100.629    0.258    0.593    2.635
  170.382   -0.000   95.904    0.286    0.607    2.607
  170.632   -0.000   93.993    0.285    0.618    2.633
  170.882   -0.000   95.043    0.264    0.610    2.714
  171.132    0.000   95.896    0.257    0.597    2.844
  171.382    0.000   96.621    0.239    0.578    2.995
  171.632    0.000   96.734    0.240    0.563    3.084
  171.882   -0.000  100.386    0.253    0.563    3.124
  172.132   -0.000  103.805    0.268    0.598    3.187
  172.382   -0.000  104.991    0.249    0.601    3.253
  172.632    0.000  104.772    0.227    0.574    3.491
  172.882    0.000  101.392    0.217    0.573    4.033
  173.132    0.000   97.707    0.237    0.576    4.685
  173.382   -0.000   90.151    0.253    0.562    5.308
  173.632   -0.000   88.219    0.252    0.529    5.568
  173.882    0.000   88.859    0.246    0.508    5.713
  174.132    0.000   91.546    0.249    0.488    5.640
  174.382    0.000   92.657    0.242    0.482    5.734
  174.632   -0.000   90.564    0.253    0.512    6.001
  174.882   -0.000   84.707    0.256    0.546    6.376
  175.132   -0.000   80.567    0.249    0.517    6.782
  175.382    0.000   81.859    0.278    0.514    7.307
  175.632    0.000   79.817    0.266    0.498    7.866
  175.882    0.000   74.528    0.259    0.489    8.250
  176.132   -0.000   73.500    0.242    0.489    8.632
  176.382   -0.000   73.501    0.234    0.512    9.085
