~VERSION INFORMATION
 VERS.                 2.0:   CWLS LOG ASCII STANDARD -VERSION 2.0
 WRAP.                  NO:   ONE LINE PER DEPTH STEP
~WELL INFORMATION BLOCK
#MNEM.UNIT           DATA                    DESCRIPTION OF MNEMONIC
#---------    -------------------            -------------------------------
# Generated from Intellog Unique Number	CW_79_81/WELL/875
WELL.         PARAMOUNT ET AL HORIZON        : Well_name    - WELL
LOC .         00/10-29-079-19W4/0            : Location     - LOCATION
UWI .         00/10-29-079-19W4/0            : Uwi          - UNIQUE WELL ID
ENTR.         MAX                            : Entered      - ENTERED BY
SRVC.         SCHLUMBERGER                   : Scn          - SERVICE COMPANY
STRT.M        198.12                         : top_depth    - START DEPTH
STOP.M        381.62                         : bot_depth    - STOP DEPTH
STEP.M        0.25                           : increment    - STEP LENGTH
 NULL. -999.2500:NULL Value
~CURVE INFORMATION BLOCK
#MNEM UNIT       ERCB CURVE CODE    CURVE DESCRIPTION
#-----------   ------------------   ----------------------------------
DEPT.M        00 001 00 00         : DEPTH        - DEPTH
ILD .OHMM     00 120 00 00         : RESD         - DEEP RESISTIVITY (DIL)
NPHI.V/V      00 330 00 00         : PHIN         - NEUTRON POROSITY (SANDSTONE)
DPHI.V/V      00 890 00 00         : PHID         - DENSITY POROSITY (SANDSTONE)
CALI.MM       00 280 01 00         : CAL          - CALIPER
GR  .API      00 310 00 00         : GR           - GAMMA RAY
~PARAMETER INFORMATION
#MNEM.UNIT           DATA             DESCRIPTION OF MNEMONIC
#---------         -----------     ------------------------------
GL  .M        568.604              : gl           - GROUND LEVEL ELEVATION
EREF.M        571.652              : kb           - ELEVATION OF DEPTH REFERENCE
DATM.M        568.604              : datum        - DATUM ELEVATION
TDD .M        381.61               : tdd          - TOTAL DEPTH DRILLER
RUN .         ONE                  : Run          - RUN NUMBER
ENG .         BILL                 : Engineer     - RECORDING ENGINEER
WIT .         JIM                  : Witness      - WITNESSED BY
MUD .         GEL                  : Mud_type     - MUD TYPE
MATR.         SANDSTONE            : Logunit      - NEUTRON MATRIX
TMAX.C        21.1111              : BHT          - MAXIMUM RECORDED TEMPERATURE
BHTD.M        381.61               : BHTDEP       - MAXIMUM RECORDED TEMPERATURE
RMT .C        21.1111              : MDTP         - TEMPERATURE OF MUD
MUDD.KG/M     9700                 : MWT          - MUD DENSITY
NEUT.         1                    : NEUTRON      - NEUTRON TYPE
RESI.         0                    : RESIST       - RESISTIVITY TYPE
RM  .OHMM     0                    : RM           - RESISTIVITY OF MUD
RMC .OHMM     0                    : RMC          - RESISTIVITY OF MUD CAKE
RMF .OHMM     0                    : RMF          - RESISTIVITY OF MUD FILTRATE
SUFT.C        -15                  : SUFT         - SURFACE TEMPERATURE
~A  DEPTH     RESD     PHIN     PHID      CAL       GR
# ...
  271.120   14.655    0.522    0.296  148.567   72.283
  271.370   15.171    0.507    0.288  146.669   68.507
  271.620   15.890    0.491    0.304  147.323   67.090
  271.870   16.602    0.494    0.293  148.949   62.139
  272.120   17.412    0.495    0.286  149.557   63.978
  272.370   18.624    0.486    0.278  151.167   66.723
  272.620   22.809    0.437    0.247  153.355   65.620
  272.870   27.888    0.404    0.096  154.434   62.418
  273.120   33.757    0.258    0.034  155.559   58.938
  273.370   40.719    0.244    0.024  157.215   57.853
  273.620   45.201    0.238    0.025  158.841   59.091
  273.870   47.604    0.229    0.054  158.948   58.562
  274.120   48.715    0.222    0.071  158.554   56.275
  274.370   44.274    0.224    0.060  159.192   57.235
  274.620   40.229    0.239    0.075  159.846   58.787
  274.870   36.875    0.261    0.107  159.953   63.605
  275.120   29.660    0.345    0.150  159.088   63.668
  275.370   26.209    0.389    0.192  157.174   68.189
  275.620   21.174    0.438    0.289  152.283   70.630
  275.870   18.516    0.505    0.299  151.403   72.505
  276.120   15.859    0.489    0.301  151.024   72.568
  276.370   13.503    0.483    0.297  151.176   71.743
  276.620   12.927    0.510    0.300  151.785   72.416
  276.870   12.749    0.515    0.305  152.393   74.847
  277.120   12.871    0.511    0.310  152.530   77.001
  277.370   13.087    0.501    0.299  152.151   76.490
  277.620   13.306    0.498    0.297  151.787   76.266
  277.870   13.524    0.499    0.295  151.377   77.513
  278.120   13.552    0.496    0.290  151.499   79.666
  278.370   13.072    0.485    0.288  153.156   83.291
  278.620   11.703    0.490    0.286  154.295   87.220
  278.870   11.426    0.497    0.283  154.888   88.189
  279.120   10.753    0.499    0.280  155.527   89.150
  279.370    9.386    0.502    0.276  156.652   88.917
  279.620    8.911    0.519    0.268  158.779   86.630
  279.870    8.931    0.536    0.273  156.896   84.621
  280.120    9.251    0.580    0.279  153.494   83.203
  280.370    9.767    0.584    0.259  151.611   82.396
  280.620   10.085    0.577    0.267  151.748   80.683
  280.870   10.108    0.566    0.267  151.353   81.949
  281.120   10.128    0.543    0.245  151.491   84.981
  281.370    9.854    0.535    0.241  153.618   85.654
  281.620    9.577    0.528    0.237  154.758   84.838
  281.870    9.201    0.530    0.235  154.865   85.502
  282.120    8.924    0.519    0.247  154.485   86.175
  282.370    8.744    0.521    0.243  154.623   86.822
  282.620    8.767    0.529    0.245  153.742   89.567
  282.870    8.782    0.520    0.247  151.875   92.599
  283.120    8.802    0.521    0.232  152.969   94.466
  283.370    8.625    0.531    0.235  160.124   90.079
  283.620    8.645    0.536    0.256  157.755   82.464
  283.870    9.062    0.514    0.266  155.370   79.270
  284.120    9.778    0.485    0.268  153.973   80.231
  284.370   10.396    0.501    0.278  153.108   79.127
  284.620   10.612    0.505    0.277  153.215   76.526
  284.870   10.612    0.489    0.283  152.851   74.822
  285.120   10.660    0.479    0.286  152.973   78.151
  285.370   10.477    0.469    0.278  153.095   78.824
  285.620   10.201    0.464    0.261  153.202   78.591
  285.870   10.124    0.492    0.268  152.823   78.672
  286.120   10.442    0.514    0.289  152.459   76.968
  286.370   10.856    0.516    0.279  152.095   71.694
  286.620   11.771    0.511    0.288  151.701   70.016
  286.870   13.479    0.507    0.309  150.835   71.255
  287.120   13.700    0.492    0.314  151.443   75.471
  287.370   13.220    0.487    0.299  152.583   79.114
  287.620   11.853    0.491    0.263  153.207   82.442
  287.870   11.177    0.501    0.244  153.329   83.698
  288.120   10.902    0.509    0.237  152.934   83.779
  288.370   11.421    0.516    0.243  152.054   83.546
  288.620   12.033    0.528    0.267  149.670   81.250
  288.870   13.342    0.512    0.295  147.300   77.178
  289.120   15.049    0.485    0.328  146.906   76.057
  289.370   16.754    0.473    0.329  147.043   77.313
  289.620   16.477    0.499    0.316  142.137   81.548
  289.870   13.624    0.511    0.295  144.781   81.629
  290.120   12.057    0.520    0.279  150.417   79.916
  290.370   10.395    0.518    0.257  153.547   77.610
  290.620   10.215    0.473    0.223  153.669   75.009
  290.870   10.535    0.391    0.180  156.313   72.130
  291.120   11.351    0.370    0.144  158.956   74.561
  291.370   12.260    0.385    0.127  160.081   71.377
  291.620   13.569    0.400    0.142  159.717   67.601
  291.870   15.772    0.388    0.113  158.320   61.752
  292.120   17.581    0.351    0.082  156.938   57.375
  292.370   17.599    0.302    0.076  156.574   53.599
  292.620   16.229    0.281    0.133  158.686   53.079
  292.870   12.286    0.303    0.184  159.796   65.593
  293.120   10.619    0.413    0.251  159.417   75.443
  293.370    9.054    0.524    0.263  158.050   84.710
  293.620    8.186    0.527    0.273  158.172   88.649
  293.870    7.810    0.520    0.265  157.307   90.183
  294.120    7.629    0.510    0.263  157.414   91.439
  294.370    7.457    0.497    0.267  157.551   92.704
  294.620    7.373    0.500    0.273  157.658   90.991
  294.870    7.297    0.522    0.282  158.281   90.175
  295.120    7.218    0.525    0.280  158.403   92.329
  295.370    7.238    0.518    0.271  157.523   93.881
  295.620    7.256    0.531    0.263  157.144   96.034
  295.870    7.378    0.515    0.257  157.266   94.617
  296.120    7.399    0.513    0.268  157.388   89.379
  296.370    7.325    0.526    0.250  158.026   91.227
  296.620    7.241    0.516    0.248  157.662   93.353
  296.870    7.163    0.518    0.254  157.268   91.649
  297.120    7.089    0.544    0.241  157.390   92.017
  297.370    7.104    0.529    0.228  156.510   93.578
  297.620    7.325    0.516    0.223  155.629   92.466
  297.870    7.442    0.507    0.214  155.751   92.844
  298.120    7.564    0.519    0.247  156.390   94.387
  298.370    7.585    0.525    0.260  157.499   94.764
  298.620    7.610    0.518    0.254  158.123   96.011
  298.870    7.623    0.507    0.262  158.260   96.684
  299.120    7.646    0.511    0.244  157.896   94.998
  299.370    7.872    0.516    0.231  157.517   94.756
  299.620    8.185    0.524    0.242  157.138   94.532
  299.870    8.698    0.533    0.247  155.756   91.348
  300.120    9.516    0.511    0.251  153.873   85.787
  300.370   10.329    0.501    0.259  153.494   81.131
  300.620   11.043    0.500    0.248  153.600   79.122
  300.870   12.547    0.471    0.134  155.758   75.041
  301.120   19.509    0.354    0.042  157.885   68.600
  301.370   23.399    0.274    0.014  158.995   68.968
  301.620   21.931    0.262    0.089  158.631   77.042
  301.870   17.093    0.316    0.169  156.763   84.219
  302.120   13.643    0.441    0.219  155.351   92.293
  302.370   12.080    0.478    0.228  153.969   94.751
  302.620   11.311    0.500    0.213  153.590   96.600
  302.870   11.128    0.497    0.225  153.226  102.000
  303.120   11.049    0.493    0.235  153.348  104.736
  303.370   11.072    0.501    0.241  153.470  103.328
  303.620   11.191    0.502    0.236  153.577   98.063
  303.870   11.309    0.500    0.241  153.699   94.583
  304.120   11.829    0.497    0.241  153.821   93.184
  304.370   12.246    0.502    0.238  154.946   92.063
  304.620   12.665    0.512    0.229  156.085   89.471
  304.870   12.879    0.498    0.213  155.737   89.552
  305.120   13.199    0.453    0.193  156.831   91.705
  305.370   13.217    0.440    0.222  157.971   94.145
  305.620   12.945    0.470    0.247  156.103   94.208
  305.870   12.470    0.495    0.232  155.222   92.818
  306.120   12.089    0.501    0.242  155.329   93.177
  306.370   11.614    0.499    0.235  155.451   95.026
  306.620   11.241    0.507    0.227  155.558   96.273
  306.870   11.060    0.512    0.220  156.197   96.964
  307.120   10.786    0.509    0.216  157.337   98.498
  307.370   10.608    0.507    0.223  156.942  100.059
