~VERSION INFORMATION
 VERS.                 2.0:   CWLS LOG ASCII STANDARD -VERSION 2.0
 WRAP.                  NO:   ONE LINE PER DEPTH STEP
~WELL INFORMATION BLOCK
#MNEM.UNIT           DATA                    DESCRIPTION OF MNEMONIC
#---------    -------------------            -------------------------------
# Generated from Intellog Unique Number	CX_WELLS/WELL/2813
WELL.         THORNBURY                      : Well_name    - WELL
LOC .         00/14-01-081-12W4/0            : Location     - LOCATION
UWI .         00/14-01-081-12W400            : Uwi          - UNIQUE WELL ID
ENTR.         T                              : Entered      - ENTERED BY
SRVC.         SCHLUMBERGER                   : Scn          - SERVICE COMPANY
STRT.M        275                            : top_depth    - START DEPTH
STOP.M        500                            : bot_depth    - STOP DEPTH
STEP.M        0.25                           : increment    - STEP LENGTH
 NULL. -999.2500:NULL Value
~CURVE INFORMATION BLOCK
#MNEM UNIT       ERCB CURVE CODE    CURVE DESCRIPTION
#-----------   ------------------   ----------------------------------
DEPT.M        00 001 00 00         : DEPTH        - DEPTH
GR  .API      00 310 00 00         : GR           - GAMMA RAY
NPHI.V/V      00 330 00 00         : PHIN         - NEUTRON POROSITY (SANDSTONE)
DPHI.V/V      00 890 00 00         : PHID         - DENSITY POROSITY (SANDSTONE)
ILD .OHMM     00 120 00 00         : RESD         - DEEP RESISTIVITY (OTHER)
~PARAMETER INFORMATION
#MNEM.UNIT           DATA             DESCRIPTION OF MNEMONIC
#---------         -----------     ------------------------------
GL  .M        704.3                : gl           - GROUND LEVEL ELEVATION
EREF.M        704.8                : kb           - ELEVATION OF DEPTH REFERENCE
DATM.M        704.8                : datum        - DATUM ELEVATION
TDD .M        515                  : tdd          - TOTAL DEPTH DRILLER
RUN .         ONE                  : Run          - RUN NUMBER
ENG .         BILL                 : Engineer     - RECORDING ENGINEER
WIT .         JIM                  : Witness      - WITNESSED BY
MUD .         GEL                  : Mud_type     - MUD TYPE
MATR.         SANDSTONE            : Logunit      - NEUTRON MATRIX
TMAX.C        26                   : BHT          - MAXIMUM RECORDED TEMPERATURE
BHTD.M        515                  : BHTDEP       - MAXIMUM RECORDED TEMPERATURE
MATR.         1                    : LOGUNIT      - NEUTRON MATRIX
RMT .C        15.6                 : MDTP         - TEMPERATURE OF MUD
NEUT.         1                    : NEUTRON      - NEUTRON TYPE
RESI.         5                    : RESIST       - RESISTIVITY TYPE
RMC .OHMM     4.5                  : RMC          - RESISTIVITY OF MUD CAKE
RMF .OHMM     3.9                  : RMF          - RESISTIVITY OF MUD FILTRATE
SUFT.C        4                    : SUFT         - SURFACE TEMPERATURE
~A  DEPTH       GR     PHIN     PHID     RESD
# ...
  362.000   60.684    0.473    0.352   11.535
  362.250   61.311    0.468    0.357   11.541
  362.500   61.943    0.464    0.357   11.547
  362.750   62.575    0.459    0.357   11.553
  363.000   62.581    0.448    0.356   11.560
  363.250   62.585    0.425    0.356   11.566
  363.500   62.589    0.447    0.357   11.359
  363.750   62.597    0.453    0.357   11.364
  364.000   62.603    0.465    0.356   11.371
  364.250   62.607    0.470    0.354   11.375
  364.500   62.614    0.470    0.351   11.173
  364.750   63.244    0.472    0.341   11.182
  365.000   62.001    0.470    0.312   10.981
  365.250   60.133    0.359    0.246   10.586
  365.500   58.265    0.352    0.191   10.020
  365.750   56.398    0.359    0.206    9.657
  366.000   55.776    0.388    0.331    8.646
  366.250   60.155    0.402    0.328    8.031
  366.500   65.157    0.434    0.323    7.058
  366.750   65.786    0.454    0.312    6.435
  367.000   67.668    0.458    0.288    5.552
  367.250   69.546    0.463    0.278    4.879
  367.500   71.423    0.470    0.272    4.367
  367.750   77.674    0.484    0.267    3.983
  368.000   85.799    0.497    0.260    3.769
  368.250   91.425    0.507    0.254    3.312
  368.500   98.300    0.518    0.249    3.193
  368.750  100.180    0.532    0.247    2.966
  369.000  100.809    0.541    0.241    2.860
  369.250  101.439    0.552    0.238    2.809
  369.500  102.070    0.564    0.234    2.810
  369.750  102.700    0.565    0.233    2.864
  370.000  103.956    0.547    0.233    2.919
  370.250  105.211    0.550    0.233    3.205
  370.500  105.215    0.575    0.237    3.327
  370.750  105.846    0.582    0.242    3.652
  371.000  106.476    0.580    0.247    3.935
  371.250  106.480    0.571    0.249    4.401
  371.500  105.861    0.577    0.254    5.015
  371.750  103.371    0.575    0.259    5.403
  372.000   99.631    0.570    0.268    6.043
  372.250   97.761    0.553    0.270    6.511
  372.500   92.770    0.542    0.281    7.016
  372.750   88.404    0.533    0.287    7.286
  373.000   84.038    0.503    0.289    7.156
  373.250   80.923    0.494    0.274    7.028
  373.500   84.674    0.500    0.259    6.652
  373.750   84.055    0.507    0.252    6.411
  374.000   80.939    0.511    0.250    5.740
  374.250   78.447    0.500    0.257    5.332
  374.500   75.333    0.492    0.264    4.953
  374.750   74.086    0.492    0.265    4.517
  375.000   76.591    0.495    0.265    4.274
  375.250   79.718    0.492    0.268    3.899
  375.500   82.221    0.491    0.270    3.758
  375.750   82.853    0.498    0.263    3.623
  376.000   83.484    0.505    0.253    3.429
  376.250   86.612    0.518    0.264    2.958
  376.500   90.365    0.535    0.274    2.697
  376.750   94.117    0.553    0.270    2.326
  377.000   95.371    0.572    0.266    2.045
  377.250   95.377    0.537    0.258    1.797
  377.500   95.381    0.523    0.255    1.608
  377.750   93.514    0.517    0.250    1.522
  378.000   91.648    0.514    0.247    1.610
  378.250   89.779    0.504    0.244    1.672
  378.500   87.289    0.502    0.242    1.768
  378.750   86.667    0.496    0.240    2.090
  379.000   84.176    0.490    0.243    3.264
  379.250   82.933    0.485    0.249    4.821
  379.500   81.689    0.476    0.254    5.806
  379.750   81.070    0.475    0.255    6.256
  380.000   79.828    0.475    0.258    6.867
  380.250   78.585    0.474    0.260    7.401
  380.500   77.342    0.470    0.263    7.684
  380.750   76.721    0.466    0.264    8.129
  381.000   75.477    0.462    0.265    8.132
  381.250   74.858    0.460    0.266    8.139
  381.500   73.615    0.456    0.264    8.140
  381.750   72.375    0.453    0.235    7.995
  382.000   72.379    0.450    0.232    7.709
  382.250   72.385    0.445    0.235    7.432
  382.500   72.389    0.443    0.239    7.165
  382.750   73.020    0.446    0.248    7.037
  383.000   73.650    0.450    0.255    6.784
  383.250   74.904    0.449    0.260    6.541
  383.500   76.158    0.450    0.260    6.424
  383.750   78.038    0.457    0.258    6.310
  384.000   79.293    0.471    0.255    6.198
  384.250   80.549    0.487    0.254    6.199
  384.500   81.179    0.490    0.254    5.867
  384.750   81.183    0.490    0.254    5.762
  385.000   81.813    0.489    0.254    5.556
  385.250   82.443    0.492    0.255    5.558
  385.500   83.698    0.496    0.255    5.666
  385.750   83.704    0.499    0.255    5.884
  386.000   83.711    0.497    0.255    5.886
  386.250   83.715    0.482    0.251    5.999
  386.500   84.345    0.468    0.248    6.114
  386.750   84.975    0.465    0.245    6.233
  387.000   86.856    0.470    0.241    6.122
  387.250   88.736    0.477    0.241    6.012
  387.500   90.615    0.483    0.245    5.905
  387.750   88.747    0.488    0.248    5.693
  388.000   85.632    0.493    0.252    5.591
  388.250   85.010    0.497    0.251    5.491
  388.500   85.017    0.500    0.245    5.493
  388.750   86.270    0.505    0.243    5.600
  389.000   88.773    0.510    0.244    5.923
  389.250   90.654    0.509    0.252    6.150
  389.500   87.537    0.500    0.265    6.505
  389.750   81.922    0.489    0.276    7.142
  390.000   76.308    0.476    0.264    7.414
  390.250   71.942    0.472    0.256    7.842
  390.500   70.073    0.466    0.270    7.993
  390.750   71.327    0.457    0.257    7.999
  391.000   68.212    0.417    0.210    8.003
  391.250   66.967    0.371    0.125    8.006
  391.500   66.349    0.382    0.146    8.012
  391.750   70.102    0.407    0.187    7.868
  392.000   75.103    0.412    0.215    7.729
  392.250   78.231    0.430    0.236    7.731
  392.500   82.611    0.446    0.235    7.737
  392.750   83.238    0.451    0.233    7.740
  393.000   85.742    0.452    0.230    7.601
  393.250   88.248    0.451    0.231    7.465
  393.500   89.502    0.451    0.234    7.197
  393.750   89.507    0.451    0.241    6.940
  394.000   89.512    0.452    0.245    6.690
  394.250   89.518    0.455    0.246    6.570
  394.500   88.901    0.455    0.247    6.105
  394.750   88.904    0.458    0.251    5.777
  395.000   88.910    0.467    0.258    5.467
  395.250   88.916    0.468    0.256    5.079
  395.500   88.922    0.474    0.255    4.806
  395.750   91.427    0.490    0.255    4.549
  396.000   94.556    0.509    0.255    4.386
  396.250   95.808    0.511    0.257    4.388
  396.500   97.062    0.508    0.258    4.390
  396.750   97.068    0.504    0.257    4.474
  397.000   95.201    0.498    0.255    4.822
  397.250   92.084    0.489    0.253    5.196
  397.500   88.969    0.480    0.255    5.295
  397.750   87.725    0.480    0.252    5.398
  398.000   87.731    0.482    0.246    5.401
  398.250   88.987    0.482    0.242    5.404
  398.500   90.239    0.480    0.241    5.406
  398.750   92.120    0.479    0.240    5.510
  399.000   92.748    0.478    0.239    5.723
  399.250   93.379    0.478    0.239    5.831
  399.500   94.012    0.476    0.241    6.169
  399.750   94.016    0.468    0.247    6.287
  400.000   94.020    0.461    0.247    6.650
  400.250   94.028    0.452    0.230    7.034
  400.500   94.031    0.445    0.208    7.580
  400.750   95.287    0.440    0.174    8.322
  401.000   96.540    0.435    0.157    8.801
  401.250   96.548    0.422    0.135    9.664
  401.500   91.556    0.404    0.121   10.032
  401.750   84.692    0.393    0.166   10.225
  402.000   80.952    0.395    0.192    9.860
  402.250   81.582    0.403    0.219    9.505
  402.500   84.087    0.426    0.231    8.995
  402.750   85.966    0.447    0.234    8.512
  403.000   87.218    0.457    0.234    8.207
  403.250   89.724    0.468    0.234    7.768
  403.500   90.979    0.467    0.230    7.770
  403.750   91.609    0.462    0.222    7.633
  404.000   92.237    0.452    0.158    7.636
  404.250   89.122    0.398    0.120    7.930
  404.500   85.379    0.377    0.108    8.388
  404.750   81.637    0.364    0.094    8.871
  405.000   79.769    0.366    0.092    9.559
  405.250   77.904    0.367    0.122   10.692
