~VERSION INFORMATION
 VERS.                 2.0:   CWLS LOG ASCII STANDARD -VERSION 2.0
 WRAP.                  NO:   ONE LINE PER DEPTH STEP
~WELL INFORMATION BLOCK
#MNEM.UNIT           DATA                    DESCRIPTION OF MNEMONIC
#---------    -------------------            -------------------------------
# Generated from Intellog Unique Number	CC_80_83/WELL/2359
NULL.         -999.25                        : NULL_VALUE
WELL.         KANDEX HOMESTEAD PORT          : Well_name    - WELL              
LOC .         10-20-080-14W4                 : Location     - LOCATION          
UWI .         00/10-20-080-14W4/0            : Uwi          - UNIQUE WELL ID    
ENTR.         RJA                            : Entered      - ENTERED BY        
SRVC.         SCHLUMBERGER                   : Scn          - SERVICE COMPANY   
DATE.         13 FEB 78                      : Date         - LOG DATE
STRT.M        213.36                         : top_depth    - START DEPTH       
STOP.M        454.157                        : bot_depth    - STOP DEPTH        
STEP.M        0.305                          : increment    - STEP LENGTH       
~CURVE INFORMATION BLOCK
#MNEM UNIT       ERCB CURVE CODE    CURVE DESCRIPTION
#-----------   ------------------   ----------------------------------
DEPT.M        00 001 00 00         : DEPTH        - DEPTH                       
DPHI.V/V      00 890 00 00         : PHID         - DENSITY POROSITY (LIMESTONE)
NPHI.V/V      00 330 00 00         : PHIN         - NEUTRON POROSITY (LIMESTONE)
GR  .API      00 310 00 00         : GR           - GAMMA RAY                   
ILD .OHMM     00 120 00 00         : RESD         - DEEP RESISTIVITY (DIL)      
~PARAMETER INFORMATION       
#MNEM.UNIT           DATA             DESCRIPTION OF MNEMONIC
#---------         -----------     ------------------------------
GL  .M        640.69               : gl           - GROUND LEVEL ELEVATION      
EREF.M        644.042              : kb           - ELEVATION OF DEPTH REFERENCE
DATM.M        644.042              : datum        - DATUM ELEVATION             
TDD .M        459.029              : tdd          - TOTAL DEPTH DRILLER         
RUN .         ONE                  : Run          - RUN NUMBER                  
ENG .         BILL                 : Engineer     - RECORDING ENGINEER          
WIT .         JIM                  : Witness      - WITNESSED BY                
MUD .         GEL                  : Mud_type     - MUD TYPE                    
MATR.         LIMESTONE            : Logunit      - NEUTRON MATRIX              
TMAX.C        15                   : BHT          - MAXIMUM RECORDED TEMPERATURE
BHTD.M        459.029              : BHTDEP       - MAXIMUM RECORDED TEMPERATURE
MATR.         1                    : LOGUNIT      - NEUTRON MATRIX              
RMT .C        25                   : MDTP         - TEMPERATURE OF MUD          
NEUT.         1                    : NEUTRON      - NEUTRON TYPE                
RESI.         0                    : RESIST       - RESISTIVITY TYPE            
RMC .OHMM     0.25                 : RMC          - RESISTIVITY OF MUD CAKE     
RMF .OHMM     0.25                 : RMF          - RESISTIVITY OF MUD FILTRATE 
SUFT.C        4                    : SUFT         - SURFACE TEMPERATURE         
~A  DEPTH     PHID     PHIN       GR     RESD
  213.360    0.290    0.565   94.864    2.817
  213.665    0.316    0.567   95.426    2.766
  213.970    0.316    0.542   94.164    2.821
  214.274    0.364    0.552   92.906    2.930
  214.579    0.318    0.571   92.249    3.101
  214.884    0.354    0.579   87.310    3.283
  215.189    0.366    0.591   80.543    3.347
  215.494    0.384    0.567   79.275    3.349
  215.798    0.366    0.549   88.418    3.288
  216.103    0.410    0.545   87.769    3.110
  216.408    0.388    0.579   86.500    3.054
  216.713    0.345    0.590   86.465    2.943
  217.018    0.333    0.542   82.132    2.836
  217.322    0.325    0.560   86.986    2.733
  217.627    0.339    0.526   85.714    2.634
  217.932    0.366    0.557   82.611    2.586
  218.237    0.400    0.580   81.352    2.493
  218.542    0.367    0.594   83.768    2.494
  218.846    0.393    0.609   87.402    2.544
  219.151    0.370    0.602   86.135    2.545
  219.456    0.379    0.588   82.424    2.546
  219.761    0.390    0.587   80.539    2.453
  220.065    0.358    0.596   81.731    2.409
  220.370    0.354    0.611   82.301    2.410
  220.675    0.362    0.616   81.034    2.457
  220.980    0.322    0.620   81.603    2.553
  221.285    0.332    0.600   86.460    2.507
  221.589    0.317    0.574   87.024    2.508
  221.894    0.337    0.588   87.605    2.655
  222.199    0.352    0.563   87.555    2.864
  222.504    0.308    0.564   85.679    2.975
  222.809    0.323    0.556   83.808    3.033
  223.113    0.317    0.551   81.316    3.092
  223.418    0.274    0.565   79.449    3.093
  223.723    0.301    0.567   83.079    3.038
  224.028    0.290    0.535   86.705    3.097
  224.333    0.302    0.529   85.447    3.218
  224.637    0.318    0.537   87.235    3.280
  224.942    0.279    0.507   89.036    3.282
  225.247    0.309    0.527   90.834    3.284
  225.552    0.330    0.548   88.335    3.347
  225.857    0.351    0.570   85.850    3.478
  226.161    0.366    0.589   85.201    3.614
  226.466    0.366    0.595   86.994    3.683
  226.771    0.282    0.558   82.666    3.685
  227.076    0.305    0.573   83.852    3.619
  227.381    0.304    0.535   90.541    3.554
  227.685    0.342    0.544   86.825    3.490
  227.990    0.369    0.554   83.733    3.491
  228.295    0.390    0.559   83.694    3.428
  228.600    0.337    0.569   85.489    3.496
  228.905    0.381    0.558   84.223    3.631
  229.209    0.427    0.561   82.944    4.382
  229.514    0.414    0.583   81.069    5.492
  229.819    0.379    0.597   75.528    7.145
  230.124    0.380    0.610   66.924   10.211
  230.428    0.286    0.532   60.755   11.652
  230.733    0.339    0.385   58.875   10.815
  231.038    0.384    0.458   60.676    9.313
  231.343    0.400    0.470   65.539    8.327
  231.648    0.328    0.420   72.221    8.176
  231.952    0.367    0.423   67.897   11.046
  232.257    0.390    0.443   64.193   12.136
  232.562    0.399    0.456   61.087   13.846
  232.867    0.344    0.396   55.533   13.096
  233.172    0.356    0.355   51.216   11.491
  233.476    0.366    0.375   45.668   10.083
  233.781    0.388    0.417   54.193    9.537
  234.086    0.434    0.452   63.938    9.909
  234.391    0.449    0.510   69.416   10.686
  234.696    0.323    0.537   74.258   11.524
  235.000    0.317    0.421   72.392   11.972
  235.305    0.333    0.453   71.738   11.113
  235.610    0.322    0.460   72.311   10.708
  235.915    0.346    0.466   73.498   10.516
  236.220    0.354    0.465   74.061   10.523
  236.524    0.364    0.455   75.231   10.332
  236.829    0.367    0.471   75.207    8.732
  237.134    0.341    0.474   73.940    6.976
  237.439    0.366    0.454   65.323    6.007
  237.744    0.382    0.469   62.849    5.370
  238.048    0.390    0.474   75.658    4.712
  238.353    0.390    0.486   83.573    4.058
  238.658    0.434    0.526   82.304    3.767
  238.963    0.517    0.569   77.980    4.062
  239.268    0.583    0.566   70.596    5.488
  239.572    0.618    0.605   62.603    7.841
  239.877    0.639    0.602   53.989   12.079
  240.182    0.654    0.525   45.377   14.307
  240.487    0.577    0.445   39.215   13.037
  240.791    0.497    0.475   37.952   11.654
  241.096    0.501    0.498   40.970    9.850
  241.401    0.475    0.497   47.664    8.643
  241.706    0.537    0.512   51.913    7.873
  242.011    0.568    0.533   54.309    7.447
  242.315    0.529    0.532   56.112    7.591
  242.620    0.401    0.485   64.024    8.187
  242.925    0.415    0.488   69.500    8.505
  243.230    0.462    0.518   73.742    8.509
  243.535    0.494    0.537   71.868    7.329
  243.839    0.505    0.555   77.334    6.676
  244.144    0.509    0.513   82.802    6.197
  244.449    0.444    0.489   86.430    7.071
  244.754    0.481    0.528   85.782    8.067
  245.059    0.510    0.559   81.447    9.923
  245.363    0.524    0.591   81.418   11.108
  245.668    0.310    0.616   86.883   13.664
  245.973    0.234    0.612   83.169   13.670
  246.278    0.254    0.452   80.071   12.223
  246.583    0.281    0.440   78.196   11.134
  246.887    0.301    0.443   84.275   11.351
  247.192    0.327    0.453   86.063   12.714
  247.497    0.320    0.458   82.961   13.207
  247.802    0.315    0.461   81.081   13.717
  248.107    0.305    0.462   79.824   14.520
  248.411    0.319    0.451   77.949   14.801
  248.716    0.331    0.441   75.457   14.810
  249.021    0.310    0.441   73.576   15.100
  249.326    0.316    0.449   73.543   14.828
  249.631    0.310    0.456   84.513   14.837
  249.935    0.299    0.428   89.376   14.569
  250.240    0.308    0.425   93.006   14.308
  250.545    0.329    0.428   92.969   14.048
  250.850    0.354    0.431   86.798   13.541
  251.154    0.326    0.442   87.374   13.294
  251.459    0.358    0.432   90.395   12.813
  251.764    0.385    0.453   81.788   12.818
  252.069    0.305    0.482   72.560   13.069
  252.374    0.369    0.473   65.794   13.832
  252.678    0.395    0.472   57.793   14.101
  252.983    0.409    0.464   52.854   14.111
  253.288    0.334    0.482   54.644   13.601
  253.593    0.323    0.416   58.276   13.105
  253.898    0.303    0.413   60.692   12.629
  254.202    0.296    0.416   63.705   11.504
  254.507    0.307    0.423   70.404    9.907
  254.812    0.298    0.431   77.700    8.531
  255.117    0.296    0.451   80.724    7.210
  255.422    0.327    0.468   81.296    6.447
  255.726    0.334    0.494   81.258    5.984
  256.031    0.384    0.523   82.436    5.555
  256.336    0.427    0.556   84.848    4.967
  256.641    0.452    0.589   87.868    4.696
  256.946    0.468    0.577   89.045    4.699
  257.250    0.452    0.588   90.226    5.363
  257.555    0.504    0.591   91.419    5.784
  257.860    0.529    0.609   93.216    5.786
  258.165    0.533    0.627   93.781    4.890
  258.470    0.532    0.633   90.686    4.372
  258.775    0.552    0.627   87.570    3.695
  259.079    0.437    0.612   88.765    3.430
  259.384    0.491    0.591   93.004    4.379
  259.689    0.475    0.598   96.029    5.806
  259.994    0.515    0.606   91.688    8.453
  260.299    0.552    0.621   91.053   10.396
  260.603    0.369    0.628  100.190   11.643
  260.908    0.322    0.620  106.880   11.432
  261.213    0.361    0.622  103.169   10.416
  261.518    0.471    0.425   95.780    9.667
  261.823    0.527    0.429   93.299    8.325
  262.127    0.588    0.524   92.027    7.306
  262.432    0.434    0.563   86.473    7.172
  262.737    0.394    0.586   86.435    7.736
  263.042    0.444    0.455   90.073    8.827
  263.347    0.480    0.452   93.705   10.456
  263.651    0.518    0.556  102.237   12.157
  263.956    0.319    0.589  107.701   12.626
  264.261    0.316    0.550  103.378   12.874
  264.566    0.300    0.471   98.436   12.640
  264.871    0.249    0.470   96.560   12.182
  265.176    0.257    0.452   99.569   11.961
  265.480    0.273    0.445   99.545   12.195
  265.785    0.280    0.440   95.830   12.433
  266.090    0.271    0.440   96.402   12.675
