~VERSION INFORMATION
 VERS.                 2.0:   CWLS LOG ASCII STANDARD -VERSION 2.0
 WRAP.                  NO:   ONE LINE PER DEPTH STEP
~WELL INFORMATION BLOCK
#MNEM.UNIT           DATA                    DESCRIPTION OF MNEMONIC
#---------    -------------------            -------------------------------
# Generated from Intellog Unique Number	CS_77_79/WELL/995
WELL.         HOME LEISTER                   : Well_name    - WELL
LOC .         00/11-14-078-06W4/0            : Location     - LOCATION
UWI .         00/11-14-078-06W4/0            : Uwi          - UNIQUE WELL ID
ENTR.         JHS                            : Entered      - ENTERED BY
SRVC.         SCHLUMBERGER                   : Scn          - SERVICE COMPANY
STRT.M        140                            : top_depth    - START DEPTH
STOP.M        420                            : bot_depth    - STOP DEPTH
STEP.M        0.25                           : increment    - STEP LENGTH
 NULL. -999.2500:NULL Value
~CURVE INFORMATION BLOCK
#MNEM UNIT       ERCB CURVE CODE    CURVE DESCRIPTION
#-----------   ------------------   ----------------------------------
DEPT.M        00 001 00 00         : DEPTH        - DEPTH
DPHI.V/V      00 890 00 00         : PHID         - DENSITY POROSITY (LIMESTONE)
NPHI.V/V      00 330 00 00         : PHIN         - NEUTRON POROSITY (LIMESTONE)
GR  .API      00 310 00 00         : GR           - GAMMA RAY
ILD .OHMM     00 120 00 00         : RESD         - DEEP RESISTIVITY (DIL)
RHOB.KG/M3    00 350 00 00         : DENS         - BULK DENSITY
~PARAMETER INFORMATION
#MNEM.UNIT           DATA             DESCRIPTION OF MNEMONIC
#---------         -----------     ------------------------------
GL  .M        593.32               : gl           - GROUND LEVEL ELEVATION
EREF.M        596.32               : kb           - ELEVATION OF DEPTH REFERENCE
DATM.M        596.32               : datum        - DATUM ELEVATION
TDD .M        430                  : tdd          - TOTAL DEPTH DRILLER
RUN .         ONE                  : Run          - RUN NUMBER
ENG .         BILL                 : Engineer     - RECORDING ENGINEER
WIT .         JIM                  : Witness      - WITNESSED BY
MUD .         GEL                  : Mud_type     - MUD TYPE
MATR.         LIMESTONE            : Logunit      - NEUTRON MATRIX
TMAX.C        24                   : BHT          - MAXIMUM RECORDED TEMPERATURE
BHTD.M        430                  : BHTDEP       - MAXIMUM RECORDED TEMPERATURE
MATR.         1                    : LOGUNIT      - NEUTRON MATRIX
RMT .C        25                   : MDTP         - TEMPERATURE OF MUD
NEUT.         1                    : NEUTRON      - NEUTRON TYPE
RESI.         0                    : RESIST       - RESISTIVITY TYPE
RMC .OHMM     0.25                 : RMC          - RESISTIVITY OF MUD CAKE
RMF .OHMM     0.25                 : RMF          - RESISTIVITY OF MUD FILTRATE
SUFT.C        15                   : SUFT         - SURFACE TEMPERATURE
~A  DEPTH     PHID     PHIN       GR     RESD     DENS
# ...
  359.000    0.247    0.368  114.322   15.560 2287.640
  359.250    0.270    0.340  113.056   17.731 2247.680
  359.500    0.281    0.323  106.232   22.184 2228.690
  359.750    0.290    0.337  116.079   27.758 2213.910
  360.000    0.289    0.366  130.859   30.468 2215.900
  360.250    0.277    0.380  128.358   29.888 2236.790
  360.500    0.268    0.370  131.414   24.772 2251.380
  360.750    0.254    0.358  136.321   20.920 2276.450
  361.000    0.243    0.348  122.099   20.141 2295.220
  361.250    0.260    0.358  102.937   23.383 2265.770
  361.500    0.288    0.373   86.244   27.662 2217.420
  361.750    0.287    0.372   76.340   31.515 2219.400
  362.000    0.284    0.361   84.334   33.952 2223.510
  362.250    0.289    0.330   87.379   40.160 2215.010
  362.500    0.280    0.343   86.739   45.758 2231.690
  362.750    0.293    0.353   91.024   49.293 2208.540
  363.000    0.328    0.346   76.805   47.451 2149.700
  363.250    0.303    0.357   66.286   44.008 2191.550
  363.500    0.302    0.401   95.258   40.054 2193.550
  363.750    0.300    0.381  107.567   37.151 2197.610
  364.000    0.291    0.384   98.281   32.570 2212.210
  364.250    0.286    0.404   88.989   30.779 2220.490
  364.500    0.286    0.392   85.871   31.935 2220.390
  364.750    0.288    0.362   81.525   37.773 2218.210
  365.000    0.296    0.361   74.701   41.459 2203.420
  365.250    0.302    0.396   74.047   46.368 2192.850
  365.500    0.310    0.401   72.177   52.827 2180.170
  365.750    0.306    0.375   64.124   56.905 2186.360
  366.000    0.319    0.360   54.840   60.163 2165.280
  366.250    0.309    0.380   47.404   57.921 2181.960
  366.500    0.311    0.396   52.927   55.768 2177.660
  366.750    0.302    0.371   71.408   52.699 2194.340
  367.000    0.289    0.381   82.484   47.953 2215.230
  367.250    0.299    0.396   82.447   46.172 2198.350
  367.500    0.294    0.343   75.634   44.457 2206.640
  367.750    0.287    0.364   73.745   42.803 2219.120
  368.000    0.291    0.385   72.489   41.212 2212.740
  368.250    0.297    0.415   66.282   38.218 2202.140
  368.500    0.288    0.369   65.020   39.653 2216.730
  368.750    0.275    0.362  131.021   45.184 2239.690
  369.000    0.280    0.379  145.799   54.455 2231.210
  369.250    0.309    0.381  129.108   64.413 2180.760
  369.500    0.325    0.384   92.668   72.040 2153.400
  369.750    0.330    0.381   74.741   82.086 2144.900
  370.000    0.332    0.383   70.392   90.090 2142.690
  370.250    0.321    0.386   60.490   91.751 2161.460
  370.500    0.316    0.399   39.477   83.502 2169.770
  370.750    0.320    0.403   36.357   70.522 2163.390
  371.000    0.341    0.379   32.007   60.684 2127.640
  371.250    0.327    0.348   29.510   54.206 2150.610
  371.500    0.300    0.325   52.307   52.195 2196.660
  371.750    0.292    0.344   57.216   52.169 2211.230
  372.000    0.298    0.368   49.160   54.131 2200.650
  372.250    0.315    0.386   42.961   59.411 2171.180
  372.500    0.320    0.410   37.987   63.999 2162.680
  372.750    0.331    0.404   39.194   63.962 2143.710
  373.000    0.324    0.377   39.163   67.630 2156.200
  373.250    0.306    0.373   43.455   68.871 2187.550
  373.500    0.304    0.398   65.642   65.066 2189.560
  373.750    0.317    0.409   84.124   61.492 2168.480
  374.000    0.319    0.399   93.969   53.908 2164.190
  374.250    0.311    0.420   84.059   50.946 2178.770
  374.500    0.300    0.357   72.308   47.245 2197.540
  374.750    0.297    0.334   74.746   48.111 2201.630
  375.000    0.300    0.346   83.354   49.926 2197.350
  375.250    0.301    0.382   87.644   56.882 2195.140
  375.500    0.310    0.392   85.754   61.277 2180.360
  375.750    0.318    0.383   75.856   63.574 2165.590
  376.000    0.314    0.404   64.101   55.747 2173.880
  376.250    0.298    0.418   57.900   40.530 2201.040
  376.500    0.281    0.380   54.163   28.924 2230.310
  376.750    0.266    0.377   54.138   26.825 2255.380
  377.000    0.260    0.391   57.809   30.560 2265.750
  377.250    0.271    0.422   67.032   33.546 2246.800
  377.500    0.299    0.414   69.470   50.612 2198.450
  377.750    0.316    0.394   66.351   74.943 2168.980
  378.000    0.327    0.392   62.614   88.648 2150.020
  378.250    0.321    0.421   61.976   93.722 2160.400
  378.500    0.317    0.420   61.942   85.307 2168.690
  378.750    0.322    0.412   51.420   77.634 2160.200
  379.000    0.318    0.422   43.365   76.158 2166.390
  379.250    0.324    0.423   40.872   71.972 2155.790
  379.500    0.333    0.389   40.225   59.655 2141.020
  379.750    0.339    0.378   46.978   51.333 2130.440
  380.000    0.303    0.359   55.588   45.006 2191.170
  380.250    0.302    0.375   61.110   42.521 2193.150
  380.500    0.315    0.386   60.463   42.506 2172.080
  380.750    0.320    0.380   45.005   45.788 2163.590
  381.000    0.290    0.378   51.143   54.156 2213.850
  381.250    0.304    0.393   59.755   61.708 2190.660
  381.500    0.333    0.370   44.295   69.011 2140.220
  381.750    0.348    0.353   36.245   78.630 2114.940
  382.000    0.350    0.369   32.511   83.119 2110.660
  382.250    0.341    0.392   34.946   81.554 2127.330
  382.500    0.343    0.327   38.004   70.170 2123.050
  382.750    0.343    0.330   36.123   62.691 2122.930
  383.000    0.343    0.335   30.538   53.941 2122.830
  383.250    0.350    0.404   31.735   49.097 2112.260
  383.500    0.361    0.454   43.433   48.167 2093.240
  383.750    0.360    0.429   40.320   50.916 2095.250
  384.000    0.353    0.410   37.197   53.836 2105.640
  384.250    0.357    0.431   40.871   56.920 2099.230
  384.500    0.355    0.420   40.839   54.795 2103.360
  384.750    0.344    0.385   40.194   42.939 2122.140
  385.000    0.333    0.397   42.018   28.431 2140.930
  385.250    0.323    0.435   46.920   21.867 2157.590
  385.500    0.286    0.323   48.744   19.173 2220.440
  385.750    0.209    0.288   60.435   19.522 2352.490
  386.000    0.204    0.339   80.771   20.259 2360.760
  386.250    0.268    0.393  101.104   26.313 2251.600
  386.500    0.317    0.380   73.918   34.828 2167.600
  386.750    0.344    0.364   58.462   56.633 2121.350
  387.000    0.366    0.359   36.835   65.744 2083.500
  387.250    0.369    0.411   36.799   68.222 2079.200
  387.500    0.354    0.449   42.319   62.090 2104.270
  387.750    0.337    0.463   42.914   58.669 2133.520
  388.000    0.324    0.419   33.624   56.490 2156.510
  388.250    0.314    0.390   29.892   64.362 2173.180
  388.500    0.320    0.380   28.627   70.645 2162.600
  388.750    0.332    0.361   32.911   71.934 2141.510
  389.000    0.332    0.335   32.880   71.901 2141.430
  389.250    0.322    0.344   35.934   70.534 2160.210
  389.500    0.320    0.371   37.758   66.645 2162.210
  389.750    0.318    0.394   37.106   60.667 2166.300
  390.000    0.316    0.365   35.230   53.184 2170.380
  390.250    0.311    0.336   33.966   52.178 2178.670
  390.500    0.312    0.351   32.086   50.234 2176.490
  390.750    0.323    0.405   31.433   45.723 2157.510
  391.000    0.306    0.434   33.250   37.896 2186.780
  391.250    0.296    0.340   34.462   32.004 2203.440
  391.500    0.295    0.310   35.049   27.541 2205.460
  391.750    0.314    0.315   38.098   23.259 2173.890
  392.000    0.311    0.344   41.766   19.278 2177.990
  392.250    0.316    0.373   42.350   16.590 2169.470
  392.500    0.301    0.364   39.861   13.246 2194.550
  392.750    0.272    0.338   38.595   10.575 2244.810
  393.000    0.219    0.300   73.123    8.604 2334.910
  393.250    0.212    0.316   81.731    6.617 2347.390
  393.500    0.227    0.324   79.844    5.693 2322.120
  393.750    0.250    0.312   72.415    5.280 2282.170
  394.000    0.240    0.303   70.527    5.083 2298.840
  394.250    0.239    0.318   76.054    4.894 2300.820
  394.500    0.252    0.378   76.023    4.892 2279.780
  394.750    0.273    0.291   66.732    4.889 2244.020
  395.000    0.244    0.270   64.238    4.979 2292.150
  395.250    0.215    0.266   78.389    5.071 2342.410
