~VERSION INFORMATION
 VERS.                 2.0:   CWLS LOG ASCII STANDARD -VERSION 2.0
 WRAP.                  NO:   ONE LINE PER DEPTH STEP
~WELL INFORMATION BLOCK
#MNEM.UNIT           DATA                    DESCRIPTION OF MNEMONIC
#---------    -------------------            -------------------------------
# Generated from Intellog Unique Number	CW_79_81/WELL/2467
WELL.         10-15-081-19W4                 : Well_name    - WELL
LOC .         00/10-15-081-19W4/0            : Location     - LOCATION
UWI .         00/10-15-081-19W400            : Uwi          - UNIQUE WELL ID
ENTR.         MAX                            : Entered      - ENTERED BY
SRVC.         SCHLUMBERGER                   : Scn          - SERVICE COMPANY
STRT.M        167.64                         : top_depth    - START DEPTH
STOP.M        365.64                         : bot_depth    - STOP DEPTH
STEP.M        0.25                           : increment    - STEP LENGTH
 NULL. -999.2500:NULL Value
~CURVE INFORMATION BLOCK
#MNEM UNIT       ERCB CURVE CODE    CURVE DESCRIPTION
#-----------   ------------------   ----------------------------------
DEPT.M        00 001 00 00         : DEPTH        - DEPTH
ILD .OHMM     00 120 00 00         : RESD         - DEEP RESISTIVITY (DIL)
NPHI.V/V      00 330 00 00         : PHIN         - NEUTRON POROSITY (SANDSTONE)
DPHI.V/V      00 890 00 00         : PHID         - DENSITY POROSITY (SANDSTONE)
GR  .API      00 310 00 00         : GR           - GAMMA RAY
CALI.MM       00 280 01 00         : CAL          - CALIPER
~PARAMETER INFORMATION
#MNEM.UNIT           DATA             DESCRIPTION OF MNEMONIC
#---------         -----------     ------------------------------
GL  .M        576.377              : gl           - GROUND LEVEL ELEVATION
EREF.M        578.815              : kb           - ELEVATION OF DEPTH REFERENCE
DATM.M        576.377              : datum        - DATUM ELEVATION
TDD .M        373.99               : tdd          - TOTAL DEPTH DRILLER
RUN .         ONE                  : Run          - RUN NUMBER
ENG .         BILL                 : Engineer     - RECORDING ENGINEER
WIT .         JIM                  : Witness      - WITNESSED BY
MUD .         GEL                  : Mud_type     - MUD TYPE
MATR.         SANDSTONE            : Logunit      - NEUTRON MATRIX
TMAX.C        20                   : BHT          - MAXIMUM RECORDED TEMPERATURE
BHTD.M        373.99               : BHTDEP       - MAXIMUM RECORDED TEMPERATURE
MATR.         1                    : LOGUNIT      - NEUTRON MATRIX
RMT .C        15.5556              : MDTP         - TEMPERATURE OF MUD
NEUT.         1                    : NEUTRON      - NEUTRON TYPE
RESI.         0                    : RESIST       - RESISTIVITY TYPE
RMC .OHMM     7.16                 : RMC          - RESISTIVITY OF MUD CAKE
RMF .OHMM     8.11                 : RMF          - RESISTIVITY OF MUD FILTRATE
SUFT.C        -20                  : SUFT         - SURFACE TEMPERATURE
~A  DEPTH     RESD     PHIN     PHID       GR      CAL
# ...
  313.640    8.891    0.464    0.209  107.601  166.774
  313.890    8.982    0.461    0.205  108.847  167.103
  314.140    9.108    0.458    0.197  110.096  167.926
  314.390    9.234    0.454    0.184  110.300  169.052
  314.640    9.566    0.452    0.192  110.837  169.475
  314.890    9.853    0.454    0.190  108.112  170.221
  315.140   10.178    0.447    0.185  105.608  168.845
  315.390   10.321    0.434    0.183  107.445  167.401
  315.640   10.222    0.425    0.185  113.555  166.344
  315.890   10.070    0.441    0.197  119.134  164.689
  316.140    9.618    0.452    0.190  118.209  164.625
  316.390    9.396    0.456    0.195  116.223  165.378
  316.640    9.349    0.460    0.195  113.688  165.782
  316.890    9.343    0.465    0.191  111.310  165.517
  317.140    9.371    0.468    0.182  109.519  164.752
  317.390    9.501    0.463    0.165  108.077  164.298
  317.640    9.668    0.469    0.151  106.860  164.218
  317.890    9.807    0.471    0.176  110.470  164.158
  318.140    9.832    0.467    0.176  111.170  164.693
  318.390    9.719    0.459    0.166  110.198  165.422
  318.640    9.522    0.448    0.155  108.929  166.052
  318.890    9.379    0.440    0.147  109.598  166.384
  319.140    9.040    0.449    0.173  115.988  166.800
  319.390    8.634    0.459    0.190  119.366  167.146
  319.640    8.368    0.461    0.191  119.311  167.163
  319.890    8.304    0.459    0.188  117.750  167.300
  320.140    8.479    0.452    0.183  117.008  167.543
  320.390    8.942    0.444    0.173  120.525  167.630
  320.640    9.422    0.450    0.177  120.726  168.383
  320.890    9.485    0.439    0.180  117.181  168.722
  321.140    9.444    0.429    0.164  113.632  165.186
  321.390    9.302    0.423    0.148  114.998  162.546
  321.640    9.013    0.425    0.144  119.639  162.388
  321.890    8.478    0.439    0.162  119.310  163.515
  322.140    8.346    0.449    0.169  119.023  165.506
  322.390    8.834    0.458    0.180  119.461  169.010
  322.640    9.699    0.457    0.183  117.959  171.329
  322.890   10.946    0.449    0.182  114.878  172.851
  323.140   12.643    0.434    0.180  110.220  172.682
  323.390   15.057    0.405    0.172  102.790  167.983
  323.640   15.507    0.366    0.152   98.598  164.620
  323.890   15.055    0.357    0.151  100.440  164.556
  324.140   14.295    0.367    0.189   99.114  164.487
  324.390   13.637    0.381    0.221   97.315  164.225
  324.640   13.293    0.390    0.226   96.338  163.767
  324.890   13.439    0.392    0.217   95.874  163.199
  325.140   13.737    0.383    0.231   94.856  162.726
  325.390   13.829    0.387    0.237   92.942  162.675
  325.640   13.996    0.395    0.236   92.087  162.313
  325.890   13.782    0.399    0.239   92.402  161.849
  326.140   13.064    0.401    0.243   93.477  161.490
  326.390   11.956    0.411    0.233   94.615  161.419
  326.640   11.421    0.422    0.224   95.790  161.352
  326.890   11.665    0.432    0.205   98.562  161.685
  327.140   12.362    0.424    0.188   98.875  162.310
  327.390   13.280    0.409    0.185   96.498  163.234
  327.640   14.223    0.396    0.198   92.660  164.262
  327.890   15.111    0.384    0.214   90.332  164.901
  328.140   15.329    0.389    0.222   91.756  164.422
  328.390   15.101    0.400    0.219   94.055  164.358
  328.640   14.470    0.403    0.208   96.884  164.289
  328.890   13.954    0.404    0.193  100.127  163.823
  329.140   13.648    0.406    0.183  104.015  162.766
  329.390   13.305    0.412    0.190  109.360  161.116
  329.640   13.098    0.418    0.200  110.544  161.050
  329.890   13.090    0.433    0.186  108.161  162.175
  330.140   13.080    0.440    0.171  104.732  162.111
  330.390   13.167    0.433    0.160  101.417  162.048
  330.640   13.424    0.418    0.155   98.744  162.380
  330.890   14.114    0.417    0.162   95.864  162.701
  331.140   15.216    0.423    0.190   92.167  162.641
  331.390   16.334    0.401    0.169   88.614  162.564
  331.640   16.995    0.362    0.120   83.660  162.492
  331.890   16.985    0.330    0.083   79.526  162.432
  332.140   16.305    0.319    0.068   78.845  162.478
  332.390   14.833    0.332    0.067   85.534  162.802
  332.640   13.355    0.354    0.085   89.883  162.729
  332.890   12.501    0.377    0.124   92.889  163.062
  333.140   12.165    0.405    0.166   94.835  163.097
  333.390   12.158    0.421    0.189   95.849  162.838
  333.640   12.414    0.420    0.186   95.637  162.482
  333.890   13.014    0.408    0.160   92.898  162.485
  334.140   13.303    0.389    0.158   89.940  162.818
  334.390   12.917    0.386    0.152   89.193  163.169
  334.640   11.993    0.390    0.144   90.739  163.507
  334.890   11.201    0.400    0.149   94.450  163.839
  335.140   10.642    0.414    0.170   99.211  164.666
  335.390   10.109    0.419    0.199  103.154  167.540
  335.640   10.107    0.419    0.205  104.334  170.370
  335.890   10.101    0.419    0.198  105.939  169.910
  336.140   10.040    0.417    0.190  104.729  169.440
  336.390    9.926    0.415    0.188  103.989  169.178
  336.640    9.742    0.418    0.191  104.188  168.926
  336.890    9.414    0.430    0.185  102.681  167.972
  337.140    9.199    0.428    0.182  101.182  167.486
  337.390    8.737    0.429    0.177  103.720  167.026
  337.640    8.208    0.431    0.172  105.730  166.858
  337.890    7.628    0.430    0.161  106.510  167.392
  338.140    7.138    0.426    0.139  107.699  168.825
  338.390    6.929    0.425    0.107  114.592  171.462
  338.640    6.926    0.434    0.117  121.140  173.040
  338.890    6.972    0.440    0.131  126.486  173.776
  339.140    7.323    0.446    0.154  126.387  174.204
  339.390    7.944    0.448    0.166  124.124  174.335
  339.640    8.903    0.442    0.163  121.747  174.075
  339.890   10.906    0.426    0.161  118.555  172.632
  340.140   13.833    0.414    0.173  110.957  169.669
  340.390   15.822    0.401    0.146   99.212  168.818
  340.640   16.672    0.390    0.129   92.379  167.657
  340.890   16.601    0.382    0.118   92.224  166.797
  341.140   16.178    0.380    0.116   98.161  166.440
  341.390   15.910    0.388    0.144  108.028  166.363
  341.640   15.782    0.394    0.177  111.887  166.297
  341.890   16.116    0.395    0.177  111.849  166.629
  342.140   16.635    0.393    0.173  110.582  166.967
  342.390   17.358    0.394    0.165  106.333  167.101
  342.640   18.282    0.400    0.154  100.915  167.036
  342.890   19.507    0.406    0.141   99.942  167.135
  343.140   20.245    0.403    0.133  101.118  167.888
  343.390   20.674    0.397    0.136  102.250  167.830
  343.640   20.775    0.389    0.141  102.508  168.060
  343.890   20.385    0.382    0.137  102.004  168.390
  344.140   19.577    0.376    0.125  102.610  168.625
  344.390   18.227    0.371    0.122  109.022  168.635
  344.640   16.534    0.376    0.150  114.351  168.975
  344.890   14.805    0.386    0.162  113.611  170.496
  345.140   13.039    0.391    0.168  113.398  171.721
  345.390   11.667    0.394    0.171  111.254  173.246
  345.640   10.825    0.400    0.173  105.539  175.961
  345.890   10.800    0.411    0.175   91.864  179.715
  346.140   12.006    0.405    0.181   74.020  173.035
  346.390   15.737    0.399    0.235   61.106  169.788
  346.640   20.370    0.397    0.260   52.932  168.343
  346.890   26.152    0.398    0.266   47.860  167.889
  347.140   33.162    0.400    0.267   44.894  167.927
  347.390   41.078    0.402    0.274   43.779  168.259
  347.640   46.374    0.418    0.271   44.223  168.193
  347.890   48.735    0.432    0.260   45.356  167.726
  348.140   48.802    0.435    0.263   46.137  166.967
  348.390   46.477    0.432    0.266   48.442  166.111
  348.640   42.578    0.427    0.263   52.503  165.155
  348.890   37.080    0.415    0.256   57.589  163.806
  349.140   32.187    0.402    0.248   60.967  163.327
  349.390   27.559    0.402    0.249   65.611  163.263
  349.640   24.739    0.406    0.246   71.487  163.204
  349.890   22.941    0.406    0.238   79.293  163.341
