~VERSION INFORMATION
 VERS.                 2.0:   CWLS LOG ASCII STANDARD -VERSION 2.0
 WRAP.                  NO:   ONE LINE PER DEPTH STEP
~WELL INFORMATION BLOCK
#MNEM.UNIT           DATA                    DESCRIPTION OF MNEMONIC
#---------    -------------------            -------------------------------
# Generated from Intellog Unique Number	CW_70_72/WELL/1042
NULL.         -999.25                        : NULL_VALUE
WELL.         MIKAS AMOCO MEYER              : Well_name    - WELL              
LOC .         10-26-071-25W4                 : Location     - LOCATION          
UWI .         00/10-26-071-25W4/0            : Uwi          - UNIQUE WELL ID    
ENTR.         JAYE                           : Entered      - ENTERED BY        
SRVC.         SCHLUMBERGER                   : Scn          - SERVICE COMPANY   
DATE.         4 MAR 73                       : Date         - LOG DATE          
STRT.M        374.904                        : top_depth    - START DEPTH       
STOP.M        609.654                        : bot_depth    - STOP DEPTH        
STEP.M        0.25                           : increment    - STEP LENGTH       
~CURVE INFORMATION BLOCK
#MNEM UNIT       ERCB CURVE CODE    CURVE DESCRIPTION
#-----------   ------------------   ----------------------------------
DEPT.M        00 001 00 00         : DEPTH        - DEPTH                       
DPHI.V/V      00 890 00 00         : PHID         - DENSITY POROSITY (SANDSTONE)
NPHI.V/V      00 330 00 00         : PHIN         - NEUTRON POROSITY (SANDSTONE)
GR  .API      00 310 00 00         : GR           - GAMMA RAY                   
CALI.MM       00 280 01 00         : CAL          - CALIPER                     
ILD .OHMM     00 120 00 00         : RESD         - DEEP RESISTIVITY (DIL)      
~PARAMETER INFORMATION       
#MNEM.UNIT           DATA             DESCRIPTION OF MNEMONIC
#---------         -----------     ------------------------------
GL  .M        589.94               : gl           - GROUND LEVEL ELEVATION      
EREF.M        593.75               : kb           - ELEVATION OF DEPTH REFERENCE
DATM.M        589.94               : datum        - DATUM ELEVATION             
TDD .M        667.817              : tdd          - TOTAL DEPTH DRILLER         
RUN .         ONE                  : Run          - RUN NUMBER                  
BASE.         EDM                  : Branch       - HOME BASE OF LOGGING UNIT   
MUD .         GEL CHEM             : Mud_type     - MUD TYPE                    
MATR.         SANDSTONE            : Logunit      - NEUTRON MATRIX              
TMAX.C        28.3333              : BHT          - MAXIMUM RECORDED TEMPERATURE
BHTD.M        667.817              : BHTDEP       - MAXIMUM RECORDED TEMPERATURE
RMT .C        17.7778              : MDTP         - TEMPERATURE OF MUD          
MUDD.KG/M     0                    : MWT          - MUD DENSITY                 
NEUT.         1                    : NEUTRON      - NEUTRON TYPE                
RESI.         0                    : RESIST       - RESISTIVITY TYPE            
RM  .OHMM     3.6                  : RM           - RESISTIVITY OF MUD          
RMC .OHMM     0                    : RMC          - RESISTIVITY OF MUD CAKE     
RMF .OHMM     0                    : RMF          - RESISTIVITY OF MUD FILTRATE 
SUFT.C        0                    : SUFT         - SURFACE TEMPERATURE         
~A  DEPTH     PHID     PHIN       GR      CAL     RESD
# ...
  411.404    0.178    0.464   90.753  166.491    3.946
  411.654    0.157    0.452   90.470  166.516    3.994
  411.904    0.133    0.451   90.606  166.141    3.991
  412.154    0.188    0.467   90.503  165.656    3.922
  412.404    0.210    0.459   90.157  165.184    3.785
  412.654    0.189    0.486   89.449  164.797    3.693
  412.904    0.170    0.508   87.895  164.519    3.711
  413.154    0.164    0.497   86.518  164.136    3.804
  413.404    0.191    0.508   84.235  163.858    3.980
  413.654    0.198    0.529   79.047  163.583    4.196
  413.904    0.203    0.551   73.857  163.505    4.270
  414.154    0.194    0.535   69.335  163.331    4.300
  414.404    0.208    0.517   70.625  163.463    4.273
  414.654    0.198    0.497   75.122  163.390    4.277
  414.904    0.180    0.508   81.070  163.109    4.314
  415.154    0.158    0.524   87.142  162.832    4.343
  415.404    0.164    0.539   91.941  162.248    4.388
  415.654    0.170    0.551   97.228  161.869    4.408
  415.904    0.179    0.541   98.877  161.795    4.421
  416.154    0.201    0.529   97.625  162.031    4.434
  416.404    0.204    0.497   96.309  162.382    4.422
  416.654    0.182    0.498   94.090  162.915    4.419
  416.904    0.153    0.514   92.471  163.451    4.393
  417.154    0.157    0.538   90.430  164.099    4.325
  417.404    0.158    0.566   88.392  164.432    4.250
  417.654    0.167    0.569   87.258  164.777    4.056
  417.904    0.182    0.561   86.127  164.900    3.964
  418.154    0.206    0.560   84.930  164.739    3.797
  418.404    0.239    0.569   83.192  164.756    3.611
  418.654    0.264    0.570   83.149  164.786    3.440
  418.904    0.261    0.551   84.622  164.821    3.331
  419.154    0.256    0.525   87.241  164.846    3.256
  419.404    0.259    0.520   89.557  165.492    3.211
  419.654    0.267    0.509   91.393  166.235    3.180
  419.904    0.254    0.506   93.045  167.398    3.189
  420.154    0.240    0.515   94.273  167.945    3.210
  420.404    0.229    0.522   95.742  168.069    3.273
  420.654    0.215    0.530   97.334  168.509    3.412
  420.904    0.195    0.535   96.442  168.434    3.650
  421.154    0.167    0.527   92.526  168.070    3.876
  421.404    0.179    0.509   89.275  167.685    4.086
  421.654    0.165    0.481   87.354  166.997    4.236
  421.904    0.130    0.492   85.739  166.404    4.343
  422.154    0.145    0.545   84.968  165.305    4.324
  422.404    0.179    0.573   85.772  164.620    4.273
  422.654    0.242    0.544   87.610  163.838    4.094
  422.904    0.278    0.473   88.836  163.551    3.928
  423.154    0.260    0.436   89.399  163.472    3.686
  423.404    0.264    0.426   88.024  163.194    3.281
  423.654    0.276    0.420   87.132  163.124    2.984
  423.904    0.292    0.411   88.419  163.767    2.636
  424.154    0.300    0.403   91.646  163.693    2.429
  424.404    0.301    0.405   96.143  163.621    2.272
  424.654    0.285    0.404  100.038  162.627    2.216
  424.904    0.288    0.422  102.896  161.834    2.194
  425.154    0.274    0.468  106.667  160.840    2.237
  425.404    0.245    0.499  107.170  160.769    2.460
  425.654    0.230    0.520  106.100  160.906    2.725
  425.904    0.238    0.534  105.631  161.553    3.070
  426.154    0.244    0.522  106.677  162.398    3.296
  426.404    0.272    0.507  108.026  163.556    3.572
  426.654    0.249    0.518  108.709  165.121    3.806
  426.904    0.222    0.442  109.998  167.821    4.225
  427.154    0.183    0.403  106.989  169.584    4.578
  427.404    0.165    0.435  101.740  172.381    5.016
  427.654    0.188    0.539   93.102  175.591    5.336
  427.904    0.198    0.545   87.975  175.315    5.542
  428.154    0.186    0.514   86.298  172.474    5.673
  428.404    0.174    0.553   87.221  169.221    5.678
  428.654    0.161    0.599   89.601  166.387    5.509
  428.904    0.194    0.554   90.042  165.284    5.257
  429.154    0.220    0.518   90.119  164.492    5.073
  429.404    0.237    0.487   91.894  166.062    4.797
  429.654    0.237    0.508   92.334  167.934    4.324
  429.904    0.254    0.526   94.048  170.119    3.984
  430.154    0.265    0.520   95.154  171.275    3.685
  430.404    0.277    0.480   95.596  171.819    3.383
  430.654    0.290    0.453   95.071  171.852    3.169
  430.904    0.291    0.441   94.663  170.756    2.899
  431.154    0.291    0.429   94.073  170.059    2.747
  431.404    0.280    0.452   92.518  169.371    2.665
  431.654    0.283    0.479   91.747  168.596    2.595
  431.904    0.271    0.485   91.886  168.209    2.560
  432.154    0.275    0.467   92.326  168.034    2.563
  432.404    0.295    0.450   87.686  167.857    2.571
  432.654    0.303    0.455   83.645  168.293    2.578
  432.904    0.274    0.460   80.030  168.321    2.610
  433.154    0.295    0.453   74.783  168.358    2.632
  433.404    0.301    0.440   69.169  168.172    2.639
  433.654    0.297    0.437   70.459  167.177    2.647
  433.904    0.270    0.444   73.019  164.654    2.656
  434.154    0.293    0.447   77.153  163.445    2.648
  434.404    0.283    0.424   80.924  165.422    2.647
  434.654    0.279    0.437   84.511  168.128    2.649
  434.904    0.278    0.446   89.977  168.969    2.633
  435.154    0.284    0.460   88.062  169.302    2.626
  435.404    0.280    0.462   86.199  168.513    2.614
  435.654    0.274    0.447   83.978  166.395    2.589
  435.904    0.285    0.469   81.877  164.471    2.577
  436.154    0.291    0.454   79.715  161.638    2.561
  436.404    0.298    0.428   77.917  159.719    2.559
  436.654    0.306    0.458   76.965  158.825    2.562
  436.904    0.302    0.460   77.225  157.325    2.551
  437.154    0.287    0.440   79.058  157.244    2.540
  437.404    0.274    0.441   81.799  157.274    2.523
  437.654    0.272    0.446   84.602  157.408    2.545
  437.904    0.290    0.438   86.375  157.538    2.576
  438.154    0.300    0.423   87.421  157.980    2.603
  438.404    0.305    0.425   88.469  158.522    2.639
  438.654    0.281    0.429   89.031  159.061    2.662
  438.904    0.286    0.437   89.533  160.014    2.694
  439.154    0.272    0.454   89.551  161.273    2.733
  439.404    0.268    0.467   90.232  162.536    2.791
  439.654    0.261    0.461   91.703  164.301    2.862
  439.904    0.276    0.452   94.869  165.671    2.924
  440.154    0.289    0.454   96.701  166.212    2.895
  440.404    0.300    0.450   99.080  166.657    2.819
  440.654    0.302    0.478   99.281  166.784    2.680
  440.904    0.298    0.470   98.993  166.820    2.525
  441.154    0.282    0.489   98.950  166.940    2.401
  441.404    0.288    0.497   99.152  166.868    2.275
  441.654    0.278    0.480   98.924  166.286    2.211
  441.904    0.260    0.469   97.913  164.987    2.157
  442.154    0.235    0.449   96.175  163.888    2.212
  442.404    0.212    0.374   94.921  162.990    2.366
  442.654    0.162    0.326   92.820  162.304    2.592
  442.904    0.129    0.281   91.506  161.928    2.952
  443.154    0.024    0.257   92.858  161.850    3.619
  443.404    0.082    0.322   94.083  162.090    4.307
  443.654    0.137    0.368   95.009  162.418    5.107
  443.904    0.212    0.363   95.208  162.863    6.354
  444.154    0.216    0.330   94.802  163.092    7.452
  444.404    0.146    0.289   94.882  163.535    8.488
  444.654    0.066    0.227   95.260  164.386    9.385
  444.904    0.047    0.268   96.610  165.954   10.474
  445.154    0.073    0.344   95.779  167.208   10.718
  445.404    0.281    0.516   92.588  168.576    7.818
  445.654    0.311    0.535   86.553  169.832    5.220
  445.904    0.304    0.526   78.036  170.993    3.957
  446.154    0.285    0.495   73.090  171.119    3.176
  446.404    0.267    0.474   66.508  168.178    3.031
  446.654    0.255    0.488   56.719  165.336    3.183
  446.904    0.239    0.562   50.199  161.985    3.706
  447.154    0.228    0.570   47.130  155.047    4.120
  447.404    0.238    0.566   46.179  150.362    4.515
  447.654    0.258    0.546   46.320  150.390    4.680
