~VERSION INFORMATION
 VERS.                 2.0:   CWLS LOG ASCII STANDARD -VERSION 2.0
 WRAP.                  NO:   ONE LINE PER DEPTH STEP
~WELL INFORMATION BLOCK
#MNEM.UNIT           DATA                    DESCRIPTION OF MNEMONIC
#---------    -------------------            -------------------------------
# Generated from Intellog Unique Number	CW_82_90/WELL/3074
WELL.         PARA ET AL LIVOCK 10-36        : Well_name    - WELL
LOC .         00/10-36-085-19W4/0            : Location     - LOCATION
UWI .         00/10-36-085-19W4/0            : Uwi          - UNIQUE WELL ID
ENTR.         JAYE                           : Entered      - ENTERED BY
SRVC.         COMPUTALOG                     : Scn          - SERVICE COMPANY
DATE.         6 FEB 78                       : Date         - LOG DATE
STRT.M        188.976                        : top_depth    - START DEPTH
STOP.M        304.726                        : bot_depth    - STOP DEPTH
STEP.M        0.25                           : increment    - STEP LENGTH
 NULL. -999.2500:NULL Value
~CURVE INFORMATION BLOCK
#MNEM UNIT       ERCB CURVE CODE    CURVE DESCRIPTION
#-----------   ------------------   ----------------------------------
DEPT.M        00 001 00 00         : DEPTH        - DEPTH
CALI.MM       00 280 01 00         : CAL          - CALIPER
GR  .API      00 310 00 00         : GR           - GAMMA RAY
NPHI.V/V      00 330 00 00         : PHIN         - NEUTRON POROSITY (SANDSTONE)
DPHI.V/V      00 890 00 00         : PHID         - DENSITY POROSITY (SANDSTONE)
ILD .OHMM     00 120 00 00         : RESD         - DEEP RESISTIVITY (DIL)
~PARAMETER INFORMATION
#MNEM.UNIT           DATA             DESCRIPTION OF MNEMONIC
#---------         -----------     ------------------------------
GL  .M        576.072              : gl           - GROUND LEVEL ELEVATION
EREF.M        579.12               : kb           - ELEVATION OF DEPTH REFERENCE
DATM.M        576.072              : datum        - DATUM ELEVATION
TDD .M        304.19               : tdd          - TOTAL DEPTH DRILLER
RUN .         ONE                  : Run          - RUN NUMBER
ENG .         FITZSIMMONS          : Engineer     - RECORDING ENGINEER
WIT .         GEORGE               : Witness      - WITNESSED BY
BASE.         EDMONTON             : Branch       - HOME BASE OF LOGGING UNIT
MUD .         GEL CHEM             : Mud_type     - MUD TYPE
MATR.         SANDSTONE            : Logunit      - NEUTRON MATRIX
TMAX.C        18.3333              : BHT          - MAXIMUM RECORDED TEMPERATURE
BHTD.M        304.19               : BHTDEP       - MAXIMUM RECORDED TEMPERATURE
RMT .C        15.5556              : MDTP         - TEMPERATURE OF MUD
MUDD.KG/M     9300                 : MWT          - MUD DENSITY
NEUT.         0                    : NEUTRON      - NEUTRON TYPE
RESI.         0                    : RESIST       - RESISTIVITY TYPE
RM  .OHMM     5                    : RM           - RESISTIVITY OF MUD
RMC .OHMM     0                    : RMC          - RESISTIVITY OF MUD CAKE
RMF .OHMM     4.6                  : RMF          - RESISTIVITY OF MUD FILTRATE
SUFT.C        -17.7778             : SUFT         - SURFACE TEMPERATURE
~A  DEPTH      CAL       GR     PHIN     PHID     RESD
# ...
  261.976  163.718   73.878    0.267    0.210   15.511
  262.226  163.367   71.326    0.267    0.159   17.336
  262.476  162.702   63.190    0.245    0.050   19.221
  262.726  162.162   60.023    0.221    0.038   20.443
  262.976  161.915   64.525    0.183    0.123   20.964
  263.226  161.676   67.473    0.191    0.182   20.541
  263.476  160.907   68.386    0.204    0.183   19.637
  263.726  159.733   71.346    0.230    0.178   17.990
  263.976  159.176   74.046    0.260    0.190   16.344
  264.226  158.826   74.716    0.253    0.213   15.600
  264.476  158.488   73.951    0.253    0.209   15.398
  264.726  157.835   70.276    0.255    0.205   15.316
  264.976  157.595   66.175    0.252    0.207   16.137
  265.226  157.659   69.807    0.261    0.211   16.999
  265.476  157.633   74.379    0.249    0.183   18.041
  265.726  157.808   57.888    0.236    0.073   18.541
  265.976  157.888   57.128    0.205    0.013   18.039
  266.226  158.375   62.245    0.188    0.034   16.773
  266.476  159.396   72.506    0.217    0.097   15.147
  266.726  160.631   77.387    0.248    0.166   13.801
  266.976  162.586   79.345    0.263    0.189   11.813
  267.226  164.972   83.362    0.260    0.202   10.468
  267.476  166.539   80.424    0.256    0.202    9.684
  267.726  167.547   82.019    0.257    0.195    9.001
  267.976  168.348   82.248    0.262    0.186    8.538
  268.226  165.279   85.759    0.263    0.182    8.236
  268.476  164.612   82.091    0.261    0.183    8.655
  268.726  164.914   74.393    0.253    0.195    9.337
  268.976  165.180   67.376    0.231    0.156   11.322
  269.226  159.599   62.844    0.228    0.112   13.969
  269.476  156.312   64.742    0.237    0.141   15.151
  269.726  154.089   63.811    0.269    0.184   14.327
  269.976  154.589   66.258    0.278    0.192   12.681
  270.226  155.596   79.549    0.272    0.189   10.693
  270.476  159.235   79.046    0.265    0.188    9.428
  270.726  161.835   76.293    0.264    0.187    8.865
  270.976  165.263   76.904    0.263    0.163    9.245
  271.226  167.747   76.885    0.260    0.093    9.625
  271.476  167.717   74.447    0.258    0.109   10.045
  271.726  163.489   69.788    0.257    0.136   10.304
  271.976  162.217   72.432    0.258    0.164   10.202
  272.226  162.387   79.409    0.257    0.171    9.981
  272.476  166.232   86.638    0.254    0.190    9.538
  272.726  169.143   87.300    0.251    0.180    9.115
  272.976  169.527   86.352    0.266    0.183    8.753
  273.226  170.983   85.468    0.273    0.187    8.330
  273.476  168.002   87.248    0.273    0.188    8.108
  273.726  166.198   86.802    0.273    0.180    8.107
  273.976  164.792   80.214    0.270    0.185    8.647
  274.226  162.461   73.449    0.259    0.149    9.609
  274.476  157.924   69.159    0.235    0.124   10.771
  274.726  156.022   66.661    0.223    0.100   12.014
  274.976  154.926   67.020    0.235    0.143   13.698
  275.226  154.056   75.731    0.258    0.168   15.763
  275.476  154.234   80.975    0.267    0.173   15.963
  275.726  153.890   76.317    0.269    0.168   15.600
  275.976  154.390   77.170    0.252    0.170   15.077
  276.226  157.289   78.020    0.245    0.175   15.036
  276.476  159.573   76.762    0.243    0.168   15.255
  276.726  160.906   76.561    0.245    0.166   15.916
  276.976  161.822   77.777    0.247    0.170   17.580
  277.226  161.693   77.943    0.238    0.155   19.023
  277.476  160.927   73.094    0.228    0.143   21.229
  277.726  159.105   67.943    0.259    0.162   22.973
  277.976  157.400   68.911    0.261    0.181   24.256
  278.226  156.531   78.429    0.260    0.189   24.215
  278.476  157.443   76.926    0.259    0.195   23.552
  278.726  158.052   73.814    0.248    0.194   24.734
  278.976  157.914   69.707    0.238    0.187   27.301
  279.226  156.838   68.338    0.231    0.166   30.028
  279.476  156.273   66.885    0.225    0.128   31.853
  279.726  154.461   60.058    0.221    0.063   33.597
  279.976  152.766   55.836    0.219    0.045   33.796
  280.226  152.521   57.550    0.243    0.149   33.574
  280.476  152.592   60.189    0.255    0.180   33.131
  280.726  152.254   61.784    0.253    0.175   32.749
  280.976  151.707   60.464    0.251    0.152   32.346
  281.226  151.996   55.246    0.254    0.152   31.924
  281.476  152.788   57.958    0.260    0.179   31.581
  281.726  155.693   61.469    0.256    0.190   31.440
  281.976  160.068   61.263    0.254    0.195   31.840
  282.226  162.789   59.140    0.243    0.182   31.999
  282.476  162.861   60.732    0.230    0.127   31.516
  282.726  163.237   59.605    0.217    0.127   30.271
  282.976  162.987   62.933    0.214    0.146   29.106
  283.226  161.909   65.077    0.227    0.152   28.041
  283.476  160.410   62.146    0.233    0.125   25.893
  283.726  158.398   53.838    0.228    0.114   25.390
  283.976  158.159   54.938    0.225    0.121   24.988
  284.226  158.131   56.834    0.221    0.133   23.983
  284.476  157.884   59.166    0.216    0.067   22.838
  284.726  158.272   53.950    0.215    0.050   21.473
  284.976  159.517   57.894    0.231    0.101   19.645
  285.226  160.640   67.967    0.241    0.168   18.199
  285.476  161.874   69.373    0.242    0.180   16.854
  285.726  162.037   75.675    0.249    0.177   15.970
  285.976  161.479   77.263    0.249    0.164   15.346
  286.226  161.453   74.213    0.240    0.104   15.024
  286.476  160.684   72.151    0.243    0.122   14.662
  286.726  159.193   70.339    0.251    0.169   14.179
  286.976  160.103   70.205    0.251    0.172   13.696
  287.226  163.562   71.424    0.253    0.153   12.411
  287.476  164.341   74.498    0.258    0.157   11.546
  287.726  164.746   83.828    0.262    0.153   10.401
  287.976  165.229   91.550    0.272    0.150    9.457
  288.226  164.881   91.659    0.265    0.165    8.312
  288.476  163.399   83.532    0.260    0.195    7.448
  288.726  161.260   87.166    0.266    0.191    6.865
  288.976  159.231   86.159    0.277    0.183    6.362
  289.226  158.898   79.822    0.269    0.168    6.080
  289.476  159.293   81.301    0.268    0.126    6.259
  289.726  160.506   83.501    0.271    0.132    6.820
  289.976  162.055   88.629    0.265    0.150    7.741
  290.226  163.073   91.086    0.260    0.145    8.663
  290.476  164.101   91.565    0.253    0.131    9.705
  290.726  164.374   76.871    0.242    0.078   10.827
  290.976  163.615   70.537    0.237    0.166   12.391
  291.226  162.423   63.892    0.246    0.184   13.975
  291.476  161.560   41.894    0.256    0.208   16.462
  291.726  162.367   38.346    0.268    0.236   21.496
  291.976  163.386   37.471    0.271    0.268   21.395
  292.226  163.886   38.196    0.271    0.260   19.788
  292.476  163.847   40.836    0.272    0.233   18.162
  292.726  162.874   46.202    0.263    0.190   15.813
  292.976  161.479   63.025    0.241    0.149   13.304
  293.226  159.988   67.964    0.238    0.160    9.911
  293.476  161.003   72.716    0.246    0.172    8.084
  293.726  163.599   83.968    0.263    0.173    6.197
  293.976  166.504   91.749    0.272    0.172    4.691
  294.226  168.988   89.503    0.266    0.178    4.168
  294.476  170.424   87.441    0.260    0.175    4.327
  294.726  170.604   84.822    0.259    0.160    4.807
  294.976  168.162   85.371    0.261    0.138    5.869
  295.226  165.828   88.749    0.263    0.121    6.911
  295.476  164.018   84.087    0.266    0.115    7.091
  295.726  163.356   70.385    0.267    0.139    7.049
  295.976  164.386   77.550    0.269    0.186    6.847
  296.226  166.548   91.032    0.270    0.176    6.706
  296.476  169.247  101.853    0.266    0.162    7.406
  296.726  170.473   81.151    0.255    0.170    8.068
  296.976  167.194   60.514    0.250    0.187    9.932
  297.226  161.712   56.844    0.259    0.210   13.302
  297.476  151.824   64.570    0.266    0.211   17.072
  297.726  150.222   67.217    0.278    0.193   18.837
  297.976  150.202   63.863    0.255    0.171   18.976
  298.226  152.888   61.800    0.250    0.178   18.513
