~VERSION INFORMATION
 VERS.                 2.0:   CWLS LOG ASCII STANDARD -VERSION 2.0
 WRAP.                  NO:   ONE LINE PER DEPTH STEP
~WELL INFORMATION BLOCK
#MNEM.UNIT           DATA                    DESCRIPTION OF MNEMONIC
#---------    -------------------            -------------------------------
# Generated from Intellog Unique Number	CC_84_87/WELL/2549
WELL.         HOMESTEAD ET AL WATCHUSK       : Well_name    - WELL
LOC .         00/10-16-084-03W4/0            : Location     - LOCATION
UWI .         00/10-16-084-03W400            : Uwi          - UNIQUE WELL ID
ENTR.         JHS                            : Entered      - ENTERED BY
SRVC.         SCHLUMBERGER                   : Scn          - SERVICE COMPANY
STRT.M        86.563                         : top_depth    - START DEPTH
STOP.M        298.563                        : bot_depth    - STOP DEPTH
STEP.M        0.25                           : increment    - STEP LENGTH
 NULL. -999.2500:NULL Value
~CURVE INFORMATION BLOCK
#MNEM UNIT       ERCB CURVE CODE    CURVE DESCRIPTION
#-----------   ------------------   ----------------------------------
DEPT.M        00 001 00 00         : DEPTH        - DEPTH
ILD .OHMM     00 120 00 00         : RESD         - DEEP RESISTIVITY (DIL)
GR  .API      00 310 00 00         : GR           - GAMMA RAY
DPHI.V/V      00 890 00 00         : PHID         - DENSITY POROSITY (SANDSTONE)
NPHI.V/V      00 330 00 00         : PHIN         - NEUTRON POROSITY (SANDSTONE)
~PARAMETER INFORMATION
#MNEM.UNIT           DATA             DESCRIPTION OF MNEMONIC
#---------         -----------     ------------------------------
GL  .M        454.457              : gl           - GROUND LEVEL ELEVATION
EREF.M        458.114              : kb           - ELEVATION OF DEPTH REFERENCE
DATM.M        458.114              : datum        - DATUM ELEVATION
TDD .M        312.42               : tdd          - TOTAL DEPTH DRILLER
RUN .         ONE                  : Run          - RUN NUMBER
ENG .         BILL                 : Engineer     - RECORDING ENGINEER
WIT .         JIM                  : Witness      - WITNESSED BY
MUD .         GEL                  : Mud_type     - MUD TYPE
MATR.         SANDSTONE            : Logunit      - NEUTRON MATRIX
TMAX.C        19.4444              : BHT          - MAXIMUM RECORDED TEMPERATURE
BHTD.M        312.42               : BHTDEP       - MAXIMUM RECORDED TEMPERATURE
MATR.         1                    : LOGUNIT      - NEUTRON MATRIX
RMT .C        25                   : MDTP         - TEMPERATURE OF MUD
NEUT.         1                    : NEUTRON      - NEUTRON TYPE
RESI.         0                    : RESIST       - RESISTIVITY TYPE
RMC .OHMM     0.25                 : RMC          - RESISTIVITY OF MUD CAKE
RMF .OHMM     0.25                 : RMF          - RESISTIVITY OF MUD FILTRATE
SUFT.C        15                   : SUFT         - SURFACE TEMPERATURE
~A  DEPTH     RESD       GR     PHID     PHIN
# ...
  130.063   11.362   57.075    0.364    0.479
  130.313   11.386   59.512    0.351    0.457
  130.563   11.250   61.243    0.353    0.450
  130.813   11.058   60.751    0.352    0.469
  131.063   10.955   58.372    0.348    0.489
  131.313   11.001   57.409    0.355    0.489
  131.563   11.192   60.721    0.362    0.483
  131.813   11.552   62.424    0.364    0.489
  132.063   11.775   62.629    0.376    0.489
  132.313   11.954   62.341    0.374    0.475
  132.563   12.104   61.566    0.362    0.471
  132.813   12.032   58.763    0.360    0.482
  133.063   11.648   55.452    0.358    0.481
  133.313   11.111   58.848    0.354    0.474
  133.563   10.909   60.854    0.354    0.468
  133.813   10.643   60.793    0.349    0.464
  134.063   10.438   60.999    0.351    0.466
  134.313   10.458   61.618    0.360    0.479
  134.563   10.288   62.672    0.353    0.495
  134.813   10.266   64.252    0.351    0.494
  135.063   10.455   64.690    0.348    0.495
  135.313   10.417   63.998    0.346    0.499
  135.563   10.285   62.834    0.344    0.500
  135.813   10.319   62.110    0.339    0.503
  136.063   10.323   62.756    0.335    0.509
  136.313   10.344   63.880    0.338    0.519
  136.563   10.200   63.459    0.349    0.529
  136.813   10.145   61.538    0.354    0.538
  137.063   10.121   60.014    0.352    0.533
  137.313    9.940   59.890    0.346    0.512
  137.563    9.805   60.454    0.336    0.497
  137.813    9.820   61.447    0.344    0.495
  138.063    9.694   62.283    0.357    0.506
  138.313    9.632   61.797    0.360    0.512
  138.563    9.640   62.296    0.354    0.505
  138.813    9.681   64.385    0.347    0.496
  139.063    9.837   64.705    0.344    0.500
  139.313    9.698   64.229    0.354    0.524
  139.563    9.640   63.587    0.370    0.539
  139.813    9.751   61.516    0.370    0.531
  140.063    9.936   62.387    0.356    0.505
  140.313   10.052   66.498    0.344    0.478
  140.563   10.053   67.163    0.343    0.468
  140.813   10.213   67.603    0.342    0.474
  141.063   10.287   68.799    0.344    0.495
  141.313   10.139   70.975    0.341    0.507
  141.563   10.108   72.065    0.329    0.500
  141.813   10.291   72.165    0.322    0.482
  142.063   10.271   72.014    0.333    0.469
  142.313    9.991   66.758    0.348    0.490
  142.563    9.555   66.939    0.343    0.525
  142.813    9.200   70.392    0.345    0.527
  143.063    8.982   70.003    0.360    0.526
  143.313    8.906   67.837    0.369    0.540
  143.563    9.071   70.287    0.355    0.525
  143.813    9.366   73.544    0.309    0.505
  144.063    9.536   73.591    0.324    0.485
  144.313    9.684   70.956    0.324    0.484
  144.563    9.359   68.208    0.300    0.501
  144.813    8.682   66.505    0.309    0.507
  145.063    8.616   66.207    0.325    0.496
  145.313    8.749   69.038    0.325    0.491
  145.563    8.866   72.838    0.334    0.485
  145.813    8.447   77.463    0.342    0.468
  146.063    7.817   80.966    0.325    0.453
  146.313    7.369   83.721    0.298    0.472
  146.563    6.823   87.123    0.292    0.513
  146.813    6.355   85.407    0.297    0.503
  147.063    5.603   88.871    0.302    0.521
  147.313    4.950   98.934    0.318    0.553
  147.563    4.453  103.266    0.300    0.561
  147.813    3.946   99.878    0.258    0.553
  148.063    3.618  101.476    0.274    0.543
  148.313    3.400  106.038    0.287    0.546
  148.563    3.246  108.878    0.282    0.591
  148.813    3.097  109.236    0.274    0.609
  149.063    2.989  108.142    0.274    0.586
  149.313    2.968  107.587    0.280    0.567
  149.563    2.969  107.527    0.291    0.558
  149.813    2.929  104.190    0.299    0.556
  150.063    2.883  106.468    0.316    0.581
  150.313    2.836  111.715    0.304    0.597
  150.563    2.685  112.175    0.291    0.594
  150.813    2.434  106.053    0.301    0.598
  151.063    2.267   99.871    0.297    0.610
  151.313    2.257  101.226    0.292    0.608
  151.563    2.329  101.666    0.287    0.599
  151.813    2.373  100.260    0.285    0.591
  152.063    2.435  100.112    0.274    0.599
  152.313    2.560  101.386    0.266    0.614
  152.563    2.679  102.914    0.287    0.608
  152.813    2.838  104.340    0.296    0.599
  153.063    3.109  100.948    0.284    0.586
  153.313    3.358   96.054    0.279    0.570
  153.563    3.694   93.148    0.289    0.556
  153.813    4.177   93.189    0.277    0.539
  154.063    4.560   95.259    0.239    0.517
  154.313    4.799   94.742    0.247    0.525
  154.563    4.828   95.489    0.258    0.526
  154.813    4.859   95.687    0.253    0.504
  155.063    4.950   93.797    0.252    0.509
  155.313    5.027   89.349    0.267    0.538
  155.563    5.105   83.447    0.287    0.526
  155.813    5.125   83.233    0.287    0.504
  156.063    4.963   83.439    0.284    0.489
  156.313    4.602   81.478    0.288    0.482
  156.563    3.983   79.089    0.299    0.487
  156.813    3.429   78.069    0.310    0.492
  157.063    3.430   78.161    0.309    0.483
  157.313    3.677   78.497    0.304    0.499
  157.563    4.198   80.883    0.300    0.503
  157.813    4.765   84.710    0.309    0.489
  158.063    5.667   88.708    0.314    0.480
  158.313    6.625   92.723    0.300    0.490
  158.563    6.756   95.500    0.286    0.516
  158.813    6.776   93.758    0.282    0.534
  159.063    6.600   91.138    0.291    0.535
  159.313    6.492   91.338    0.300    0.534
  159.563    6.567   93.359    0.294    0.512
  159.813    6.673   95.426    0.283    0.476
  160.063    6.778   96.773    0.277    0.477
  160.313    6.894   94.396    0.266    0.498
  160.563    6.919   92.350    0.273    0.516
  160.813    6.894   91.878    0.285    0.527
  161.063    6.646   90.775    0.291    0.538
  161.313    6.269   88.807    0.293    0.536
  161.563    6.097   88.517    0.285    0.518
  161.813    5.749   90.262    0.280    0.520
  162.063    5.447   94.175    0.274    0.512
  162.313    5.315   97.084    0.268    0.515
  162.563    5.261   97.317    0.262    0.515
  162.813    5.315   96.028    0.253    0.497
  163.063    5.583   95.146    0.248    0.493
  163.313    5.857   96.116    0.259    0.495
  163.563    5.985   96.860    0.281    0.476
  163.813    5.581   97.195    0.284    0.469
  164.063    4.788   99.487    0.273    0.493
  164.313    4.175  102.781    0.270    0.539
  164.563    3.892  102.376    0.273    0.580
  164.813    3.548   98.841    0.276    0.577
  165.063    3.377   97.436    0.282    0.540
  165.313    3.390  100.643    0.286    0.533
  165.563    3.467  102.121    0.287    0.553
  165.813    3.595   98.802    0.288    0.554
  166.063    3.833   95.910    0.288    0.539
  166.313    4.148   92.775    0.280    0.521
  166.563    4.339   91.967    0.293    0.500
  166.813    4.330   93.374    0.293    0.486
  167.063    3.878   95.810    0.278    0.477
  167.313    3.233   99.064    0.275    0.491
  167.563    3.036  102.520    0.284    0.554
  167.813    2.937  103.137    0.298    0.604
  168.063    2.986   98.308    0.300    0.608
  168.313    3.371   96.426    0.283    0.582
  168.563    3.942   98.720    0.270    0.527
  168.813    4.490   99.569    0.257    0.472
  169.063    5.071   97.856    0.222    0.467
  169.313    5.736   94.171    0.225    0.463
  169.563    6.371   88.157    0.246    0.448
  169.813    6.717   83.715    0.234    0.449
  170.063    6.861   77.160    0.232    0.425
  170.313    6.934   67.920    0.216    0.361
  170.563    6.939   65.779    0.116    0.342
  170.813    7.239   70.978    0.125    0.397
  171.063    7.777   76.717    0.247    0.446
  171.313    8.452   76.846    0.238    0.427
  171.563    8.972   67.410    0.130    0.365
  171.813    9.169   57.110    0.083    0.306
  172.063    9.153   60.479    0.091    0.290
  172.313    8.701   70.220    0.202    0.392
  172.563    7.538   74.858    0.267    0.464
  172.813    6.752   73.849    0.298    0.486
  173.063    6.518   74.788    0.317    0.491
  173.313    6.359   77.198    0.312    0.484
