~VERSION INFORMATION
 VERS.                 2.0:   CWLS LOG ASCII STANDARD -VERSION 2.0
 WRAP.                  NO:   ONE LINE PER DEPTH STEP
~WELL INFORMATION BLOCK
#MNEM.UNIT           DATA                    DESCRIPTION OF MNEMONIC
#---------    -------------------            -------------------------------
# Generated from Intellog Unique Number	CW_79_81/WELL/2473
WELL.         HB GODIN                       : Well_name    - WELL
LOC .         00/10-23-081-02W5/0            : Location     - LOCATION
UWI .         00/10-23-081-02W5/0            : Uwi          - UNIQUE WELL ID
ENTR.         MAX                            : Entered      - ENTERED BY
SRVC.         SCHLUMBERGER                   : Scn          - SERVICE COMPANY
STRT.M        243.84                         : top_depth    - START DEPTH
STOP.M        460.09                         : bot_depth    - STOP DEPTH
STEP.M        0.25                           : increment    - STEP LENGTH
 NULL. -999.2500:NULL Value
~CURVE INFORMATION BLOCK
#MNEM UNIT       ERCB CURVE CODE    CURVE DESCRIPTION
#-----------   ------------------   ----------------------------------
DEPT.M        00 001 00 00         : DEPTH        - DEPTH
ILD .OHMM     00 120 00 00         : RESD         - DEEP RESISTIVITY (DIL)
NPHI.V/V      00 330 00 00         : PHIN         - NEUTRON POROSITY (SANDSTONE)
DPHI.V/V      00 890 00 00         : PHID         - DENSITY POROSITY (SANDSTONE)
GR  .API      00 310 00 00         : GR           - GAMMA RAY
CALI.MM       00 280 01 00         : CAL          - CALIPER
~PARAMETER INFORMATION
#MNEM.UNIT           DATA             DESCRIPTION OF MNEMONIC
#---------         -----------     ------------------------------
GL  .M        586.435              : gl           - GROUND LEVEL ELEVATION
EREF.M        590.093              : kb           - ELEVATION OF DEPTH REFERENCE
DATM.M        586.435              : datum        - DATUM ELEVATION
TDD .M        445.008              : tdd          - TOTAL DEPTH DRILLER
RUN .         ONE                  : Run          - RUN NUMBER
ENG .         BILL                 : Engineer     - RECORDING ENGINEER
WIT .         JIM                  : Witness      - WITNESSED BY
MUD .         GEL                  : Mud_type     - MUD TYPE
MATR.         SANDSTONE            : Logunit      - NEUTRON MATRIX
TMAX.C        23.8889              : BHT          - MAXIMUM RECORDED TEMPERATURE
BHTD.M        445.008              : BHTDEP       - MAXIMUM RECORDED TEMPERATURE
MATR.         1                    : LOGUNIT      - NEUTRON MATRIX
RMT .C        18.8889              : MDTP         - TEMPERATURE OF MUD
NEUT.         1                    : NEUTRON      - NEUTRON TYPE
RESI.         0                    : RESIST       - RESISTIVITY TYPE
RMC .OHMM     3.22                 : RMC          - RESISTIVITY OF MUD CAKE
RMF .OHMM     3.22                 : RMF          - RESISTIVITY OF MUD FILTRATE
SUFT.C        -20.5556             : SUFT         - SURFACE TEMPERATURE
~A  DEPTH     RESD     PHIN     PHID       GR      CAL
# ...
  316.840   16.579    0.475    0.334   49.065  207.705
  317.090   15.170    0.465    0.324   49.597  206.695
  317.340   14.944    0.472    0.314   49.859  205.483
  317.590   15.053    0.471    0.322   50.339  203.923
  317.840   14.836    0.473    0.331   50.646  202.659
  318.090   14.304    0.475    0.342   50.661  201.891
  318.340   13.416    0.475    0.348   50.617  201.719
  318.590   11.874    0.473    0.334   51.203  202.226
  318.840   10.698    0.488    0.323   51.705  202.664
  319.090   10.167    0.491    0.317   52.188  202.694
  319.340    9.664    0.482    0.312   53.197  202.419
  319.590    9.083    0.473    0.311   54.030  201.453
  319.840    8.550    0.474    0.315   53.987  199.896
  320.090    8.344    0.488    0.317   52.368  198.261
  320.340    8.536    0.492    0.309   52.382  197.877
  320.590    8.475    0.492    0.306   53.565  197.900
  320.840    8.141    0.484    0.294   56.152  197.922
  321.090    7.652    0.478    0.280   59.793  198.144
  321.340    7.175    0.477    0.263   64.487  198.862
  321.590    6.851    0.484    0.243   70.736  200.971
  321.840    6.749    0.490    0.251   71.482  203.473
  322.090    6.462    0.484    0.257   69.860  205.082
  322.340    6.016    0.472    0.257   69.640  205.802
  322.590    5.492    0.473    0.258   69.656  206.223
  322.840    5.035    0.487    0.263   69.203  206.544
  323.090    4.831    0.503    0.269   67.758  206.659
  323.340    5.055    0.506    0.276   66.314  207.095
  323.590    5.547    0.502    0.307   65.858  212.271
  323.840    6.312    0.505    0.300   65.754  211.210
  324.090    7.295    0.509    0.279   65.418  208.661
  324.340    8.429    0.510    0.267   64.264  207.200
  324.590    9.400    0.507    0.284   61.515  207.310
  324.840    8.164    0.493    0.283   60.554  207.748
  325.090    8.833    0.480    0.293   60.336  206.983
  325.340    9.412    0.478    0.295   59.764  206.809
  325.590    9.589    0.478    0.299   58.492  206.834
  325.840    9.349    0.475    0.307   56.812  207.059
  326.090    9.086    0.478    0.315   55.465  207.963
  326.340    9.436    0.515    0.319   54.505  208.399
  326.590   12.214    0.531    0.325   52.648  208.426
  326.840   16.790    0.516    0.329   50.441  208.153
  327.090   23.099    0.500    0.334   48.468  208.177
  327.340   29.219    0.495    0.340   47.548  208.402
  327.590   30.322    0.506    0.344   49.077  208.034
  327.840   21.877    0.507    0.341   50.795  208.065
  328.090   18.465    0.502    0.344   53.383  208.484
  328.340   17.675    0.507    0.339   55.094  208.906
  328.590   17.612    0.505    0.335   55.694  209.723
  328.840   17.452    0.493    0.335   55.827  210.638
  329.090   16.520    0.479    0.329   57.455  210.505
  329.340   15.105    0.473    0.318   59.662  209.703
  329.590   12.184    0.490    0.296   62.482  208.143
  329.840    9.734    0.485    0.261   66.533  208.073
  330.090    8.138    0.474    0.240   70.875  208.890
  330.340    7.095    0.467    0.241   74.750  209.903
  330.590    6.229    0.469    0.252   77.575  209.921
  330.840    5.955    0.476    0.252   77.591  207.884
  331.090    5.912    0.483    0.245   78.075  207.510
  331.340    5.902    0.490    0.236   79.786  207.434
  331.590    5.859    0.498    0.237   81.320  207.656
  331.840    5.754    0.507    0.247   81.451  207.684
  332.090    5.513    0.512    0.246   77.911  206.445
  332.340    5.154    0.519    0.244   71.835  206.056
  332.590    3.793    0.531    0.257   66.235  206.875
  332.840    3.292    0.557    0.274   61.688  207.988
  333.090    3.021    0.566    0.282   60.650  208.805
  333.340    2.875    0.551    0.278   62.888  208.734
  333.590    2.930    0.526    0.268   65.965  207.102
  333.840    2.997    0.515    0.263   68.418  206.712
  334.090    3.107    0.503    0.266   68.201  206.732
  334.340    3.238    0.499    0.267   67.805  207.948
  334.590    3.346    0.501    0.263   67.586  208.568
  334.840    3.396    0.504    0.257   67.777  208.195
  335.090    3.371    0.496    0.255   68.692  207.829
  335.340    3.371    0.477    0.265   69.682  207.855
  335.590    3.445    0.469    0.263   70.865  207.085
  335.840    3.597    0.463    0.252   69.593  204.239
  336.090    3.757    0.467    0.248   68.321  202.085
  336.340    3.903    0.476    0.250   68.218  202.901
  336.590    4.125    0.477    0.239   70.097  208.645
  336.840    4.383    0.474    0.230   74.742  209.499
  337.090    4.709    0.476    0.227   78.032  209.521
  337.340    5.034    0.487    0.232   79.569  208.656
  337.590    5.317    0.489    0.235   78.415  207.494
  337.840    5.563    0.480    0.232   75.622  206.429
  338.090    5.898    0.473    0.222   74.334  205.585
  338.340    6.125    0.464    0.220   74.837  205.198
  338.590    6.214    0.467    0.233   76.021  206.810
  338.840    6.271    0.476    0.232   75.979  207.823
  339.090    6.339    0.490    0.227   75.761  208.243
  339.340    6.455    0.501    0.223   76.184  208.268
  339.590    6.704    0.490    0.225   77.936  208.215
  339.840    7.016    0.476    0.238   78.437  207.826
  340.090    7.484    0.456    0.230   75.177  206.266
  340.340    8.027    0.432    0.225   72.093  203.521
  340.590    8.747    0.416    0.231   68.833  202.161
  340.840    9.717    0.414    0.246   65.924  202.980
  341.090   11.118    0.429    0.259   64.577  204.826
  341.340   12.180    0.433    0.262   63.616  204.026
  341.590   12.718    0.421    0.265   60.591  202.469
  341.840   12.582    0.410    0.267   59.496  201.799
  342.090   11.123    0.402    0.252   59.627  201.823
  342.340    9.263    0.400    0.228   60.926  202.046
  342.590    7.874    0.417    0.228   64.815  201.845
  342.840    7.147    0.447    0.226   68.974  202.696
  343.090    6.892    0.458    0.236   69.690  201.530
  343.340    6.721    0.464    0.234   70.407  199.772
  343.590    6.504    0.464    0.237   72.177  200.786
  343.840    6.332    0.459    0.250   74.647  204.180
  344.090    6.510    0.449    0.263   76.409  205.634
  344.340    6.710    0.442    0.250   78.131  204.829
  344.590    7.006    0.449    0.230   77.678  204.460
  344.840    7.394    0.460    0.219   76.873  204.684
  345.090    7.671    0.467    0.214   76.536  205.303
  345.340    7.670    0.466    0.215   77.136  206.120
  345.590    7.324    0.461    0.225   78.890  206.863
  345.840    7.215    0.477    0.221   79.395  206.476
  346.090    7.373    0.465    0.214   74.496  205.313
  346.340    7.494    0.457    0.220   71.878  203.852
  346.590    7.631    0.450    0.224   71.308  203.479
  346.840    7.771    0.442    0.220   72.260  204.196
  347.090    7.828    0.436    0.211   74.303  204.705
  347.340    7.828    0.440    0.206   76.268  205.146
  347.590    7.828    0.442    0.212   77.452  206.357
  347.840    7.829    0.441    0.210   77.411  206.678
  348.090    7.829    0.440    0.202   76.841  204.722
  348.340    7.801    0.439    0.196   76.387  201.480
  348.590    7.678    0.444    0.202   76.393  200.492
  348.840    7.620    0.455    0.203   75.190  201.340
  349.090    7.621    0.451    0.202   75.442  201.764
  349.340    7.621    0.457    0.209   76.743  203.968
  349.590    7.649    0.464    0.218   77.809  206.368
  349.840    7.705    0.465    0.226   77.883  207.877
  350.090    7.772    0.457    0.229   76.587  207.827
  350.340    7.832    0.461    0.229   75.868  207.437
  350.590    7.889    0.460    0.224   76.117  205.878
  350.840    7.989    0.451    0.221   76.366  204.619
  351.090    8.164    0.439    0.224   76.382  203.655
  351.340    8.419    0.430    0.233   75.989  203.479
  351.590    8.808    0.427    0.241   74.483  205.256
  351.840    9.217    0.448    0.245   71.574  206.107
  352.090    9.973    0.437    0.261   67.613  202.171
  352.340   10.626    0.423    0.276   61.896  198.831
  352.590   11.103    0.409    0.280   58.285  196.877
  352.840   11.287    0.402    0.273   57.600  196.506
  353.090   10.892    0.414    0.270   57.519  197.819
