~VERSION INFORMATION
 VERS.                 2.0:   CWLS LOG ASCII STANDARD -VERSION 2.0
 WRAP.                  NO:   ONE LINE PER DEPTH STEP
~WELL INFORMATION BLOCK
#MNEM.UNIT           DATA                    DESCRIPTION OF MNEMONIC
#---------    -------------------            -------------------------------
# Generated from Intellog Unique Number	CS_77_79/WELL/937
WELL.         AMOCO B-1 LEISMER              : Well_name    - WELL
LOC .         00/10-09-078-09W4/0            : Location     - LOCATION
UWI .         00/10-09-078-09W4/0            : Uwi          - UNIQUE WELL ID
ENTR.         JHS                            : Entered      - ENTERED BY
SRVC.         SCHLUMBERGER                   : Scn          - SERVICE COMPANY
STRT.M        179.832                        : top_depth    - START DEPTH
STOP.M        402.082                        : bot_depth    - STOP DEPTH
STEP.M        0.25                           : increment    - STEP LENGTH
 NULL. -999.2500:NULL Value
~CURVE INFORMATION BLOCK
#MNEM UNIT       ERCB CURVE CODE    CURVE DESCRIPTION
#-----------   ------------------   ----------------------------------
DEPT.M        00 001 00 00         : DEPTH        - DEPTH
RHOB.KG/M3    00 350 00 00         : DENS         - BULK DENSITY
GR  .API      00 310 00 00         : GR           - GAMMA RAY
DPHI.V/V      00 890 00 00         : PHID         - DENSITY POROSITY (SANDSTONE)
NPHI.V/V      00 330 00 00         : PHIN         - NEUTRON POROSITY (SANDSTONE)
ILD .OHMM     00 120 00 00         : RESD         - DEEP RESISTIVITY (DIL)
~PARAMETER INFORMATION
#MNEM.UNIT           DATA             DESCRIPTION OF MNEMONIC
#---------         -----------     ------------------------------
GL  .M        599.953              : gl           - GROUND LEVEL ELEVATION
EREF.M        602.59               : kb           - ELEVATION OF DEPTH REFERENCE
DATM.M        602.59               : datum        - DATUM ELEVATION
TDD .M        417.576              : tdd          - TOTAL DEPTH DRILLER
RUN .         ONE                  : Run          - RUN NUMBER
ENG .         BILL                 : Engineer     - RECORDING ENGINEER
WIT .         JIM                  : Witness      - WITNESSED BY
MUD .         GEL                  : Mud_type     - MUD TYPE
MATR.         SANDSTONE            : Logunit      - NEUTRON MATRIX
TMAX.C        22.2222              : BHT          - MAXIMUM RECORDED TEMPERATURE
BHTD.M        417.576              : BHTDEP       - MAXIMUM RECORDED TEMPERATURE
MATR.         1                    : LOGUNIT      - NEUTRON MATRIX
RMT .C        25                   : MDTP         - TEMPERATURE OF MUD
NEUT.         1                    : NEUTRON      - NEUTRON TYPE
RESI.         0                    : RESIST       - RESISTIVITY TYPE
RMC .OHMM     0.25                 : RMC          - RESISTIVITY OF MUD CAKE
RMF .OHMM     0.25                 : RMF          - RESISTIVITY OF MUD FILTRATE
SUFT.C        15                   : SUFT         - SURFACE TEMPERATURE
~A  DEPTH     DENS       GR     PHID     PHIN     RESD
# ...
  325.832 2424.640   61.830    0.167    0.309    7.743
  326.082 2516.270   56.894    0.113    0.223    9.281
  326.332 2652.640   57.305    0.034    0.192   10.443
  326.582 2684.350   61.783    0.015    0.198   10.843
  326.832 2468.140   64.138    0.141    0.255   10.534
  327.082 2336.010   65.779    0.219    0.336    8.651
  327.332 2232.650   69.504    0.279    0.465    7.245
  327.582 2193.930   70.713    0.302    0.464    6.221
  327.832 2197.420   69.603    0.300    0.466    6.035
  328.082 2180.410   68.891    0.310    0.485    6.049
  328.332 2177.470   70.591    0.311    0.474    6.091
  328.582 2187.900   72.862    0.305    0.449    6.164
  328.832 2224.220   72.799    0.284    0.445    6.362
  329.082 2248.830   73.810    0.270    0.455    6.565
  329.332 2271.430   75.353    0.256    0.446    6.647
  329.582 2267.430   72.429    0.259    0.427    6.605
  329.832 2259.800   70.487    0.263    0.445    6.284
  330.082 2231.410   71.039    0.280    0.453    6.206
  330.332 2220.360   73.680    0.286    0.465    6.015
  330.582 2222.930   75.571    0.285    0.459    5.974
  330.832 2228.840   76.648    0.281    0.473    5.974
  331.082 2213.640   74.552    0.290    0.453    5.981
  331.332 2227.150   71.311    0.282    0.460    5.989
  331.582 2227.550   72.770    0.282    0.462    6.023
  331.832 2223.480   75.796    0.285    0.452    5.991
  332.082 2270.650   79.190    0.257    0.457    5.994
  332.332 2291.340   80.750    0.245    0.473    5.891
  332.582 2266.590   77.746    0.259    0.480    5.777
  332.832 2244.130   76.888    0.272    0.499    5.693
  333.082 2226.880   80.642    0.283    0.516    5.515
  333.332 2225.900   85.832    0.283    0.537    5.459
  333.582 2249.310   88.870    0.269    0.536    5.207
  333.832 2272.560   88.916    0.256    0.520    5.103
  334.082 2288.320   85.866    0.247    0.524    5.007
  334.332 2278.330   85.287    0.252    0.507    5.019
  334.582 2263.460   87.605    0.261    0.490    5.047
  334.832 2302.920   85.472    0.238    0.511    5.212
  335.082 2297.120   86.939    0.241    0.520    5.380
  335.332 2274.820   91.430    0.254    0.507    5.579
  335.582 2257.940   93.906    0.264    0.511    5.721
  335.832 2277.360   94.662    0.253    0.478    5.907
  336.082 2280.420   93.811    0.251    0.457    5.938
  336.332 2279.520   91.333    0.252    0.470    5.960
  336.582 2298.660   89.073    0.241    0.468    5.685
  336.832 2312.630   86.084    0.232    0.457    5.283
  337.082 2303.450   85.715    0.238    0.468    4.840
  337.332 2301.590   85.190    0.239    0.487    4.292
  337.582 2312.150   85.933    0.233    0.495    3.884
  337.832 2307.200   88.531    0.236    0.532    3.325
  338.082 2281.930   89.375    0.250    0.579    2.819
  338.332 2236.480   87.091    0.277    0.630    2.386
  338.582 2212.270   83.569    0.291    0.634    2.135
  338.832 2238.750   82.836    0.276    0.634    2.060
  339.082 2229.870   80.650    0.281    0.627    2.061
  339.332 2203.440   82.008    0.296    0.624    2.124
  339.582 2220.660   81.639    0.286    0.622    2.185
  339.832 2207.490   81.592    0.294    0.620    2.181
  340.082 2196.950   85.326    0.300    0.620    2.248
  340.332 2228.030   90.654    0.282    0.619    2.321
  340.582 2246.360   91.355    0.271    0.616    2.554
  340.832 2262.420   88.557    0.262    0.587    2.752
  341.082 2257.370   87.993    0.265    0.538    3.054
  341.332 2270.340   90.156    0.257    0.483    3.260
  341.582 2303.240   89.426    0.238    0.449    3.819
  341.832 2314.880   87.535    0.231    0.462    4.239
  342.082 2342.700   85.018    0.215    0.443    4.789
  342.332 2375.240   82.612    0.196    0.415    5.259
  342.582 2401.780   79.404    0.180    0.403    5.595
  342.832 2411.940   86.006    0.174    0.385    5.549
  343.082 2432.380   90.537    0.162    0.378    5.481
  343.332 2395.650   95.188    0.184    0.442    5.151
  343.582 2325.940   93.836    0.225    0.483    4.768
  343.832 2357.010   92.994    0.206    0.495    4.406
  344.082 2374.730   92.587    0.196    0.496    4.047
  344.332 2349.640   89.880    0.211    0.516    4.031
  344.582 2326.790   90.139    0.224    0.526    3.834
  344.832 2306.280   95.339    0.236    0.524    3.578
  345.082 2302.560   98.640    0.238    0.542    3.484
  345.332 2339.560   98.020    0.217    0.556    3.381
  345.582 2350.460   96.983    0.210    0.531    3.383
  345.832 2314.080   97.587    0.232    0.555    3.393
  346.082 2326.470   96.457    0.224    0.554    3.442
  346.332 2313.710   94.873    0.232    0.528    3.682
  346.582 2331.880   93.322    0.221    0.502    3.855
  346.832 2350.130   89.289    0.210    0.472    3.857
  347.082 2330.180   87.884    0.222    0.502    3.891
  347.332 2318.620   89.890    0.229    0.548    3.937
  347.582 2290.160   92.093    0.245    0.538    4.215
  347.832 2296.090   93.169    0.242    0.488    4.458
  348.082 2307.440   91.716    0.236    0.442    4.643
  348.332 2360.290   93.214    0.218    0.449    4.997
  348.582 2511.800   92.826    0.208    0.487    5.366
  348.832   61.801   87.607    0.223    0.503    5.679
  349.082 2618.640   80.099    0.222    0.475    6.155
  349.332 2375.230   71.841    0.206    0.432    6.516
  349.582 2400.480   67.989    0.180    0.373    7.262
  349.832 2430.160   66.612    0.163    0.363    7.994
  350.082 2301.230   63.613    0.239    0.381    8.764
  350.332 2243.280   63.570    0.273    0.372    9.615
  350.582 2251.240   64.797    0.268    0.390   10.263
  350.832 2275.830   66.213    0.254    0.398   10.697
  351.082 2262.340   64.654    0.262    0.392   10.908
  351.332 2243.260   67.157    0.273    0.373   10.855
  351.582 2255.080   71.514    0.266    0.366   10.710
  351.832 2277.750   75.973    0.253    0.351   10.606
  352.082 2303.410   76.356    0.238    0.366   10.540
  352.332 2327.550   71.157    0.224    0.394   10.536
  352.582 2350.990   68.142    0.210    0.386   10.463
  352.832 2357.250   73.237    0.206    0.388   10.135
  353.082 2304.180   80.694    0.237    0.369    9.407
  353.332 2347.880   88.496    0.212    0.351    8.647
  353.582 2392.770   91.133    0.186    0.343    8.156
  353.832 2414.860   90.958    0.173    0.353    7.663
  354.082 2395.210   93.506    0.184    0.365    7.621
  354.332 2383.500   94.185    0.191    0.378    7.471
  354.582 2397.400   94.915    0.183    0.369    7.458
  354.832 2398.200   96.073    0.182    0.368    7.601
  355.082 2407.880   95.563    0.177    0.394    7.480
  355.332 2410.880   94.052    0.175    0.392    7.483
  355.582 2405.120   94.584    0.178    0.384    7.475
  355.832 2408.990   93.289    0.176    0.401    7.353
  356.082 2417.840   95.162    0.171    0.398    7.292
  356.332 2407.960   95.226    0.177    0.381    7.380
  356.582 2394.920   99.881    0.184    0.366    7.374
  356.832 2391.630  102.860    0.186    0.365    7.392
  357.082 2403.040  106.501    0.180    0.385    7.248
  357.332 2379.550  106.668    0.193    0.410    7.162
  357.582 2384.680  106.306    0.190    0.420    7.096
  357.832 2387.400  103.669    0.189    0.434    7.001
  358.082 2384.720  101.350    0.190    0.426    7.002
  358.332 2404.300  100.501    0.179    0.408    6.985
  358.582 2405.560   98.552    0.178    0.402    6.882
  358.832 2364.420   96.962    0.202    0.406    6.877
  359.082 2374.260  101.606    0.196    0.464    7.032
  359.332 2399.500  102.089    0.182    0.474    7.029
  359.582 2397.500  100.959    0.183    0.428    7.085
  359.832 2399.910   98.299    0.181    0.408    7.165
  360.082 2410.660   96.902    0.175    0.390    7.175
  360.332 2437.500   96.742    0.159    0.399    7.220
  360.582 2423.170   95.461    0.168    0.385    7.312
  360.832 2375.090   93.811    0.196    0.377    7.526
  361.082 2385.250   91.837    0.190    0.376    7.926
  361.332 2396.290   88.586    0.183    0.416    8.302
  361.582 2365.210   81.602    0.202    0.393    8.902
  361.832 2364.000   77.566    0.202    0.379    9.772
  362.082 2378.750   75.634    0.194    0.387   10.522
