~VERSION INFORMATION
 VERS.                 2.0:   CWLS LOG ASCII STANDARD -VERSION 2.0
 WRAP.                  NO:   ONE LINE PER DEPTH STEP
~WELL INFORMATION BLOCK
#MNEM.UNIT           DATA                    DESCRIPTION OF MNEMONIC
#---------    -------------------            -------------------------------
# Generated from Intellog Unique Number	CW_82_90/WELL/3080
WELL.         11-32-086-22W4                 : Well_name    - WELL
LOC .         00/11-32-086-22W4/0            : Location     - LOCATION
UWI .         00/11-32-086-22W4/0            : Uwi          - UNIQUE WELL ID
ENTR.         MAX                            : Entered      - ENTERED BY
SRVC.         SCHLUMBERGER                   : Scn          - SERVICE COMPANY
STRT.M        152.4                          : top_depth    - START DEPTH
STOP.M        347.4                          : bot_depth    - STOP DEPTH
STEP.M        0.25                           : increment    - STEP LENGTH
 NULL. -999.2500:NULL Value
~CURVE INFORMATION BLOCK
#MNEM UNIT       ERCB CURVE CODE    CURVE DESCRIPTION
#-----------   ------------------   ----------------------------------
DEPT.M        00 001 00 00         : DEPTH        - DEPTH
ILD .OHMM     00 120 00 00         : RESD         - DEEP RESISTIVITY (DIL)
NPHI.V/V      00 330 00 00         : PHIN         - NEUTRON POROSITY (SANDSTONE)
DPHI.V/V      00 890 00 00         : PHID         - DENSITY POROSITY (SANDSTONE)
CALI.MM       00 280 01 00         : CAL          - CALIPER
GR  .API      00 310 00 00         : GR           - GAMMA RAY
~PARAMETER INFORMATION
#MNEM.UNIT           DATA             DESCRIPTION OF MNEMONIC
#---------         -----------     ------------------------------
GL  .M        563.88               : gl           - GROUND LEVEL ELEVATION
EREF.M        567.233              : kb           - ELEVATION OF DEPTH REFERENCE
DATM.M        563.88               : datum        - DATUM ELEVATION
TDD .M        350.52               : tdd          - TOTAL DEPTH DRILLER
RUN .         ONE                  : Run          - RUN NUMBER
ENG .         BILL                 : Engineer     - RECORDING ENGINEER
WIT .         JIM                  : Witness      - WITNESSED BY
MUD .         GEL                  : Mud_type     - MUD TYPE
MATR.         SANDSTONE            : Logunit      - NEUTRON MATRIX
TMAX.C        20.5556              : BHT          - MAXIMUM RECORDED TEMPERATURE
BHTD.M        2.56383e+06          : BHTDEP       - MAXIMUM RECORDED TEMPERATURE
MATR.         1                    : LOGUNIT      - NEUTRON MATRIX
RMT .C        15.5556              : MDTP         - TEMPERATURE OF MUD
NEUT.         1                    : NEUTRON      - NEUTRON TYPE
RESI.         0                    : RESIST       - RESISTIVITY TYPE
RMC .OHMM     4.28                 : RMC          - RESISTIVITY OF MUD CAKE
RMF .OHMM     3.31                 : RMF          - RESISTIVITY OF MUD FILTRATE
SUFT.C        -17.7778             : SUFT         - SURFACE TEMPERATURE
~A  DEPTH     RESD     PHIN     PHID      CAL       GR
# ...
  298.400   12.982    0.448    0.151  234.896   92.563
  298.650   13.468    0.451    0.193  234.936   94.901
  298.900   14.097    0.459    0.202  235.007   95.220
  299.150   14.623    0.468    0.206  235.046   94.390
  299.400   14.897    0.462    0.213  235.112   92.117
  299.650   15.181    0.438    0.218  234.682   89.836
  299.900   15.061    0.422    0.178  234.239   84.679
  300.150   14.415    0.409    0.133  233.314   84.998
  300.400   13.433    0.420    0.083  232.885   81.567
  300.650   12.631    0.406    0.131  232.943   84.487
  300.900   12.198    0.425    0.177  232.500   91.444
  301.150   11.782    0.440    0.207  233.047   98.109
  301.400   11.687    0.460    0.213  233.595  101.893
  301.650   11.596    0.468    0.217  233.647  102.220
  301.900   11.502    0.481    0.218  233.699  102.247
  302.150   11.616    0.460    0.203  233.764  101.128
  302.400   12.265    0.454    0.189  233.334   99.721
  302.650   12.955    0.466    0.179  233.380   98.882
  302.900   13.081    0.468    0.164  233.439   95.456
  303.150   12.980    0.452    0.128  233.491   91.448
  303.400   12.876    0.399    0.125  233.543   92.056
  303.650   12.658    0.400    0.185  233.602   92.675
  303.900   12.782    0.416    0.192  233.660   91.833
  304.150   13.498    0.437    0.196  233.719   91.871
  304.400   14.908    0.443    0.201  233.765   93.340
  304.650   16.315    0.428    0.207  233.823   94.537
  304.900   17.230    0.414    0.208  233.393   93.694
  305.150   16.494    0.398    0.203  233.452   91.706
  305.400   14.697    0.357    0.173  233.504   89.433
  305.650   12.526    0.331    0.107  233.550   89.468
  305.900   12.316    0.399    0.167  233.114   94.114
  306.150   12.326    0.437    0.179  232.684   99.917
  306.400   12.903    0.447    0.175  232.736  100.813
  306.650   13.384    0.416    0.179  232.319  100.271
  306.900   13.883    0.414    0.194  232.358  100.590
  307.150   14.146    0.425    0.202  232.430  101.202
  307.400   14.034    0.429    0.175  232.469   99.502
  307.650   13.434    0.422    0.162  232.528   94.052
  307.900   12.517    0.420    0.150  232.092   94.668
  308.150   10.202    0.435    0.203  232.144   97.579
  308.400    8.315    0.461    0.217  232.209  104.252
  308.650    7.280    0.465    0.216  232.268  107.740
  308.900    7.157    0.465    0.214  232.313  112.109
  309.150    7.424    0.475    0.207  232.365  110.690
  309.400    7.770    0.466    0.182  232.919  104.094
  309.650    8.205    0.470    0.164  232.971  100.083
  309.900    9.060    0.455    0.145  233.023   96.941
  310.150   10.462    0.465    0.119  233.075   98.999
  310.400   12.861    0.466    0.191  232.646   99.029
  310.650   14.329    0.437    0.182  232.698   96.176
  310.900   15.134    0.410    0.156  232.756   89.861
  311.150   16.129    0.372    0.121  232.815   87.011
  311.400   16.726    0.335    0.101  232.867   83.869
  311.650   18.148    0.350    0.200  232.926   85.061
  311.900   18.821    0.376    0.222  232.985   86.238
  312.150   18.839    0.416    0.198  232.548   88.868
  312.400   17.713    0.411    0.163  232.600   88.323
  312.650   15.644    0.374    0.062  232.653   81.438
  312.900   14.194    0.336    0.087  232.711   79.735
  313.150   13.831    0.370    0.134  232.757   91.595
  313.400   13.480    0.424    0.179  232.327   94.514
  313.650   13.136    0.440    0.191  232.379   93.391
  313.900   12.799    0.433    0.190  232.451   93.426
  314.150   12.471    0.425    0.189  232.015   94.903
  314.400   12.047    0.421    0.183  232.067   95.507
  314.650   11.949    0.425    0.203  231.624   96.695
  314.900   11.439    0.459    0.214  231.683   98.172
  315.150   11.244    0.462    0.218  231.748   97.626
  315.400   11.357    0.454    0.214  231.800   97.372
  315.650   11.573    0.451    0.200  231.859   98.845
  315.900   11.791    0.472    0.194  231.904   99.453
  316.150   11.907    0.487    0.201  231.957  103.530
  316.400   11.919    0.473    0.179  232.009  104.710
  316.650   11.931    0.464    0.167  232.074  103.884
  316.900   11.835    0.453    0.155  232.126  100.449
  317.150   11.227    0.447    0.126  231.696  101.357
  317.400   10.095    0.457    0.141  231.260  101.957
  317.650    9.492    0.490    0.173  231.312  103.438
  317.900    9.332    0.492    0.185  230.876  104.622
  318.150    9.510    0.488    0.184  230.934  106.672
  318.400    9.778    0.500    0.179  230.993  112.183
  318.650   10.142    0.497    0.164  231.045  111.645
  318.900   10.904    0.473    0.153  231.104  105.903
  319.150   12.042    0.447    0.118  231.638  103.049
  319.400   13.656    0.417    0.081  231.703   97.023
  319.650   15.493    0.381    0.022  231.755   91.865
  319.900   15.506    0.327    0.032  231.814   90.169
  320.150   14.067    0.320    0.063  231.384   92.508
  320.400   12.650    0.355    0.163  231.436   98.600
  320.650   11.580    0.395    0.192  231.489  104.692
  320.900   11.487    0.421    0.204  231.534  108.472
  321.150   11.703    0.435    0.190  231.599  112.257
  321.400   12.250    0.451    0.174  232.133  111.999
  321.650   13.053    0.453    0.166  232.199  112.607
  321.900   14.285    0.444    0.172  232.244  108.311
  322.150   16.496    0.417    0.153  232.309  103.154
  322.400   20.096    0.385    0.130  232.368   98.281
  322.650   24.267    0.351    0.034  231.932   93.123
  322.900   24.080    0.323    0.009  231.502   92.577
  323.150   20.517    0.286    0.006  231.059   93.474
  323.400   15.429    0.300    0.183  231.118   97.835
  323.650   13.876    0.359    0.182  231.177  102.192
  323.900   13.641    0.386    0.170  231.222  106.269
  324.150   13.654    0.383    0.159  231.274  107.450
  324.400   13.914    0.395    0.148  231.333  102.585
  324.650   14.303    0.408    0.137  231.385  100.592
  324.900   14.706    0.409    0.129  231.450   99.758
  325.150   14.985    0.403    0.129  231.496   98.927
  325.400   14.998    0.382    0.141  231.555   98.093
  325.650   14.616    0.374    0.142  231.613   97.839
  325.900   14.629    0.388    0.148  231.177   96.720
  326.150   14.775    0.412    0.157  231.242   95.024
  326.400   15.881    0.431    0.160  231.281   94.481
  326.650   16.923    0.416    0.141  231.353   94.216
  326.900   17.091    0.401    0.115  231.392   91.947
  327.150   15.787    0.379    0.055  231.464   87.936
  327.400   14.711    0.330    0.061  231.503   88.547
  327.650   13.831    0.347    0.087  231.562   90.886
  327.900   12.660    0.399    0.157  231.620   93.809
  328.150   11.693    0.428    0.159  231.673   96.724
  328.400   10.517    0.443    0.172  231.725   99.643
  328.650    9.886    0.440    0.173  231.790   99.962
  328.900    9.049    0.437    0.162  231.835  100.285
  329.150    8.137    0.444    0.151  231.894  100.889
  329.400    7.383    0.468    0.192  231.946  103.808
  329.650    7.193    0.491    0.192  231.998  106.435
  329.900    7.136    0.492    0.191  232.064  106.762
  330.150    7.142    0.479    0.193  232.116  107.370
  330.400    7.343    0.469    0.196  232.174  108.847
  330.650    7.618    0.464    0.195  231.745  109.747
  330.900    8.045    0.467    0.195  231.790  112.085
  331.150    8.495    0.470    0.194  231.849  113.846
  331.400    9.299    0.467    0.200  231.901  115.031
  331.650    9.997    0.462    0.193  231.960  119.108
  331.900   10.747    0.448    0.195  232.005  117.404
  332.150   10.950    0.436    0.199  232.064  105.032
  332.400   11.669    0.413    0.201  232.116   96.409
  332.650   12.658    0.425    0.186  232.175   95.863
  332.900   12.668    0.442    0.168  232.234  100.513
  333.150   12.567    0.436    0.155  232.292   96.505
  333.400   13.154    0.409    0.139  232.351   87.306
  333.650   13.891    0.433    0.222  231.908   88.783
  333.900   15.757    0.463    0.249  231.478   94.009
  334.150   17.399    0.460    0.274  232.019   84.522
  334.400   22.973    0.461    0.292  232.071   74.741
  334.650   26.525    0.473    0.307  232.130   64.677
