~VERSION INFORMATION
 VERS.                 2.0:   CWLS LOG ASCII STANDARD -VERSION 2.0
 WRAP.                  NO:   ONE LINE PER DEPTH STEP
~WELL INFORMATION BLOCK
#MNEM.UNIT           DATA                    DESCRIPTION OF MNEMONIC
#---------    -------------------            -------------------------------
# Generated from Intellog Unique Number	CS_67_68/WELL/2195
WELL.         10-14-067-03W4                 : Well_name    - WELL
LOC .         00/10-14-067-03W4/0            : Location     - LOCATION
UWI .         00/10-14-067-03W4/0            : Uwi          - UNIQUE WELL ID
ENTR.         SP                             : Entered      - ENTERED BY
SRVC.         SCHLUMBERGER                   : Scn          - SERVICE COMPANY
STRT.M        380                            : top_depth    - START DEPTH
STOP.M        610                            : bot_depth    - STOP DEPTH
STEP.M        0.25                           : increment    - STEP LENGTH
 NULL. -999.2500:NULL Value
~CURVE INFORMATION BLOCK
#MNEM UNIT       ERCB CURVE CODE    CURVE DESCRIPTION
#-----------   ------------------   ----------------------------------
DEPT.M        00 001 00 00         : DEPTH        - DEPTH
ILD .OHMM     00 120 00 00         : RESD         - DEEP RESISTIVITY (DIL)
DPHI.V/V      00 890 00 00         : PHID         - DENSITY POROSITY (LIMESTONE)
NPHI.V/V      00 330 00 00         : PHIN         - NEUTRON POROSITY (LIMESTONE)
GR  .API      00 310 00 00         : GR           - GAMMA RAY
CALI.MM       00 280 01 00         : CAL          - CALIPER
~PARAMETER INFORMATION
#MNEM.UNIT           DATA             DESCRIPTION OF MNEMONIC
#---------         -----------     ------------------------------
GL  .M        697.3                : gl           - GROUND LEVEL ELEVATION
EREF.M        700.96               : kb           - ELEVATION OF DEPTH REFERENCE
DATM.M        700.96               : datum        - DATUM ELEVATION
TDD .M        618.5                : tdd          - TOTAL DEPTH DRILLER
RUN .         ONE                  : Run          - RUN NUMBER
ENG .         BILL                 : Engineer     - RECORDING ENGINEER
WIT .         JIM                  : Witness      - WITNESSED BY
MUD .         GEL                  : Mud_type     - MUD TYPE
MATR.         LIMESTONE            : Logunit      - NEUTRON MATRIX
TMAX.C        21                   : BHT          - MAXIMUM RECORDED TEMPERATURE
BHTD.M        619                  : BHTDEP       - MAXIMUM RECORDED TEMPERATURE
MATR.         1                    : LOGUNIT      - NEUTRON MATRIX
RMT .C        25                   : MDTP         - TEMPERATURE OF MUD
NEUT.         1                    : NEUTRON      - NEUTRON TYPE
RESI.         0                    : RESIST       - RESISTIVITY TYPE
RMC .OHMM     0.25                 : RMC          - RESISTIVITY OF MUD CAKE
RMF .OHMM     0.25                 : RMF          - RESISTIVITY OF MUD FILTRATE
SUFT.C        15                   : SUFT         - SURFACE TEMPERATURE
~A  DEPTH     RESD     PHID     PHIN       GR      CAL
# ...
  562.500    7.771    0.175    0.334   88.740  202.492
  562.750    7.829    0.186    0.343   89.849  201.992
  563.000    7.873    0.185    0.349   90.773  201.900
  563.250    7.813    0.180    0.355   93.289  202.116
  563.500    7.696    0.199    0.364   96.234  202.430
  563.750    7.609    0.219    0.343   92.321  202.644
  564.000    7.522    0.216    0.407   93.736  202.959
  564.250    7.409    0.206    0.432   99.068  203.275
  564.500    7.284    0.198    0.418  104.523  203.285
  564.750    7.161    0.195    0.402  101.713  203.295
  565.000    7.147    0.196    0.394   98.902  203.203
  565.250    7.133    0.198    0.399   96.948  203.315
  565.500    7.133    0.190    0.403   97.505  203.427
  565.750    6.868    0.184    0.408   98.003  203.640
  566.000    6.932    0.188    0.403   98.374  204.061
  566.250    7.037    0.194    0.403   98.136  204.274
  566.500    7.077    0.206    0.408   99.366  204.590
  566.750    7.103    0.215    0.407  100.964  205.108
  567.000    7.129    0.215    0.398  100.419  205.629
  567.250    7.183    0.203    0.395  100.179  205.741
  567.500    7.291    0.198    0.393   99.695  205.649
  567.750    7.415    0.199    0.382  101.355  205.557
  568.000    7.556    0.185    0.374  103.075  204.547
  568.250    7.655    0.196    0.370   96.531  203.944
  568.500    7.756    0.205    0.366   93.168  203.851
  568.750    7.814    0.206    0.366   89.562  204.067
  569.000    7.726    0.203    0.398   85.282  204.280
  569.250    7.539    0.199    0.420   91.288  204.699
  569.500    6.978    0.186    0.427   98.825  205.014
  569.750    7.003    0.179    0.412  103.851  205.226
  570.000    7.082    0.191    0.400   99.572  205.238
  570.250    7.149    0.202    0.389   97.434  205.451
  570.500    7.203    0.207    0.380   94.624  205.668
  570.750    7.325    0.209    0.375   92.976  205.982
  571.000    7.408    0.207    0.372   97.452  206.296
  571.250    7.520    0.200    0.384  102.295  206.510
  571.500    7.590    0.196    0.378  101.383  206.622
  571.750    7.647    0.193    0.370   96.122  206.836
  572.000    7.748    0.189    0.365   94.231  207.051
  572.250    7.850    0.196    0.364   94.175  206.959
  572.500    7.909    0.201    0.372   93.936  206.355
  572.750    7.879    0.206    0.380   94.248  205.753
  573.000    7.775    0.208    0.389   97.317  205.151
  573.250    7.702    0.205    0.392   98.484  205.059
  573.500    7.643    0.197    0.394   98.736  205.374
  573.750    7.628    0.199    0.404   98.496  205.588
  574.000    7.599    0.215    0.399   94.278  205.602
  574.250    7.584    0.221    0.394   86.815  205.611
  574.500    7.598    0.227    0.402   83.820  205.620
  574.750    7.583    0.229    0.388   82.418  205.629
  575.000    7.582    0.231    0.380   81.811  205.333
  575.250    7.582    0.234    0.377   79.674  205.341
  575.500    7.624    0.238    0.375   77.354  205.250
  575.750    7.681    0.237    0.365   75.339  204.954
  576.000    7.724    0.231    0.371   76.202  204.657
  576.250    7.694    0.219    0.364   80.739  204.361
  576.500    7.694    0.232    0.358   84.296  204.066
  576.750    7.635    0.212    0.372   93.486  203.870
  577.000    7.578    0.198    0.388  102.431  203.475
  577.250    7.464    0.193    0.393  108.192  203.278
  577.500    7.421    0.194    0.405  111.014  203.390
  577.750    7.337    0.194    0.419  113.408  203.603
  578.000    7.281    0.196    0.422  114.699  203.919
  578.250    7.240    0.199    0.413  112.930  204.439
  578.500    7.185    0.195    0.402  110.303  204.450
  578.750    7.117    0.200    0.397  109.206  203.642
  579.000    7.063    0.198    0.409  109.334  202.938
  579.250    7.009    0.195    0.420  109.953  202.743
  579.500    6.982    0.197    0.423  111.796  202.550
  579.750    6.956    0.200    0.409  114.189  202.355
  580.000    6.981    0.202    0.393  106.113  202.161
  580.250    7.074    0.204    0.398  106.242  201.866
  580.500    7.167    0.211    0.405  114.880  201.773
  580.750    7.248    0.222    0.402  119.723  201.477
  581.000    7.330    0.231    0.387  108.647  201.489
  581.250    7.469    0.224    0.371   98.551  201.702
  581.500    7.653    0.206    0.363  101.006  201.710
  581.750    7.769    0.217    0.380  105.114  201.925
  582.000    7.961    0.216    0.372  100.896  202.035
  582.250    8.066    0.211    0.363   99.187  202.249
  582.500    8.126    0.203    0.362   97.907  202.670
  582.750    8.110    0.196    0.367   97.057  202.882
  583.000    8.034    0.188    0.374   96.756  203.300
  583.250    7.883    0.215    0.364   89.904  203.615
  583.500    7.721    0.234    0.355   85.318  204.033
  583.750    7.605    0.227    0.373   87.284  204.350
  584.000    7.533    0.220    0.383   84.657  204.767
  584.250    7.561    0.242    0.387   81.111  204.777
  584.500    7.675    0.253    0.402   84.240  203.766
  584.750    7.969    0.246    0.396   84.307  202.247
  585.000    8.212    0.237    0.365   80.702  201.848
  585.250    8.511    0.231    0.341   81.196  201.653
  585.500    8.656    0.219    0.344   84.019  201.767
  585.750    8.787    0.200    0.362   86.842  202.082
  586.000    8.903    0.184    0.386   89.174  202.195
  586.250    9.037    0.208    0.385   91.934  202.408
  586.500    9.243    0.217    0.366   90.043  202.827
  586.750    9.436    0.204    0.352   86.558  203.347
  587.000    9.543    0.194    0.340   88.524  203.764
  587.250    9.596    0.194    0.332   90.550  204.080
  587.500    9.577    0.195    0.351   84.800  204.090
  587.750    9.540    0.197    0.358   82.235  203.895
  588.000    9.397    0.197    0.345   80.772  203.598
  588.250    9.326    0.192    0.333   85.186  203.506
  588.500    9.237    0.183    0.337   83.477  203.414
  588.750    9.150    0.178    0.362   86.361  203.526
  589.000    9.013    0.188    0.384   93.224  203.333
  589.250    8.827    0.195    0.383   98.250  203.648
  589.500    8.694    0.204    0.367   90.725  203.861
  589.750    8.580    0.210    0.345   84.058  204.280
  590.000    8.498    0.214    0.328   83.696  204.698
  590.250    8.498    0.213    0.342   86.703  205.115
  590.500    8.497    0.207    0.358   89.769  205.636
  590.750    8.497    0.197    0.366   92.409  206.565
  591.000    8.512    0.192    0.368   93.700  207.696
  591.250    8.608    0.193    0.365   95.115  209.032
  591.500    8.640    0.201    0.358   94.385  209.962
  591.750    8.639    0.208    0.347   91.820  209.970
  592.000    8.639    0.208    0.356   90.356  208.451
  592.250    8.638    0.199    0.376   92.321  207.541
  592.500    8.621    0.194    0.391   94.041  206.429
  592.750    8.604    0.200    0.377   91.353  205.216
  593.000    8.571    0.206    0.361   90.013  204.612
  593.250    8.522    0.205    0.353   89.895  203.805
  593.500    8.362    0.207    0.374  102.759  202.590
  593.750    8.083    0.214    0.400  107.969  200.967
  594.000    7.872    0.210    0.425  110.914  200.875
  594.250    7.695    0.207    0.406  109.512  200.273
  594.500    7.537    0.205    0.361  104.007  199.672
  594.750    7.466    0.207    0.332   92.564  199.784
  595.000    7.465    0.198    0.327   88.712  199.690
  595.250    7.535    0.187    0.332   93.249  200.721
  595.500    7.692    0.202    0.347   93.990  201.446
  595.750    7.808    0.193    0.361   94.547  202.068
  596.000    7.897    0.191    0.369   94.920  202.690
  596.250    7.941    0.191    0.375   96.579  203.209
  596.500    7.895    0.181    0.381   99.156  203.832
  596.750    7.806    0.180    0.393  103.570  203.943
  597.000    7.674    0.189    0.400  109.454  204.259
  597.250    7.674    0.185    0.387  112.949  205.086
  597.500    7.775    0.188    0.374  106.221  205.809
  597.750    7.952    0.193    0.364   99.553  205.921
  598.000    8.257    0.196    0.352   95.028  205.625
  598.250    8.638    0.191    0.339   91.973  205.737
  598.500    8.852    0.180    0.344   90.387  205.950
  598.750    8.884    0.176    0.358   91.311  206.368
