~VERSION INFORMATION
 VERS.                 2.0:   CWLS LOG ASCII STANDARD -VERSION 2.0
 WRAP.                  NO:   ONE LINE PER DEPTH STEP
~WELL INFORMATION BLOCK
#MNEM.UNIT           DATA                    DESCRIPTION OF MNEMONIC
#---------    -------------------            -------------------------------
# Generated from Intellog Unique Number	CW_73_75/WELL/2997
WELL.         11-35-073-26W4                 : Well_name    - WELL
LOC .         00/11-35-073-26W4/0            : Location     - LOCATION
UWI .         00/11-35-073-26W4/0            : Uwi          - UNIQUE WELL ID
ENTR.         CAMPBELL                       : Entered      - ENTERED BY
SRVC.         SCHLUMBERGER                   : Scn          - SERVICE COMPANY
DATE.         29 FEB 1968                    : Date         - LOG DATE
STRT.M        454.152                        : top_depth    - START DEPTH
STOP.M        600.402                        : bot_depth    - STOP DEPTH
STEP.M        0.25                           : increment    - STEP LENGTH
 NULL. -999.2500:NULL Value
~CURVE INFORMATION BLOCK
#MNEM UNIT       ERCB CURVE CODE    CURVE DESCRIPTION
#-----------   ------------------   ----------------------------------
DEPT.M        00 001 00 00         : DEPTH        - DEPTH
ILD .OHMM     00 120 00 00         : RESD         - DEEP RESISTIVITY (DIL)
DELT.US/F     00 520 00 00         : DELT         - SONIC TRAVEL TIME
GR  .API      00 310 00 00         : GR           - GAMMA RAY
CALI.MM       00 280 01 00         : CAL          - CALIPER
~PARAMETER INFORMATION
#MNEM.UNIT           DATA             DESCRIPTION OF MNEMONIC
#---------         -----------     ------------------------------
GL  .M        655.198              : gl           - GROUND LEVEL ELEVATION
EREF.M        658.703              : kb           - ELEVATION OF DEPTH REFERENCE
DATM.M        658.703              : datum        - DATUM ELEVATION
TDD .M        600.456              : tdd          - TOTAL DEPTH DRILLER
RUN .         ONE                  : Run          - RUN NUMBER
ENG .         TRUMAN               : Engineer     - RECORDING ENGINEER
WIT .         CONNELLY             : Witness      - WITNESSED BY
MUD .         GEL                  : Mud_type     - MUD TYPE
MATR.         SANDSTONE            : Logunit      - NEUTRON MATRIX
TMAX.C        34.4444              : BHT          - MAXIMUM RECORDED TEMPERATURE
BHTD.M        600.456              : BHTDEP       - MAXIMUM RECORDED TEMPERATURE
RMT .C        13.3333              : MDTP         - TEMPERATURE OF MUD
MUDD.KG/M     9600                 : MWT          - MUD DENSITY
NEUT.         1                    : NEUTRON      - NEUTRON TYPE
RESI.         0                    : RESIST       - RESISTIVITY TYPE
RM  .OHMM     3.58                 : RM           - RESISTIVITY OF MUD
RMC .OHMM     2.97                 : RMC          - RESISTIVITY OF MUD CAKE
RMF .OHMM     2.04                 : RMF          - RESISTIVITY OF MUD FILTRATE
SUFT.C        -10                  : SUFT         - SURFACE TEMPERATURE
~A  DEPTH     RESD     DELT       GR      CAL
  454.152    5.988  377.561   54.112  188.591
  454.402    5.588  382.541   56.003  188.529
  454.652    5.188  387.525   58.866  188.480
  454.902    4.789  388.554   62.209  188.927
  455.152    4.289  388.920   66.992  189.883
  455.402    3.890  387.633   67.680  190.336
  455.652    3.689  385.361   67.417  189.263
  455.902    3.988  384.738   65.708  190.734
  456.152    4.287  395.326   67.846  191.704
  456.402    4.386  402.613   72.148  194.702
  456.652    4.186  409.246   75.728  196.675
  456.902    3.986  427.085   64.157  196.627
  457.152    4.585  454.813   58.360  194.529
  457.402    5.482  453.860   45.346  202.617
  457.652    6.480  444.667   35.458  200.016
  457.902    7.577  445.691   43.851  194.362
  458.152    7.377  456.609   53.443  198.881
  458.402    6.877  489.610   58.947  195.778
  458.652    6.877  500.198   67.574  192.153
  458.902    7.375  373.312   61.780  192.091
  459.152    8.173  374.016   58.147  190.515
  459.402    9.071  375.366   52.587  189.937
  459.652   10.468  377.704   50.394  189.373
  459.902   10.767  383.023   53.256  189.317
  460.152   10.068  387.014   51.784  190.796
  460.402    9.768  390.351   54.887  189.722
  460.652   10.665  392.360   60.872  189.151
  460.902   12.262  394.044   55.793  188.586
  461.152   13.459  394.084   48.313  188.531
  461.402   14.057  394.445   48.280  188.462
  461.652   14.256  393.505   48.975  188.420
  461.902   14.156  392.873   49.430  188.351
  462.152   13.956  391.920   49.644  188.811
  462.402   12.857  390.963   47.935  188.763
  462.652   10.362  390.348   44.783  188.707
  462.902    7.667  389.066   44.756  188.624
  463.152    7.167  389.102   46.894  188.583
  463.402    7.067  392.759   48.311  189.545
  463.652    7.066  398.398   54.293  191.016
  463.902    6.567  398.109   57.152  191.979
  464.152    5.967  396.831   50.637  191.917
  464.402    5.568  395.544   48.687  192.377
  464.652    5.068  390.965   50.822  192.322
  464.902    4.868  386.386   53.437  192.768
  465.152    4.668  381.808   52.209  191.695
  465.402    4.368  381.848   52.423  190.614
  465.652    4.268  383.198   56.007  190.057
  465.902    4.167  382.909   61.030  190.510
  466.152    3.967  378.325   66.053  191.975
  466.402    3.867  374.410   70.115  193.439
  466.652    3.767  372.798   69.845  194.409
  466.902    3.766  371.186   68.857  194.862
  467.152    3.766  370.233   67.148  195.832
  467.402    3.765  374.884   65.679  196.278
  467.652    3.765  378.216   69.263  195.707
  467.902    3.764  378.911   73.324  195.659
  468.152    3.764  381.254   70.409  195.596
  468.402    3.763  388.216   62.204  195.032
  468.652    3.563  394.185   62.900  194.976
  468.902    3.463  396.862   65.041  195.430
  469.152    3.562  394.586   67.175  195.883
  469.402    3.761  387.041   66.909  196.337
  469.652    4.160  386.422   64.237  196.274
  469.902    4.359  382.173   68.780  196.219
  470.152    4.758  464.296   69.235  196.164
  470.402    5.056  411.914   69.208  196.115
  470.652    5.256  346.674   68.461  196.060
  470.902    5.554  335.503   65.065  195.997
  471.152    5.853  311.802   63.590  195.935
  471.402    5.853  279.202   65.006  195.370
  471.652    5.553  294.075   68.593  194.806
  471.902    5.353  325.758   74.338  195.253
  472.152    4.853  343.598   69.259  195.713
  472.402    4.553  348.578   66.828  195.658
  472.652    4.353  354.551   67.764  195.602
  472.902    4.153  366.123   73.268  197.067
  473.152    4.053  386.270   77.089  195.993
  473.402    3.853  394.880   80.910  196.447
  473.652    3.852  393.598   79.198  195.373
  473.902    3.852  391.985   77.969  194.293
  474.152    3.851  389.055   72.416  193.729
  474.402    4.050  385.469   70.700  193.171
  474.652    4.748  382.205   71.154  193.116
  474.902    5.546  379.938   69.689  192.035
  475.152    9.937  376.018   54.992  185.866
  475.402   34.487  349.347   41.978  183.265
  475.652   36.183  288.396   36.177  182.701
  475.902   28.598  257.114   36.151  182.645
  476.152   16.821  267.038   36.365  184.117
  476.402   12.030  286.526   36.580  186.606
  476.652   11.630  340.627   34.386  189.096
  476.902   12.428  359.125   34.841  189.549
  477.152   13.226  362.132   35.776  186.949
  477.402   14.423  363.161   35.029  185.868
  477.652   15.720  361.545   35.243  186.831
  477.902   16.817  357.625   37.621  187.793
  478.152   15.120  358.320   37.595  187.229
  478.402   10.429  360.993   36.367  186.665
  478.652    7.734  364.329   39.467  186.609
  478.902    6.536  369.310   39.921  186.547
  479.152    5.538  371.982   41.331  187.007
  479.402    5.038  370.700   39.865  186.952
  479.652    4.838  367.444   39.358  186.380
  479.902    4.838  363.520   41.012  186.325
  480.152    4.737  360.589   43.150  185.761
  480.402    4.737  358.986   43.849  185.705
  480.652    4.736  359.018   45.025  185.650
  480.902    4.736  360.042   46.438  186.089
  481.152    4.635  364.697   48.339  186.034
  481.402    4.735  368.025   49.748  185.978
  481.652    4.834  373.348   50.447  185.923
  481.902    4.933  374.038   50.661  185.874
  482.152    5.032  373.415   49.914  185.805
  482.402    5.231  375.095   47.480  185.764
  482.652    5.231  372.823   46.729  185.694
  482.902    5.330  365.942   46.706  185.639
  483.152    5.529  362.022   46.680  186.092
  483.402    5.529  361.724   45.208  186.044
  483.652    5.628  362.753   45.906  186.497
  483.902    6.027  363.128   47.079  186.435
  484.152    6.525  363.155   44.404  186.373
  484.402    6.425  365.168   42.935  186.324
  484.652    5.726  368.834   46.516  186.269
  484.902    5.326  369.525   47.936  186.722
  485.152    4.827  366.928   51.516  186.667
  485.402    4.926  363.334   52.933  187.120
  485.652    5.425  361.392   47.857  187.051
  485.902    5.923  373.299   49.027  187.511
  486.152    5.623  378.283   55.980  188.474
  486.402    5.323  375.018   68.458  188.411
  486.652    4.824  375.059   80.217  187.345
  486.902    4.324  377.072   70.088  186.272
  487.152    4.024  382.057   56.353  186.209
  487.402    3.824  384.066   53.679  186.154
  487.652    3.624  384.765   52.206  186.607
  487.902    3.324  385.135   63.004  186.545
  488.152    3.224  385.505   61.779  187.005
  488.402    3.323  385.203   62.474  187.459
  488.652    3.323  385.898   64.131  187.403
  488.902    3.322  386.263   66.509  187.341
  489.152    3.322  386.629   64.312  187.279
  489.402    3.321  385.026   63.809  187.223
  489.652    3.321  385.066   64.981  187.175
  489.902    3.320  386.741   66.161  187.105
  490.152    3.419  389.414   64.451  187.566
  490.402    3.419  391.098   65.621  187.503
  490.652    3.418  389.815   66.556  189.484
  490.902    3.418  387.223   66.530  189.944
  491.152    3.418  387.914   68.187  189.889
  491.402    3.417  392.894   70.328  189.826
  491.652    3.416  393.259   68.859  189.778
  491.902    3.416  387.032   62.819  191.235
  492.152    3.416  385.091   65.918  192.198
  492.402    3.514  386.779   71.182  192.149
  492.652    3.514  386.811   76.690  192.080
  492.902    3.613  386.855   73.772  192.541
  493.152    3.613  387.221   73.268  193.001
  493.402    3.612  387.911   70.837  193.455
  493.652    3.612  388.611   73.456  194.912
  493.902    3.611  388.977   70.060  197.408
  494.152    3.511  390.995   67.866  199.382
  494.402    3.510  392.019   69.767  200.860
  494.652    3.510  394.358   70.703  204.870
  494.902    3.509  397.360   70.677  207.875
  495.152    3.609  395.748   72.334  204.766
  495.402    3.608  386.885   71.102  200.123
  495.652    3.707  392.194   66.984  199.558
  495.902    3.707  401.798   62.393  198.485
  496.152    3.906  404.800   47.936  198.429
  496.402    4.105  397.580   44.059  198.374
  496.652    4.604  390.694   47.159  195.767
  496.902    5.701  380.842   47.611  192.657
  497.152    8.994  346.919   46.866  191.584
  497.402   13.684  300.145   42.752  191.529
