~VERSION INFORMATION
 VERS.                 2.0:   CWLS LOG ASCII STANDARD -VERSION 2.0
 WRAP.                  NO:   ONE LINE PER DEPTH STEP
~WELL INFORMATION BLOCK
#MNEM.UNIT           DATA                    DESCRIPTION OF MNEMONIC
#---------    -------------------            -------------------------------
# Generated from Intellog Unique Number	CW_70_72/WELL/3026
NULL.         -999.25                        : NULL_VALUE
WELL.         SULPETRO OTAUWAU 11-05         : Well_name    - WELL              
LOC .         11-05-070-05W5                 : Location     - LOCATION          
UWI .         00/11-05-070-05W5/0            : Uwi          - UNIQUE WELL ID    
ENTR.         JAYE                           : Entered      - ENTERED BY        
SRVC.         SCHLUMBERGER                   : Scn          - SERVICE COMPANY   
DATE.         19 FEB 77                      : Date         - LOG DATE          
STRT.M        701.04                         : top_depth    - START DEPTH       
STOP.M        960.04                         : bot_depth    - STOP DEPTH        
STEP.M        0.25                           : increment    - STEP LENGTH       
~CURVE INFORMATION BLOCK
#MNEM UNIT       ERCB CURVE CODE    CURVE DESCRIPTION
#-----------   ------------------   ----------------------------------
DEPT.M        00 001 00 00         : DEPTH        - DEPTH                       
ILD .OHMM     00 120 00 00         : RESD         - DEEP RESISTIVITY (DIL)      
NPHI.V/V      00 330 00 00         : PHIN         - NEUTRON POROSITY (SANDSTONE)
DPHI.V/V      00 890 00 00         : PHID         - DENSITY POROSITY (SANDSTONE)
GR  .API      00 310 00 00         : GR           - GAMMA RAY                   
CALI.MM       00 280 01 00         : CAL          - CALIPER                     
~PARAMETER INFORMATION       
#MNEM.UNIT           DATA             DESCRIPTION OF MNEMONIC
#---------         -----------     ------------------------------
GL  .M        796.595              : gl           - GROUND LEVEL ELEVATION      
EREF.M        800.557              : kb           - ELEVATION OF DEPTH REFERENCE
DATM.M        796.595              : datum        - DATUM ELEVATION             
TDD .M        975.36               : tdd          - TOTAL DEPTH DRILLER         
RUN .         ONE                  : Run          - RUN NUMBER                  
ENG .         FIGGURES             : Engineer     - RECORDING ENGINEER          
WIT .         BROCK                : Witness      - WITNESSED BY                
MUD .         GEL                  : Mud_type     - MUD TYPE                    
MATR.         SANDSTONE            : Logunit      - NEUTRON MATRIX              
TMAX.C        -17.7778             : BHT          - MAXIMUM RECORDED TEMPERATURE
BHTD.M        975.665              : BHTDEP       - MAXIMUM RECORDED TEMPERATURE
RMT .C        15.5556              : MDTP         - TEMPERATURE OF MUD          
MUDD.KG/M     1152                 : MWT          - MUD DENSITY                 
NEUT.         1                    : NEUTRON      - NEUTRON TYPE                
RESI.         0                    : RESIST       - RESISTIVITY TYPE            
RM  .OHMM     4.25                 : RM           - RESISTIVITY OF MUD          
RMC .OHMM     0.25                 : RMC          - RESISTIVITY OF MUD CAKE     
RMF .OHMM     3.66                 : RMF          - RESISTIVITY OF MUD FILTRATE 
SUFT.C        -20                  : SUFT         - SURFACE TEMPERATURE         
~A  DEPTH     RESD     PHIN     PHID       GR      CAL
  701.040    2.553    0.478    0.184  103.129  197.188
  701.290    2.613    0.471    0.177  104.618  198.769
  701.540    2.615    0.463    0.196  105.859  203.169
  701.790    2.574    0.438    0.201  107.905  197.439
  702.040    2.542    0.431    0.171  109.022  189.934
  702.290    2.484    0.448    0.177  110.141  189.426
  702.540    2.409    0.458    0.194  110.459  191.113
  702.790    2.349    0.460    0.162  111.576  190.603
  703.040    2.316    0.431    0.172  112.387  192.289
  703.290    2.296    0.435    0.127  111.779  190.841
  703.540    2.294    0.446    0.136  108.271  185.946
  703.790    2.365    0.456    0.165  105.874  183.454
  704.040    2.415    0.463    0.184  111.928  190.988
  704.290    2.422    0.469    0.204  109.407  189.541
  704.540    2.344    0.440    0.181  103.433  184.646
  704.790    2.282    0.445    0.162   99.493  182.050
  705.040    2.221    0.462    0.188   94.198  174.231
  705.290    2.186    0.491    0.230   89.148  171.217
  705.540    2.144    0.424    0.201   82.557  175.932
  705.790    2.137    0.403    0.197   77.940  169.470
  706.040    2.151    0.393    0.222   75.605  163.636
  706.290    2.185    0.390    0.231   73.084  162.292
  706.540    2.231    0.390    0.247   69.885  160.426
  706.790    2.275    0.392    0.226   67.427  158.560
  707.040    2.372    0.395    0.223   66.818  157.531
  707.290    2.436    0.398    0.208   66.828  157.548
  707.540    2.529    0.400    0.222   65.848  157.037
  707.790    2.627    0.405    0.219   63.390  156.529
  708.040    2.733    0.404    0.186   64.817  155.395
  708.290    2.849    0.362    0.219   68.403  154.157
  708.540    2.921    0.361    0.233   66.315  151.770
  708.790    2.978    0.375    0.223   71.195  149.903
  709.040    3.013    0.380    0.203   78.359  148.040
  709.290    2.999    0.368    0.213   82.192  147.113
  709.540    2.996    0.372    0.198   80.288  147.857
  709.790    3.031    0.388    0.153   84.799  150.795
  710.040    3.125    0.401    0.179   90.729  156.867
  710.290    3.210    0.397    0.208   94.253  161.479
  710.540    3.136    0.405    0.175   99.134  162.328
  710.790    2.898    0.401    0.157  106.175  163.282
  711.040    2.688    0.407    0.147  113.892  163.822
  711.290    2.484    0.421    0.186  121.241  165.298
  711.540    2.266    0.436    0.178  125.937  167.921
  711.790    2.045    0.456    0.202  127.056  176.501
  712.040    2.073    0.480    0.245  125.646  184.869
  712.290    2.255    0.469    0.260  121.584  189.584
  712.540    2.408    0.446    0.230  112.464  192.943
  712.790    2.615    0.426    0.242  105.193  192.955
  713.040    2.766    0.403    0.261   98.541  184.091
  713.290    2.663    0.398    0.238   92.504  164.888
  713.540    2.438    0.397    0.215   82.398  160.098
  713.790    2.245    0.393    0.204   74.573  158.547
  714.040    2.105    0.375    0.227   69.462  157.725
  714.290    2.030    0.384    0.225   78.352  157.323
  714.540    2.047    0.371    0.236   88.969  158.380
  714.790    2.260    0.378    0.210  104.645  159.961
  715.040    2.575    0.408    0.223  114.214  163.945
  715.290    2.869    0.416    0.252  105.032  173.777
  715.540    3.173    0.397    0.246   98.256  169.091
  715.790    3.351    0.384    0.222  102.273  168.898
  716.040    3.286    0.395    0.207  102.343  170.269
  716.290    3.065    0.401    0.242   95.568  171.642
  716.540    2.791    0.345    0.219   84.412  168.209
  716.790    2.528    0.319    0.221   76.217  163.418
  717.040    2.327    0.325    0.216   70.613  161.241
  717.290    2.151    0.337    0.216   65.995  160.211
  717.540    2.032    0.356    0.242   60.391  158.975
  717.790    1.935    0.355    0.261   55.835  158.360
  718.040    2.085    0.343    0.256   52.698  157.957
  718.290    2.285    0.350    0.265   51.474  158.077
  718.540    2.449    0.350    0.267   59.068  158.196
  718.790    2.557    0.324    0.230   72.954  157.999
  719.040    2.671    0.308    0.206   85.854  157.909
  719.290    2.774    0.319    0.194   94.128  157.610
  719.540    2.781    0.333    0.180   97.775  156.477
  719.790    2.702    0.345    0.196  102.842  155.341
  720.040    2.625    0.356    0.188  107.969  154.834
  720.290    2.579    0.398    0.183  117.353  156.832
  720.540    2.543    0.434    0.193  127.908  164.157
  720.790    2.593    0.481    0.211  123.847  172.526
  721.040    2.702    0.482    0.223  110.039  182.882
  721.290    2.913    0.380    0.223  101.104  180.389
  721.540    3.163    0.341    0.212  102.654  165.886
  721.790    3.440    0.343    0.198  109.324  161.723
  722.040    3.646    0.348    0.160  115.315  161.423
  722.290    3.690    0.351    0.151  121.430  162.691
  722.540    3.565    0.361    0.150  123.412  165.004
  722.790    3.431    0.374    0.162  116.574  166.688
  723.040    3.255    0.381    0.151  104.493  167.853
  723.290    3.099    0.371    0.170   99.938  165.882
  723.540    3.049    0.357    0.166  102.229  162.973
  723.790    3.109    0.352    0.136  115.992  160.377
  724.040    3.235    0.368    0.125  123.340  159.452
  724.290    3.372    0.389    0.139  128.962  161.449
  724.540    3.375    0.407    0.121  130.574  166.059
  724.790    3.206    0.410    0.134  127.313  171.713
  725.040    2.985    0.409    0.155  120.845  173.608
  725.290    2.806    0.421    0.189  107.222  171.323
  725.540    2.661    0.424    0.214   94.216  168.311
  725.790    2.468    0.404    0.231   85.898  166.132
  726.040    2.376    0.382    0.246   80.479  163.432
  726.290    2.364    0.377    0.249   77.960  162.192
  726.540    2.424    0.375    0.234   75.870  161.369
  726.790    2.531    0.362    0.227   71.746  160.236
  727.040    2.674    0.357    0.211   73.605  159.836
  727.290    2.725    0.377    0.192   76.759  159.118
  727.540    2.742    0.388    0.198   79.975  158.818
  727.790    2.660    0.389    0.174   79.799  157.997
  728.040    2.537    0.390    0.205   78.265  157.801
  728.290    2.442    0.389    0.224   77.903  157.819
  728.540    2.342    0.384    0.224   81.120  157.204
  728.790    2.213    0.381    0.181   84.891  155.964
  729.040    2.130    0.393    0.181   87.552  154.515
  729.290    1.994    0.402    0.196   81.207  154.425
  729.540    1.885    0.417    0.227   74.986  154.440
  729.790    1.817    0.418    0.263   69.998  155.502
  730.040    1.819    0.383    0.252   72.289  156.453
  730.290    1.910    0.366    0.262   77.232  157.828
  730.540    1.991    0.383    0.183   84.519  158.886
  730.790    2.158    0.408    0.208   88.289  159.525
  731.040    2.347    0.400    0.250   82.684  159.960
  731.290    2.483    0.375    0.233   77.018  160.390
  731.540    2.671    0.367    0.213   80.235  160.822
  731.790    2.743    0.363    0.198   90.235  161.360
  732.040    2.705    0.373    0.181   98.201  161.479
  732.290    2.528    0.396    0.196  104.377  161.703
  732.540    2.319    0.413    0.207   97.169  161.717
  732.790    2.127    0.425    0.193   85.581  161.523
  733.040    1.973    0.442    0.239   68.752  161.329
  733.290    1.858    0.399    0.265   62.777  160.925
  733.540    1.818    0.366    0.268   63.772  160.310
  733.790    1.875    0.365    0.238   66.988  159.387
  734.040    1.922    0.377    0.239   72.055  158.146
  734.290    1.992    0.375    0.242   77.800  155.969
  734.540    2.085    0.367    0.202   81.755  154.310
  734.790    2.145    0.381    0.189   85.526  152.862
  735.040    2.183    0.391    0.207   87.508  152.460
  735.290    2.197    0.408    0.211   88.935  152.474
  735.540    2.206    0.418    0.225   90.857  154.161
  735.790    2.233    0.417    0.232   93.332  156.263
  736.040    2.259    0.415    0.210   95.376  158.575
  736.290    2.303    0.405    0.204   98.407  160.365
  736.540    2.383    0.401    0.190  101.622  161.214
  736.790    2.430    0.403    0.174  100.151  162.169
  737.040    2.391    0.395    0.176   92.018  163.122
  737.290    2.276    0.398    0.176   85.303  163.141
