~VERSION INFORMATION
 VERS.                 2.0:   CWLS LOG ASCII STANDARD -VERSION 2.0
 WRAP.                  NO:   ONE LINE PER DEPTH STEP
~WELL INFORMATION BLOCK
#MNEM.UNIT           DATA                    DESCRIPTION OF MNEMONIC
#---------    -------------------            -------------------------------
# Generated from Intellog Unique Number	CS_71_72/WELL/927
WELL.         ET AL SCHELTENS                : Well_name    - WELL
LOC .         00/16-13-071-01W4/0            : Location     - LOCATION
UWI .         00/16-13-071-01W4/0            : Uwi          - UNIQUE WELL ID
ENTR.         SP                             : Entered      - ENTERED BY
SRVC.         SCHLUMBERGER                   : Scn          - SERVICE COMPANY
STRT.M        365                            : top_depth    - START DEPTH
STOP.M        620                            : bot_depth    - STOP DEPTH
STEP.M        0.25                           : increment    - STEP LENGTH
 NULL. -999.2500:NULL Value
~CURVE INFORMATION BLOCK
#MNEM UNIT       ERCB CURVE CODE    CURVE DESCRIPTION
#-----------   ------------------   ----------------------------------
DEPT.M        00 001 00 00         : DEPTH        - DEPTH
ILD .OHMM     00 120 00 00         : RESD         - DEEP RESISTIVITY (DIL)
DPHI.V/V      00 890 00 00         : PHID         - DENSITY POROSITY (LIMESTONE)
NPHI.V/V      00 330 00 00         : PHIN         - NEUTRON POROSITY (LIMESTONE)
GR  .API      00 310 00 00         : GR           - GAMMA RAY
~PARAMETER INFORMATION
#MNEM.UNIT           DATA             DESCRIPTION OF MNEMONIC
#---------         -----------     ------------------------------
GL  .M        708.9                : gl           - GROUND LEVEL ELEVATION
EREF.M        713.2                : kb           - ELEVATION OF DEPTH REFERENCE
DATM.M        708.9                : datum        - DATUM ELEVATION
TDD .M        825                  : tdd          - TOTAL DEPTH DRILLER
RUN .         ONE                  : Run          - RUN NUMBER
ENG .         BILL                 : Engineer     - RECORDING ENGINEER
WIT .         JIM                  : Witness      - WITNESSED BY
MUD .         GEL                  : Mud_type     - MUD TYPE
MATR.         LIMESTONE            : Logunit      - NEUTRON MATRIX
TMAX.C        23                   : BHT          - MAXIMUM RECORDED TEMPERATURE
BHTD.M        825                  : BHTDEP       - MAXIMUM RECORDED TEMPERATURE
MATR.         1                    : LOGUNIT      - NEUTRON MATRIX
RMT .C        25                   : MDTP         - TEMPERATURE OF MUD
NEUT.         1                    : NEUTRON      - NEUTRON TYPE
RESI.         0                    : RESIST       - RESISTIVITY TYPE
RMC .OHMM     0.25                 : RMC          - RESISTIVITY OF MUD CAKE
RMF .OHMM     0.25                 : RMF          - RESISTIVITY OF MUD FILTRATE
SUFT.C        15                   : SUFT         - SURFACE TEMPERATURE
~A  DEPTH     RESD     PHID     PHIN       GR
# ...
  539.000    8.459    0.317    0.441   50.761
  539.250    8.426    0.319    0.395   42.330
  539.500    8.456    0.318    0.374   45.539
  539.750    8.487    0.316    0.365   54.051
  540.000    8.534    0.300    0.352   58.665
  540.250    8.548    0.286    0.344   61.266
  540.500    8.563    0.286    0.352   62.462
  540.750    8.561    0.304    0.374   62.626
  541.000    8.577    0.317    0.391   60.654
  541.250    8.639    0.309    0.401   59.356
  541.500    8.687    0.292    0.406   63.599
  541.750    8.703    0.281    0.410   65.775
  542.000    8.817    0.275    0.411   66.427
  542.250    8.916    0.281    0.401   61.833
  542.500    8.981    0.289    0.394   60.533
  542.750    9.014    0.297    0.388   63.989
  543.000    9.047    0.300    0.380   69.269
  543.250    9.097    0.300    0.376   75.097
  543.500    9.061    0.278    0.384   79.042
  543.750    9.042    0.246    0.412   83.353
  544.000    9.075    0.230    0.425   89.304
  544.250    9.107    0.236    0.434   92.393
  544.500    9.140    0.237    0.439   90.118
  544.750    9.156    0.206    0.433   79.493
  545.000    9.172    0.190    0.421   70.330
  545.250    9.153    0.258    0.400   64.156
  545.500    9.032    0.265    0.389   58.162
  545.750    8.862    0.252    0.378   61.068
  546.000    8.613    0.242    0.371   63.424
  546.250    8.371    0.241    0.371   64.136
  546.500    8.450    0.236    0.379   64.478
  546.750    8.369    0.222    0.392   65.496
  547.000    8.352    0.215    0.399   66.452
  547.250    8.319    0.228    0.410   67.223
  547.500    8.428    0.239    0.413   67.503
  547.750    8.411    0.234    0.401   67.057
  548.000    8.268    0.229    0.394   66.251
  548.250    8.082    0.231    0.395   66.352
  548.500    7.840    0.236    0.396   66.941
  548.750    7.678    0.236    0.384   67.403
  549.000    7.591    0.238    0.378   67.628
  549.250    7.561    0.241    0.382   67.795
  549.500    7.489    0.249    0.386   66.738
  549.750    7.361    0.256    0.379   63.368
  550.000    7.034    0.253    0.378   62.493
  550.250    6.735    0.288    0.391   60.098
  550.500    6.376    0.316    0.396   49.289
  550.750    5.956    0.335    0.407   44.819
  551.000    5.617    0.357    0.419   42.666
  551.250    5.368    0.366    0.424   42.279
  551.500    5.217    0.350    0.416   43.781
  551.750    5.014    0.344    0.410   44.977
  552.000    4.809    0.342    0.415   45.693
  552.250    4.631    0.343    0.405   46.222
  552.500    4.467    0.348    0.400   45.836
  552.750    4.383    0.355    0.405   44.537
  553.000    4.374    0.361    0.417   40.312
  553.250    4.456    0.351    0.414   38.097
  553.500    4.609    0.342    0.406   40.453
  553.750    4.840    0.348    0.402   43.540
  554.000    5.189    0.352    0.400   46.081
  554.250    5.418    0.350    0.395   63.738
  554.500    5.583    0.325    0.390   75.175
  554.750    5.635    0.253    0.388   83.993
  555.000    5.539    0.224    0.410   86.958
  555.250    5.549    0.212    0.429   86.877
  555.500    5.761    0.201    0.418   84.542
  555.750    6.038    0.189    0.410   82.083
  556.000    6.305    0.205    0.414   80.113
  556.250    6.534    0.228    0.424   79.972
  556.500    6.632    0.240    0.437   82.146
  556.750    6.568    0.237    0.449   79.140
  557.000    6.518    0.233    0.460   78.266
  557.250    6.567    0.230    0.452   77.941
  557.500    6.779    0.231    0.437   73.594
  557.750    7.012    0.238    0.420   67.236
  558.000    7.171    0.251    0.406   60.328
  558.250    7.225    0.242    0.393   57.810
  558.500    7.264    0.223    0.411   56.815
  558.750    7.236    0.226    0.433   58.135
  559.000    7.153    0.248    0.445   62.803
  559.250    6.835    0.246    0.437   65.954
  559.500    6.656    0.245    0.436   69.164
  559.750    6.618    0.249    0.440   72.069
  560.000    6.692    0.262    0.445   74.788
  560.250    6.792    0.277    0.451   76.110
  560.500    6.830    0.270    0.459   76.339
  560.750    6.829    0.271    0.463   73.638
  561.000    6.764    0.260    0.471   75.260
  561.250    6.661    0.248    0.475   77.248
  561.500    6.524    0.257    0.469   77.844
  561.750    6.269    0.263    0.475   74.410
  562.000    6.036    0.261    0.490   68.967
  562.250    5.693    0.256    0.479   60.414
  562.500    5.369    0.289    0.443   50.641
  562.750    5.140    0.316    0.414   49.948
  563.000    4.986    0.333    0.391   53.649
  563.250    4.847    0.312    0.376   58.443
  563.500    4.720    0.292    0.374   60.801
  563.750    4.604    0.287    0.376   62.000
  564.000    4.535    0.297    0.378   61.614
  564.250    4.399    0.305    0.385   60.558
  564.500    4.252    0.317    0.393   58.892
  564.750    4.117    0.324    0.380   56.130
  565.000    4.009    0.329    0.372   51.173
  565.250    3.934    0.339    0.397   48.895
  565.500    3.867    0.336    0.414   51.984
  565.750    3.823    0.321    0.400   54.221
  566.000    3.808    0.314    0.384   55.115
  566.250    3.771    0.309    0.394   52.288
  566.500    3.764    0.315    0.395   50.870
  566.750    3.735    0.319    0.369   50.544
  567.000    3.727    0.319    0.359   50.036
  567.250    3.748    0.343    0.372   48.493
  567.500    3.891    0.355    0.381   43.049
  567.750    4.101    0.360    0.369   39.189
  568.000    4.348    0.356    0.374   36.915
  568.250    4.608    0.329    0.382   38.845
  568.500    4.885    0.305    0.379   45.895
  568.750    5.217    0.295    0.384   53.493
  569.000    5.657    0.301    0.396   56.703
  569.250    6.099    0.304    0.411   58.816
  569.500    6.356    0.202    0.421   59.954
  569.750    6.599    0.213    0.396   59.567
  570.000    6.698    0.228    0.377   58.452
  570.250    6.660    0.250    0.386   59.285
  570.500    6.522    0.277    0.398   63.713
  570.750    6.221    0.308    0.417   59.548
  571.000    5.471    0.325    0.440   52.033
  571.250    4.849    0.320    0.457   40.795
  571.500    4.513    0.320    0.466   38.034
  571.750    4.232    0.338    0.417   38.258
  572.000    3.961    0.344    0.406   43.232
  572.250    3.821    0.315    0.412   46.689
  572.500    3.714    0.295    0.403   49.230
  572.750    3.727    0.281    0.397   51.342
  573.000    3.973    0.279    0.401   53.453
  573.250    4.172    0.285    0.406   55.446
  573.500    4.406    0.277    0.416   53.657
  573.750    4.715    0.269    0.430   52.787
  574.000    5.035    0.248    0.422   57.214
  574.250    5.287    0.199    0.418   62.556
  574.500    5.500    0.161    0.425   67.293
  574.750    5.625    0.191    0.442   72.393
  575.000    6.428    0.256    0.415   61.577
  575.250    6.064    0.268    0.391   51.855
  575.500    5.940    0.261    0.294   38.760
  575.750    5.996    0.256    0.270   32.165
  576.000    5.928    0.301    0.265   40.107
  576.250    5.561    0.338    0.326   50.014
  576.500    4.950    0.348    0.388   56.112
  576.750    4.372    0.327    0.429   61.722
  577.000    3.899    0.311    0.444   66.044
  577.250    3.637    0.329    0.446   64.297
  577.500    3.380    0.341    0.434   59.848
  577.750    3.183    0.350    0.422   53.807
  578.000    3.031    0.355    0.405   49.482
  578.250    2.963    0.354    0.386   46.999
  578.500    2.859    0.356    0.385   45.122
  578.750    2.800    0.358    0.387   44.415
  579.000    2.738    0.360    0.385   40.827
  579.250    2.707    0.360    0.390   35.461
  579.500    2.686    0.359    0.398   31.012
  579.750    2.671    0.354    0.407   26.323
  580.000    2.686    0.342    0.401   23.526
  580.250    2.716    0.332    0.391   26.872
  580.500    2.799    0.324    0.402   30.026
  580.750    2.873    0.316    0.415   31.221
  581.000    2.911    0.313    0.400   31.434
  581.250    2.927    0.313    0.386   29.809
  581.500    2.911    0.332    0.403   27.876
  581.750    2.905    0.351    0.417   24.411
  582.000    2.954    0.362    0.387   23.026
  582.250    3.033    0.344    0.379   25.389
