~VERSION INFORMATION
 VERS.                 2.0:   CWLS LOG ASCII STANDARD -VERSION 2.0
 WRAP.                  NO:   ONE LINE PER DEPTH STEP
~WELL INFORMATION BLOCK
#MNEM.UNIT           DATA                    DESCRIPTION OF MNEMONIC
#---------    -------------------            -------------------------------
# Generated from Intellog Unique Number	CS_77_79/WELL/950
WELL.         AMOCO LEISMER                  : Well_name    - WELL
LOC .         00/10-12-079-08W4/0            : Location     - LOCATION
UWI .         00/10-12-079-08W4/0            : Uwi          - UNIQUE WELL ID
ENTR.         JHS                            : Entered      - ENTERED BY
SRVC.         SCHLUMBERGER                   : Scn          - SERVICE COMPANY
STRT.M        125                            : top_depth    - START DEPTH
STOP.M        350                            : bot_depth    - STOP DEPTH
STEP.M        0.25                           : increment    - STEP LENGTH
 NULL. -999.2500:NULL Value
~CURVE INFORMATION BLOCK
#MNEM UNIT       ERCB CURVE CODE    CURVE DESCRIPTION
#-----------   ------------------   ----------------------------------
DEPT.M        00 001 00 00         : DEPTH        - DEPTH
DPHI.V/V      00 890 00 00         : PHID         - DENSITY POROSITY (LIMESTONE)
NPHI.V/V      00 330 00 00         : PHIN         - NEUTRON POROSITY (LIMESTONE)
GR  .API      00 310 00 00         : GR           - GAMMA RAY
ILD .OHMM     00 120 00 00         : RESD         - DEEP RESISTIVITY (DIL)
RHOB.KG/M3    00 350 00 00         : DENS         - BULK DENSITY
~PARAMETER INFORMATION
#MNEM.UNIT           DATA             DESCRIPTION OF MNEMONIC
#---------         -----------     ------------------------------
GL  .M        568.82               : gl           - GROUND LEVEL ELEVATION
EREF.M        573                  : kb           - ELEVATION OF DEPTH REFERENCE
DATM.M        573                  : datum        - DATUM ELEVATION
TDD .M        355                  : tdd          - TOTAL DEPTH DRILLER
RUN .         ONE                  : Run          - RUN NUMBER
ENG .         BILL                 : Engineer     - RECORDING ENGINEER
WIT .         JIM                  : Witness      - WITNESSED BY
MUD .         GEL                  : Mud_type     - MUD TYPE
MATR.         LIMESTONE            : Logunit      - NEUTRON MATRIX
TMAX.C        23.5                 : BHT          - MAXIMUM RECORDED TEMPERATURE
BHTD.M        355                  : BHTDEP       - MAXIMUM RECORDED TEMPERATURE
MATR.         1                    : LOGUNIT      - NEUTRON MATRIX
RMT .C        25                   : MDTP         - TEMPERATURE OF MUD
NEUT.         1                    : NEUTRON      - NEUTRON TYPE
RESI.         0                    : RESIST       - RESISTIVITY TYPE
RMC .OHMM     0.25                 : RMC          - RESISTIVITY OF MUD CAKE
RMF .OHMM     0.25                 : RMF          - RESISTIVITY OF MUD FILTRATE
SUFT.C        15                   : SUFT         - SURFACE TEMPERATURE
~A  DEPTH     PHID     PHIN       GR     RESD     DENS
# ...
  307.500    0.260    0.437  104.724   10.343 2265.680
  307.750    0.248    0.446  111.423    8.281 2286.470
  308.000    0.242    0.451  105.974   10.547 2296.880
  308.250    0.279    0.439   95.056   13.685 2232.680
  308.500    0.314    0.415   84.141   16.484 2172.630
  308.750    0.317    0.439   78.694   20.232 2168.530
  309.000    0.301    0.424   79.925   21.801 2195.540
  309.250    0.292    0.412   83.583   23.058 2210.100
  309.500    0.287    0.424   83.600   23.069 2218.440
  309.750    0.296    0.424   78.760   20.267 2203.990
  310.000    0.293    0.405   73.308   18.822 2208.170
  310.250    0.278    0.398   69.680   18.146 2235.180
  310.500    0.266    0.415   78.198   18.839 2255.960
  310.750    0.257    0.435   83.684   18.849 2270.520
  311.000    0.248    0.435   85.519   17.187 2285.080
  311.250    0.236    0.442   86.142   14.821 2305.860
  311.500    0.238    0.411   80.698   12.544 2303.840
  311.750    0.261    0.400   81.317   11.652 2264.510
  312.000    0.247    0.419   84.374   11.443 2287.360
  312.250    0.248    0.431   84.996   10.628 2285.350
  312.500    0.271    0.428   83.186    9.338 2246.020
  312.750    0.268    0.423   82.596    8.672 2252.290
  313.000    0.262    0.476   89.899    8.206 2262.700
  313.250    0.269    0.443   84.450    9.009 2250.320
  313.500    0.316    0.418   71.105   10.652 2169.530
  313.750    0.300    0.407   67.480   13.073 2196.550
  314.000    0.287    0.400   71.139   14.619 2219.400
  314.250    0.278    0.401   76.011   14.626 2233.940
  314.500    0.266    0.420   77.849   14.908 2254.730
  314.750    0.270    0.441   73.007   17.301 2248.560
  315.000    0.287    0.450   63.916   22.036 2219.600
  315.250    0.301    0.425   56.643   30.231 2194.780
  315.500    0.342    0.408   36.012   43.039 2124.360
  315.750    0.323    0.416   35.421   67.240 2157.570
  316.000    0.308    0.398   33.617   84.068 2182.510
  316.250    0.305    0.385   30.595   85.679 2188.770
  316.500    0.322    0.382   29.396   73.886 2159.820
  316.750    0.318    0.426   39.736   55.947 2166.080
  317.000    0.307    0.456   50.075   51.968 2184.790
  317.250    0.313    0.461   57.986   62.600 2174.480
  317.500    0.325    0.432   57.398   84.296 2153.800
  317.750    0.339    0.402   48.915  113.505 2131.060
  318.000    0.340    0.385   45.283  164.637 2129.040
  318.250    0.330    0.414   53.802  225.853 2145.690
  318.500    0.326    0.433   55.032  277.178 2151.970
  318.750    0.326    0.414   45.938  272.193 2152.000
  319.000    0.329    0.417   34.417  127.172 2147.900
  319.250    0.311    0.395   48.402   79.975 2179.040
  319.500    0.278    0.382   61.779   38.782 2235.060
  319.750    0.257    0.435   69.688   22.226 2270.350
  320.000    0.264    0.440   71.527   19.893 2257.960
  320.250    0.313    0.427   63.039   25.337 2175.110
  320.500    0.336    0.436   55.769   29.406 2135.790
  320.750    0.341    0.452   52.752   40.342 2127.550
  321.000    0.343    0.457   55.803   48.594 2123.450
  321.250    0.325    0.463   62.496   36.119 2154.590
  321.500    0.299    0.459   71.623   20.700 2198.180
  321.750    0.290    0.477   78.318   15.675 2214.810
  322.000    0.283    0.475   77.728   13.517 2225.220
  322.250    0.300    0.453   72.889   12.324 2196.260
  322.500    0.314    0.454   78.367   12.103 2173.510
  322.750    0.297    0.458   78.389   13.791 2202.600
  323.000    0.294    0.463   77.796   15.138 2206.780
  323.250    0.316    0.469   77.201   14.592 2169.530
  323.500    0.295    0.477   84.504   11.469 2204.830
  323.750    0.284    0.484   92.415    9.707 2223.520
  324.000    0.270    0.483   98.506    8.217 2248.450
  324.250    0.263    0.487  100.949    7.219 2260.930
  324.500    0.258    0.486  106.432    6.582 2269.280
  324.750    0.246    0.496  110.702    5.891 2290.060
  325.000    0.264    0.471  110.111    5.573 2259.020
  325.250    0.243    0.444  106.485    5.082 2294.310
  325.500    0.232    0.426  102.248    6.353 2313.020
  325.750    0.238    0.438   96.795    8.715 2302.710
  326.000    0.285    0.422   85.275   11.520 2221.920
  326.250    0.288    0.408   73.751   14.139 2217.840
  326.500    0.266    0.414   78.628   15.522 2255.190
  326.750    0.268    0.442   81.682   17.041 2251.100
  327.000    0.294    0.433   80.483   17.690 2207.630
  327.250    0.289    0.431   75.033   18.716 2215.980
  327.500    0.285    0.421   68.976   19.430 2222.250
  327.750    0.282    0.405   64.741   20.175 2228.520
  328.000    0.277    0.392   61.112   21.743 2236.870
  328.250    0.291    0.409   56.877   23.869 2212.030
  328.500    0.303    0.427   51.427   26.205 2191.380
  328.750    0.313    0.434   49.014   27.202 2174.850
  329.000    0.323    0.394   49.641   28.244 2158.310
  329.250    0.294    0.371   52.084   25.753 2208.100
  329.500    0.292    0.358   61.209   16.807 2210.240
  329.750    0.279    0.370   69.726   10.186 2233.090
  330.000    0.253    0.392   84.928    8.947 2276.660
  330.250    0.246    0.419   94.052    7.574 2289.170
  330.500    0.227    0.447  100.748    6.653 2322.370
  330.750    0.205    0.457  102.589    6.296 2359.730
  331.000    0.204    0.436   98.957    6.785 2361.860
  331.250    0.219    0.414   90.477    7.877 2334.970
  331.500    0.237    0.412   88.670    8.330 2303.940
  331.750    0.246    0.436   88.079    9.317 2289.470
  332.000    0.235    0.430   86.273    9.672 2308.180
  332.250    0.240    0.420   83.856   10.231 2299.950
  332.500    0.253    0.430   79.017   11.027 2277.200
  332.750    0.264    0.441   74.783   11.236 2258.600
  333.000    0.276    0.440   74.799   11.035 2237.920
  333.250    0.276    0.440   79.069   10.252 2237.970
  333.500    0.261    0.449   82.728    9.880 2262.900
  333.750    0.259    0.441   85.779    9.008 2267.090
  334.000    0.250    0.430   88.831    8.847 2281.670
  334.250    0.277    0.429   86.415    8.850 2236.100
  334.500    0.307    0.459   82.792    9.021 2184.350
  334.750    0.292    0.453   80.374    9.721 2211.340
  335.000    0.277    0.441   89.501   10.672 2236.270
  335.250    0.266    0.433  101.661   11.288 2254.980
  335.500    0.259    0.428  114.431   12.164 2267.460
  335.750    0.284    0.435  113.235   12.867 2223.990
  336.000    0.289    0.451   99.283   13.360 2215.760
  336.250    0.283    0.470   91.403   13.871 2226.170
  336.500    0.270    0.468   91.421   14.138 2249.020
  336.750    0.285    0.450   90.829   13.883 2222.130
  337.000    0.293    0.436   97.525   13.384 2209.750
  337.250    0.297    0.420  104.827   13.640 2201.500
  337.500    0.279    0.420  103.025   13.647 2232.650
  337.750    0.260    0.416   95.150   12.913 2265.870
  338.000    0.262    0.423   91.517   11.995 2261.780
  338.250    0.308    0.438   89.106   11.350 2183.060
  338.500    0.269    0.445   92.766   11.145 2249.440
  338.750    0.255    0.427   95.209   11.791 2274.370
  339.000    0.270    0.410   90.369   12.243 2247.480
  339.250    0.261    0.395   83.095   12.247 2264.110
  339.500    0.266    0.404   82.508   11.588 2255.870
  339.750    0.253    0.422   88.601   10.968 2276.650
  340.000    0.240    0.442   91.041   10.772 2299.520
  340.250    0.263    0.457   93.482   10.979 2260.180
  340.500    0.251    0.467   97.148   10.781 2280.950
  340.750    0.275    0.439   95.342   11.192 2239.560
  341.000    0.257    0.418   89.282   11.839 2270.700
  341.250    0.267    0.406   85.045   12.290 2254.180
  341.500    0.263    0.391   82.632   13.244 2260.440
  341.750    0.256    0.408   85.690   13.752 2272.930
  342.000    0.242    0.422   86.928   14.279 2295.780
  342.250    0.219    0.396   86.328   15.387    0.000
  342.500    0.196    0.380   73.588   16.892    0.000
  342.750    0.159    0.276   51.137   19.976    0.000
  343.000    0.128    0.173   39.612   24.063    0.000
  343.250    0.013    0.128   22.628   29.528    0.000
  343.500    0.014    0.146   25.678   40.504    0.000
  343.750    0.026    0.180   33.589   52.557    0.000
