~VERSION INFORMATION
 VERS.                 2.0:   CWLS LOG ASCII STANDARD -VERSION 2.0
 WRAP.                  NO:   ONE LINE PER DEPTH STEP
~WELL INFORMATION BLOCK
#MNEM.UNIT           DATA                    DESCRIPTION OF MNEMONIC
#---------    -------------------            -------------------------------
# Generated from Intellog Unique Number	CS_77_79/WELL/1003
WELL.         HOME LEISTER                   : Well_name    - WELL
LOC .         00/11-30-078-06W4/0            : Location     - LOCATION
UWI .         00/11-30-078-06W4/0            : Uwi          - UNIQUE WELL ID
ENTR.         JHS                            : Entered      - ENTERED BY
SRVC.         SCHLUMBERGER                   : Scn          - SERVICE COMPANY
STRT.M        137                            : top_depth    - START DEPTH
STOP.M        384.25                         : bot_depth    - STOP DEPTH
STEP.M        0.25                           : increment    - STEP LENGTH
 NULL. -999.2500:NULL Value
~CURVE INFORMATION BLOCK
#MNEM UNIT       ERCB CURVE CODE    CURVE DESCRIPTION
#-----------   ------------------   ----------------------------------
DEPT.M        00 001 00 00         : DEPTH        - DEPTH
DPHI.V/V      00 890 00 00         : PHID         - DENSITY POROSITY (LIMESTONE)
NPHI.V/V      00 330 00 00         : PHIN         - NEUTRON POROSITY (LIMESTONE)
GR  .API      00 310 00 00         : GR           - GAMMA RAY
ILD .OHMM     00 120 00 00         : RESD         - DEEP RESISTIVITY (DIL)
~PARAMETER INFORMATION
#MNEM.UNIT           DATA             DESCRIPTION OF MNEMONIC
#---------         -----------     ------------------------------
GL  .M        561.09               : gl           - GROUND LEVEL ELEVATION
EREF.M        564.09               : kb           - ELEVATION OF DEPTH REFERENCE
DATM.M        564.09               : datum        - DATUM ELEVATION
TDD .M        386                  : tdd          - TOTAL DEPTH DRILLER
RUN .         ONE                  : Run          - RUN NUMBER
ENG .         BILL                 : Engineer     - RECORDING ENGINEER
WIT .         JIM                  : Witness      - WITNESSED BY
MUD .         GEL                  : Mud_type     - MUD TYPE
MATR.         LIMESTONE            : Logunit      - NEUTRON MATRIX
TMAX.C        27                   : BHT          - MAXIMUM RECORDED TEMPERATURE
BHTD.M        386                  : BHTDEP       - MAXIMUM RECORDED TEMPERATURE
MATR.         1                    : LOGUNIT      - NEUTRON MATRIX
RMT .C        25                   : MDTP         - TEMPERATURE OF MUD
NEUT.         1                    : NEUTRON      - NEUTRON TYPE
RESI.         0                    : RESIST       - RESISTIVITY TYPE
RMC .OHMM     0.25                 : RMC          - RESISTIVITY OF MUD CAKE
RMF .OHMM     0.25                 : RMF          - RESISTIVITY OF MUD FILTRATE
SUFT.C        15                   : SUFT         - SURFACE TEMPERATURE
~A  DEPTH     PHID     PHIN       GR     RESD
# ...
  267.500    0.282    0.472   97.525    2.720
  267.750    0.256    0.476  104.335    2.933
  268.000    0.232    0.515  101.848    3.162
  268.250    0.226    0.534  104.321    3.473
  268.500    0.228    0.507  109.273    3.815
  268.750    0.262    0.485  105.549    4.190
  269.000    0.256    0.464   96.245    4.603
  269.250    0.248    0.443   94.999    5.055
  269.500    0.244    0.454   94.373    5.552
  269.750    0.265    0.479   95.603    5.876
  270.000    0.270    0.480   91.260    5.880
  270.250    0.280    0.466   94.351    5.776
  270.500    0.256    0.393   88.767    5.889
  270.750    0.250    0.387   86.901    6.004
  271.000    0.239    0.412   88.134    6.354
  271.250    0.244    0.442   89.987    6.980
  271.500    0.283    0.463   91.837    7.249
  271.750    0.310    0.474   88.114    7.671
  272.000    0.313    0.487   81.908    7.536
  272.250    0.241    0.481   79.423    7.401
  272.500    0.199    0.479   83.756    7.272
  272.750    0.260    0.452   84.369    7.275
  273.000    0.292    0.421   83.122    7.420
  273.250    0.278    0.443   87.454    7.423
  273.500    0.265    0.446   80.009    7.712
  273.750    0.263    0.462   83.102    7.862
  274.000    0.283    0.450   83.094    8.167
  274.250    0.292    0.444   83.708    8.326
  274.500    0.292    0.450   86.799    8.332
  274.750    0.281    0.467   89.893    8.339
  275.000    0.057    0.342   80.184    9.053
  275.250    0.079    0.328   74.523    9.576
  275.500    0.121    0.357   78.802    9.943
  275.750    0.233    0.404   79.979    9.944
  276.000    0.264    0.415   83.631    9.581
  276.250    0.285    0.440   87.915    9.232
  276.500    0.277    0.441   86.610    8.730
  276.750    0.286    0.444   80.950    8.411
  277.000    0.292    0.409   83.990    7.808
  277.250    0.273    0.378   84.531    7.523
  277.500    0.266    0.369   91.933    7.385
  277.750    0.271    0.410   98.697    7.249
  278.000    0.261    0.428   99.251    7.116
  278.250    0.254    0.411   92.957    7.118
  278.500    0.237    0.388   91.643    6.987
  278.750    0.232    0.397   98.426    6.988
  279.000    0.229    0.414  101.453    6.860
  279.250    0.226    0.429  100.154    6.734
  279.500    0.235    0.440  103.183    6.611
  279.750    0.232    0.459  101.256    6.737
  280.000    0.237    0.472   95.594    6.865
  280.250    0.246    0.451   93.040    6.866
  280.500    0.250    0.438   86.130    7.129
  280.750    0.260    0.472   82.332    7.401
  281.000    0.274    0.479   83.489    7.542
  281.250    0.287    0.468   82.202    7.543
  281.500    0.281    0.417   90.214    7.545
  281.750    0.262    0.438   95.731    7.406
  282.000    0.268    0.449   95.042    7.136
  282.250    0.256    0.413   96.836    6.875
  282.500    0.239    0.422  100.495    6.625
  282.750    0.236    0.465  102.923    6.149
  283.000    0.230    0.497  103.468    5.924
  283.250    0.246    0.485   94.698    5.499
  283.500    0.257    0.418   95.881    5.398
  283.750    0.232    0.401  100.158    5.299
  284.000    0.247    0.438   96.365    5.300
  284.250    0.257    0.468  101.250    5.107
  284.500    0.247    0.494   98.081    4.921
  284.750    0.257    0.503  101.752    4.741
  285.000    0.248    0.483  100.442    4.654
  285.250    0.260    0.492   88.555    4.742
  285.500    0.285    0.513   82.273    5.306
  285.750    0.302    0.456   75.993    5.718
  286.000    0.312    0.424   77.157    6.397
  286.250    0.306    0.427   73.970    6.767
  286.500    0.305    0.434   77.021    6.895
  286.750    0.305    0.429   83.800    6.896
  287.000    0.303    0.423   78.119    6.770
  287.250    0.300    0.439   78.061    6.646
  287.500    0.291    0.461   82.961    6.524
  287.750    0.270    0.487   89.726    6.286
  288.000    0.226    0.412   95.255    5.727
  288.250    0.245    0.413  101.406    5.316
  288.500    0.269    0.467   97.600    5.122
  288.750    0.269    0.496   92.569    5.219
  289.000    0.268    0.473   91.255    5.419
  289.250    0.267    0.451   86.832    5.731
  289.500    0.255    0.488   84.284    6.177
  289.750    0.242    0.493   99.127    6.413
  290.000    0.241    0.442  100.914    6.658
  290.250    0.242    0.408  101.482    6.536
  290.500    0.231    0.434  100.163    6.298
  290.750    0.231    0.428   92.641    6.299
  291.000    0.247    0.416   85.736    6.419
  291.250    0.267    0.427   83.183    6.541
  291.500    0.283    0.455   81.252    6.919
  291.750    0.277    0.471   76.196    7.183
  292.000    0.273    0.442   72.396    7.320
  292.250    0.281    0.385   78.553    7.459
  292.500    0.270    0.359   80.978    7.460
  292.750    0.263    0.397   75.297    7.602
  293.000    0.143    0.375   71.507    7.746
  293.250    0.173    0.369   68.333    7.748
  293.500    0.217    0.366   82.563    6.928
  293.750    0.233    0.376   90.578    6.080
  294.000    0.249    0.373   92.359    4.952
  294.250    0.270    0.417   96.653    4.187
  294.500    0.237    0.459  112.129    3.814
  294.750    0.222    0.515  134.440    3.887
  295.000    0.252    0.551  122.555    3.961
  295.250    0.258    0.569  106.949    4.349
  295.500    0.244    0.504   97.556    4.775
  295.750    0.244    0.426   94.379    5.147
  296.000    0.243    0.416   98.038    5.651
  296.250    0.232    0.444  101.687    5.867
  296.500    0.230    0.458  100.383    5.868
  296.750    0.231    0.479   96.595    5.761
  297.000    0.226    0.428   95.269    5.870
  297.250    0.215    0.398   99.563    5.982
  297.500    0.220    0.381  103.225    6.211
  297.750    0.239    0.401  101.276    6.212
  298.000    0.247    0.428   99.351    5.985
  298.250    0.262    0.399   93.694    5.453
  298.500    0.245    0.416   93.625    5.253
  298.750    0.220    0.449   92.927    4.968
  299.000    0.210    0.480   90.380    4.698
  299.250    0.226    0.518   89.685    3.972
  299.500    0.243    0.536   89.616    3.296
  299.750    0.257    0.505   88.928    2.893
  300.000    0.288    0.423   91.339    2.539
  300.250    0.304    0.440   91.275    2.357
  300.500    0.298    0.482   87.478    2.229
  300.750    0.273    0.472   86.169    2.229
  301.000    0.277    0.453   85.482    2.314
  301.250    0.269    0.468   83.541    2.403
  301.500    0.261    0.521   84.710    2.403
  301.750    0.274    0.552   80.295    2.359
  302.000    0.296    0.582   87.687    2.316
  302.250    0.291    0.479   90.730    2.360
  302.500    0.277    0.446   99.976    2.405
  302.750    0.261    0.450   96.799    2.544
  303.000    0.256    0.503   89.273    2.741
  303.250    0.272    0.536   82.982    2.954
  303.500    0.242    0.505   84.794    3.305
  303.750    0.235    0.446   95.901    3.698
  304.000    0.257    0.429   97.086    4.137
  304.250    0.232    0.483   96.390    4.376
  304.500    0.229    0.501   93.206    4.629
  304.750    0.220    0.413   91.911    4.988
  305.000    0.213    0.377   90.575    5.083
  305.250    0.239    0.422   89.287    4.807
  305.500    0.220    0.445   97.299    4.546
  305.750    0.260    0.463  100.954    4.299
  306.000    0.259    0.491   95.902    4.066
  306.250    0.243    0.490   92.106    3.845
  306.500    0.230    0.522   95.769    3.846
  306.750    0.226    0.508   98.195    3.846
  307.000    0.238    0.461  101.231    3.847
  307.250    0.233    0.433  107.388    3.847
  307.500    0.229    0.443  106.692    3.777
  307.750    0.212    0.460  102.263    3.708
  308.000    0.216    0.472   99.718    3.572
  308.250    0.220    0.463  100.240    3.442
  308.500    0.225    0.468  102.679    3.442
  308.750    0.223    0.486  105.107    3.380
  309.000    0.226    0.499  106.896    3.318
  309.250    0.239    0.429  106.214    3.318
  309.500    0.230    0.442  107.390    3.381
  309.750    0.233    0.458  103.583    3.577
  310.000    0.234    0.494  101.022    3.783
  310.250    0.242    0.490  102.833    4.002
  310.500    0.242    0.547   95.300    4.313
  310.750    0.229    0.435   89.013    4.825
