~VERSION INFORMATION
 VERS.                 2.0:   CWLS LOG ASCII STANDARD -VERSION 2.0
 WRAP.                  NO:   ONE LINE PER DEPTH STEP
~WELL INFORMATION BLOCK
#MNEM.UNIT           DATA                    DESCRIPTION OF MNEMONIC
#---------    -------------------            -------------------------------
# Generated from Intellog Unique Number	CS_71_72/WELL/901
WELL.         AQUITAINE COMPANY              : Well_name    - WELL
LOC .         00/11-19-071-18W4/0            : Location     - LOCATION
UWI .         00/11-19-071-18W4/0            : Uwi          - UNIQUE WELL ID
ENTR.         SP                             : Entered      - ENTERED BY
SRVC.         SCHLUMBERGER                   : Scn          - SERVICE COMPANY
STRT.M        250                            : top_depth    - START DEPTH
STOP.M        490                            : bot_depth    - STOP DEPTH
STEP.M        0.25                           : increment    - STEP LENGTH
 NULL. -999.2500:NULL Value
~CURVE INFORMATION BLOCK
#MNEM UNIT       ERCB CURVE CODE    CURVE DESCRIPTION
#-----------   ------------------   ----------------------------------
DEPT.M        00 001 00 00         : DEPTH        - DEPTH
ILD .OHMM     00 120 00 00         : RESD         - DEEP RESISTIVITY (DIL)
DPHI.V/V      00 890 00 00         : PHID         - DENSITY POROSITY (LIMESTONE)
NPHI.V/V      00 330 00 00         : PHIN         - NEUTRON POROSITY (LIMESTONE)
GR  .API      00 310 00 00         : GR           - GAMMA RAY
~PARAMETER INFORMATION
#MNEM.UNIT           DATA             DESCRIPTION OF MNEMONIC
#---------         -----------     ------------------------------
GL  .M        573                  : gl           - GROUND LEVEL ELEVATION
EREF.M        575                  : kb           - ELEVATION OF DEPTH REFERENCE
DATM.M        573                  : datum        - DATUM ELEVATION
TDD .M        492                  : tdd          - TOTAL DEPTH DRILLER
RUN .         ONE                  : Run          - RUN NUMBER
ENG .         BILL                 : Engineer     - RECORDING ENGINEER
WIT .         JIM                  : Witness      - WITNESSED BY
MUD .         GEL                  : Mud_type     - MUD TYPE
MATR.         LIMESTONE            : Logunit      - NEUTRON MATRIX
TMAX.C        18                   : BHT          - MAXIMUM RECORDED TEMPERATURE
BHTD.M        492                  : BHTDEP       - MAXIMUM RECORDED TEMPERATURE
MATR.         0                    : LOGUNIT      - NEUTRON MATRIX
RMT .C        25                   : MDTP         - TEMPERATURE OF MUD
NEUT.         1                    : NEUTRON      - NEUTRON TYPE
RESI.         0                    : RESIST       - RESISTIVITY TYPE
RMC .OHMM     0.25                 : RMC          - RESISTIVITY OF MUD CAKE
RMF .OHMM     0.25                 : RMF          - RESISTIVITY OF MUD FILTRATE
SUFT.C        15                   : SUFT         - SURFACE TEMPERATURE
~A  DEPTH     RESD     PHID     PHIN       GR
  250.000    3.847    0.175    0.475   97.041
  250.250    3.949    0.168    0.455   96.205
  250.500    3.904    0.171    0.429   94.823
  250.750    3.985    0.173    0.421   94.348
  251.000    4.037    0.169    0.420  101.180
  251.250    4.036    0.162    0.421  106.020
  251.500    3.983    0.162    0.432  106.813
  251.750    3.908    0.168    0.444  101.870
  252.000    3.907    0.158    0.453   98.376
  252.250    4.003    0.148    0.463   95.123
  252.500    4.148    0.154    0.458   97.970
  252.750    4.307    0.167    0.449  100.454
  253.000    4.388    0.181    0.439   95.571
  253.250    4.387    0.170    0.417   91.473
  253.500    4.362    0.161    0.404   90.093
  253.750    4.224    0.170    0.394   92.093
  254.000    4.121    0.177    0.389   97.959
  254.250    4.051    0.183    0.388  105.335
  254.500    3.997    0.176    0.385  110.054
  254.750    4.004    0.173    0.384  106.498
  255.000    4.071    0.178    0.402  103.487
  255.250    4.002    0.183    0.415  104.402
  255.500    3.897    0.186    0.425  105.015
  255.750    3.788    0.182    0.438  104.842
  256.000    3.724    0.175    0.460  107.747
  256.250    3.787    0.177    0.501  105.884
  256.500    4.520    0.187    0.452  102.149
  256.750    5.570    0.198    0.393   95.816
  257.000    7.430    0.212    0.372   85.136
  257.250    9.800    0.226    0.355   64.915
  257.500   11.222    0.213    0.327   35.696
  257.750   11.940    0.178    0.312   27.432
  258.000   12.349    0.169    0.317   27.379
  258.250   12.511    0.192    0.311   27.026
  258.500   12.415    0.196    0.308   26.431
  258.750   12.067    0.179    0.319   25.593
  259.000   11.553    0.164    0.327   24.031
  259.250   10.978    0.193    0.343   22.230
  259.500   10.471    0.230    0.365   21.270
  259.750    9.618    0.262    0.383   19.950
  260.000    8.935    0.272    0.369   18.752
  260.250    8.458    0.255    0.362   24.738
  260.500    8.022    0.247    0.356   33.925
  260.750    7.739    0.242    0.352   38.220
  261.000    7.565    0.237    0.353   41.247
  261.250    7.592    0.240    0.369   37.694
  261.500    7.691    0.245    0.366   34.501
  261.750    7.763    0.244    0.370   39.280
  262.000    7.718    0.245    0.357   40.859
  262.250    7.544    0.241    0.352   41.653
  262.500    7.305    0.234    0.352   41.721
  262.750    6.928    0.226    0.354   41.608
  263.000    6.558    0.213    0.359   42.703
  263.250    6.209    0.205    0.376   45.972
  263.500    6.057    0.199    0.393   47.852
  263.750    5.988    0.194    0.393   47.921
  264.000    6.021    0.190    0.397   47.748
  264.250    6.239    0.186    0.397   50.595
  264.500    6.539    0.197    0.388   54.830
  264.750    6.776    0.205    0.379   50.188
  265.000    7.062    0.213    0.409   43.857
  265.250    7.290    0.207    0.413   39.154
  265.500    7.470    0.198    0.402   52.689
  265.750    7.639    0.200    0.416   57.891
  266.000    7.711    0.227    0.418   52.102
  266.250    7.637    0.242    0.402   43.053
  266.500    7.465    0.242    0.388   36.358
  266.750    7.255    0.237    0.383   32.864
  267.000    6.999    0.228    0.368   40.360
  267.250    6.714    0.223    0.365   44.595
  267.500    6.563    0.219    0.371   45.811
  267.750    6.904    0.216    0.367   49.202
  268.000    7.047    0.213    0.370   50.055
  268.250    6.927    0.214    0.377   46.441
  268.500    6.558    0.223    0.383   42.343
  268.750    6.243    0.210    0.377   40.116
  269.000    5.966    0.189    0.387   44.051
  269.250    5.669    0.193    0.398   51.365
  269.500    5.418    0.202    0.410   61.035
  269.750    5.266    0.206    0.412   61.949
  270.000    5.157    0.205    0.423   58.455
  270.250    5.354    0.209    0.396   55.444
  270.500    4.974    0.205    0.407   58.774
  270.750    4.475    0.204    0.420   63.614
  271.000    4.189    0.210    0.428   66.459
  271.250    4.117    0.218    0.424   70.997
  271.500    4.283    0.220    0.413   75.413
  271.750    4.438    0.214    0.405   73.429
  272.000    4.625    0.207    0.399   71.927
  272.250    4.703    0.206    0.398   70.184
  272.500    4.667    0.220    0.401   68.139
  272.750    4.579    0.218    0.400   64.222
  273.000    4.327    0.208    0.394   58.856
  273.250    4.190    0.199    0.403   71.365
  273.500    3.922    0.193    0.418   74.815
  273.750    3.848    0.194    0.427   72.287
  274.000    3.761    0.206    0.428   68.672
  274.250    3.567    0.209    0.421   65.722
  274.500    3.371    0.200    0.416   65.911
  274.750    3.131    0.195    0.427   80.291
  275.000    2.959    0.189    0.442   85.674
  275.250    2.843    0.191    0.453   88.219
  275.500    2.779    0.194    0.464   88.650
  275.750    2.795    0.204    0.472   86.182
  276.000    2.874    0.213    0.467   82.325
  276.250    3.058    0.216    0.457   78.590
  276.500    3.303    0.221    0.442   75.037
  276.750    3.649    0.222    0.421   74.681
  277.000    4.070    0.191    0.401   74.086
  277.250    4.438    0.156    0.394   69.263
  277.500    4.686    0.115    0.381   61.965
  277.750    4.893    0.144    0.376   55.753
  278.000    5.032    0.178    0.382   51.656
  278.250    5.069    0.217    0.388   54.019
  278.500    4.974    0.232    0.394   58.557
  278.750    4.735    0.235    0.400   63.819
  279.000    4.483    0.234    0.413   69.805
  279.250    4.268    0.230    0.432   76.154
  279.500    4.063    0.226    0.442   81.839
  279.750    3.875    0.220    0.436   84.866
  280.000    3.724    0.215    0.430   83.787
  280.250    3.559    0.211    0.436   82.165
  280.500    3.479    0.207    0.431   80.603
  280.750    3.446    0.204    0.436   80.974
  281.000    3.451    0.196    0.444   81.828
  281.250    3.483    0.187    0.451   82.440
  281.500    3.489    0.184    0.461   84.078
  281.750    3.463    0.183    0.474   86.985
  282.000    3.404    0.184    0.486   89.531
  282.250    3.340    0.193    0.496   89.357
  282.500    3.258    0.197    0.492   88.338
  282.750    3.173    0.194    0.481   87.623
  283.000    3.078    0.189    0.480   86.303
  283.250    3.020    0.183    0.483   82.930
  283.500    2.941    0.193    0.471   79.435
  283.750    2.924    0.198    0.464   75.579
  284.000    2.912    0.206    0.469   75.346
  284.250    2.917    0.211    0.461   78.675
  284.500    2.950    0.210    0.453   82.247
  284.750    3.034    0.213    0.452   84.609
  285.000    3.080    0.214    0.465   86.550
  285.250    3.126    0.209    0.476   83.841
  285.500    3.137    0.204    0.494   81.011
  285.750    3.113    0.201    0.542   79.449
  286.000    3.060    0.205    0.567   83.202
  286.250    2.986    0.211    0.570   84.236
  286.500    2.869    0.210    0.554   80.260
  286.750    2.794    0.205    0.546   76.946
  287.000    2.695    0.197    0.539   75.686
  287.250    2.625    0.185    0.506   78.895
  287.500    2.566    0.180    0.487   80.716
  287.750    2.541    0.187    0.480   81.026
  288.000    2.526    0.207    0.480   80.310
  288.250    2.516    0.220    0.490   79.897
  288.500    2.502    0.227    0.516   79.601
  288.750    2.506    0.229    0.541   79.308
  289.000    2.524    0.218    0.578   79.255
  289.250    2.562    0.213    0.557   79.023
  289.500    2.660    0.210    0.552   79.634
  289.750    2.726    0.188    0.528   81.877
  290.000    2.798    0.095    0.480   82.732
  290.250    2.835    0.070    0.440   79.962
  290.500    2.834    0.115    0.464   78.158
  290.750    2.786    0.157    0.487   78.649
  291.000    2.786    0.206    0.498   80.529
  291.250    2.801    0.226    0.495   82.290
  291.500    2.843    0.223    0.490   80.667
  291.750    2.880    0.211    0.509   77.112
  292.000    2.918    0.202    0.488   78.389
  292.250    2.934    0.197    0.474   83.350
  292.500    2.950    0.201    0.472   86.921
  292.750    2.955    0.206    0.459   88.981
  293.000    2.955    0.197    0.452   87.722
  293.250    2.977    0.188    0.450   87.188
