~VERSION INFORMATION
 VERS.                 2.0:   CWLS LOG ASCII STANDARD -VERSION 2.0
 WRAP.                  NO:   ONE LINE PER DEPTH STEP
~WELL INFORMATION BLOCK
#MNEM.UNIT           DATA                    DESCRIPTION OF MNEMONIC
#---------    -------------------            -------------------------------
# Generated from Intellog Unique Number	CS_67_68/WELL/820
WELL.         DOME PETROLEUM LIMITED         : Well_name    - WELL
LOC .         00/11-08-068-01W4/0            : Location     - LOCATION
UWI .         00/11-08-068-01W4/0            : Uwi          - UNIQUE WELL ID
ENTR.         SP                             : Entered      - ENTERED BY
SRVC.         SCHLUMBERGER                   : Scn          - SERVICE COMPANY
STRT.M        380                            : top_depth    - START DEPTH
STOP.M        635                            : bot_depth    - STOP DEPTH
STEP.M        0.25                           : increment    - STEP LENGTH
 NULL. -999.2500:NULL Value
~CURVE INFORMATION BLOCK
#MNEM UNIT       ERCB CURVE CODE    CURVE DESCRIPTION
#-----------   ------------------   ----------------------------------
DEPT.M        00 001 00 00         : DEPTH        - DEPTH
ILD .OHMM     00 120 00 00         : RESD         - DEEP RESISTIVITY (DIL)
DPHI.V/V      00 890 00 00         : PHID         - DENSITY POROSITY (LIMESTONE)
NPHI.V/V      00 330 00 00         : PHIN         - NEUTRON POROSITY (LIMESTONE)
GR  .API      00 310 00 00         : GR           - GAMMA RAY
~PARAMETER INFORMATION
#MNEM.UNIT           DATA             DESCRIPTION OF MNEMONIC
#---------         -----------     ------------------------------
GL  .M        665.82               : gl           - GROUND LEVEL ELEVATION
EREF.M        669.7                : kb           - ELEVATION OF DEPTH REFERENCE
DATM.M        665.82               : datum        - DATUM ELEVATION
TDD .M        634                  : tdd          - TOTAL DEPTH DRILLER
RUN .         ONE                  : Run          - RUN NUMBER
ENG .         BILL                 : Engineer     - RECORDING ENGINEER
WIT .         JIM                  : Witness      - WITNESSED BY
MUD .         GEL                  : Mud_type     - MUD TYPE
MATR.         LIMESTONE            : Logunit      - NEUTRON MATRIX
TMAX.C        25                   : BHT          - MAXIMUM RECORDED TEMPERATURE
BHTD.M        636                  : BHTDEP       - MAXIMUM RECORDED TEMPERATURE
MATR.         1                    : LOGUNIT      - NEUTRON MATRIX
RMT .C        25                   : MDTP         - TEMPERATURE OF MUD
NEUT.         1                    : NEUTRON      - NEUTRON TYPE
RESI.         0                    : RESIST       - RESISTIVITY TYPE
RMC .OHMM     0.25                 : RMC          - RESISTIVITY OF MUD CAKE
RMF .OHMM     0.25                 : RMF          - RESISTIVITY OF MUD FILTRATE
SUFT.C        15                   : SUFT         - SURFACE TEMPERATURE
~A  DEPTH     RESD     PHID     PHIN       GR
# ...
  423.500   13.101    0.357    0.388   54.203
  423.750   12.829    0.361    0.392   65.825
  424.000   12.564    0.369    0.392   69.036
  424.250   12.257    0.372    0.390   70.772
  424.500   12.187    0.373    0.391   72.630
  424.750   12.184    0.376    0.398   75.108
  425.000   12.135    0.365    0.397   76.840
  425.250   12.131    0.346    0.386   79.191
  425.500   12.061    0.336    0.379   80.558
  425.750   11.944    0.332    0.372   79.409
  426.000   11.897    0.333    0.366   78.137
  426.250   11.717    0.332    0.393   81.101
  426.500   11.561    0.315    0.405   84.497
  426.750   11.259    0.301    0.411   87.398
  427.000   10.821    0.292    0.409   91.161
  427.250   11.423    0.287    0.415   94.248
  427.500   11.549    0.283    0.419   96.230
  427.750   11.184    0.286    0.416   97.844
  428.000   10.749    0.294    0.410   94.668
  428.250   10.331    0.278    0.410  100.459
  428.500   10.061    0.266    0.428  104.895
  428.750    9.890    0.259    0.437  106.630
  429.000    9.758    0.253    0.440  104.439
  429.250    9.683    0.249    0.445  102.923
  429.500    9.680    0.237    0.448  103.675
  429.750    9.732    0.202    0.460  104.797
  430.000    9.657    0.221    0.451  105.739
  430.250    9.369    0.238    0.444  105.813
  430.500    8.887    0.246    0.439  106.506
  430.750    9.054    0.258    0.432  106.338
  431.000    9.557    0.276    0.423  105.006
  431.250    9.976    0.272    0.425  101.400
  431.500   10.258    0.267    0.449   97.856
  431.750   10.687    0.281    0.440   95.355
  432.000   10.949    0.315    0.424   93.162
  432.250   10.844    0.320    0.406   97.418
  432.500   10.700    0.310    0.398  100.196
  432.750   10.264    0.303    0.414  103.162
  433.000    9.959    0.304    0.426  104.038
  433.250    9.589    0.303    0.430  106.327
  433.500    9.356    0.298    0.424  110.089
  433.750    9.266    0.298    0.421  109.616
  434.000    9.439    0.301    0.426  104.475
  434.250    9.706    0.307    0.413  100.626
  434.500    9.925    0.301    0.404  103.714
  434.750   10.224    0.304    0.407  107.660
  435.000   10.454    0.307    0.415  109.763
  435.250   10.729    0.302    0.419  110.332
  435.500   10.972    0.294    0.417  111.455
  435.750   11.177    0.293    0.419  112.577
  436.000   11.237    0.298    0.423  113.086
  436.250   11.234    0.303    0.424  106.717
  436.500   10.960    0.308    0.420  101.025
  436.750   10.574    0.311    0.416   98.034
  437.000   10.650    0.305    0.413  100.813
  437.250   10.952    0.297    0.423  103.903
  437.500   11.261    0.313    0.437   97.041
  437.750   11.386    0.323    0.439   89.567
  438.000   11.213    0.304    0.435   99.102
  438.250   10.479    0.291    0.434  107.043
  438.500    9.016    0.283    0.426  107.854
  438.750    7.700    0.273    0.417  109.345
  439.000    6.712    0.249    0.428  117.407
  439.250    6.686    0.249    0.457  125.651
  439.500    7.898    0.255    0.473  133.649
  439.750    9.021    0.251    0.471  118.256
  440.000   10.285    0.239    0.455   99.301
  440.250   11.528    0.260    0.423   84.029
  440.500   12.707    0.274    0.425   85.032
  440.750   13.875    0.266    0.444   90.757
  441.000   14.267    0.265    0.447   84.020
  441.250   14.561    0.285    0.428   73.969
  441.500   14.805    0.301    0.405   66.678
  441.750   14.717    0.256    0.370   74.187
  442.000   14.523    0.245    0.355   85.747
  442.250   14.143    0.278    0.355   88.220
  442.500   13.669    0.306    0.349   64.416
  442.750   13.640    0.321    0.348   55.406
  443.000   14.291    0.331    0.355   48.669
  443.250   14.861    0.340    0.367   44.820
  443.500   15.168    0.350    0.371   43.362
  443.750   15.509    0.357    0.364   48.540
  444.000   15.858    0.361    0.359   54.632
  444.250   16.063    0.360    0.361   60.359
  444.500   16.090    0.358    0.370   62.097
  444.750   15.905    0.357    0.371   55.114
  445.000   15.783    0.358    0.364   48.992
  445.250   15.543    0.358    0.371   50.359
  445.500   15.482    0.348    0.363   47.861
  445.750   15.419    0.330    0.360   50.456
  446.000   15.185    0.322    0.369   58.270
  446.250   14.788    0.306    0.366   63.936
  446.500   14.401    0.296    0.358   65.058
  446.750   14.025    0.290    0.355   66.366
  447.000   13.429    0.286    0.358   67.978
  447.250   13.654    0.290    0.377   70.083
  447.500   13.728    0.294    0.403   72.004
  447.750   13.776    0.290    0.398   70.918
  448.000   13.824    0.287    0.390   66.759
  448.250   13.847    0.287    0.387   63.154
  448.500   13.843    0.289    0.386   60.899
  448.750   13.943    0.289    0.383   59.995
  449.000   14.284    0.288    0.378   63.820
  449.250   13.273    0.288    0.374   72.862
  449.500   12.241    0.289    0.372   85.220
  449.750   10.997    0.272    0.388   95.674
  450.000   11.223    0.277    0.405   97.842
  450.250   11.826    0.286    0.415   93.560
  450.500   12.344    0.296    0.415   79.209
  450.750   12.645    0.300    0.411   74.131
  451.000   12.063    0.284    0.417   73.473
  451.250   10.555    0.266    0.422   78.955
  451.500    9.864    0.258    0.425   86.464
  451.750    9.269    0.248    0.434   94.893
  452.000    8.678    0.241    0.444  101.909
  452.250    7.928    0.253    0.449  107.881
  452.500    7.606    0.262    0.452  110.292
  452.750    8.383    0.263    0.438  110.680
  453.000    9.258    0.259    0.414  112.478
  453.250   10.146    0.253    0.404  114.151
  453.500   10.771    0.253    0.398  108.950
  453.750   11.392    0.259    0.395  101.660
  454.000   12.208    0.258    0.392   95.845
  454.250   13.058    0.291    0.388   87.818
  454.500   13.655    0.317    0.380   76.784
  454.750   14.093    0.327    0.359   68.943
  455.000   13.829    0.309    0.342   71.230
  455.250   13.142    0.282    0.329   77.146
  455.500   12.703    0.264    0.336   80.230
  455.750   12.370    0.253    0.347   80.554
  456.000   12.160    0.265    0.351   80.449
  456.250   12.202    0.282    0.356   80.895
  456.500   12.338    0.274    0.372   83.860
  456.750   12.312    0.264    0.378   84.736
  457.000   12.147    0.266    0.366   76.406
  457.250   11.852    0.272    0.354   74.026
  457.500   10.992    0.272    0.348   77.482
  457.750   10.506    0.276    0.360   83.392
  458.000   10.347    0.305    0.395   90.778
  458.250   10.659    0.349    0.441   99.271
  458.500   10.616    0.358    0.485   94.865
  458.750    9.736    0.348    0.419   76.159
  459.000    8.206    0.333    0.394   69.541
  459.250    7.331    0.337    0.396   79.383
  459.500    7.637    0.378    0.444   90.145
  459.750    8.450    0.407    0.526   86.296
  460.000    9.331    0.394    0.480   76.303
  460.250   10.036    0.360    0.454   72.452
  460.500   10.897    0.338    0.409   71.734
  460.750   11.396    0.317    0.392   69.539
  461.000   11.696    0.325    0.408   67.042
  461.250   11.870    0.328    0.424   67.610
  461.500   12.343    0.330    0.418   71.064
  461.750   12.527    0.334    0.401   70.529
  462.000   12.930    0.341    0.390   68.216
  462.250   13.420    0.351    0.383   66.144
  462.500   13.722    0.355    0.379   64.197
  462.750   14.110    0.355    0.376   62.923
  463.000   14.320    0.351    0.379   62.389
  463.250   14.479    0.347    0.382   62.713
  463.500   14.476    0.345    0.396   63.588
  463.750   14.256    0.347    0.416   63.977
  464.000   13.651    0.349    0.425   64.424
  464.250   12.590    0.340    0.405   65.302
  464.500   11.742    0.314    0.393   67.588
  464.750   11.521    0.294    0.399   71.841
  465.000   11.605    0.284    0.401   76.095
  465.250   12.436    0.293    0.394   75.686
  465.500   12.981    0.317    0.389   70.972
  465.750   13.002    0.331    0.387   62.823
  466.000   12.685    0.333    0.388   68.182
  466.250   12.635    0.328    0.402   70.534
  466.500   12.703    0.327    0.421   71.042
  466.750   12.747    0.331    0.415   70.693
