~VERSION INFORMATION
 VERS.                 2.0:   CWLS LOG ASCII STANDARD -VERSION 2.0
 WRAP.                  NO:   ONE LINE PER DEPTH STEP
~WELL INFORMATION BLOCK
#MNEM.UNIT           DATA                    DESCRIPTION OF MNEMONIC
#---------    -------------------            -------------------------------
# Generated from Intellog Unique Number	CS_73_76/WELL/3251
WELL.         10-32-076-08W4                 : Well_name    - WELL
LOC .         00/10-32-076-08W4/0            : Location     - LOCATION
UWI .         00/10-32-076-08W4/0            : Uwi          - UNIQUE WELL ID
ENTR.         SP                             : Entered      - ENTERED BY
SRVC.         SCHLUMBERGER                   : Scn          - SERVICE COMPANY
STRT.M        198.12                         : top_depth    - START DEPTH
STOP.M        426.37                         : bot_depth    - STOP DEPTH
STEP.M        0.25                           : increment    - STEP LENGTH
 NULL. -999.2500:NULL Value
~CURVE INFORMATION BLOCK
#MNEM UNIT       ERCB CURVE CODE    CURVE DESCRIPTION
#-----------   ------------------   ----------------------------------
DEPT.M        00 001 00 00         : DEPTH        - DEPTH
GR  .API      00 310 00 00         : GR           - GAMMA RAY
DPHI.V/V      00 890 00 00         : PHID         - DENSITY POROSITY (SANDSTONE)
NPHI.V/V      00 330 00 00         : PHIN         - NEUTRON POROSITY (SANDSTONE)
ILD .OHMM     00 120 00 00         : RESD         - DEEP RESISTIVITY (DIL)
~PARAMETER INFORMATION
#MNEM.UNIT           DATA             DESCRIPTION OF MNEMONIC
#---------         -----------     ------------------------------
GL  .M        615.696              : gl           - GROUND LEVEL ELEVATION
EREF.M        618.134              : kb           - ELEVATION OF DEPTH REFERENCE
DATM.M        615.696              : datum        - DATUM ELEVATION
TDD .M        426.72               : tdd          - TOTAL DEPTH DRILLER
RUN .         ONE                  : Run          - RUN NUMBER
ENG .         BILL                 : Engineer     - RECORDING ENGINEER
WIT .         JIM                  : Witness      - WITNESSED BY
MUD .         GEL                  : Mud_type     - MUD TYPE
MATR.         SANDSTONE            : Logunit      - NEUTRON MATRIX
TMAX.C        13.3333              : BHT          - MAXIMUM RECORDED TEMPERATURE
BHTD.M        426.72               : BHTDEP       - MAXIMUM RECORDED TEMPERATURE
MATR.         1                    : LOGUNIT      - NEUTRON MATRIX
RMT .C        25                   : MDTP         - TEMPERATURE OF MUD
NEUT.         1                    : NEUTRON      - NEUTRON TYPE
RESI.         0                    : RESIST       - RESISTIVITY TYPE
RMC .OHMM     0.25                 : RMC          - RESISTIVITY OF MUD CAKE
RMF .OHMM     0.25                 : RMF          - RESISTIVITY OF MUD FILTRATE
SUFT.C        15                   : SUFT         - SURFACE TEMPERATURE
~A  DEPTH       GR     PHID     PHIN     RESD
# ...
  241.620  127.277    0.250    0.505    7.885
  241.870  117.009    0.255    0.515    8.650
  242.120  106.479    0.259    0.507    9.487
  242.370  101.232    0.280    0.505   10.175
  242.620  101.713    0.278    0.511   10.742
  242.870  103.407    0.264    0.495   10.742
  243.120  103.945    0.232    0.488   10.727
  243.370  107.360    0.207    0.465   11.120
  243.620  111.578    0.264    0.453   11.587
  243.870  112.490    0.272    0.445   12.042
  244.120  107.387    0.258    0.454   12.421
  244.370  103.492    0.275    0.467   12.835
  244.620  104.086    0.286    0.468   12.664
  244.870  104.372    0.293    0.465   12.167
  245.120  106.558    0.281    0.454   11.279
  245.370  110.498    0.264    0.452   10.767
  245.620  112.871    0.255    0.459   10.541
  245.870  113.679    0.243    0.465   11.057
  246.120  107.009    0.235    0.479   11.585
  246.370  103.547    0.235    0.493   12.577
  246.620   97.905    0.250    0.483   13.488
  246.870   88.377    0.255    0.459   14.161
  247.120   82.025    0.270    0.432   14.336
  247.370   75.891    0.254    0.420   14.500
  247.620   75.502    0.260    0.425   14.758
  247.870   76.565    0.252    0.426   14.756
  248.120   78.233    0.232    0.422   14.765
  248.370   80.808    0.238    0.427   15.232
  248.620   80.732    0.244    0.424   15.704
  248.870   78.101    0.233    0.420   16.178
  249.120   76.474    0.241    0.415   16.803
  249.370   75.243    0.248    0.415   17.193
  249.620   73.977    0.241    0.414   17.732
  249.870   71.813    0.254    0.406   17.939
  250.120   68.879    0.256    0.400   18.133
  250.370   66.960    0.264    0.404   18.404
  250.620   65.681    0.274    0.410   18.767
  250.870   65.062    0.262    0.420   19.132
  251.120   63.468    0.265    0.423   19.398
  251.370   62.501    0.274    0.424   19.471
  251.620   62.189    0.293    0.420   19.488
  251.870   62.130    0.298    0.423   19.493
  252.120   62.999    0.275    0.419   19.500
  252.370   63.323    0.284    0.418   19.505
  252.620   63.976    0.294    0.419   19.511
  252.870   64.004    0.285    0.414   19.517
  253.120   65.003    0.294    0.425   19.523
  253.370   65.983    0.299    0.432   19.526
  253.620   66.155    0.296    0.430   19.523
  253.870   65.145    0.293    0.433   19.840
  254.120   64.011    0.306    0.427   19.863
  254.370   62.075    0.299    0.426   20.298
  254.620   63.583    0.305    0.426   20.290
  254.870   64.835    0.291    0.440   20.416
  255.120   65.585    0.283    0.442   20.671
  255.370   64.092    0.284    0.429   20.937
  255.620   61.611    0.287    0.419   21.063
  255.870   60.828    0.298    0.415   21.059
  256.120   62.498    0.307    0.415   21.514
  256.370   62.715    0.312    0.422   21.544
  256.620   63.210    0.320    0.422   21.890
  256.870   64.679    0.327    0.428   21.886
  257.120   66.281    0.297    0.439   21.889
  257.370   68.348    0.298    0.439   21.906
  257.620   68.846    0.308    0.433   22.059
  257.870   68.425    0.329    0.435   22.306
  258.120   67.372    0.318    0.443   22.632
  258.370   67.227    0.308    0.445   22.863
  258.620   67.800    0.314    0.432   23.158
  258.870   70.429    0.323    0.422   23.587
  259.120   72.660    0.325    0.417   24.063
  259.370   73.586    0.323    0.418   24.462
  259.620   74.260    0.312    0.429   24.739
  259.870   74.124    0.304    0.437   24.995
  260.120   71.605    0.296    0.431   25.846
  260.370   69.858    0.296    0.433   25.897
  260.620   71.937    0.315    0.436   25.913
  260.870   72.281    0.322    0.445   25.923
  261.120   72.487    0.325    0.443   25.957
  261.370   74.784    0.324    0.445   25.458
  261.620   75.705    0.326    0.455   24.729
  261.870   76.668    0.336    0.459   24.111
  262.120   77.666    0.338    0.467   23.717
  262.370   76.407    0.345    0.475   23.991
  262.620   74.350    0.352    0.462   24.277
  262.870   72.438    0.352    0.453   25.467
  263.120   71.653    0.348    0.445   26.424
  263.370   73.194    0.333    0.437   28.077
  263.620   78.013    0.347    0.423   28.494
  263.870   82.795    0.348    0.430   28.280
  264.120   85.953    0.339    0.439   27.973
  264.370   88.568    0.336    0.449   27.619
  264.620   89.838    0.347    0.461   25.908
  264.870   88.754    0.348    0.472   25.580
  265.120   83.958    0.334    0.463   25.593
  265.370   73.827    0.331    0.471   25.587
  265.620   71.695    0.338    0.477   25.603
  265.870   70.783    0.350    0.481   25.861
  266.120   69.888    0.349    0.479   26.075
  266.370   70.296    0.357    0.475   26.093
  266.620   72.573    0.358    0.479   26.102
  266.870   73.271    0.353    0.478   26.108
  267.120   69.006    0.351    0.471   26.102
  267.370   69.522    0.359    0.476   25.943
  267.620   72.249    0.366    0.481   25.653
  267.870   73.894    0.363    0.473   24.850
  268.120   74.173    0.369    0.465   24.763
  268.370   73.481    0.364    0.460   24.755
  268.620   70.786    0.349    0.458   24.497
  268.870   70.452    0.353    0.459   24.335
  269.120   70.410    0.351    0.457   24.333
  269.370   70.057    0.350    0.450   24.339
  269.620   70.455    0.352    0.459   24.348
  269.870   70.430    0.357    0.481   24.349
  270.120   69.494    0.341    0.474   24.310
  270.370   69.210    0.351    0.469   24.813
  270.620   69.641    0.355    0.466   24.341
  270.870   69.832    0.344    0.467   24.378
  271.120   68.623    0.342    0.470   24.390
  271.370   67.102    0.355    0.488   24.384
  271.620   65.557    0.362    0.500   24.275
  271.870   65.627    0.350    0.487   24.373
  272.120   66.314    0.346    0.476   24.392
  272.370   65.406    0.335    0.469   24.357
  272.620   64.427    0.337    0.471   23.975
  272.870   64.660    0.354    0.471   23.995
  273.120   65.648    0.359    0.465   24.006
  273.370   65.126    0.346    0.460   24.013
  273.620   64.879    0.332    0.455   24.020
  273.870   63.197    0.335    0.456   24.030
  274.120   62.035    0.332    0.470   24.036
  274.370   62.404    0.338    0.482   24.043
  274.620   63.196    0.352    0.488   24.048
  274.870   64.380    0.338    0.485   24.005
  275.120   65.769    0.336    0.484   24.527
  275.370   66.593    0.332    0.488   24.921
  275.620   68.170    0.326    0.483   24.915
  275.870   69.763    0.330    0.479   25.476
  276.120   70.663    0.330    0.483   25.443
  276.370   71.620    0.321    0.474   25.446
  276.620   72.577    0.322    0.463   25.442
  276.870   73.573    0.315    0.455   24.972
  277.120   73.661    0.306    0.457   24.858
  277.370   73.681    0.295    0.454   24.573
  277.620   73.087    0.318    0.443   23.860
  277.870   72.311    0.327    0.438   23.282
  278.120   71.368    0.331    0.435   22.528
  278.370   70.672    0.304    0.437   21.163
  278.620   70.687    0.312    0.445   20.308
  278.870   71.193    0.332    0.455   19.142
  279.120   72.457    0.336    0.470   17.740
  279.370   73.790    0.325    0.459   16.054
  279.620   75.762    0.335    0.465   14.532
  279.870   78.111    0.347    0.477   11.942
  280.120   81.883    0.356    0.490    9.842
  280.370   83.918    0.341    0.488    7.493
  280.620   89.145    0.328    0.504    5.792
  280.870   95.655    0.308    0.518    4.962
  281.120  102.788    0.293    0.524    4.219
  281.370  108.947    0.282    0.531    3.842
  281.620  111.629    0.246    0.526    3.630
  281.870  111.423    0.245    0.518    3.523
  282.120  109.706    0.255    0.513    3.507
  282.370  106.695    0.256    0.517    3.564
  282.620  106.789    0.259    0.534    3.727
  282.870  108.708    0.253    0.554    4.308
  283.120  108.315    0.255    0.574    4.919
  283.370  105.329    0.259    0.574    5.510
  283.620  100.421    0.290    0.551    5.954
  283.870   97.231    0.323    0.514    6.225
  284.120   93.510    0.317    0.475    5.626
  284.370   92.740    0.310    0.493    5.265
  284.620   95.930    0.299    0.511    4.614
  284.870   98.118    0.280    0.526    4.336
