~VERSION INFORMATION
 VERS.                 2.0:   CWLS LOG ASCII STANDARD -VERSION 2.0
 WRAP.                  NO:   ONE LINE PER DEPTH STEP
~WELL INFORMATION BLOCK
#MNEM.UNIT           DATA                    DESCRIPTION OF MNEMONIC
#---------    -------------------            -------------------------------
# Generated from Intellog Unique Number	CW_82_90/WELL/3083
WELL.         UNION ET AL MCLEAN             : Well_name    - WELL
LOC .         00/14-22-087-19W4/0            : Location     - LOCATION
UWI .         00/14-22-087-19W4/0            : Uwi          - UNIQUE WELL ID
ENTR.         MAX                            : Entered      - ENTERED BY
SRVC.         SCHLUMBERGER                   : Scn          - SERVICE COMPANY
STRT.M        50                             : top_depth    - START DEPTH
STOP.M        237                            : bot_depth    - STOP DEPTH
STEP.M        0.25                           : increment    - STEP LENGTH
 NULL. -999.2500:NULL Value
~CURVE INFORMATION BLOCK
#MNEM UNIT       ERCB CURVE CODE    CURVE DESCRIPTION
#-----------   ------------------   ----------------------------------
DEPT.M        00 001 00 00         : DEPTH        - DEPTH
GR  .API      00 310 00 00         : GR           - GAMMA RAY
CALI.MM       00 280 01 00         : CAL          - CALIPER
DPHI.V/V      00 890 00 00         : PHID         - DENSITY POROSITY (SANDSTONE)
NPHI.V/V      00 330 00 00         : PHIN         - NEUTRON POROSITY (SANDSTONE)
ILD .OHMM     00 120 00 00         : RESD         - DEEP RESISTIVITY (DIL)
~PARAMETER INFORMATION
#MNEM.UNIT           DATA             DESCRIPTION OF MNEMONIC
#---------         -----------     ------------------------------
GL  .M        515                  : gl           - GROUND LEVEL ELEVATION
EREF.M        518.6                : kb           - ELEVATION OF DEPTH REFERENCE
DATM.M        515                  : datum        - DATUM ELEVATION
TDD .M        238                  : tdd          - TOTAL DEPTH DRILLER
RUN .         ONE                  : Run          - RUN NUMBER
ENG .         BILL                 : Engineer     - RECORDING ENGINEER
WIT .         JIM                  : Witness      - WITNESSED BY
MUD .         GEL                  : Mud_type     - MUD TYPE
MATR.         SANDSTONE            : Logunit      - NEUTRON MATRIX
TMAX.C        21.4                 : BHT          - MAXIMUM RECORDED TEMPERATURE
BHTD.M        238                  : BHTDEP       - MAXIMUM RECORDED TEMPERATURE
MATR.         1                    : LOGUNIT      - NEUTRON MATRIX
RMT .C        18.8                 : MDTP         - TEMPERATURE OF MUD
NEUT.         1                    : NEUTRON      - NEUTRON TYPE
RESI.         0                    : RESIST       - RESISTIVITY TYPE
RMC .OHMM     6.85                 : RMC          - RESISTIVITY OF MUD CAKE
RMF .OHMM     7.06                 : RMF          - RESISTIVITY OF MUD FILTRATE
SUFT.C        -15                  : SUFT         - SURFACE TEMPERATURE
~A  DEPTH       GR      CAL     PHID     PHIN     RESD
# ...
   86.500   33.914  573.295    0.405    0.595   27.521
   86.750   33.009  574.766    0.405    0.591   25.830
   87.000   31.209  582.206    0.408    0.583   27.841
   87.250   30.899  590.145    0.415    0.579   29.464
   87.500   31.486  591.618    0.444    0.586   30.055
   87.750   31.474  592.096    0.467    0.595   30.366
   88.000   31.763  591.581    0.465    0.595   30.980
   88.250   32.944  591.065    0.458    0.588   31.307
   88.500   34.128  590.550    0.453    0.579   31.340
   88.750   33.521  590.528    0.450    0.582   31.384
   89.000   32.017  590.510    0.484    0.585   31.418
   89.250   32.004  590.992    0.526    0.578   31.462
   89.500   31.993  591.471    0.529    0.575   31.496
   89.750   32.282  591.950    0.510    0.579   31.535
   90.000   32.271  592.927    0.498    0.582   31.573
   90.250   31.664  592.909    0.485    0.588   31.322
   90.500   31.356  592.891    0.496    0.590   31.072
   90.750   31.344  592.873    0.508    0.591   30.546
   91.000   34.317  592.358    0.507    0.586   30.024
   91.250   35.797  591.342    0.513    0.581   29.511
   91.500   35.190  590.332    0.523    0.587   28.739
   91.750   34.881  589.322    0.523    0.592   28.515
   92.000   33.677  587.812    0.513    0.594   28.550
   92.250   31.877  585.806    0.511    0.589   28.322
   92.500   31.866  580.319    0.485    0.584   28.092
   92.750   32.749  574.336    0.458    0.588   28.127
   93.000   33.036  573.821    0.444    0.592   27.911
   93.250   32.132  575.789    0.438    0.592   27.937
   93.500   31.227  580.248    0.431    0.590   27.972
   93.750   31.215  583.710    0.420    0.583   27.753
   94.000   32.397  584.187    0.412    0.579   27.532
   94.250   33.281  583.668    0.417    0.583   27.312
   94.500   33.868  583.153    0.440    0.589   27.604
   94.750   34.751  582.638    0.472    0.584   27.895
   95.000   35.037  582.125    0.503    0.584   27.925
   95.250   33.237  581.612    0.543    0.591   27.959
   95.500   30.242  580.103    0.564    0.596   27.741
   95.750   28.443  577.597    0.561    0.598   27.520
   96.000   29.922  574.596    0.557    0.597   27.049
   96.250   31.704  569.607    0.555    0.596   26.830
   96.500   34.675  493.524    0.551    0.591   26.867
   96.750   34.367  472.623    0.466    0.585   28.176
   97.000   32.865  462.660    0.422    0.573   29.540
   97.250   34.942  453.695    0.402    0.561   29.860
   97.500   36.125  441.746    0.390    0.545   29.887
   97.750   34.620  428.305    0.377    0.530   30.765
   98.000   34.907  419.338    0.361    0.528   31.968
   98.250   35.792  409.375    0.344    0.537   32.609
   98.500   37.271  402.394    0.349    0.539   32.649
   98.750   38.455  389.451    0.368    0.507   32.096
   99.000   39.639  385.953    0.379    0.485   31.538
   99.250   41.416  380.466    0.377    0.469   30.436
   99.500   42.600  373.987    0.371    0.469   29.916
   99.750   43.483  367.007    0.357    0.490   29.400
  100.000   43.472  360.029    0.376    0.510   29.441
  100.250   44.060  353.051    0.384    0.480   29.202
  100.500   49.120  344.581    0.361    0.485   27.155
  100.750   56.865  331.635    0.243    0.500   12.171
  101.000   69.084  324.160    0.143    0.482    8.040
  101.250   79.812  317.681    0.166    0.488    6.510
  101.500   88.750  312.192    0.239    0.510    6.398
  101.750   96.793  310.186    0.261    0.530    6.117
  102.000  100.061  310.168    0.273    0.531    5.741
  102.250   97.069  313.131    0.282    0.543    5.290
  102.500   92.585  316.096    0.288    0.544    5.296
  102.750   86.310  316.080    0.285    0.530    5.762
  103.000   85.999  316.555    0.280    0.506    6.098
  103.250   83.006  318.528    0.274    0.487    5.995
  103.500   68.379  321.993    0.282    0.472    6.644
  103.750   55.243  325.453    0.412    0.464    7.641
  104.000   47.177  326.431    0.490    0.507   11.703
  104.250   48.658  329.894    0.542    0.595   15.036
  104.500   52.227  336.337    0.475    0.541   19.144
  104.750   54.601  342.287    0.365    0.430   23.705
  105.000   54.889  348.728    0.316    0.410   27.015
  105.250   54.282  352.192    0.332    0.426   28.066
  105.500   52.781  358.140    0.358    0.437   28.890
  105.750   50.084  371.048    0.383    0.458   27.881
  106.000   52.161  370.531    0.439    0.546   27.157
  106.250   55.730  363.555    0.429    0.543   25.246
  106.500   56.616  366.520    0.389    0.517   18.464
  106.750   53.324  378.932    0.334    0.503   15.509
  107.000   52.717  386.868    0.335    0.517   16.568
  107.250   51.809  398.285    0.345    0.510   20.705
  107.500   50.904  403.734    0.347    0.510   21.511
  107.750   51.490  401.727    0.354    0.510   17.905
  108.000   51.479  398.231    0.360    0.518   16.345
  108.250   50.870  395.725    0.360    0.562   16.517
  108.500   51.159  394.216    0.363    0.585   18.476
  108.750   52.640  392.707    0.375    0.584   23.093
  109.000   55.313  391.195    0.381    0.526   23.553
  109.250   56.795  391.675    0.376    0.528   19.245
  109.500   57.381  392.651    0.360    0.539   13.315
  109.750   56.175  389.652    0.350    0.534   10.880
  110.000   57.955  341.907    0.356    0.528   15.193
  110.250   60.331  301.118    0.415    0.560   21.017
  110.500   64.497  300.605    0.404    0.584   20.658
  110.750   69.556  299.593    0.376    0.587   18.175
  111.000   71.630  298.082    0.350    0.514   19.419
  111.250   72.517  296.572    0.281    0.486   19.620
  111.500   74.296  295.063    0.283    0.471   16.633
  111.750   76.969  294.053    0.301    0.508   12.392
  112.000   80.836  292.544    0.312    0.514    8.814
  112.250   83.510  293.516    0.300    0.521    7.404
  112.500   83.499  295.489    0.276    0.535    6.885
  112.750   80.804  299.945    0.262    0.535    7.089
  113.000   78.705  311.859    0.337    0.516    6.903
  113.250   77.801  332.722    0.410    0.519    6.361
  113.500   75.404  363.033    0.539    0.564    6.309
  113.750   73.902  350.087    0.580    0.588    6.804
  114.000   76.576  318.748    0.523    0.579    7.134
  114.250   81.336  305.303    0.466    0.552    7.208
  114.500   84.309  311.255    0.277    0.542    6.955
  114.750   82.804  333.110    0.273    0.521    6.773
  115.000   80.110  351.984    0.273    0.519    6.844
  115.250   77.116  372.352    0.275    0.527    6.791
  115.500   74.421  396.198    0.286    0.546    6.991
  115.750   72.920  396.675    0.287    0.549    7.676
  116.000   72.609  380.253    0.313    0.573    9.076
  116.250   76.178  358.360    0.350    0.594    9.876
  116.500   80.942  332.985    0.386    0.590    8.850
  116.750   86.300  317.058    0.344    0.568    7.298
  117.000   87.481  311.074    0.268    0.540    7.042
  117.250   85.682  308.073    0.203    0.539    7.316
  117.500   86.265  307.554    0.195    0.548    7.464
  117.750   86.851  309.030    0.212    0.571    7.335
  118.000   87.139  312.987    0.205    0.567    7.481
  118.250   85.637  316.951    0.204    0.562    7.354
  118.500   84.433  323.893    0.225    0.558    7.296
  118.750   84.125  325.367    0.238    0.554    7.509
  119.000   84.112  319.878    0.245    0.548    7.588
  119.250   86.190  315.386    0.241    0.543    7.669
  119.500   91.550  313.377    0.263    0.571    7.821
  119.750   94.224  313.361    0.245    0.545    7.976
  120.000   88.546  312.347    0.318    0.518    7.698
  120.250   88.237  313.326    0.392    0.542    7.636
  120.500   91.504  316.788    0.385    0.538    7.788
  120.750   92.986  307.324    0.268    0.516    8.474
  121.000   92.975  306.809    0.218    0.526    9.053
  121.250   93.262  306.787    0.207    0.524    8.113
  121.500   93.550  307.765    0.218    0.510    7.900
  121.750   94.137  311.723    0.208    0.503    7.766
  122.000   95.021  316.676    0.188    0.492    7.704
  122.250   95.606  318.150    0.181    0.499    8.305
  122.500   98.280  317.140    0.212    0.512    7.722
  122.750  101.850  317.122    0.215    0.519    7.949
