~VERSION INFORMATION
 VERS.                 2.0:   CWLS LOG ASCII STANDARD -VERSION 2.0
 WRAP.                  NO:   ONE LINE PER DEPTH STEP
~WELL INFORMATION BLOCK
#MNEM.UNIT           DATA                    DESCRIPTION OF MNEMONIC
#---------    -------------------            -------------------------------
# Generated from Intellog Unique Number	CS_77_79/WELL/1025
WELL.         CWWE THORNBURY                 : Well_name    - WELL
LOC .         00/16-18-079-13W4/0            : Location     - LOCATION
UWI .         00/16-18-079-13W4/0            : Uwi          - UNIQUE WELL ID
ENTR.         JHS                            : Entered      - ENTERED BY
SRVC.         SCHLUMBERGER                   : Scn          - SERVICE COMPANY
STRT.M        250                            : top_depth    - START DEPTH
STOP.M        510                            : bot_depth    - STOP DEPTH
STEP.M        0.25                           : increment    - STEP LENGTH
 NULL. -999.2500:NULL Value
~CURVE INFORMATION BLOCK
#MNEM UNIT       ERCB CURVE CODE    CURVE DESCRIPTION
#-----------   ------------------   ----------------------------------
DEPT.M        00 001 00 00         : DEPTH        - DEPTH
DPHI.V/V      00 890 00 00         : PHID         - DENSITY POROSITY (LIMESTONE)
NPHI.V/V      00 330 00 00         : PHIN         - NEUTRON POROSITY (LIMESTONE)
GR  .API      00 310 00 00         : GR           - GAMMA RAY
ILD .OHMM     00 120 00 00         : RESD         - DEEP RESISTIVITY (DIL)
RHOB.KG/M3    00 350 00 00         : DENS         - BULK DENSITY
~PARAMETER INFORMATION
#MNEM.UNIT           DATA             DESCRIPTION OF MNEMONIC
#---------         -----------     ------------------------------
GL  .M        681.78               : gl           - GROUND LEVEL ELEVATION
EREF.M        684.88               : kb           - ELEVATION OF DEPTH REFERENCE
DATM.M        684.88               : datum        - DATUM ELEVATION
TDD .M        523                  : tdd          - TOTAL DEPTH DRILLER
RUN .         ONE                  : Run          - RUN NUMBER
ENG .         BILL                 : Engineer     - RECORDING ENGINEER
WIT .         JIM                  : Witness      - WITNESSED BY
MUD .         GEL                  : Mud_type     - MUD TYPE
MATR.         LIMESTONE            : Logunit      - NEUTRON MATRIX
TMAX.C        21                   : BHT          - MAXIMUM RECORDED TEMPERATURE
BHTD.M        523                  : BHTDEP       - MAXIMUM RECORDED TEMPERATURE
MATR.         1                    : LOGUNIT      - NEUTRON MATRIX
RMT .C        25                   : MDTP         - TEMPERATURE OF MUD
NEUT.         1                    : NEUTRON      - NEUTRON TYPE
RESI.         0                    : RESIST       - RESISTIVITY TYPE
RMC .OHMM     0.25                 : RMC          - RESISTIVITY OF MUD CAKE
RMF .OHMM     0.25                 : RMF          - RESISTIVITY OF MUD FILTRATE
SUFT.C        15                   : SUFT         - SURFACE TEMPERATURE
~A  DEPTH     PHID     PHIN       GR     RESD     DENS
# ...
  286.500    0.311    0.408   77.058   21.458    0.000
  286.750    0.312    0.428   81.938   21.492    0.000
  287.000    0.324    0.419   86.811   21.532    0.000
  287.250    0.328    0.405   85.576   21.170    0.000
  287.500    0.318    0.398   89.841   21.199    0.000
  287.750    0.318    0.398   94.111   21.224    0.000
  288.000    0.323    0.399   95.928   20.868    0.000
  288.250    0.318    0.408   92.240   20.123    0.000
  288.500    0.304    0.418   90.995   19.775    0.000
  288.750    0.293    0.420   91.594   19.076    0.000
  289.000    0.289    0.420   98.922   18.753    0.000
  289.250    0.303    0.435  101.961   18.771    0.000
  289.500    0.316    0.451   96.437   19.157    0.000
  289.750    0.325    0.428   90.296   19.557    0.000
  290.000    0.314    0.418   90.283   19.588    0.000
  290.250    0.302    0.409  101.283   19.616    0.000
  290.500    0.294    0.415  101.873   19.278    0.000
  290.750    0.264    0.413  101.863   18.603    0.000
  291.000    0.249    0.427  104.904   17.942    0.000
  291.250    0.258    0.400   97.543   17.971    0.000
  291.500    0.274    0.375   69.365   18.003    0.000
  291.750    0.274    0.363   60.779   18.017    0.000
  292.000    0.280    0.367   61.367   18.048    0.000
  292.250    0.269    0.383   63.190   17.405    0.000
  292.500    0.181    0.372   63.785   16.175    0.000
  292.750    0.171    0.359   64.992   15.592    0.000
  293.000    0.213    0.369   72.323   13.699    0.000
  293.250    0.202    0.400   85.159   12.958    0.000
  293.500    0.161    0.404   90.647   11.381    0.000
  293.750    0.122    0.409   93.085    9.992    0.000
  294.000    0.148    0.416  101.638    8.938    0.000
  294.250    0.203    0.427  121.822    7.849    0.000
  294.500    0.203    0.449  132.205    7.153    0.000
  294.750    0.196    0.480  132.807    6.521    0.000
  295.000    0.181    0.480  128.502    6.171    0.000
  295.250    0.165    0.474  125.425    5.842    0.000
  295.500    0.163    0.452  126.016    5.636    0.000
  295.750    0.179    0.459  128.452    5.437    0.000
  296.000    0.212    0.492  133.939    5.343    0.000
  296.250    0.203    0.530  133.311    5.451    0.000
  296.500    0.192    0.507  125.951    5.778    0.000
  296.750    0.170    0.484  114.302    6.008    0.000
  297.000    0.140    0.471  111.837    6.247    0.000
  297.250    0.135    0.467  126.509    6.029    0.000
  297.500    0.168    0.469  133.225    5.599    0.000
  297.750    0.190    0.463  136.884    5.103    0.000
  298.000    0.197    0.470  136.861    4.479    0.000
  298.250    0.186    0.490  135.624    3.934    0.000
  298.500    0.191    0.557  135.608    3.724    0.000
  298.750    0.218    0.583  139.872    3.799    0.000
  299.000    0.234    0.581  143.530    4.770    0.000
  299.250    0.242    0.477  136.778    5.658    0.000
  299.500    0.259    0.440  125.129    7.659    0.000
  299.750    0.266    0.429  118.991    9.614    0.000
  300.000    0.233    0.412  117.747   10.777    0.000
  300.250    0.227    0.400  115.895   12.091    0.000
  300.500    0.234    0.398  112.818   12.574    0.000
  300.750    0.252    0.433  114.631   12.587    0.000
  301.000    0.265    0.435  113.395   12.141    0.000
  301.250    0.281    0.428  106.032   11.276    0.000
  301.500    0.287    0.406  107.852    9.359    0.000
  301.750    0.220    0.399  121.914    7.767    0.000
  302.000    0.173    0.466  129.854    7.491    0.000
  302.250    0.156    0.499  135.343    7.360    0.000
  302.500    0.191    0.451  136.552    8.260    0.000
  302.750    0.238    0.435  135.922    8.582    0.000
  303.000    0.248    0.416  132.236   10.000    0.000
  303.250    0.240    0.399  119.364   10.793    0.000
  303.500    0.241    0.414  115.671   11.435    0.000
  303.750    0.264    0.431  117.490   12.119    0.000
  304.000    0.280    0.438  114.413   12.367    0.000
  304.250    0.287    0.443  103.378   12.155    0.000
  304.500    0.294    0.423  103.355   12.173    0.000
  304.750    0.272    0.415  111.298   11.963    0.000
  305.000    0.236    0.441  119.851   11.540    0.000
  305.250    0.239    0.438  125.953   11.569    0.000
  305.500    0.247    0.413  127.777   11.577    0.000
  305.750    0.250    0.387  123.472   12.043    0.000
  306.000    0.244    0.406  113.659   12.763    0.000
  306.250    0.256    0.432  108.137   13.265    0.000
  306.500    0.276    0.447   90.367   15.162    0.000
  306.750    0.309    0.440   68.311   16.370    0.000
  307.000    0.328    0.445   60.948   18.710    0.000
  307.250    0.331    0.434   65.217   19.828    0.000
  307.500    0.320    0.424   78.662   19.851    0.000
  307.750    0.308    0.425   89.053   17.425    0.000
  308.000    0.301    0.418   91.485   13.667    0.000
  308.250    0.276    0.402   96.362   11.344    0.000
  308.500    0.250    0.380  103.691   10.336    0.000
  308.750    0.232    0.377  111.634    8.743    0.000
  309.000    0.246    0.412  120.188    8.119    0.000
  309.250    0.226    0.419  122.004    7.542    0.000
  309.500    0.194    0.427  123.216    7.137    0.000
  309.750    0.183    0.438  126.254    7.287    0.000
  310.000    0.214    0.465  108.490    8.644    0.000
  310.250    0.265    0.484   88.882   11.920    0.000
  310.500    0.294    0.478   83.967   19.108    0.000
  310.750    0.288    0.482   81.499   26.854    0.000
  311.000    0.257    0.490   82.707   31.264    0.000
  311.250    0.227    0.413   79.018   34.397    0.000
  311.500    0.230    0.380   75.329   31.960    0.000
  311.750    0.249    0.383   77.757   26.519    0.000
  312.000    0.285    0.418   86.309   22.842    0.000
  312.250    0.301    0.438   91.189   17.580    0.000
  312.500    0.284    0.424   93.011   16.030    0.000
  312.750    0.271    0.425   92.994   16.984    0.000
  313.000    0.285    0.450   89.305   20.154    0.000
  313.250    0.308    0.467   81.942   21.755    0.000
  313.500    0.301    0.456   73.354   23.054    0.000
  313.750    0.272    0.449   78.232   21.016    0.000
  314.000    0.245    0.442   92.906   17.769    0.000
  314.250    0.240    0.438  104.520   13.420    0.000
  314.500    0.264    0.469  111.846   10.329    0.000
  314.750    0.278    0.479  113.669    9.067    0.000
  315.000    0.272    0.466  114.874    8.268    0.000
  315.250    0.242    0.465  111.186    8.279    0.000
  315.500    0.236    0.457  106.882    8.609    0.000
  315.750    0.256    0.443  105.026    9.298    0.000
  316.000    0.276    0.442  101.339   10.235    0.000
  316.250    0.293    0.431   95.201   11.050    0.000
  316.500    0.295    0.419   93.960   11.705    0.000
  316.750    0.294    0.413   94.551   12.643    0.000
  317.000    0.292    0.412   92.697   12.905    0.000
  317.250    0.298    0.436   90.231   12.922    0.000
  317.500    0.309    0.434   90.215   12.001    0.000
  317.750    0.271    0.413   99.994   10.738    0.000
  318.000    0.246    0.399  108.546   10.165    0.000
  318.250    0.249    0.441  106.693    9.990    0.000
  318.500    0.282    0.468   95.045   10.392    0.000
  318.750    0.324    0.453   74.214   10.806    0.000
  319.000    0.324    0.439   68.075   11.893    0.000
  319.250    0.311    0.423   71.730   12.600    0.000
  319.500    0.310    0.424   73.548   12.855    0.000
  319.750    0.302    0.434   69.861   13.889    0.000
  320.000    0.293    0.411   62.496   14.712    0.000
  320.250    0.305    0.407   58.193   17.130    0.000
  320.500    0.324    0.422   56.337   18.494    0.000
  320.750    0.344    0.454   63.056   20.354    0.000
  321.000    0.358    0.435   65.484   22.832    0.000
  321.250    0.359    0.422   64.246   25.116    0.000
  321.500    0.355    0.428   58.104   26.614    0.000
  321.750    0.352    0.448   57.478   28.743    0.000
  322.000    0.355    0.458   63.584   30.457    0.000
  322.250    0.361    0.470   69.077   31.675    0.000
  322.500    0.362    0.467   62.938   32.931    0.000
  322.750    0.358    0.441   54.349   34.902    0.000
