~VERSION INFORMATION
 VERS.                 2.0:   CWLS LOG ASCII STANDARD -VERSION 2.0
 WRAP.                  NO:   ONE LINE PER DEPTH STEP
~WELL INFORMATION BLOCK
#MNEM.UNIT           DATA                    DESCRIPTION OF MNEMONIC
#---------    -------------------            -------------------------------
# Generated from Intellog Unique Number	CW_70_72/WELL/3026
NULL.         -999.25                        : NULL_VALUE
WELL.         SULPETRO OTAUWAU 11-05         : Well_name    - WELL              
LOC .         11-05-070-05W5                 : Location     - LOCATION          
UWI .         00/11-05-070-05W5/0            : Uwi          - UNIQUE WELL ID    
ENTR.         JAYE                           : Entered      - ENTERED BY        
SRVC.         SCHLUMBERGER                   : Scn          - SERVICE COMPANY   
DATE.         19 FEB 77                      : Date         - LOG DATE          
STRT.M        701.04                         : top_depth    - START DEPTH       
STOP.M        960.04                         : bot_depth    - STOP DEPTH        
STEP.M        0.25                           : increment    - STEP LENGTH       
~CURVE INFORMATION BLOCK
#MNEM UNIT       ERCB CURVE CODE    CURVE DESCRIPTION
#-----------   ------------------   ----------------------------------
DEPT.M        00 001 00 00         : DEPTH        - DEPTH                       
ILD .OHMM     00 120 00 00         : RESD         - DEEP RESISTIVITY (DIL)      
NPHI.V/V      00 330 00 00         : PHIN         - NEUTRON POROSITY (SANDSTONE)
DPHI.V/V      00 890 00 00         : PHID         - DENSITY POROSITY (SANDSTONE)
GR  .API      00 310 00 00         : GR           - GAMMA RAY                   
CALI.MM       00 280 01 00         : CAL          - CALIPER                     
~PARAMETER INFORMATION       
#MNEM.UNIT           DATA             DESCRIPTION OF MNEMONIC
#---------         -----------     ------------------------------
GL  .M        796.595              : gl           - GROUND LEVEL ELEVATION      
EREF.M        800.557              : kb           - ELEVATION OF DEPTH REFERENCE
DATM.M        796.595              : datum        - DATUM ELEVATION             
TDD .M        975.36               : tdd          - TOTAL DEPTH DRILLER         
RUN .         ONE                  : Run          - RUN NUMBER                  
ENG .         FIGGURES             : Engineer     - RECORDING ENGINEER          
WIT .         BROCK                : Witness      - WITNESSED BY                
MUD .         GEL                  : Mud_type     - MUD TYPE                    
MATR.         SANDSTONE            : Logunit      - NEUTRON MATRIX              
TMAX.C        -17.7778             : BHT          - MAXIMUM RECORDED TEMPERATURE
BHTD.M        975.665              : BHTDEP       - MAXIMUM RECORDED TEMPERATURE
RMT .C        15.5556              : MDTP         - TEMPERATURE OF MUD          
MUDD.KG/M     1152                 : MWT          - MUD DENSITY                 
NEUT.         1                    : NEUTRON      - NEUTRON TYPE                
RESI.         0                    : RESIST       - RESISTIVITY TYPE            
RM  .OHMM     4.25                 : RM           - RESISTIVITY OF MUD          
RMC .OHMM     0.25                 : RMC          - RESISTIVITY OF MUD CAKE     
RMF .OHMM     3.66                 : RMF          - RESISTIVITY OF MUD FILTRATE 
SUFT.C        -20                  : SUFT         - SURFACE TEMPERATURE         
~A  DEPTH     RESD     PHIN     PHID       GR      CAL
# ...
  774.040    2.121    0.438    0.122  115.912  167.762
  774.290    2.550    0.430    0.139  111.973  168.507
  774.540    2.922    0.422    0.139  111.982  169.358
  774.790    3.034    0.433    0.129  114.828  170.103
  775.040    3.105    0.444    0.152  113.973  171.892
  775.290    3.184    0.456    0.184  111.268  174.726
  775.540    3.240    0.464    0.212  107.638  175.473
  775.790    3.272    0.464    0.225  104.253  170.787
  776.040    3.287    0.422    0.197  100.499  166.102
  776.290    3.259    0.422    0.168   97.855  164.549
  776.540    3.237    0.428    0.188   94.780  163.521
  776.790    3.210    0.417    0.208   91.087  162.907
  777.040    3.183    0.395    0.206   96.276  162.399
  777.290    3.151    0.393    0.193   99.678  162.101
  777.540    3.135    0.409    0.173  100.426  162.010
  777.790    3.126    0.412    0.183  101.669  162.441
  778.040    3.129    0.409    0.148  104.083  163.501
  778.290    3.160    0.424    0.155  107.298  164.560
  778.540    3.234    0.432    0.154  109.713  165.409
  778.790    3.297    0.421    0.129  110.831  166.155
  779.040    3.361    0.398    0.145  111.457  166.482
  779.290    3.452    0.384    0.146  110.418  166.601
  779.540    3.506    0.393    0.118  108.575  166.619
  779.790    3.522    0.399    0.129  109.693  166.735
  780.040    3.359    0.403    0.130  108.098  166.854
  780.290    3.048    0.409    0.147  104.899  167.079
  780.540    2.775    0.417    0.172  105.401  167.197
  780.790    2.476    0.437    0.142  107.383  168.464
  781.040    2.263    0.466    0.164  109.119  169.940
  781.290    2.131    0.506    0.202  110.917  173.818
  781.540    2.112    0.520    0.214  107.656  178.741
  781.790    2.202    0.480    0.184  103.717  176.041
  782.040    2.453    0.460    0.203   98.916  167.699
  782.290    2.635    0.470    0.223   95.838  163.432
  782.540    2.656    0.469    0.253   92.517  160.627
  782.790    2.605    0.407    0.215   92.216  160.644
  783.040    2.535    0.404    0.219   96.234  161.177
  783.290    2.409    0.411    0.238   96.737  161.087
  783.540    2.260    0.402    0.226   94.462  161.206
  783.790    2.143    0.392    0.223   89.845  160.074
  784.040    2.017    0.399    0.238   85.598  159.041
  784.290    1.844    0.395    0.258   81.658  157.804
  784.540    1.710    0.383    0.266   77.967  156.668
  784.790    1.643    0.387    0.274   75.138  155.117
  785.040    1.626    0.373    0.270   74.221  153.775
  785.290    1.695    0.364    0.230   76.697  153.264
  785.540    1.794    0.370    0.218   78.432  154.012
  785.790    1.877    0.368    0.210   79.489  155.173
  786.040    1.945    0.369    0.211   81.102  156.964
  786.290    1.980    0.386    0.241   83.084  158.650
  786.540    1.970    0.400    0.233   84.017  159.290
  786.790    1.932    0.387    0.223   76.562  159.932
  787.040    1.863    0.382    0.236   70.650  159.946
  787.290    1.790    0.388    0.241   68.561  159.648
  787.540    1.743    0.390    0.247   66.843  159.142
  787.790    1.706    0.393    0.252   65.556  158.841
  788.040    1.688    0.398    0.258   65.564  158.647
  788.290    1.680    0.389    0.263   65.573  158.555
  788.540    1.751    0.382    0.236   66.322  156.376
  788.790    1.856    0.372    0.226   67.749  154.093
  789.040    1.935    0.364    0.218   71.150  153.275
  789.290    2.058    0.365    0.213   78.437  153.913
  789.540    2.194    0.373    0.201   84.551  155.599
  789.790    2.330    0.371    0.179   88.754  157.912
  790.040    2.544    0.365    0.164   91.168  159.701
  790.290    2.746    0.366    0.159   93.644  161.387
  790.540    3.026    0.373    0.151   95.380  162.655
  790.790    3.232    0.376    0.149   96.313  163.504
  791.040    3.363    0.371    0.176   97.061  163.937
  791.290    3.365    0.403    0.159   97.933  164.681
  791.540    3.330    0.404    0.128   94.919  165.114
  791.790    3.260    0.397    0.156   95.854  165.548
  792.040    3.173    0.405    0.147   97.157  165.559
  792.290    3.083    0.406    0.154   93.219  164.741
  792.540    2.945    0.406    0.176   87.923  162.979
  792.790    2.727    0.406    0.193   82.627  160.694
  793.040    2.456    0.400    0.221   74.062  157.471
  793.290    2.119    0.395    0.242   68.642  156.234
  793.540    1.683    0.393    0.267   64.395  156.560
  793.790    1.474    0.388    0.288   64.280  157.514
  794.040    1.276    0.385    0.291   65.583  159.931
  794.290    1.154    0.393    0.284   59.795  162.452
  794.540    1.052    0.405    0.298   61.777  163.094
  794.790    1.007    0.410    0.312   62.155  161.751
  795.040    1.003    0.398    0.289   60.621  160.930
  795.290    1.024    0.394    0.293   60.507  160.421
  795.540    1.054    0.389    0.313   60.823  160.124
  795.790    1.080    0.395    0.313   62.128  159.302
  796.040    1.091    0.385    0.294   64.480  158.795
  796.290    1.100    0.378    0.284   66.585  158.077
  796.540    1.113    0.377    0.299   67.026  157.882
  796.790    1.129    0.384    0.315   67.651  157.582
  797.040    1.146    0.381    0.327   70.373  156.450
  797.290    1.156    0.378    0.327   71.369  155.419
  797.540    1.163    0.382    0.304   71.254  154.389
  797.790    1.169    0.386    0.308   72.311  153.360
  798.040    1.169    0.393    0.325   73.924  153.163
  798.290    1.179    0.401    0.328   75.042  153.284
  798.540    1.195    0.405    0.322   74.804  153.716
  798.790    1.221    0.407    0.319   71.419  153.938
  799.040    1.257    0.404    0.322   69.763  154.687
  799.290    1.281    0.399    0.290   68.106  155.536
  799.540    1.315    0.392    0.300   66.573  156.698
  799.790    1.371    0.408    0.284   64.916  157.546
  800.040    1.424    0.419    0.277   63.691  158.083
  800.290    1.457    0.414    0.285   65.427  158.204
  800.540    1.464    0.407    0.266   65.497  157.589
  800.790    1.438    0.399    0.253   62.914  155.306
  801.040    1.382    0.394    0.264   61.072  154.485
  801.290    1.289    0.394    0.274   61.698  155.231
  801.540    1.245    0.399    0.287   61.213  157.127
  801.790    1.205    0.396    0.286   65.107  158.602
  802.040    1.165    0.393    0.300   69.988  159.662
  802.290    1.144    0.397    0.318   75.116  160.093
  802.540    1.195    0.413    0.270   79.011  160.420
  802.790    1.295    0.430    0.255   79.266  160.855
  803.040    1.451    0.423    0.243   82.975  161.180
  803.290    1.614    0.420    0.230   86.314  161.614
  803.540    1.795    0.436    0.215   89.222  162.148
  803.790    1.985    0.442    0.218   85.900  162.372
  804.040    2.155    0.436    0.213   79.246  162.386
  804.290    2.157    0.426    0.222   71.977  161.879
  804.540    1.971    0.418    0.239   66.866  160.745
  804.790    1.682    0.403    0.272   64.099  158.043
  805.040    1.407    0.403    0.304   65.465  155.029
  805.290    1.269    0.399    0.312   66.213  154.207
  805.540    1.195    0.398    0.293   67.209  156.102
  805.790    1.239    0.422    0.303   68.697  158.103
  806.040    1.308    0.445    0.281   69.631  159.264
  806.290    1.392    0.401    0.280   68.344  159.802
  806.540    1.525    0.374    0.283   68.291  160.028
  806.790    1.616    0.352    0.261   69.040  159.937
  807.040    1.691    0.333    0.247   71.145  159.843
  807.290    1.766    0.343    0.242   72.141  159.649
  807.540    1.831    0.357    0.258   70.731  159.982
  807.790    1.884    0.370    0.278   70.862  159.991
  808.040    1.921    0.385    0.266   70.747  160.007
  808.290    1.933    0.397    0.256   69.090  160.020
  808.540    1.923    0.390    0.260   72.800  159.827
  808.790    1.911    0.391    0.250   72.068  159.845
  809.040    1.874    0.393    0.269   68.315  159.751
  809.290    1.814    0.380    0.282   65.733  160.078
  809.540    1.733    0.380    0.275   64.260  160.092
  809.790    1.681    0.391    0.265   63.467  159.796
  810.040    1.591    0.398    0.279   64.339  159.391
  810.290    1.487    0.404    0.280   65.953  159.404
