~VERSION INFORMATION
 VERS.                 2.0:   CWLS LOG ASCII STANDARD -VERSION 2.0
 WRAP.                  NO:   ONE LINE PER DEPTH STEP
~WELL INFORMATION BLOCK
#MNEM.UNIT           DATA                    DESCRIPTION OF MNEMONIC
#---------    -------------------            -------------------------------
# Generated from Intellog Unique Number	CS_77_79/WELL/993
WELL.         BVX ET AL PORTAGE              : Well_name    - WELL
LOC .         00/11-09-079-15W4/0            : Location     - LOCATION
UWI .         00/11-09-079-15W4/0            : Uwi          - UNIQUE WELL ID
ENTR.         JHS                            : Entered      - ENTERED BY
SRVC.         SCHLUMBERGER                   : Scn          - SERVICE COMPANY
STRT.M        220                            : top_depth    - START DEPTH
STOP.M        453                            : bot_depth    - STOP DEPTH
STEP.M        0.25                           : increment    - STEP LENGTH
 NULL. -999.2500:NULL Value
~CURVE INFORMATION BLOCK
#MNEM UNIT       ERCB CURVE CODE    CURVE DESCRIPTION
#-----------   ------------------   ----------------------------------
DEPT.M        00 001 00 00         : DEPTH        - DEPTH
DPHI.V/V      00 890 00 00         : PHID         - DENSITY POROSITY (LIMESTONE)
NPHI.V/V      00 330 00 00         : PHIN         - NEUTRON POROSITY (LIMESTONE)
GR  .API      00 310 00 00         : GR           - GAMMA RAY
ILD .OHMM     00 120 00 00         : RESD         - DEEP RESISTIVITY (DIL)
RHOB.KG/M3    00 350 00 00         : DENS         - BULK DENSITY
~PARAMETER INFORMATION
#MNEM.UNIT           DATA             DESCRIPTION OF MNEMONIC
#---------         -----------     ------------------------------
GL  .M        627.7                : gl           - GROUND LEVEL ELEVATION
EREF.M        630.7                : kb           - ELEVATION OF DEPTH REFERENCE
DATM.M        630.7                : datum        - DATUM ELEVATION
TDD .M        460                  : tdd          - TOTAL DEPTH DRILLER
RUN .         ONE                  : Run          - RUN NUMBER
ENG .         BILL                 : Engineer     - RECORDING ENGINEER
WIT .         JIM                  : Witness      - WITNESSED BY
MUD .         GEL                  : Mud_type     - MUD TYPE
MATR.         LIMESTONE            : Logunit      - NEUTRON MATRIX
TMAX.C        22                   : BHT          - MAXIMUM RECORDED TEMPERATURE
BHTD.M        460                  : BHTDEP       - MAXIMUM RECORDED TEMPERATURE
MATR.         1                    : LOGUNIT      - NEUTRON MATRIX
RMT .C        25                   : MDTP         - TEMPERATURE OF MUD
NEUT.         1                    : NEUTRON      - NEUTRON TYPE
RESI.         0                    : RESIST       - RESISTIVITY TYPE
RMC .OHMM     0.25                 : RMC          - RESISTIVITY OF MUD CAKE
RMF .OHMM     0.25                 : RMF          - RESISTIVITY OF MUD FILTRATE
SUFT.C        15                   : SUFT         - SURFACE TEMPERATURE
~A  DEPTH     PHID     PHIN       GR     RESD     DENS
  220.000    0.274    0.561   94.501    2.697    0.000
  220.250    0.269    0.539   95.160    2.853    0.000
  220.500    0.290    0.521   94.617    2.908    0.000
  220.750    0.280    0.507   92.837    2.908    0.000
  221.000    0.273    0.503   87.411    2.909    0.000
  221.250    0.257    0.536   86.240    2.855    0.000
  221.500    0.253    0.568   91.195    2.802    0.000
  221.750    0.261    0.582   91.846    2.803    0.000
  222.000    0.278    0.563   93.135    2.910    0.000
  222.250    0.275    0.537   94.399    3.137    0.000
  222.500    0.247    0.514   90.187    3.382    0.000
  222.750    0.226    0.496   85.974    3.446    0.000
  223.000    0.204    0.496   89.691    3.382    0.000
  223.250    0.255    0.547   90.966    3.320    0.000
  223.500    0.256    0.528   91.016    3.321    0.000
  223.750    0.259    0.530   92.905    3.448    0.000
  224.000    0.263    0.531   96.010    3.513    0.000
  224.250    0.246    0.526   94.840    3.717    0.000
  224.500    0.230    0.507   94.292    3.648    0.000
  224.750    0.227    0.489   94.343    3.581    0.000
  225.000    0.233    0.486   93.180    3.650    0.000
  225.250    0.220    0.501   98.722    3.861    0.000
  225.500    0.217    0.505  100.014    3.935    0.000
  225.750    0.223    0.500   96.417    3.791    0.000
  226.000    0.225    0.489   94.015    3.652    0.000
  226.250    0.234    0.498   92.860    3.518    0.000
  226.500    0.241    0.512   97.201    3.389    0.000
  226.750    0.260    0.501   98.456    3.327    0.000
  227.000    0.262    0.513   99.128    3.390    0.000
  227.250    0.250    0.508   98.566    3.587    0.000
  227.500    0.231    0.519   94.963    3.724    0.000
  227.750    0.215    0.507   93.197    3.795    0.000
  228.000    0.214    0.542   95.691    3.725    0.000
  228.250    0.234    0.516   94.541    3.725    0.000
  228.500    0.227    0.512   92.151    3.941    0.000
  228.750    0.231    0.512   88.549    4.579    0.000
  229.000    0.240    0.494   84.936    7.735    0.000
  229.250    0.248    0.463   79.506   11.040    0.000
  229.500    0.286    0.431   74.079   13.315    0.000
  229.750    0.319    0.399   70.475   15.182    0.000
  230.000    0.338    0.398   70.528   15.184    0.000
  230.250    0.333    0.416   69.370   15.186    0.000
  230.500    0.342    0.427   70.646   14.631    0.000
  230.750    0.328    0.438   68.889   14.095    0.000
  231.000    0.315    0.432   69.541   13.327    0.000
  231.250    0.313    0.433   75.096   12.602    0.000
  231.500    0.320    0.425   78.795   12.140    0.000
  231.750    0.317    0.429   81.297   11.479    0.000
  232.000    0.300    0.423   84.411   10.652    0.000
  232.250    0.301    0.413   85.665   10.072    0.000
  232.500    0.304    0.410   85.731    9.173    0.000
  232.750    0.294    0.410   89.452    9.004    0.000
  233.000    0.281    0.415   92.553    8.048    0.000
  233.250    0.293    0.436   91.386    7.330    0.000
  233.500    0.266    0.427   87.788    6.802    0.000
  233.750    0.245    0.411   87.236    5.968    0.000
  234.000    0.251    0.407   88.501    5.138    0.000
  234.250    0.250    0.431   93.432    4.262    0.000
  234.500    0.244    0.473  100.207    3.955    0.000
  234.750    0.239    0.525  100.874    3.810    0.000
  235.000    0.229    0.513   99.104    3.956    0.000
  235.250    0.232    0.518   97.328    4.345    0.000
  235.500    0.230    0.502   94.328    5.440    0.000
  235.750    0.209    0.483   88.286    6.439    0.000
  236.000    0.183    0.471   88.341    7.072    0.000
  236.250    0.162    0.481   94.498    7.623    0.000
  236.500    0.210    0.447   89.067    7.074    0.000
  236.750    0.280    0.422   79.979    6.323    0.000
  237.000    0.289    0.416   78.200    5.868    0.000
  237.250    0.264    0.459   82.535    6.817    0.000
  237.500    0.239    0.446   85.637    9.550    0.000
  237.750    0.198    0.415   85.076   11.095    0.000
  238.000    0.108    0.364   71.118   11.737    0.000
  238.250    0.000    0.333   76.052   11.739    0.000
  238.500    0.000    0.321   84.028   10.893    0.000
  238.750    0.058    0.376   91.402    9.737    0.000
  239.000    0.213    0.448   97.548    8.076    0.000
  239.250    0.216    0.434  104.316    6.954    0.000
  239.500    0.207    0.433  106.809    6.826    0.000
  239.750    0.201    0.439  104.430    7.088    0.000
  240.000    0.196    0.452  101.430    7.359    0.000
  240.250    0.196    0.469  100.282    9.043    0.000
  240.500    0.229    0.442   95.450   10.906    0.000
  240.750    0.247    0.413   85.147   11.113    0.000
  241.000    0.271    0.383   73.621   11.979    0.000
  241.250    0.294    0.362   76.733   13.405    0.000
  241.500    0.279    0.398   81.658   13.919    0.000
  241.750    0.270    0.409   81.100   13.161    0.000
  242.000    0.300    0.408   79.325   12.679    0.000
  242.250    0.292    0.408   87.315   12.446    0.000
  242.500    0.275    0.418   92.256   12.922    0.000
  242.750    0.264    0.440   91.699   13.671    0.000
  243.000    0.275    0.436   86.256   14.737    0.000
  243.250    0.312    0.416   84.491   15.016    0.000
  243.500    0.315    0.413   88.198   15.019    0.000
  243.750    0.297    0.415   90.711   15.020    0.000
  244.000    0.287    0.401   95.023   14.471    0.000
  244.250    0.285    0.414   96.308   14.746    0.000
  244.500    0.274    0.416   96.352   15.027    0.000
  244.750    0.257    0.419   96.407   15.603    0.000
  245.000    0.256    0.420   92.211   15.316    0.000
  245.250    0.273    0.429   92.860   15.034    0.000
  245.500    0.285    0.427   97.819   13.951    0.000
  245.750    0.296    0.425   99.701   12.706    0.000
  246.000    0.294    0.429  100.344   10.538    0.000
  246.250    0.261    0.421  101.007    8.578    0.000
  246.500    0.241    0.416  102.895    7.526    0.000
  246.750    0.214    0.433  104.779    6.727    0.000
  247.000    0.199    0.454  103.629    6.856    0.000
  247.250    0.200    0.434  100.622    7.253    0.000
  247.500    0.195    0.424   94.588    7.673    0.000
  247.750    0.186    0.422   90.996    7.966    0.000
  248.000    0.202    0.415   92.262    8.118    0.000
  248.250    0.185    0.445   95.974    8.273    0.000
  248.500    0.191    0.454   95.419    8.121    0.000
  248.750    0.194    0.425   93.646    8.121    0.000
  249.000    0.181    0.420   93.700    7.679    0.000
  249.250    0.176    0.434   96.816    7.537    0.000
  249.500    0.176    0.427   95.645    7.262    0.000
  249.750    0.178    0.421   92.665    6.996    0.000
  250.000    0.185    0.412   96.983    7.264    0.000
  250.250    0.195    0.405   97.641    7.265    0.000
  250.500    0.192    0.409   94.648    7.266    0.000
  250.750    0.187    0.422   93.513    7.000    0.000
  251.000    0.196    0.432   95.387    6.375    0.000
  251.250    0.187    0.452  100.926    5.593    0.000
  251.500    0.203    0.469  108.905    4.816    0.000
  251.750    0.196    0.482  115.047    5.095    0.000
  252.000    0.200    0.534  118.150    6.144    0.000
  252.250    0.214    0.514  117.006    6.748    0.000
  252.500    0.204    0.489  115.834    5.920    0.000
  252.750    0.183    0.494  117.110    4.819    0.000
  253.000    0.179    0.513  120.213    4.150    0.000
  253.250    0.173    0.534  119.667    3.641    0.000
  253.500    0.162    0.542  116.051    3.851    0.000
  253.750    0.199    0.492  119.765    5.006    0.000
  254.000    0.210    0.455  117.401    6.755    0.000
  254.250    0.233    0.436  111.962    8.301    0.000
  254.500    0.245    0.434  107.742    9.644    0.000
  254.750    0.232    0.443  104.752   10.592    0.000
  255.000    0.232    0.446  103.596   10.793    0.000
  255.250    0.243    0.423  110.371   10.794    0.000
  255.500    0.237    0.422  111.643   10.018    0.000
  255.750    0.223    0.442  109.850    8.955    0.000
  256.000    0.228    0.434  105.037    7.856    0.000
  256.250    0.239    0.429  110.580    6.638    0.000
