~VERSION INFORMATION
 VERS.                 2.0:   CWLS LOG ASCII STANDARD -VERSION 2.0
 WRAP.                  NO:   ONE LINE PER DEPTH STEP
~WELL INFORMATION BLOCK
#MNEM.UNIT           DATA                    DESCRIPTION OF MNEMONIC
#---------    -------------------            -------------------------------
# Generated from Intellog Unique Number	CC_84_87/WELL/2318
NULL.         -999.25                        : NULL_VALUE
WELL.         PEX PCEJ HANGST OV             : Well_name    - WELL
LOC .         10-32-084-11W4                 : Location     - LOCATION          
UWI .         00/10-32-084-11W400            : Uwi          - UNIQUE WELL ID    
ENTR.         DW                             : Entered      - ENTERED BY        
SRVC.         DRESSER ATLAS                  : Scn          - SERVICE COMPANY   
DATE.         17 FEB 81                      : Date         - LOG DATE
STRT.M        110                            : top_depth    - START DEPTH       
STOP.M        299.9                          : bot_depth    - STOP DEPTH        
STEP.M        0.3                            : increment    - STEP LENGTH       
~CURVE INFORMATION BLOCK
#MNEM UNIT       ERCB CURVE CODE    CURVE DESCRIPTION
#-----------   ------------------   ----------------------------------
DEPT.M        00 001 00 00         : DEPTH        - DEPTH                       
DPHI.V/V      00 890 00 00         : PHID         - DENSITY POROSITY (LIMESTONE)
NPHI.V/V      00 330 00 00         : PHIN         - NEUTRON POROSITY (LIMESTONE)
GR  .API      00 310 00 00         : GR           - GAMMA RAY                   
ILD .OHMM     00 120 00 00         : RESD         - DEEP RESISTIVITY (DIL)      
~PARAMETER INFORMATION       
#MNEM.UNIT           DATA             DESCRIPTION OF MNEMONIC
#---------         -----------     ------------------------------
GL  .M        542.43               : gl           - GROUND LEVEL ELEVATION      
EREF.M        545.8                : kb           - ELEVATION OF DEPTH REFERENCE
DATM.M        545.8                : datum        - DATUM ELEVATION             
TDD .M        303                  : tdd          - TOTAL DEPTH DRILLER         
RUN .         ONE                  : Run          - RUN NUMBER                  
ENG .         BILL                 : Engineer     - RECORDING ENGINEER          
WIT .         JIM                  : Witness      - WITNESSED BY                
MUD .         GEL                  : Mud_type     - MUD TYPE                    
MATR.         LIMESTONE            : Logunit      - NEUTRON MATRIX              
TMAX.C        15                   : BHT          - MAXIMUM RECORDED TEMPERATURE
BHTD.M        3032                 : BHTDEP       - MAXIMUM RECORDED TEMPERATURE
MATR.         1                    : LOGUNIT      - NEUTRON MATRIX              
RMT .C        25                   : MDTP         - TEMPERATURE OF MUD          
NEUT.         1                    : NEUTRON      - NEUTRON TYPE                
RESI.         0                    : RESIST       - RESISTIVITY TYPE            
RMC .OHMM     0.25                 : RMC          - RESISTIVITY OF MUD CAKE     
RMF .OHMM     0.25                 : RMF          - RESISTIVITY OF MUD FILTRATE 
SUFT.C        15                   : SUFT         - SURFACE TEMPERATURE         
~A  DEPTH     PHID     PHIN       GR     RESD
# ...
  266.601    0.279    0.366   66.975   43.693
  266.901    0.266    0.375   67.577   39.752
  267.201    0.327    0.393   67.564   35.491
  267.501    0.319    0.393   74.341   31.684
  267.801    0.297    0.375   85.435   30.503
  268.101    0.265    0.362   80.481   30.492
  268.401    0.292    0.377   76.768   36.782
  268.701    0.296    0.387   66.881   38.909
  269.001    0.297    0.395   64.399   38.163
  269.301    0.324    0.395   74.258   36.056
  269.601    0.300    0.389   86.588   34.703
  269.901    0.261    0.386   82.255   36.704
  270.201    0.303    0.400   60.644   45.978
  270.501    0.308    0.393   47.671   50.496
  270.801    0.277    0.389   63.084   49.537
  271.101    0.345    0.400   48.262   40.254
  271.401    0.330    0.365   42.078   34.613
  271.701    0.285    0.378   59.959   34.599
  272.001    0.280    0.373   67.347   40.204
  272.301    0.270    0.377   64.867   56.385
  272.601    0.274    0.367   48.195   69.322
  272.901    0.309    0.372   44.478   74.703
  273.201    0.302    0.388   40.143   63.036
  273.501    0.319    0.378   40.746   52.199
  273.801    0.308    0.391   47.517   48.401
  274.101    0.292    0.396   52.444   45.717
  274.401    0.335    0.387   60.454   48.349
  274.701    0.292    0.413   65.994   51.143
  275.001    0.281    0.403   99.303   59.416
  275.301    0.280    0.387   52.391   62.838
  275.601    0.295    0.387   64.715   64.006
  275.901    0.303    0.376   60.386   61.612
  276.201    0.316    0.373   75.797   60.448
  276.501    0.286    0.407   76.403   68.913
  276.801    0.318    0.432   55.410   71.532
  277.101    0.341    0.398   41.819   74.234
  277.401    0.345    0.401   35.635   72.834
  277.701    0.342    0.412   47.964   53.875
  278.001    0.329    0.398   62.139   41.379
  278.301    0.265    0.385   59.660   39.087
  278.601    0.310    0.383   49.773   42.928
  278.901    0.338    0.402   42.973   52.777
  279.201    0.338    0.413   36.171   74.013
  279.501    0.327    0.404   47.265   82.827
  279.801    0.328    0.410   52.188   75.356
  280.100    0.342    0.410   49.700   50.734
  280.400    0.323    0.374   49.691   36.830
  280.700    0.248    0.337   60.170   28.826
  281.000    0.286    0.353   71.264   27.749
  281.300    0.329    0.378   61.992   36.094
  281.600    0.342    0.398   49.022   49.679
  281.900    0.329    0.405   44.688   72.341
  282.200    0.330    0.417   38.502   76.520
  282.500    0.316    0.409   36.639   82.456
  282.800    0.310    0.403   44.028   82.427
  283.100    0.322    0.397   44.018   76.417
  283.400    0.338    0.372   40.301   56.523
  283.700    0.305    0.377   45.838   46.808
  284.000    0.263    0.386   53.849   44.221
  284.300    0.311    0.388   58.157   52.357
  284.600    0.334    0.414   43.332   61.985
  284.900    0.342    0.428   37.763   66.808
  285.200    0.354    0.404   38.365   70.653
  285.500    0.328    0.394   40.204   65.500
  285.800    0.334    0.381   43.276   50.314
  286.100    0.316    0.367   44.498   24.142
  286.400    0.272    0.380   53.125   16.254
  286.700    0.225    0.425   98.775   13.460
  287.000    0.241    0.434  100.612   11.147
  287.300    0.197    0.442  108.620    7.940
  287.600    0.204    0.446  120.949    7.224
  287.900    0.195    0.429  113.529    6.953
  288.200    0.231    0.408  109.196    7.083
  288.500    0.242    0.408  107.331    7.491
  288.800    0.214    0.424  104.851    8.870
  289.100    0.217    0.424   96.816   11.539
  289.400    0.247    0.379   79.524   15.010
  289.700    0.267    0.422   67.164   18.109
  290.000    0.280    0.387   65.297   18.443
  290.300    0.269    0.380   66.524   15.858
  290.600    0.267    0.399   65.276   13.636
  290.900    0.267    0.409   51.687   11.507
  291.200    0.246    0.352   43.651    9.894
  291.500    0.136    0.322   73.258    9.706
  291.800    0.097    0.316   74.475    9.887
  292.100    0.060    0.315   73.848   11.487
  292.400    0.037    0.347   65.812   16.111
  292.700    0.022    0.160   49.137   26.765
  293.000    0.004    0.131   37.399   44.468
  293.300    0.000    0.109   25.661   57.843
  293.600    0.000    0.120   18.855   61.177
  293.900    0.009    0.144   20.078   58.891
  294.200    0.020    0.157   27.469   51.597
  294.500    0.036    0.162   34.245   43.528
  294.800    0.049    0.151   41.020   40.357
  295.100    0.015    0.135   34.837   38.854
  295.400    0.006    0.140   29.269   38.109
  295.700    0.017    0.165   31.724   38.825
  296.000    0.025    0.155   40.967   42.626
  296.300    0.000    0.141   38.480   45.940
  296.600    0.004    0.134   34.148   48.590
  296.900    0.028    0.132   31.669   52.367
  297.200    0.043    0.132   30.420   56.426
  297.500    0.026    0.134   30.407   56.414
  297.800    0.044    0.134   32.247   56.385
  298.100    0.009    0.136   34.696   54.281
  298.400    0.006    0.140   35.919   54.257
  298.700    0.018    0.141   37.139   55.258
  299.000    0.010    0.141   35.277   55.233
  299.300    0.000    0.140   30.943   53.173
  299.600    0.025    0.141   29.080   48.376
  299.900    0.026    0.143   27.831   44.843
