~VERSION INFORMATION
 VERS.                 2.0:   CWLS LOG ASCII STANDARD -VERSION 2.0
 WRAP.                  NO:   ONE LINE PER DEPTH STEP
~WELL INFORMATION BLOCK
#MNEM.UNIT           DATA                    DESCRIPTION OF MNEMONIC
#---------    -------------------            -------------------------------
# Generated from Intellog Unique Number	CS_73_76/WELL/3276
WELL.         CWWE HARDY                     : Well_name    - WELL
LOC .         00/13-32-076-04W4/0            : Location     - LOCATION
UWI .         00/13-32-076-04W4/0            : Uwi          - UNIQUE WELL ID
ENTR.         SP                             : Entered      - ENTERED BY
SRVC.         SCHLUMBERGER                   : Scn          - SERVICE COMPANY
STRT.M        165                            : top_depth    - START DEPTH
STOP.M        425                            : bot_depth    - STOP DEPTH
STEP.M        0.25                           : increment    - STEP LENGTH
 NULL. -999.2500:NULL Value
~CURVE INFORMATION BLOCK
#MNEM UNIT       ERCB CURVE CODE    CURVE DESCRIPTION
#-----------   ------------------   ----------------------------------
DEPT.M        00 001 00 00         : DEPTH        - DEPTH
DPHI.V/V      00 890 00 00         : PHID         - DENSITY POROSITY (LIMESTONE)
NPHI.V/V      00 330 00 00         : PHIN         - NEUTRON POROSITY (LIMESTONE)
GR  .API      00 310 00 00         : GR           - GAMMA RAY
ILD .OHMM     00 120 00 00         : RESD         - DEEP RESISTIVITY (DIL)
~PARAMETER INFORMATION
#MNEM.UNIT           DATA             DESCRIPTION OF MNEMONIC
#---------         -----------     ------------------------------
GL  .M        580.54               : gl           - GROUND LEVEL ELEVATION
EREF.M        583.04               : kb           - ELEVATION OF DEPTH REFERENCE
DATM.M        580.54               : datum        - DATUM ELEVATION
TDD .M        428                  : tdd          - TOTAL DEPTH DRILLER
RUN .         ONE                  : Run          - RUN NUMBER
ENG .         BILL                 : Engineer     - RECORDING ENGINEER
WIT .         JIM                  : Witness      - WITNESSED BY
MUD .         GEL                  : Mud_type     - MUD TYPE
MATR.         LIMESTONE            : Logunit      - NEUTRON MATRIX
TMAX.C        60                   : BHT          - MAXIMUM RECORDED TEMPERATURE
BHTD.M        428                  : BHTDEP       - MAXIMUM RECORDED TEMPERATURE
MATR.         1                    : LOGUNIT      - NEUTRON MATRIX
RMT .C        25                   : MDTP         - TEMPERATURE OF MUD
NEUT.         1                    : NEUTRON      - NEUTRON TYPE
RESI.         0                    : RESIST       - RESISTIVITY TYPE
RMC .OHMM     0.25                 : RMC          - RESISTIVITY OF MUD CAKE
RMF .OHMM     0.25                 : RMF          - RESISTIVITY OF MUD FILTRATE
SUFT.C        15                   : SUFT         - SURFACE TEMPERATURE
~A  DEPTH     PHID     PHIN       GR     RESD
# ...
  208.500    0.280    0.362   89.885   20.682
  208.750    0.273    0.382  100.257   20.689
  209.000    0.268    0.385  101.482   20.697
  209.250    0.262    0.377   96.608   19.940
  209.500    0.255    0.355   86.857   21.099
  209.750    0.257    0.323   67.348   22.325
  210.000    0.274    0.321   48.450   23.621
  210.250    0.290    0.316   38.089   25.466
  210.500    0.310    0.303   42.362   27.455
  210.750    0.316    0.314   52.733   28.510
  211.000    0.317    0.330   60.056   30.167
  211.250    0.324    0.328   55.182   31.326
  211.500    0.330    0.329   49.700   32.533
  211.750    0.325    0.322   47.266   31.940
  212.000    0.318    0.319   50.319   31.946
  212.250    0.314    0.329   59.471   31.959
  212.500    0.298    0.345   65.574   32.570
  212.750    0.276    0.355   62.530   32.582
  213.000    0.311    0.356   57.657   31.985
  213.250    0.329    0.348   47.295   30.248
  213.500    0.335    0.338   43.031   29.146
  213.750    0.322    0.348   47.306   28.082
  214.000    0.305    0.341   68.652   23.736
  214.250    0.221    0.330   83.292   19.324
  214.500    0.188    0.334   89.394   16.030
  214.750    0.188    0.341   76.594   14.602
  215.000    0.248    0.343   64.403   16.344
  215.250    0.281    0.327   50.993   18.293
  215.500    0.308    0.324   46.730   20.094
  215.750    0.317    0.335   44.906   22.071
  216.000    0.307    0.327   41.251   26.128
  216.250    0.297    0.317   34.549   29.796
  216.500    0.301    0.311   29.066   30.941
  216.750    0.311    0.311   24.193   30.953
  217.000    0.315    0.317   24.807   29.272
  217.250    0.314    0.306   29.081   27.681
  217.500    0.304    0.287   38.232   26.177
  217.750    0.277    0.315   72.995   20.528
  218.000    0.248    0.346   79.707   17.351
  218.250    0.224    0.370   77.883   16.408
  218.500    0.263    0.358   74.840   16.413
  218.750    0.274    0.354   73.014   16.729
  219.000    0.288    0.345   71.799   17.699
  219.250    0.291    0.335   74.244   18.727
  219.500    0.276    0.346   79.737   17.382
  219.750    0.265    0.356   94.986   15.834
  220.000    0.233    0.369  106.576   14.155
  220.250    0.213    0.382  111.459   12.655
  220.500    0.205    0.394  115.734   11.315
  220.750    0.208    0.398  118.787   10.700
  221.000    0.213    0.399  118.182    9.747
  221.250    0.217    0.400  117.577    9.218
  221.500    0.218    0.399  110.265    9.049
  221.750    0.219    0.396  107.221    8.884
  222.000    0.219    0.395  104.786    8.887
  222.250    0.221    0.395  102.962    9.403
  222.500    0.226    0.399  101.747    9.765
  222.750    0.251    0.405   97.484   10.527
  223.000    0.261    0.399   90.781   11.348
  223.250    0.270    0.388   93.226   13.186
  223.500    0.271    0.377   98.718   14.216
  223.750    0.262    0.380  104.211   14.763
  224.000    0.257    0.389  101.777   15.047
  224.250    0.266    0.403   95.684   14.772
  224.500    0.260    0.394   96.908   14.503
  224.750    0.244    0.388   99.962   14.507
  225.000    0.223    0.388   95.699   15.350
  225.250    0.223    0.369   86.557   16.240
  225.500    0.262    0.352   68.269   17.510
  225.750    0.291    0.353   53.639   18.183
  226.000    0.302    0.353   45.717   18.882
  226.250    0.314    0.342   41.453   20.741
  226.500    0.323    0.323   43.898   21.946
  226.750    0.311    0.329   52.439   21.545
  227.000    0.273    0.342   77.445   17.873
  227.250    0.248    0.356   80.500   16.588
  227.500    0.243    0.366   79.894   15.982
  227.750    0.251    0.364   79.289   15.400
  228.000    0.249    0.352   83.563   14.564
  228.250    0.239    0.353   90.275   12.780
  228.500    0.239    0.368   98.817   11.861
  228.750    0.265    0.425   94.553   10.407
  229.000    0.295    0.450   87.241    9.659
  229.250    0.308    0.429   80.538   10.413
  229.500    0.308    0.396   78.105   12.799
  229.750    0.300    0.378   81.158   14.324
  230.000    0.292    0.369   87.871   18.622
  230.250    0.282    0.349   87.267   19.337
  230.500    0.272    0.365   86.661   17.948
  230.750    0.260    0.373   90.324   16.973
  231.000    0.261    0.372   84.841   16.052
  231.250    0.257    0.359   87.286   14.897
  231.500    0.249    0.348   92.169   13.319
  231.750    0.239    0.351   94.613   12.364
  232.000    0.233    0.358   93.399   12.136
  232.250    0.234    0.383   92.185   11.694
  232.500    0.229    0.383   92.188   11.060
  232.750    0.214    0.375   93.413   10.857
  233.000    0.210    0.357   89.149   11.275
  233.250    0.240    0.342   83.057   11.708
  233.500    0.252    0.331   73.305   12.388
  233.750    0.267    0.327   67.212   12.864
  234.000    0.277    0.324   65.388   12.869
  234.250    0.271    0.325   70.271   12.634
  234.500    0.262    0.336   73.324   12.173
  234.750    0.250    0.351   72.721   11.089
  235.000    0.252    0.384   69.676   10.886
  235.250    0.264    0.395   69.681   11.097
  235.500    0.289    0.387   62.979   11.099
  235.750    0.312    0.391   59.934   11.312
  236.000    0.343    0.410   58.110   12.425
  236.250    0.368    0.422   58.115   13.649
  236.500    0.373    0.433   60.559   14.715
  236.750    0.373    0.445   61.173   15.281
  237.000    0.365    0.441   56.301   15.576
  237.250    0.357    0.366   53.866   15.873
  237.500    0.358    0.384   52.652   16.484
  237.750    0.368    0.407   54.486   17.117
  238.000    0.369    0.427   56.320   17.776
  238.250    0.371    0.429   55.716   18.460
  238.500    0.405    0.407   54.501   19.172
  238.750    0.414    0.414   53.286   19.540
  239.000    0.375    0.411   61.218   19.546
  239.250    0.349    0.392   67.320   19.552
  239.500    0.329    0.380   67.935   19.556
  239.750    0.327    0.374   64.281   19.934
  240.000    0.332    0.370   59.408   20.316
  240.250    0.333    0.387   57.584   20.705
  240.500    0.333    0.390   57.589   21.104
  240.750    0.334    0.387   56.375   21.109
  241.000    0.337    0.384   53.940   21.115
  241.250    0.342    0.384   53.336   21.520
  241.500    0.342    0.382   53.340   21.528
  241.750    0.337    0.380   52.735   21.135
  242.000    0.334    0.390   52.740   21.140
  242.250    0.340    0.383   53.965   21.547
  242.500    0.340    0.376   55.799   21.156
  242.750    0.340    0.381   58.243   21.160
  243.000    0.349    0.390   60.687   21.166
  243.250    0.355    0.401   61.302   20.780
  243.500    0.358    0.392   60.697   20.402
  243.750    0.358    0.380   57.653   20.792
  244.000    0.356    0.370   53.389   20.414
  244.250    0.350    0.369   55.224   20.420
  244.500    0.345    0.369   55.839   20.812
  244.750    0.342    0.364   55.234   20.820
  245.000    0.342    0.359   55.849   20.824
  245.250    0.338    0.366   57.074   20.833
  245.500    0.333    0.374   58.907   20.837
  245.750    0.327    0.374   58.303   21.239
  246.000    0.323    0.376   60.137   21.244
  246.250    0.318    0.382   60.752   21.654
  246.500    0.318    0.374   62.586   22.069
  246.750    0.328    0.367   64.420   22.492
  247.000    0.327    0.370   62.596   22.500
  247.250    0.326    0.373   59.552   22.505
  247.500    0.322    0.381   56.508   22.097
  247.750    0.323    0.370   55.902   22.101
  248.000    0.323    0.355   60.177   22.109
  248.250    0.321    0.364   70.547   22.114
  248.500    0.318    0.376   71.772   21.714
  248.750    0.314    0.409   71.776   21.719
  249.000    0.313    0.432   71.172   21.322
  249.250    0.306    0.434   69.347   20.931
  249.500    0.296    0.421   68.743   21.738
  249.750    0.293    0.398   68.137   21.745
  250.000    0.311    0.384   67.533   22.161
  250.250    0.319    0.377   68.147   22.168
  250.500    0.324    0.400   69.373   20.575
  250.750    0.329    0.435   71.816   19.458
  251.000    0.329    0.436   72.431   18.401
  251.250    0.328    0.426   71.216   17.729
  251.500    0.320    0.415   72.441   17.405
  251.750    0.309    0.397   75.495   17.413
