~VERSION INFORMATION
 VERS.                 2.0:   CWLS LOG ASCII STANDARD -VERSION 2.0
 WRAP.                  NO:   ONE LINE PER DEPTH STEP
~WELL INFORMATION BLOCK
#MNEM.UNIT           DATA                    DESCRIPTION OF MNEMONIC
#---------    -------------------            -------------------------------
# Generated from Intellog Unique Number	CW_82_90/WELL/829
WELL.         PACIFIC ISADORE 10-17          : Well_name    - WELL
LOC .         00/10-17-083-19W4/0            : Location     - LOCATION
UWI .         00/10-17-083-19W400            : Uwi          - UNIQUE WELL ID
ENTR.         J                              : Entered      - ENTERED BY
SRVC.         SCHLUMBERGER                   : Scn          - SERVICE COMPANY
DATE.         28 FEB 75                      : Date         - LOG DATE
STRT.M        192.024                        : top_depth    - START DEPTH
STOP.M        350.524                        : bot_depth    - STOP DEPTH
STEP.M        0.25                           : increment    - STEP LENGTH
 NULL. -999.2500:NULL Value
~CURVE INFORMATION BLOCK
#MNEM UNIT       ERCB CURVE CODE    CURVE DESCRIPTION
#-----------   ------------------   ----------------------------------
DEPT.M        00 001 00 00         : DEPTH        - DEPTH
CALI.MM       00 280 01 00         : CAL          - CALIPER
GR  .API      00 310 00 00         : GR           - GAMMA RAY
NPHI.V/V      00 330 00 00         : PHIN         - NEUTRON POROSITY (SANDSTONE)
DPHI.V/V      00 890 00 00         : PHID         - DENSITY POROSITY (SANDSTONE)
ILD .OHMM     00 120 00 00         : RESD         - DEEP RESISTIVITY (DIL)
~PARAMETER INFORMATION
#MNEM.UNIT           DATA             DESCRIPTION OF MNEMONIC
#---------         -----------     ------------------------------
GL  .M        586.74               : gl           - GROUND LEVEL ELEVATION
EREF.M        589.239              : kb           - ELEVATION OF DEPTH REFERENCE
DATM.M        586.74               : datum        - DATUM ELEVATION
TDD .M        426.72               : tdd          - TOTAL DEPTH DRILLER
RUN .         ONE                  : Run          - RUN NUMBER
ENG .         BERNISKY             : Engineer     - RECORDING ENGINEER
WIT .         ROSS                 : Witness      - WITNESSED BY
BASE.         EDMONTON             : Branch       - HOME BASE OF LOGGING UNIT
MUD .         GEL CHEM             : Mud_type     - MUD TYPE
MATR.         SANDSTONE            : Logunit      - NEUTRON MATRIX
TMAX.C        20.5556              : BHT          - MAXIMUM RECORDED TEMPERATURE
BHTD.M        426.72               : BHTDEP       - MAXIMUM RECORDED TEMPERATURE
RMT .C        12.2222              : MDTP         - TEMPERATURE OF MUD
MUDD.KG/M     1000                 : MWT          - MUD DENSITY
NEUT.         0                    : NEUTRON      - NEUTRON TYPE
RESI.         54                   : RESIST       - RESISTIVITY TYPE
RM  .OHMM     2.82                 : RM           - RESISTIVITY OF MUD
RMC .OHMM     0                    : RMC          - RESISTIVITY OF MUD CAKE
RMF .OHMM     2.45                 : RMF          - RESISTIVITY OF MUD FILTRATE
SUFT.C        -17.7778             : SUFT         - SURFACE TEMPERATURE
~A  DEPTH      CAL       GR     PHIN     PHID     RESD
# ...
  228.524  164.211   54.139    0.476    0.342   14.266
  228.774  164.320   56.233    0.475    0.343   14.270
  229.024  164.326   56.360    0.484    0.339   14.312
  229.274  164.435   55.871    0.467    0.332   14.332
  229.524  164.754   53.906    0.440    0.321   14.367
  229.774  165.593   50.405    0.437    0.306   14.310
  230.024  166.119   52.499    0.447    0.289   14.380
  230.274  166.125   55.885    0.454    0.342   14.471
  230.524  164.778   60.193    0.465    0.342   14.562
  230.774  163.847   65.363    0.488    0.345   14.731
  231.024  163.332   62.660    0.510    0.346   14.854
  231.274  163.233   54.608    0.484    0.343   15.160
  231.524  163.239   52.705    0.446    0.343   15.251
  231.774  163.661   51.908    0.447    0.338   15.299
  232.024  163.563   49.452    0.448    0.329   15.064
  232.274  164.090   49.148    0.400    0.316   14.921
  232.524  164.720   52.780    0.385    0.294   14.767
  232.774  165.560   56.596    0.386    0.262   14.706
  233.024  166.087   56.354    0.481    0.228   14.449
  233.274  166.614   55.496    0.477    0.297   14.272
  233.524  167.036   55.132    0.471    0.339   14.196
  233.774  167.251   55.504    0.469    0.338   14.276
  234.024  167.672   56.492    0.471    0.338   14.329
  234.274  168.199   57.355    0.473    0.341   14.547
  234.524  169.142   57.974    0.475    0.339   14.719
  234.774  170.398   58.100    0.476    0.338   14.885
  235.024  171.028   56.382    0.475    0.343   15.218
  235.274  171.139   52.819    0.479    0.340   15.608
  235.524  171.561   51.223    0.474    0.345   16.393
  235.774  171.670   50.920    0.496    0.352   18.017
  236.024  171.781   50.676    0.513    0.352   19.155
  236.274  171.579   49.942    0.441    0.344   21.002
  236.524  171.584   49.330    0.410    0.329   22.632
  236.774  171.695   48.227    0.382    0.304   25.114
  237.024  171.492   47.308    0.359    0.271   24.992
  237.274  171.185   46.573    0.311    0.211   24.123
  237.524  171.191   46.454    0.271    0.179   21.871
  237.774  171.510   46.334    0.261    0.167   20.586
  238.024  171.725   46.276    0.277    0.155   19.479
  238.274  171.938   46.096    0.301    0.148   18.682
  238.524  171.632   46.222    0.320    0.161   17.772
  238.774  170.492   47.270    0.354    0.206   17.074
  239.024  168.831   45.614    0.400    0.253   16.385
  239.274  166.859   44.756    0.479    0.326   15.657
  239.524  164.991   45.067    0.470    0.338   15.200
  239.774  163.955   45.748    0.460    0.351   14.949
  240.024  163.128   46.612    0.453    0.357   14.729
  240.274  162.821   47.538    0.459    0.362   14.573
  240.524  162.515   48.649    0.471    0.360   14.644
  240.774  162.520   49.144    0.461    0.358   14.639
  241.024  162.424   49.270    0.453    0.360   14.702
  241.274  162.013   49.028    0.460    0.358   14.624
  241.524  161.914   47.494    0.472    0.352   14.623
  241.774  162.232   47.067    0.468    0.355   14.605
  242.024  162.759   47.009    0.456    0.358   14.555
  242.274  163.389   46.582    0.454    0.357   14.522
  242.524  164.436   46.462    0.459    0.358   14.466
  242.774  165.796   46.282    0.439    0.361   14.360
  243.024  167.260   45.669    0.433    0.361   14.259
  243.274  168.203   46.350    0.433    0.357   14.105
  243.524  167.689   47.952    0.442    0.356   13.854
  243.774  166.549   49.739    0.454    0.363   13.450
  244.024  165.201   51.465    0.460    0.362   13.358
  244.274  165.103   52.329    0.466    0.357   13.286
  244.524  164.484   53.378    0.471    0.354   13.324
  244.774  164.490   54.242    0.462    0.351   13.295
  245.024  164.496   54.800    0.458    0.348   13.332
  245.274  164.398   54.926    0.473    0.345   13.414
  245.524  164.612   55.422    0.484    0.343   13.485
  245.774  164.618   56.163    0.484    0.333   13.541
  246.024  164.728   57.212    0.480    0.339   13.608
  246.274  165.151   57.892    0.466    0.343   13.623
  246.524  165.261   55.435    0.468    0.345   13.599
  246.774  165.683   54.578    0.471    0.357   13.642
  247.024  165.169   55.012    0.472    0.360   13.639
  247.274  164.966   55.261    0.468    0.357   13.581
  247.524  164.867   55.019    0.466    0.356   13.593
  247.774  164.874   55.761    0.463    0.352   13.547
  248.024  164.775   56.932    0.469    0.343   13.588
  248.274  164.052   57.920    0.479    0.336   13.649
  248.524  164.059   58.415    0.484    0.336   13.441
  248.774  164.689   58.727    0.483    0.336   13.473
  249.024  165.007   59.161    0.477    0.337   13.491
  249.274  165.221   59.225    0.462    0.338   13.462
  249.524  164.603   59.414    0.459    0.336   13.367
  249.774  164.088   59.478    0.461    0.335   13.425
  250.024  163.053   59.544    0.465    0.336   13.328
  250.274  162.849   59.731    0.463    0.334   13.507
  250.524  162.543   60.535    0.446    0.329   14.340
  250.774  162.133   61.646    0.433    0.321   15.803
  251.024  162.242   62.571    0.439    0.309   18.655
  251.274  163.395   62.820    0.447    0.295   21.617
  251.524  164.233   60.179    0.424    0.259   25.208
  251.774  165.280   53.664    0.404    0.170   29.057
  252.024  166.328   46.349    0.294    0.072   27.779
  252.274  166.751   42.601    0.147    0.003   22.716
  252.524  166.757   41.497    0.135   -0.009   19.557
  252.774  166.554   41.563    0.140    0.013   17.018
  253.024  166.456   42.611    0.151    0.013   15.346
  253.274  166.045   46.120    0.168    0.029   14.318
  253.524  165.426   51.044    0.192    0.085   13.643
  253.774  165.327   58.181    0.346    0.140   13.311
  254.024  165.022   63.351    0.438    0.284   13.088
  254.274  164.611   61.940    0.450    0.310   12.872
  254.524  164.200   60.591    0.451    0.308   12.650
  254.774  164.936   60.656    0.448    0.312   12.454
  255.024  165.357   61.581    0.442    0.317   12.450
  255.274  165.051   64.660    0.439    0.319   12.570
  255.524  165.369   67.677    0.461    0.319   12.647
  255.774  164.959   68.972    0.464    0.317   12.794
  256.024  164.652   69.898    0.470    0.320   12.789
  256.274  163.824   70.762    0.486    0.315   12.686
  256.524  163.311   67.199    0.477    0.310   12.523
  256.774  163.107   66.218    0.457    0.313    9.708
  257.024  163.009   66.837    0.467    0.313    7.764
  257.274  163.641   67.701    0.489    0.309    6.276
  257.524  164.480   70.841    0.489    0.309    5.609
  257.774  164.902   74.289    0.486    0.313    5.190
  258.024  165.429   79.766    0.490    0.305    4.997
  258.274  167.309   86.042    0.497    0.292    5.040
  258.524  169.918   90.966    0.504    0.277    5.175
  258.774  175.236   95.151    0.527    0.252    5.449
  259.024  177.011   97.615    0.516    0.245    5.671
  259.274  178.893   95.835    0.515    0.237    6.156
  259.524  179.211   90.857    0.519    0.252    7.279
  259.774  178.487   86.617    0.509    0.246    8.804
  260.024  177.660   86.190    0.529    0.245    9.942
  260.274  175.167   85.332    0.509    0.239   10.569
  260.524  172.152   82.076    0.488    0.254   10.893
  260.774  167.368   78.267    0.473    0.224   11.308
  261.024  166.853   79.685    0.467    0.200   11.821
  261.274  167.692   82.517    0.463    0.197   12.352
  261.524  169.052   86.211    0.453    0.218   12.893
  261.774  169.579   90.458    0.442    0.232   13.223
  262.024  169.585   92.060    0.442    0.231   13.395
  262.274  169.174   91.756    0.465    0.228   13.505
  262.524  168.763   89.976    0.467    0.219   13.665
  262.774  167.831   89.734    0.467    0.233   13.800
  263.024  168.775   90.168    0.473    0.236   14.056
  263.274  169.510   89.741    0.494    0.237   14.175
  263.524  170.349   88.760    0.462    0.234   14.138
  263.774  170.146   89.317    0.454    0.228   13.565
  264.024  170.049   90.427    0.464    0.227   12.640
  264.274  170.054   90.247    0.476    0.230   12.358
  264.524  170.060   91.296    0.469    0.243   12.202
  264.774  170.483   92.837    0.453    0.251   12.448
