~VERSION INFORMATION
 VERS.                 2.0:   CWLS LOG ASCII STANDARD -VERSION 2.0
 WRAP.                  NO:   ONE LINE PER DEPTH STEP
~WELL INFORMATION BLOCK
#MNEM.UNIT           DATA                    DESCRIPTION OF MNEMONIC
#---------    -------------------            -------------------------------
# Generated from Intellog Unique Number	CW_82_90/WELL/3455
WELL.         NUMAC LIEGE                    : Well_name    - WELL
LOC .         00/11-25-088-21W4/0            : Location     - LOCATION
UWI .         00/11-25-088-21W4/0            : Uwi          - UNIQUE WELL ID
ENTR.         MAX                            : Entered      - ENTERED BY
SRVC.         WESTERN ATLAS                  : Scn          - SERVICE COMPANY
STRT.M        125                            : top_depth    - START DEPTH
STOP.M        281                            : bot_depth    - STOP DEPTH
STEP.M        0.25                           : increment    - STEP LENGTH
 NULL. -999.2500:NULL Value
~CURVE INFORMATION BLOCK
#MNEM UNIT       ERCB CURVE CODE    CURVE DESCRIPTION
#-----------   ------------------   ----------------------------------
DEPT.M        00 001 00 00         : DEPTH        - DEPTH
ILD .OHMM     00 120 00 00         : RESD         - DEEP RESISTIVITY (DIL)
NPHI.V/V      00 330 00 00         : PHIN         - NEUTRON POROSITY (SANDSTONE)
DPHI.V/V      00 890 00 00         : PHID         - DENSITY POROSITY (SANDSTONE)
CALI.MM       00 280 01 00         : CAL          - CALIPER
GR  .API      00 310 00 00         : GR           - GAMMA RAY
~PARAMETER INFORMATION
#MNEM.UNIT           DATA             DESCRIPTION OF MNEMONIC
#---------         -----------     ------------------------------
GL  .M        530.14               : gl           - GROUND LEVEL ELEVATION
EREF.M        533.79               : kb           - ELEVATION OF DEPTH REFERENCE
DATM.M        530.14               : datum        - DATUM ELEVATION
TDD .M        285.8                : tdd          - TOTAL DEPTH DRILLER
RUN .         ONE                  : Run          - RUN NUMBER
ENG .         BILL                 : Engineer     - RECORDING ENGINEER
WIT .         JIM                  : Witness      - WITNESSED BY
MUD .         GEL                  : Mud_type     - MUD TYPE
MATR.         SANDSTONE            : Logunit      - NEUTRON MATRIX
TMAX.C        25                   : BHT          - MAXIMUM RECORDED TEMPERATURE
BHTD.M        285.8                : BHTDEP       - MAXIMUM RECORDED TEMPERATURE
MATR.         1                    : LOGUNIT      - NEUTRON MATRIX
RMT .C        16                   : MDTP         - TEMPERATURE OF MUD
NEUT.         1                    : NEUTRON      - NEUTRON TYPE
RESI.         0                    : RESIST       - RESISTIVITY TYPE
RMC .OHMM     4                    : RMC          - RESISTIVITY OF MUD CAKE
RMF .OHMM     2.7                  : RMF          - RESISTIVITY OF MUD FILTRATE
SUFT.C        -5                   : SUFT         - SURFACE TEMPERATURE
~A  DEPTH     RESD     PHIN     PHID      CAL       GR
# ...
  198.000   29.435    0.311    0.282  215.452   52.123
  198.250   30.279    0.303    0.308  215.468   53.328
  198.500   32.030    0.347    0.359  215.484   56.627
  198.750   35.160    0.366    0.351  215.500   54.545
  199.000   40.051    0.341    0.312  216.514   49.770
  199.250   42.761    0.221    0.084  217.526   42.607
  199.500   36.222    0.244    0.146  215.051   47.399
  199.750   29.029    0.309    0.288  213.074   54.282
  200.000   27.477    0.344    0.323  213.088   55.487
  200.250   28.798    0.356    0.288  215.097   55.497
  200.500   31.034    0.334    0.168  217.105   59.392
  200.750   31.052    0.310    0.090  219.614   55.815
  201.000   27.297    0.292    0.080  221.622   53.135
  201.250   22.077    0.321    0.180  223.132   63.008
  201.500   18.359    0.347    0.212  224.144   75.272
  201.750   15.699    0.390    0.231  225.161   86.938
  202.000   15.136    0.369    0.243  227.169   86.947
  202.250   14.462    0.330    0.249  230.668   94.130
  202.500   14.075    0.390    0.248  232.178   90.854
  202.750   13.572    0.382    0.240  231.696   90.565
  203.000   13.210    0.355    0.237  231.712   90.574
  203.250   13.098    0.407    0.235  232.724   87.595
  203.500   13.105    0.399    0.217  233.240   84.018
  203.750   13.238    0.354    0.179  233.256   82.233
  204.000   13.371    0.368    0.161  233.270   85.530
  204.250   13.502    0.411    0.232  234.784   88.529
  204.500   13.388    0.454    0.234  234.798   90.032
  204.750   13.273    0.423    0.229  235.312   94.525
  205.000   13.281    0.398    0.232  236.822   99.317
  205.250   13.541    0.391    0.238  236.342   99.626
  205.500   14.593    0.344    0.242  233.367   93.359
  205.750   15.722    0.364    0.245  225.912   86.495
  206.000   17.101    0.366    0.247  220.947   86.504
  206.250   18.089    0.344    0.248  219.466   85.916
  206.500   18.959    0.326    0.192  219.984   82.040
  206.750   18.970    0.328    0.177  219.998   77.866
  207.000   18.984    0.347    0.195  219.018   75.782
  207.250   18.478    0.350    0.223  218.037   75.194
  207.500   17.817    0.343    0.243  217.555   81.181
  207.750   17.339    0.352    0.249  217.075   87.467
  208.000   16.720    0.379    0.251  216.590   88.374
  208.250   16.425    0.392    0.248  215.612   83.601
  208.500   16.136    0.387    0.237  215.628   89.289
  208.750   15.996    0.336    0.235  220.623   91.393
  209.000   16.008    0.316    0.252  228.111   96.184
  209.250   16.018    0.336    0.256  226.632   97.688
  209.500   16.029    0.369    0.248  220.173   89.030
  209.750   16.190    0.395    0.244  215.705   83.958
  210.000   16.202    0.406    0.261  213.728   86.657
  210.250   16.062    0.392    0.266  213.246   89.955
  210.500   15.925    0.374    0.261  214.760   89.069
  210.750   15.499    0.358    0.263  215.769   87.286
  211.000   14.672    0.398    0.259  217.281   87.894
  211.250   13.635    0.385    0.258  220.285   90.292
  211.500   12.906    0.364    0.263  222.792   92.991
  211.750   12.562    0.353    0.238  225.799   86.126
  212.000   12.001    0.346    0.212  224.320   81.951
  212.250   10.166    0.351    0.180  220.849   89.733
  212.500    9.804    0.350    0.265  218.870   90.341
  212.750    8.944    0.349    0.274  218.890   89.752
  213.000    8.083    0.350    0.269  218.902   84.083
  213.250    6.846    0.408    0.275  219.416   83.196
  213.500    5.641    0.417    0.287  219.434   87.689
  213.750    4.647    0.460    0.294  219.948   90.687
  214.000    3.974    0.444    0.288  220.962   93.685
  214.250    3.832    0.431    0.274  221.974   91.005
  214.500    3.979    0.417    0.261  222.488   91.612
  214.750    4.574    0.417    0.251  223.500   94.013
  215.000    6.155    0.406    0.237  224.014   85.355
  215.250    9.876    0.379    0.215  224.526   80.881
  215.500   12.690    0.388    0.157  224.544   72.522
  215.750   13.800    0.374    0.189  224.562   79.707
  216.000   14.873    0.366    0.212  224.576   82.406
  216.250   14.080    0.371    0.225  224.590   82.715
  216.500   13.205    0.380    0.218  224.607   80.631
  216.750   13.092    0.364    0.219  225.123   83.031
  217.000   13.471    0.362    0.234  225.137   89.019
  217.250   13.603    0.392    0.250  224.657   95.006
  217.500   13.995    0.409    0.254  223.675   92.028
  217.750   14.534    0.418    0.254  222.200   94.427
  218.000   15.091    0.401    0.257  220.219   92.944
  218.250   15.963    0.343    0.254  217.746   88.469
  218.500   17.525    0.350    0.248  215.768   83.996
  218.750   19.597    0.355    0.229  214.291   80.120
  219.000   21.712    0.340    0.174  213.311   74.749
  219.250   24.964    0.300    0.140  212.830   67.586
  219.500   28.172    0.284    0.113  212.344   69.388
  219.750   35.865    0.287    0.096  212.860   68.800
  220.000   40.854    0.283    0.081  214.867   66.418
  220.250   46.537    0.246    0.043  215.881   56.565
  220.500   50.614    0.232    0.001  215.897   49.102
  220.750   53.047    0.207    0.043  216.913   47.021
  221.000   54.074    0.217    0.066  218.419   50.916
  221.250   52.629    0.228    0.065  219.929   54.811
  221.500   49.823    0.228    0.059  220.447   58.107
  221.750   40.668    0.246    0.032  220.459   59.910
  222.000   36.417    0.267    0.106  220.477   53.644
  222.250   28.383    0.289    0.136  219.995   59.331
  222.500   21.920    0.328    0.209  216.524   69.504
  222.750   20.748    0.367    0.244  216.041   73.699
  223.000   19.459    0.384    0.252  215.561   75.203
  223.250   18.941    0.370    0.260  215.077   77.004
  223.500   19.128    0.368    0.255  214.596   73.726
  223.750   20.049    0.405    0.232  214.610   68.954
  224.000   21.405    0.390    0.217  215.126   68.068
  224.250   21.822    0.373    0.197  217.633   62.398
  224.500   23.083    0.349    0.214  219.641   63.005
  224.750   24.872    0.323    0.229  215.670   63.313
  225.000   25.352    0.274    0.039  219.311   51.755
  225.250   26.581    0.293    0.117  217.864   58.967
  225.500   29.187    0.311    0.098  219.437   54.814
  225.750   34.194    0.269    0.056  220.974   49.464
  226.000   46.430    0.241    0.038  222.035   46.806
  226.250   44.388    0.250    0.014  222.582   47.138
  226.500   37.289    0.276    0.096  223.137   61.533
  226.750   27.526    0.310    0.182  223.200   68.150
  227.000   23.770    0.362    0.203  223.256   71.175
  227.250   21.308    0.376    0.192  224.302   75.101
  227.500   19.995    0.351    0.157  223.874   73.340
  227.750   18.937    0.341    0.109  222.919   76.061
  228.000   17.448    0.358    0.208  223.473   80.881
  228.250   15.927    0.379    0.210  223.529   88.699
  228.500   14.675    0.397    0.203  224.098   89.331
  228.750   13.772    0.392    0.203  224.646   89.061
  229.000   13.289    0.374    0.219  224.709   83.117
  229.250   13.554    0.345    0.227  224.259   84.048
  229.500   13.821    0.347    0.225  224.315   86.171
  229.750   14.364    0.363    0.216  224.870   83.513
  230.000   14.779    0.363    0.198  224.428   77.864
  230.250   15.358    0.371    0.174  223.494   70.715
  230.500   15.373    0.383    0.187  223.543   74.637
  230.750   15.110    0.375    0.192  224.104   80.358
  231.000   14.579    0.364    0.151  224.160   75.307
  231.250   14.332    0.373    0.135  224.217   76.537
  231.500   14.351    0.375    0.197  224.273   82.852
  231.750   14.231    0.363    0.214  224.322   94.554
  232.000   14.648    0.378    0.216  224.378   86.508
  232.250   15.080    0.363    0.201  222.946   79.662
  232.500   15.095    0.364    0.109  222.510   71.322
  232.750   14.837    0.373    0.122  222.566   76.444
  233.000   14.861    0.395    0.207  222.615   76.474
  233.250   14.735    0.392    0.217  221.681   78.601
  233.500   14.352    0.370    0.212  221.232   83.723
  233.750   14.909    0.339    0.207  221.302   84.359
  234.000   16.071    0.344    0.150  221.344   75.113
  234.250   16.388    0.361    0.093  222.397   69.472
