~VERSION INFORMATION
 VERS.                 2.0:   CWLS LOG ASCII STANDARD -VERSION 2.0
 WRAP.                  NO:   ONE LINE PER DEPTH STEP
~WELL INFORMATION BLOCK
#MNEM.UNIT           DATA                    DESCRIPTION OF MNEMONIC
#---------    -------------------            -------------------------------
# Generated from Intellog Unique Number	CS_69_70/WELL/2878
WELL.         AEC FISHER 10-27-69-03 W4M     : Well_name    - WELL
LOC .         00/10-27-069-03W4/0            : Location     - LOCATION
UWI .         00/10-27-069-03W4/0            : Uwi          - UNIQUE WELL ID
ENTR.         ANDERSEN                       : Entered      - ENTERED BY
SRVC.         SCHLUMBERGER                   : Scn          - SERVICE COMPANY
STRT.M        365                            : top_depth    - START DEPTH
STOP.M        605                            : bot_depth    - STOP DEPTH
STEP.M        0.25                           : increment    - STEP LENGTH
 NULL. -999.2500:NULL Value
~CURVE INFORMATION BLOCK
#MNEM UNIT       ERCB CURVE CODE    CURVE DESCRIPTION
#-----------   ------------------   ----------------------------------
DEPT.M        00 001 00 00         : DEPTH        - DEPTH
ILD .OHMM     00 120 00 00         : RESD         - DEEP RESISTIVITY (DIL)
GR  .API      00 310 00 00         : GR           - GAMMA RAY
CALI.MM       00 280 01 00         : CAL          - CALIPER
NPHI.V/V      00 330 00 00         : PHIN         - NEUTRON POROSITY (SANDSTONE)
DPHI.V/V      00 890 00 00         : PHID         - DENSITY POROSITY (SANDSTONE)
~PARAMETER INFORMATION
#MNEM.UNIT           DATA             DESCRIPTION OF MNEMONIC
#---------         -----------     ------------------------------
GL  .M        707                  : gl           - GROUND LEVEL ELEVATION
EREF.M        710.3                : kb           - ELEVATION OF DEPTH REFERENCE
DATM.M        710.3                : datum        - DATUM ELEVATION
TDD .M        612                  : tdd          - TOTAL DEPTH DRILLER
RUN .         ONE                  : Run          - RUN NUMBER
ENG .         BILL                 : Engineer     - RECORDING ENGINEER
WIT .         JIM                  : Witness      - WITNESSED BY
MUD .         GEL                  : Mud_type     - MUD TYPE
MATR.         SANDSTONE            : Logunit      - NEUTRON MATRIX
TMAX.C        25                   : BHT          - MAXIMUM RECORDED TEMPERATURE
BHTD.M        612                  : BHTDEP       - MAXIMUM RECORDED TEMPERATURE
MATR.         1                    : LOGUNIT      - NEUTRON MATRIX
RMT .C        22                   : MDTP         - TEMPERATURE OF MUD
NEUT.         1                    : NEUTRON      - NEUTRON TYPE
RESI.         0                    : RESIST       - RESISTIVITY TYPE
RMC .OHMM     2.54                 : RMC          - RESISTIVITY OF MUD CAKE
RMF .OHMM     4.82                 : RMF          - RESISTIVITY OF MUD FILTRATE
SUFT.C        15                   : SUFT         - SURFACE TEMPERATURE
~A  DEPTH     RESD       GR      CAL     PHIN     PHID
# ...
  438.000    4.162   55.705  158.024    0.404    0.350
  438.250    4.169   59.725  158.078    0.404    0.351
  438.500    4.176   59.757  158.121    0.412    0.350
  438.750    4.106   58.644  158.175    0.405    0.352
  439.000    4.113   58.664  158.208    0.394    0.359
  439.250    4.045   57.550  158.262    0.409    0.362
  439.500    4.051   57.007  158.294    0.422    0.366
  439.750    3.986   57.033  158.359    0.426    0.366
  440.000    3.990   57.065  158.391    0.418    0.362
  440.250    3.927   58.230  159.384    0.420    0.358
  440.500    3.934   59.395  159.438    0.429    0.349
  440.750    3.939   58.288  159.481    0.433    0.347
  441.000    3.873   53.751  159.525    0.428    0.347
  441.250    3.880   53.777  159.568    0.432    0.347
  441.500    3.958   53.803  159.622    0.448    0.343
  441.750    4.429   54.968  159.654    0.436    0.338
  442.000    4.689   56.709  159.697    0.413    0.289
  442.250    4.784   57.311  160.701    0.339    0.208
  442.500    4.793   55.059  160.733    0.375    0.233
  442.750    4.712   52.800  160.776    0.433    0.284
  443.000    4.466   48.839  160.831    0.433    0.333
  443.250    4.233   48.302  160.874    0.426    0.356
  443.500    4.012   47.752  160.917    0.420    0.359
  443.750    3.873   43.227  160.960    0.413    0.365
  444.000    3.740   43.823  161.003    0.401    0.366
  444.250    3.677   47.273  161.057    0.402    0.363
  444.500    3.683   45.590  161.101    0.412    0.348
  444.750    3.625   43.907  160.195    0.425    0.341
  445.000    3.633   43.357  160.238    0.423    0.353
  445.250    3.636   44.522  159.332    0.414    0.359
  445.500    3.578   47.396  157.476    0.413    0.366
  445.750    3.581   47.998  155.621    0.415    0.373
  446.000    3.588   49.739  154.726    0.415    0.364
  446.250    3.593   47.487  155.718    0.414    0.354
  446.500    3.599   46.373  156.722    0.418    0.355
  446.750    3.605   45.830  156.754    0.421    0.352
  447.000    3.614   49.836  157.747    0.417    0.341
  447.250    3.687   66.957  157.801    0.422    0.332
  447.500    3.693   73.248  157.833    0.427    0.336
  447.750    3.697   74.413  157.876    0.423    0.344
  448.000    3.705   76.718  157.919    0.429    0.356
  448.250    3.642   89.851  157.973    0.443    0.360
  448.500    3.581   97.851  158.966    0.457    0.336
  448.750    3.458   99.023  160.908    0.479    0.305
  449.000    3.463   97.903  162.850    0.481    0.253
  449.250    3.536   92.233  162.893    0.463    0.264
  449.500    3.675   87.709  161.998    0.438    0.274
  449.750    3.819   86.595  159.182    0.431    0.278
  450.000    4.043   84.919  162.095    0.445    0.264
  450.250    4.279   80.382  162.138    0.456    0.253
  450.500    4.445   74.712  160.283    0.440    0.272
  450.750    4.623   69.611  155.579    0.428    0.290
  451.000    4.717   70.207  153.724    0.435    0.309
  451.250    4.724   70.802  154.717    0.441    0.317
  451.500    4.732   67.980  155.709    0.427    0.314
  451.750    4.826   60.601  155.752    0.402    0.333
  452.000    4.836   52.660  155.806    0.377    0.341
  452.250    4.842   53.818  155.839    0.385    0.335
  452.500    4.850   51.579  155.893    0.402    0.331
  452.750    4.862   53.307  155.925    0.395    0.339
  453.000    4.779   52.763  155.979    0.387    0.340
  453.250    4.700   50.511  155.073    0.409    0.341
  453.500    4.621   49.967  155.106    0.427    0.343
  453.750    4.545   51.139  154.232    0.433    0.344
  454.000    4.469   53.437  154.264    0.427    0.342
  454.250    4.560   57.456  154.308    0.416    0.336
  454.500    4.567   59.191  154.351    0.405    0.329
  454.750    4.575   59.786  154.394    0.412    0.333
  455.000    4.584   59.243  154.437    0.413    0.341
  455.250    4.592   58.699  154.481    0.416    0.345
  455.500    4.599   58.156  154.535    0.420    0.349
  455.750    4.607   55.346  154.578    0.419    0.348
  456.000    4.616   51.948  154.621    0.402    0.350
  456.250    4.797   48.557  154.664    0.375    0.351
  456.500    4.985   44.026  154.708    0.380    0.347
  456.750    4.991   44.052  153.801    0.387    0.330
  457.000    5.004   45.786  153.845    0.394    0.296
  457.250    4.920   46.382  154.837    0.407    0.312
  457.500    4.664   45.275  155.830    0.420    0.340
  457.750    4.586   44.738  155.873    0.410    0.344
  458.000    4.428   45.897  156.876    0.406    0.340
  458.250    4.356   51.619  156.920    0.400    0.339
  458.500    4.359   53.923  156.952    0.394    0.338
  458.750    4.211   53.949  157.006    0.401    0.340
  459.000    4.296   55.120  157.060    0.408    0.342
  459.250    4.303   57.994  156.154    0.415    0.337
  459.500    4.308   60.875  156.197    0.417    0.330
  459.750    4.397   57.483  156.230    0.402    0.335
  460.000    4.404   55.224  156.284    0.405    0.337
  460.250    4.412   56.959  156.327    0.409    0.338
  460.500    4.419   60.403  156.392    0.405    0.334
  460.750    4.426   65.568  156.424    0.412    0.317
  461.000    4.433   63.322  156.457    0.422    0.316
  461.250    4.360   61.056  156.511    0.431    0.328
  461.500    4.367   55.956  156.543    0.441    0.343
  461.750    4.294   52.001  156.597    0.442    0.349
  462.000    4.225   50.882  156.640    0.424    0.349
  462.250    4.154   46.920  156.684    0.412    0.350
  462.500    4.161   47.516  156.727    0.411    0.356
  462.750    4.092   52.675  156.770    0.427    0.355
  463.000    4.101   56.688  156.813    0.436    0.347
  463.250    4.106   61.277  156.867    0.444    0.332
  463.500    4.114   59.018  157.849    0.433    0.324
  463.750    4.121   58.474  157.903    0.420    0.320
  464.000    4.206   59.070  157.946    0.421    0.319
  464.250    4.213   55.691  157.040    0.412    0.339
  464.500    4.220   55.717  156.134    0.394    0.358
  464.750    4.305   58.584  156.188    0.412    0.345
  465.000    4.234   83.103  159.079    0.469    0.324
  465.250    4.163   96.236  161.981    0.512    0.298
  465.500    3.946  101.395  163.912    0.504    0.265
  465.750    3.879  100.851  165.854    0.495    0.253
  466.000    3.678  100.877  166.847    0.502    0.259
  466.250    3.551  101.473  167.839    0.515    0.268
  466.500    3.428  100.929  168.832    0.527    0.280
  466.750    3.371   98.683  169.835    0.536    0.290
  467.000    3.255   97.570  169.879    0.543    0.294
  467.250    3.142   99.298  169.922    0.554    0.297
  467.500    3.147  102.748  169.965    0.560    0.289
  467.750    3.154  101.059  168.110    0.562    0.269
  468.000    3.218   95.965  166.254    0.562    0.275
  468.250    3.223   92.004  163.460    0.567    0.285
  468.500    3.288   88.612  162.554    0.550    0.286
  468.750    3.115   87.499  161.648    0.489    0.282
  469.000    3.008   86.392  161.691    0.478    0.257
  469.250    2.904   82.994  160.796    0.497    0.249
  469.500    3.132   79.039  159.879    0.474    0.285
  469.750    3.913   81.906  157.074    0.455    0.305
  470.000    4.888   84.211  156.168    0.467    0.287
  470.250    6.456   77.402  159.060    0.468    0.279
  470.500    7.492   67.745  158.153    0.455    0.289
  470.750    7.644   62.081  154.421    0.444    0.313
  471.000    7.799   58.120  153.515    0.438    0.323
  471.250    7.815   55.304  152.609    0.439    0.325
  471.500    7.545   54.184  154.551    0.440    0.316
  471.750    7.154   54.210  156.503    0.439    0.309
  472.000    7.166   54.806  156.525    0.446    0.311
  472.250    7.046   55.978  157.539    0.457    0.318
  472.500    6.929   54.858  158.532    0.451    0.323
  472.750    6.568   53.745  159.524    0.436    0.327
  473.000    6.109   66.308  160.517    0.426    0.318
  473.250    5.090   76.587  160.571    0.417    0.292
  473.500    4.164   85.157  161.542    0.433    0.263
  473.750    3.470   96.581  162.534    0.460    0.241
  474.000    3.000  106.866  162.588    0.467    0.236
  474.250    2.791  108.025  162.632    0.462    0.235
