~VERSION INFORMATION
 VERS.                 2.0:   CWLS LOG ASCII STANDARD -VERSION 2.0
 WRAP.                  NO:   ONE LINE PER DEPTH STEP
~WELL INFORMATION BLOCK
#MNEM.UNIT           DATA                    DESCRIPTION OF MNEMONIC
#---------    -------------------            -------------------------------
# Generated from Intellog Unique Number	CW_70_72/WELL/1044
NULL.         -999.25                        : NULL_VALUE
WELL.         UNIGAS ET AL SMITH 10-31       : Well_name    - WELL              
LOC .         10-31-071-24W4                 : Location     - LOCATION          
UWI .         00/10-31-071-24W4/0            : Uwi          - UNIQUE WELL ID    
ENTR.         JAYE                           : Entered      - ENTERED BY        
SRVC.         SCHLUMBERGER                   : Scn          - SERVICE COMPANY   
DATE.         14 NOV 71                      : Date         - LOG DATE          
STRT.M        435.254                        : top_depth    - START DEPTH       
STOP.M        635.254                        : bot_depth    - STOP DEPTH        
STEP.M        0.25                           : increment    - STEP LENGTH       
~CURVE INFORMATION BLOCK
#MNEM UNIT       ERCB CURVE CODE    CURVE DESCRIPTION
#-----------   ------------------   ----------------------------------
DEPT.M        00 001 00 00         : DEPTH        - DEPTH                       
DPHI.V/V      00 890 00 00         : PHID         - DENSITY POROSITY (SANDSTONE)
NPHI.V/V      00 330 00 00         : PHIN         - NEUTRON POROSITY (SANDSTONE)
CALI.MM       00 280 01 00         : CAL          - CALIPER                     
ILD .OHMM     00 120 00 00         : RESD         - DEEP RESISTIVITY (DIL)      
GR  .API      00 310 00 00         : GR           - GAMMA RAY                   
~PARAMETER INFORMATION       
#MNEM.UNIT           DATA             DESCRIPTION OF MNEMONIC
#---------         -----------     ------------------------------
GL  .M        656.783              : gl           - GROUND LEVEL ELEVATION      
EREF.M        659.221              : kb           - ELEVATION OF DEPTH REFERENCE
DATM.M        656.783              : datum        - DATUM ELEVATION             
TDD .M        645.566              : tdd          - TOTAL DEPTH DRILLER         
RUN .         ONE                  : Run          - RUN NUMBER                  
BASE.         EDM                  : Branch       - HOME BASE OF LOGGING UNIT   
MATR.         SANDSTONE            : Logunit      - NEUTRON MATRIX              
TMAX.C        22.2222              : BHT          - MAXIMUM RECORDED TEMPERATURE
BHTD.M        645.262              : BHTDEP       - MAXIMUM RECORDED TEMPERATURE
RMT .C        18.3333              : MDTP         - TEMPERATURE OF MUD          
MUDD.KG/M     0                    : MWT          - MUD DENSITY                 
NEUT.         1                    : NEUTRON      - NEUTRON TYPE                
RESI.         0                    : RESIST       - RESISTIVITY TYPE            
RM  .OHMM     2.03                 : RM           - RESISTIVITY OF MUD          
RMC .OHMM     0                    : RMC          - RESISTIVITY OF MUD CAKE     
RMF .OHMM     2.43                 : RMF          - RESISTIVITY OF MUD FILTRATE 
SUFT.C        -17.7778             : SUFT         - SURFACE TEMPERATURE         
~A  DEPTH     PHID     PHIN      CAL     RESD       GR
  435.254    0.553    0.604  176.877    2.031   85.191
  435.504    0.566    0.605  179.846    2.145   84.958
  435.754    0.557    0.606  184.923    2.389   85.781
  436.004    0.480    0.606  183.583    2.617   93.625
  436.254    0.459    0.606  176.349    2.800   83.884
  436.504    0.447    0.605  167.955    3.035   71.225
  436.754    0.452    0.604  164.298    3.368   68.568
  437.004    0.452    0.600  162.539    3.570   69.515
  437.254    0.447    0.597  162.035    3.676   64.620
  437.504    0.438    0.589  162.270    3.813   58.049
  437.754    0.425    0.570  162.931    4.035   56.265
  438.004    0.384    0.507  163.795    4.349   57.956
  438.254    0.338    0.477  164.037    4.951   60.830
  438.504    0.369    0.561  163.850    4.688   59.291
  438.754    0.384    0.547  163.247    4.318   60.860
  439.004    0.458    0.593  162.747    4.029   65.350
  439.254    0.454    0.605  162.663    3.780   70.583
  439.504    0.451    0.609  162.798    3.572   78.987
  439.754    0.461    0.611  164.502    3.327   87.826
  440.004    0.472    0.611  166.317    3.291   92.813
  440.254    0.486    0.608  167.818    3.394   95.313
  440.504    0.471    0.604  169.004    3.843   98.683
  440.754    0.449    0.598  169.446    4.097  101.556
  441.004    0.437    0.591  165.893    4.360   87.653
  441.254    0.423    0.581  162.974    4.750   84.749
  441.504    0.415    0.573  162.054    5.064   78.240
  441.754    0.408    0.566  161.347    5.224   69.929
  442.004    0.404    0.560  161.159    5.262   70.440
  442.254    0.398    0.551  161.606    5.301   75.550
  442.504    0.382    0.543  162.577    5.301   74.386
  442.754    0.379    0.526  166.390    5.282   72.847
  443.004    0.411    0.569  169.158    5.206   74.789
  443.254    0.430    0.585  170.441    5.019   76.420
  443.504    0.449    0.604  171.307    4.641   78.299
  443.754    0.469    0.613  170.177    4.159   82.167
  444.004    0.481    0.617  167.676    3.839   87.463
  444.254    0.474    0.618  165.491    3.654   96.862
  444.504    0.466    0.614  163.102    3.628  102.841
  444.754    0.450    0.605  162.071    3.742  101.615
  445.004    0.430    0.592  162.309    3.874   88.145
  445.254    0.426    0.591  162.863    4.011   80.518
  445.504    0.438    0.601  163.309    4.056   77.303
  445.754    0.461    0.606  163.121    3.910   77.504
  446.004    0.472    0.611  164.098    3.757   79.383
  446.254    0.477    0.613  165.389    3.696   83.809
  446.504    0.464    0.615  166.251    3.743   88.610
  446.754    0.465    0.617  167.331    3.869   88.749
  447.004    0.466    0.619  167.986    3.991   90.630
  447.254    0.465    0.619  168.538    4.109   94.745
  447.504    0.469    0.618  168.461    4.231   95.816
  447.754    0.473    0.617  168.382    4.294   96.143
  448.004    0.461    0.616  168.721    4.317   93.734
  448.254    0.448    0.612  169.060    4.333   82.689
  448.504    0.440    0.606  168.142    4.357   81.338
  448.754    0.447    0.596  168.165    4.381   83.156
  449.004    0.442    0.586  166.718    4.382   84.661
  449.254    0.433    0.575  164.431    4.318   86.478
  449.504    0.423    0.564  162.774    4.059   82.143
  449.754    0.413    0.570  161.751    3.766   74.205
  450.004    0.430    0.594  161.140    3.333   67.821
  450.254    0.453    0.608  159.907    3.048   59.075
  450.504    0.459    0.612  158.879    2.732   51.260
  450.754    0.450    0.607  158.063    2.682   47.982
  451.004    0.437    0.597  157.883    2.802   49.613
  451.254    0.430    0.590  157.905    2.966   55.469
  451.504    0.430    0.583  157.512    3.087   53.309
  451.754    0.428    0.578  157.223    3.105   55.314
  452.004    0.423    0.579  156.509    3.037   62.661
  452.254    0.431    0.591  156.010    2.923   76.035
  452.504    0.443    0.597  155.509    2.798   65.425
  452.754    0.455    0.598  155.220    2.703   52.205
  453.004    0.450    0.596  155.031    2.654   43.086
  453.254    0.439    0.593  155.373    2.674   46.332
  453.504    0.436    0.594  156.241    2.698   58.215
  453.754    0.441    0.596  157.847    2.684   67.676
  454.004    0.437    0.597  159.974    2.635   52.095
  454.254    0.438    0.599  162.948    2.564   46.829
  454.504    0.444    0.600  161.499    2.500   45.911
  454.754    0.445    0.599  153.002    2.560   47.917
  455.004    0.449    0.589  150.398    2.689   51.410
  455.254    0.457    0.592  154.949    2.867   60.000
  455.504    0.456    0.594  159.080    3.023   73.811
  455.754    0.445    0.595  162.471    3.336   86.688
  456.004    0.437    0.594  167.128    3.798   89.560
  456.254    0.438    0.597  171.149    4.034   91.751
  456.504    0.436    0.597  172.226    4.161   95.991
  456.754    0.435    0.590  167.097    4.207  105.017
  457.004    0.429    0.580  162.915    4.101  101.305
  457.254    0.448    0.599  167.573    3.636   96.782
  457.504    0.512    0.605  171.277    3.136   90.584
  457.754    0.575    0.606  173.726    2.745   96.129
  458.004    0.567    0.606  174.170    2.456  110.995
  458.254    0.573    0.606  174.618    2.300  114.119
  458.504    0.581    0.609  175.700    2.250  109.224
  458.754    0.565    0.609  176.878    2.242  111.663
  459.004    0.583    0.608  174.484    2.338  115.717
  459.254    0.586    0.606  170.831    2.479  120.579
  459.504    0.504    0.604  167.703    2.701  121.091
  459.754    0.474    0.603  166.251    2.938  114.644
  460.004    0.455    0.604  165.122    3.195  106.271
  460.254    0.452    0.604  164.512    3.611  100.694
  460.504    0.456    0.605  163.275    3.906  104.312
  460.754    0.458    0.606  160.253    4.044   87.240
  461.004    0.458    0.607  157.540    3.878   72.094
  461.254    0.456    0.608  154.621    3.559   62.043
  461.504    0.451    0.606  152.125    3.315   61.935
  461.754    0.443    0.598  150.464    3.273   60.023
  462.004    0.434    0.584  148.596    3.340   65.320
  462.254    0.439    0.599  146.936    3.489   73.289
  462.504    0.451    0.603  146.225    3.706   72.125
  462.754    0.448    0.563  146.987    3.922   69.094
  463.004    0.407    0.504  150.380    4.135   64.325
  463.254    0.367    0.452  155.776    4.417   64.526
  463.504    0.328    0.469  158.641    4.901   67.462
  463.754    0.339    0.516  161.931    5.380   67.850
  464.004    0.393    0.561  162.693    5.539   63.267
  464.254    0.426    0.593  162.504    5.479   71.173
  464.504    0.374    0.573  160.954    5.264   79.391
  464.754    0.155    0.589  159.296    4.770   82.265
  465.004    0.422    0.580  157.111    4.378   78.800
  465.254    0.409    0.562  154.826    4.077   70.428
  465.504    0.428    0.589  154.118    3.695   66.527
  465.754    0.427    0.600  154.560    3.543   58.652
  466.004    0.465    0.503  155.531    3.299   57.299
  466.254    0.464    0.534  157.243    3.158   60.174
  466.504    0.457    0.561  159.372    3.028   66.028
  466.754    0.444    0.601  160.660    2.941   64.553
  467.004    0.436    0.600  160.789    2.915   66.743
  467.254    0.447    0.596  159.762    2.936   67.691
  467.504    0.457    0.593  158.106    2.980   68.266
  467.754    0.457    0.592  159.921    3.040   69.648
  468.004    0.452    0.596  164.680    3.091   71.465
  468.254    0.444    0.600  168.282    3.136   67.876
  468.504    0.445    0.603  169.045    3.171   66.586
  468.754    0.464    0.604  167.602    3.212   72.380
  469.004    0.474    0.605  168.151    3.289   82.337
  469.254    0.474    0.604  168.814    3.374   93.040
  469.504    0.459    0.599  169.044    3.532  101.507
  469.754    0.444    0.590  169.069    3.718   96.861
  470.004    0.428    0.579  169.100    3.927   93.708
  470.254    0.425    0.582  168.917    4.081   89.310
  470.504    0.429    0.595  168.835    4.148   90.320
  470.754    0.438    0.599  168.752    4.194  100.649
  471.004    0.447    0.601  168.253    4.248  108.867
  471.254    0.452    0.602  168.070    4.280  114.226
  471.504    0.451    0.603  168.303    4.249  110.016
