~VERSION INFORMATION
 VERS.                 2.0:   CWLS LOG ASCII STANDARD -VERSION 2.0
 WRAP.                  NO:   ONE LINE PER DEPTH STEP
~WELL INFORMATION BLOCK
#MNEM.UNIT           DATA                    DESCRIPTION OF MNEMONIC
#---------    -------------------            -------------------------------
# Generated from Intellog Unique Number	CW_70_72/WELL/1062
NULL.         -999.25                        : NULL_VALUE
WELL.         MIKAS AMOCO CALLLING LAKE 11-3 : Well_name    - WELL              
LOC .         11-34-071-20W4                 : Location     - LOCATION          
UWI .         00/11-34-071-20W4/0            : Uwi          - UNIQUE WELL ID    
ENTR.         JAYE                           : Entered      - ENTERED BY        
SRVC.         SCHLUMBERGER                   : Scn          - SERVICE COMPANY   
DATE.         8 FEB 73                       : Date         - LOG DATE          
STRT.M        320.04                         : top_depth    - START DEPTH       
STOP.M        533.04                         : bot_depth    - STOP DEPTH        
STEP.M        0.25                           : increment    - STEP LENGTH       
~CURVE INFORMATION BLOCK
#MNEM UNIT       ERCB CURVE CODE    CURVE DESCRIPTION
#-----------   ------------------   ----------------------------------
DEPT.M        00 001 00 00         : DEPTH        - DEPTH                       
DPHI.V/V      00 890 00 00         : PHID         - DENSITY POROSITY (SANDSTONE)
NPHI.V/V      00 330 00 00         : PHIN         - NEUTRON POROSITY (SANDSTONE)
GR  .API      00 310 00 00         : GR           - GAMMA RAY                   
CALI.MM       00 280 01 00         : CAL          - CALIPER                     
ILD .OHMM     00 120 00 00         : RESD         - DEEP RESISTIVITY (DIL)      
~PARAMETER INFORMATION       
#MNEM.UNIT           DATA             DESCRIPTION OF MNEMONIC
#---------         -----------     ------------------------------
GL  .M        591.83               : gl           - GROUND LEVEL ELEVATION      
EREF.M        594.97               : kb           - ELEVATION OF DEPTH REFERENCE
DATM.M        591.83               : datum        - DATUM ELEVATION             
TDD .M        541.63               : tdd          - TOTAL DEPTH DRILLER         
RUN .         ONE                  : Run          - RUN NUMBER                  
ENG .         MACIJUK              : Engineer     - RECORDING ENGINEER          
WIT .         LEWIN/CONVENEY       : Witness      - WITNESSED BY                
BASE.         EDM                  : Branch       - HOME BASE OF LOGGING UNIT   
MUD .         GEL                  : Mud_type     - MUD TYPE                    
MATR.         SANDSTONE            : Logunit      - NEUTRON MATRIX              
TMAX.C        25.5556              : BHT          - MAXIMUM RECORDED TEMPERATURE
BHTD.M        540.41               : BHTDEP       - MAXIMUM RECORDED TEMPERATURE
RMT .C        15                   : MDTP         - TEMPERATURE OF MUD          
MUDD.KG/M     1104                 : MWT          - MUD DENSITY                 
NEUT.         1                    : NEUTRON      - NEUTRON TYPE                
RESI.         0                    : RESIST       - RESISTIVITY TYPE            
RM  .OHMM     4.44                 : RM           - RESISTIVITY OF MUD          
RMC .OHMM     0                    : RMC          - RESISTIVITY OF MUD CAKE     
RMF .OHMM     4.5                  : RMF          - RESISTIVITY OF MUD FILTRATE 
SUFT.C        0                    : SUFT         - SURFACE TEMPERATURE         
~A  DEPTH     PHID     PHIN       GR      CAL     RESD
  320.040    0.204    0.604  100.680  192.058    3.485
  320.290    0.197    0.572   96.757  194.809    3.444
  320.540    0.188    0.535   92.467  187.038    3.307
  320.790    0.168    0.545   91.230  183.791    3.220
  321.040    0.141    0.576   94.260  188.507    3.153
  321.290    0.199    0.590   95.458  189.921    3.087
  321.540    0.231    0.608   93.977  189.886    3.062
  321.790    0.239    0.616   91.151  189.338    3.032
  322.040    0.234    0.612   88.628  189.300    2.991
  322.290    0.215    0.589   85.802  188.956    2.983
  322.540    0.231    0.593   83.825  188.090    2.997
  322.790    0.216    0.596   87.220  186.510    3.130
  323.040    0.208    0.575   87.258  184.101    3.364
  323.290    0.196    0.514   79.860  180.863    3.697
  323.540    0.186    0.484   73.251  177.618    4.428
  323.790    0.221    0.422   66.282  172.426    5.198
  324.040    0.258    0.390   62.540  166.607    5.754
  324.290    0.313    0.399   63.561  162.231    5.866
  324.540    0.312    0.431   68.355  157.459    5.620
  324.790    0.303    0.466   73.757  156.376    5.306
  325.040    0.285    0.489   77.945  158.003    5.121
  325.290    0.269    0.497   82.375  164.055    5.014
  325.540    0.254    0.458   86.684  170.418    4.955
  325.790    0.237    0.420   90.260  175.027    4.915
  326.040    0.237    0.421   91.824  169.312    4.875
  326.290    0.243    0.440   93.816  169.384    4.845
  326.540    0.225    0.459   92.395  170.590    4.841
  326.790    0.219    0.466   89.755  173.439    4.801
  327.040    0.217    0.480   90.829  173.303    4.763
  327.290    0.239    0.484   93.791  170.071    4.767
  327.540    0.231    0.481   92.493  169.315    4.825
  327.790    0.236    0.493   90.153  168.037    4.955
  328.040    0.241    0.497   86.230  165.426    5.006
  328.290    0.258    0.483   82.427  162.591    4.974
  328.540    0.260    0.489   77.587  159.156    4.925
  328.790    0.256    0.515   69.460  157.884    4.840
  329.040    0.242    0.538   64.740  160.523    4.723
  329.290    0.224    0.480   63.257  166.373    4.659
  329.540    0.208    0.484   66.407  168.416    4.630
  329.790    0.213    0.512   68.035  168.471    4.617
  330.040    0.228    0.510   66.549  168.545    4.563
  330.290    0.223    0.485   65.980  168.408    4.476
  330.540    0.237    0.505   70.716  167.538    4.400
  330.790    0.237    0.507   75.696  166.576    4.301
  331.040    0.243    0.483   76.891  164.996    4.204
  331.290    0.248    0.487   74.132  163.307    4.094
  331.540    0.267    0.518   72.280  161.623    4.003
  331.790    0.283    0.504   72.138  161.698    3.985
  332.040    0.280    0.486   73.881  164.642    4.025
  332.290    0.269    0.511   78.675  171.730    4.180
  332.540    0.269    0.525   86.338  179.245    4.323
  332.790    0.268    0.494   83.576  180.026    4.523
  333.040    0.265    0.443   83.309  170.797    4.697
  333.290    0.257    0.431   87.251  165.495    4.841
  333.540    0.240    0.428   86.500  164.430    4.963
  333.790    0.246    0.425   89.038  167.700    5.106
  334.040    0.242    0.422   87.073  173.343    5.243
  334.290    0.237    0.415   84.064  174.028    5.474
  334.540    0.245    0.404   79.956  169.244    5.736
  334.790    0.256    0.406   74.810  164.359    5.934
  335.040    0.260    0.409   70.584  161.329    6.174
  335.290    0.266    0.398   67.144  158.826    6.157
  335.540    0.286    0.397   64.074  158.266    5.909
  335.790    0.298    0.398   71.005  159.982    5.558
  336.040    0.296    0.409   72.816  160.464    5.200
  336.290    0.280    0.445   72.128  159.911    4.899
  336.540    0.261    0.459   71.373  158.744    4.534
  336.790    0.264    0.446   71.898  157.161    4.367
  337.040    0.264    0.433   72.429  155.779    4.230
  337.290    0.249    0.422   73.020  154.189    4.127
  337.540    0.240    0.411   73.850  152.827    4.057
  337.790    0.267    0.406   75.471  152.688    4.083
  338.040    0.264    0.404   77.769  153.469    4.247
  338.290    0.258    0.408   79.698  154.676    4.402
  338.540    0.254    0.420   80.959  155.151    4.545
  338.790    0.249    0.440   82.949  156.150    4.668
  339.040    0.261    0.450   86.654  156.522    4.622
  339.290    0.267    0.454   87.606  157.005    4.347
  339.540    0.269    0.466   89.717  158.105    3.950
  339.790    0.267    0.507   93.781  161.276    3.654
  340.040    0.231    0.562   98.334  165.684    3.307
  340.290    0.204    0.583  102.641  169.777    3.021
  340.540    0.228    0.599  102.504  174.487    2.770
  340.790    0.228    0.599  102.051  180.746    2.658
  341.040    0.249    0.606  104.839  180.195    2.632
  341.290    0.283    0.603  106.284  177.167    2.758
  341.540    0.303    0.608  107.416  181.052    3.048
  341.790    0.293    0.614  108.315  185.772    3.431
  342.040    0.282    0.614  108.714  191.727    3.701
  342.290    0.303    0.555  108.694  197.983    4.212
  342.540    0.278    0.507  108.430  205.902    4.620
  342.790    0.263    0.484  107.252  194.505    4.885
  343.040    0.247    0.444  104.733  179.503    5.018
  343.290    0.229    0.429  100.195  171.201    5.181
  343.540    0.214    0.460   95.910  184.590    5.244
  343.790    0.203    0.483   90.580  180.226    5.269
  344.040    0.217    0.501   83.422  170.890    5.312
  344.290    0.230    0.498   75.904  165.282    5.338
  344.540    0.308    0.478   70.821  162.459    5.353
  344.790    0.297    0.484   68.971  160.980    5.146
  345.040    0.301    0.470   66.510  159.908    4.789
  345.290    0.301    0.483   62.890  158.641    4.529
  345.540    0.299    0.498   63.905  157.875    4.378
  345.790    0.306    0.494   66.023  158.054    4.352
  346.040    0.297    0.484   67.166  157.814    4.436
  346.290    0.288    0.474   67.624  157.784    4.717
  346.540    0.299    0.460   68.152  157.861    5.071
  346.790    0.291    0.445   67.959  157.903    5.323
  347.040    0.274    0.428   67.194  157.482    5.397
  347.290    0.243    0.412   64.979  157.530    5.354
  347.540    0.219    0.393   67.826  157.802    5.300
  347.790    0.198    0.478   73.842  157.867    5.220
  348.040    0.228    0.508   76.513  157.749    5.140
  348.290    0.250    0.502   77.033  158.002    5.089
  348.540    0.249    0.468   77.193  158.499    5.029
  348.790    0.258    0.445   78.698  158.772    4.942
  349.040    0.257    0.475   73.370  159.042    4.700
  349.290    0.282    0.530   64.998  159.505    4.446
  349.540    0.304    0.545   63.448  160.095    4.182
  349.790    0.328    0.529   62.331  160.676    4.042
  350.040    0.350    0.498   61.395  160.953    3.895
  350.290    0.347    0.491   60.646  160.823    3.905
  350.540    0.333    0.496   61.054  160.883    3.959
  350.790    0.324    0.500   62.064  160.945    4.045
  351.040    0.309    0.510   64.303  159.788    4.123
  351.290    0.317    0.501   66.779  159.557    4.212
  351.540    0.307    0.481   69.991  159.918    4.262
  351.790    0.295    0.476   74.298  160.809    4.306
  352.040    0.285    0.483   77.570  161.812    4.366
  352.290    0.252    0.463   81.573  163.211    4.533
  352.540    0.245    0.481   87.288  166.185    4.901
  352.790    0.231    0.491   91.170  168.722    5.144
  353.040    0.226    0.493   94.992  168.369    5.274
  353.290    0.257    0.476   96.373  167.511    5.337
  353.540    0.264    0.459   98.241  166.349    5.432
  353.790    0.248    0.467  101.025  166.519    5.468
  354.040    0.233    0.465  104.172  167.306    5.443
  354.290    0.213    0.463  107.627  168.192    5.281
  354.540    0.221    0.465  106.203  169.603    4.895
  354.790    0.217    0.493  100.453  171.221    4.272
  355.040    0.247    0.513   95.615  165.609    3.620
  355.290    0.279    0.484   95.043  158.656    3.090
  355.540    0.262    0.517  100.937  157.382    2.838
  355.790    0.265    0.598  104.576  160.766    2.759
  356.040    0.273    0.614  104.979  166.500    2.907
  356.290    0.289    0.603  103.862  174.931    3.290
