~VERSION INFORMATION
 VERS.                 2.0:   CWLS LOG ASCII STANDARD -VERSION 2.0
 WRAP.                  NO:   ONE LINE PER DEPTH STEP
~WELL INFORMATION BLOCK
#MNEM.UNIT           DATA                    DESCRIPTION OF MNEMONIC
#---------    -------------------            -------------------------------
# Generated from Intellog Unique Number	cxy/WELL/1154
WELL.         HB MISTEMAE                    : Well_name    - WELL
LOC .         00/10-27-079-01W5/0            : Location     - LOCATION
UWI .         00/10-27-079-01W5/0            : Uwi          - UNIQUE WELL ID
ENTR.         T                              : Entered      - ENTERED BY
SRVC.         SCHLUMBERGER                   : Scn          - SERVICE COMPANY
STRT.F        950                            : top_depth    - START DEPTH
STOP.F        1799.74                        : bot_depth    - STOP DEPTH
STEP.F        0.82                           : increment    - STEP LENGTH
 NULL. -999.2500:NULL Value
~CURVE INFORMATION BLOCK
#MNEM UNIT       ERCB CURVE CODE    CURVE DESCRIPTION
#-----------   ------------------   ----------------------------------
DEPT.F        00 001 00 00         : DEPTH        - DEPTH
CALI.IN       00 280 01 00         : CAL          - CALIPER
GR  .API      00 310 00 00         : GR           - GAMMA RAY
NPHI.V/V      00 330 00 00         : PHIN         - NEUTRON POROSITY (SANDSTONE)
ILD .OHMM     00 120 00 00         : RESD         - DEEP RESISTIVITY (DIL)
DPHI.V/V      00 890 00 00         : PHID         - DENSITY POROSITY (SANDSTONE)
~PARAMETER INFORMATION
#MNEM.UNIT           DATA             DESCRIPTION OF MNEMONIC
#---------         -----------     ------------------------------
GL  .F        1965                 : gl           - GROUND LEVEL ELEVATION
EREF.F        1978                 : kb           - ELEVATION OF DEPTH REFERENCE
DATM.F        1978                 : datum        - DATUM ELEVATION
TDD .F        1810                 : tdd          - TOTAL DEPTH DRILLER
RUN .         ONE                  : Run          - RUN NUMBER
ENG .         BILL                 : Engineer     - RECORDING ENGINEER
WIT .         JIM                  : Witness      - WITNESSED BY
MUD .         GEL                  : Mud_type     - MUD TYPE
MATR.         SANDSTONE            : Logunit      - NEUTRON MATRIX
TMAX.F        78                   : BHT          - MAXIMUM RECORDED TEMPERATURE
BHTD.F        1810                 : BHTDEP       - MAXIMUM RECORDED TEMPERATURE
MATR.         1                    : LOGUNIT      - NEUTRON MATRIX
RMT .F        77                   : MDTP         - TEMPERATURE OF MUD
NEUT.         1                    : NEUTRON      - NEUTRON TYPE
RESI.         5.67                 : RESIST       - RESISTIVITY TYPE
RMC .OHMM     5.67                 : RMC          - RESISTIVITY OF MUD CAKE
RMF .OHMM     5.67                 : RMF          - RESISTIVITY OF MUD FILTRATE
SUFT.F        4                    : SUFT         - SURFACE TEMPERATURE
~A  DEPTH      CAL       GR     PHIN     RESD     PHID
# ...
 1069.750    7.915   70.770    0.492   14.317    0.224
 1070.570    7.915   66.645    0.485   15.133    0.231
 1071.390    7.916   61.339    0.481   16.591    0.245
 1072.210    7.916   58.983    0.494   16.902    0.261
 1073.030    7.917   57.809    0.500   17.218    0.279
 1073.850    7.917   61.358    0.493   16.911    0.288
 1074.670    7.918   63.137    0.486   16.915    0.294
 1075.490    7.918   63.145    0.474   16.611    0.292
 1076.310    7.919   63.743    0.468   16.313    0.281
 1077.130    7.919   65.522    0.472   16.022    0.270
 1077.950    7.920   64.939    0.495   16.024    0.277
 1078.770    7.880   64.355    0.499   15.738    0.284
 1079.590    7.881   64.364    0.500   15.455    0.292
 1080.410    7.881   66.143    0.500   15.459    0.300
 1081.230    7.882   69.695    0.501   15.182    0.304
 1082.050    7.882   70.881    0.506   14.638    0.302
 1082.870    7.882   71.479    0.507   14.114    0.298
 1083.690    7.883   71.488    0.508   13.610    0.284
 1084.510    7.883   72.676    0.512   12.650    0.284
 1085.330    7.884   75.047    0.523   11.544    0.286
 1086.150    7.884   75.645    0.544   10.344    0.288
 1086.980    7.885   76.833    0.558    9.791    0.280
 1087.800    7.885   80.384    0.520    9.102    0.250
 1088.620    7.886   82.162    0.483    8.937    0.241
 1089.440    7.886   82.170    0.490    8.939    0.229
 1090.260    7.887   82.177    0.499    9.108    0.210
 1091.080    7.887   83.365    0.508    9.986    0.214
 1091.900    7.888   83.966    0.517   11.151    0.216
 1092.720    7.848   82.201    0.529   12.682    0.210
 1093.540    7.849   78.665    0.532   14.424    0.206
 1094.360    7.810   75.127    0.525   16.106    0.207
 1095.180    7.810   69.228    0.518   18.319    0.209
 1096.000    7.771   62.739    0.511   21.223    0.210
 1096.820    7.771   51.527    0.499   23.266    0.210
 1097.640    7.772   46.809    0.487   25.511    0.213
 1098.460    7.772   45.044    0.481   25.987    0.223
 1099.280    7.812   43.872    0.481   25.995    0.256
 1100.100    7.892   43.879    0.482   26.001    0.302
 1100.920    7.892   45.656    0.468   26.008    0.308
 1101.740    7.932   49.801    0.458   26.014    0.307
 1102.560    7.972   49.806    0.457   26.024    0.307
 1103.380    8.052   48.634    0.464   26.028    0.304
 1104.200    8.092   48.643    0.468   26.033    0.302
 1105.020    8.132   48.648    0.474   26.527    0.300
 1105.840    8.132   47.477    0.468   26.049    0.297
 1106.660    8.093   46.890    0.468   26.054    0.297
 1107.480    8.054   45.718    0.476   25.590    0.298
 1108.300    7.936   45.136    0.479   25.594    0.297
 1109.120    7.897   45.140    0.483   25.599    0.296
 1109.940    7.897   44.556    0.496   25.608    0.295
 1110.760    7.898   44.567    0.498   25.615    0.293
 1111.580    7.898   43.985    0.491   25.155    0.292
 1112.400    7.899   43.989    0.490   25.161    0.290
 1113.220    7.899   43.405    0.489   25.166    0.297
 1114.040    7.899   42.823    0.488   24.715    0.303
 1114.860    7.900   42.831    0.496   24.724    0.302
 1115.680    7.900   42.251    0.504   24.730    0.296
 1116.500    7.901   42.254    0.486   24.736    0.295
 1117.320    7.901   42.261    0.472   24.742    0.302
 1118.140    7.862   42.268    0.465   24.748    0.306
 1118.960    7.863   41.686    0.470   25.214    0.309
 1119.780    7.863   41.694    0.476   25.689    0.310
 1120.600    7.824   42.291    0.480   25.692    0.306
 1121.420    7.824   42.298    0.485   26.659    0.300
 1122.240    7.825   43.486    0.485   27.662    0.300
 1123.060    7.825   46.448    0.483   29.237    0.302
 1123.880    7.826   47.048    0.478   30.335    0.302
 1124.700    7.826   47.053    0.474   33.262    0.300
 1125.520    7.827   47.060    0.467   35.804    0.299
 1126.350    7.827   48.842    0.464   38.543    0.297
 1127.170    7.827   48.846    0.457   39.991    0.290
 1127.990    7.788   48.856    0.451   43.048    0.282
 1128.810    7.789   48.273    0.439   48.079    0.266
 1129.630    7.789   47.101    0.410   49.882    0.235
 1130.450    7.790   47.104    0.336   49.894    0.204
 1131.270    7.790   45.341    0.274   43.888    0.164
 1132.090    7.790   44.167    0.228   23.096    0.136
 1132.910    7.791   42.993    0.209   17.867    0.081
 1133.730    7.791   41.821    0.195   12.845    0.058
 1134.550    7.792   41.828    0.207   10.309    0.061
 1135.370    7.792   44.197    0.224    8.427    0.065
 1136.190    7.793   48.340    0.263    7.279    0.079
 1137.010    7.793   53.070    0.315    6.765    0.137
 1137.830    7.794   57.211    0.421    6.404    0.236
 1138.650    7.794   62.533    0.518    6.406    0.281
 1139.470    7.794   70.810    0.581    6.408    0.281
 1140.290    7.795   74.952    0.593    6.649    0.280
 1141.110    7.795   79.685    0.580    7.157    0.274
 1141.930    7.756   82.053    0.542    7.992    0.243
 1142.750    7.757   83.832    0.498    8.603    0.219
 1143.570    7.757   85.610    0.496    9.260    0.223
 1144.390    7.758   86.211    0.496    9.609    0.235
 1145.210    7.758   86.807    0.491    9.971    0.255
 1146.030    7.758   87.996    0.498   10.159    0.252
 1146.850    7.759   89.184    0.513   10.161    0.236
 1147.670    7.759   89.193    0.530   10.164    0.226
 1148.490    7.760   89.790    0.525   10.165    0.226
 1149.310    7.760   89.799    0.519   10.168    0.227
 1150.130    7.761   90.397    0.516   10.171    0.229
 1150.950    7.761   90.994    0.517    9.989    0.227
 1151.770    7.762   91.000    0.516    9.632    0.223
 1152.590    7.762   91.009    0.506    9.459    0.212
 1153.410    7.762   91.016    0.500    9.290    0.202
 1154.230    7.763   91.023    0.495    9.291    0.208
 1155.050    7.763   91.620    0.486    9.294    0.225
 1155.870    7.724   91.627    0.479    9.469    0.231
 1156.690    7.725   91.044    0.476    9.646    0.220
 1157.510    7.725   89.281    0.486   10.194    0.215
 1158.330    7.725   86.926    0.508   11.176    0.210
 1159.150    7.686   83.982    0.520   12.948    0.213
 1159.970    7.687   81.628    0.519   14.459    0.225
 1160.790    7.687   79.860    0.511   15.564    0.252
 1161.610    7.688   74.555    0.511   15.006    0.265
 1162.430    7.688   72.789    0.507   13.445    0.263
 1163.250    7.689   69.254    0.504   11.613    0.260
 1164.070    7.689   67.488    0.501   10.597    0.255
 1164.900    7.650   68.085    0.505   10.407    0.247
 1165.720    7.650   71.636    0.505   10.220    0.247
 1166.540    7.651   75.779    0.493   11.205    0.254
 1167.360    7.651   76.967    0.484   13.221    0.257
 1168.180    7.652   76.385    0.477   15.315    0.263
 1169.000    7.652   75.211    0.438   20.175    0.265
 1169.820    7.653   73.448    0.415   23.369    0.238
 1170.640    7.653   72.273    0.388   27.573    0.217
 1171.460    7.654   70.508    0.362   30.789    0.190
 1172.280    7.654   66.972    0.344   33.756    0.128
 1173.100    7.694   62.254    0.320   26.116    0.098
 1173.920    7.694   58.718    0.290   21.744    0.078
 1174.740    7.695   59.906    0.251   18.438    0.052
 1175.560    7.735   66.411    0.223   13.256    0.012
 1176.380    7.735   74.096    0.278   12.320    0.046
 1177.200    7.736   80.008    0.333   11.038    0.105
 1178.020    7.736   82.378    0.387    9.190    0.219
 1178.840    7.737   85.340    0.422    8.234    0.239
 1179.660    7.737   85.348    0.452    7.940    0.252
 1180.480    7.738   84.174    0.501    8.088    0.252
 1181.300    7.738   82.408    0.503    8.393    0.252
 1182.120    7.738   79.464    0.502    8.709    0.255
 1182.940    7.739   80.652    0.503    8.711    0.258
 1183.760    7.779   82.433    0.500    8.713    0.264
 1184.580    7.779   83.621    0.491    8.558    0.268
 1185.400    7.780   84.809    0.488    8.719    0.268
 1186.220    7.780   84.227    0.500    8.720    0.265
 1187.040    7.781   83.640    0.512    8.564    0.254
 1187.860    7.781   81.877    0.523    8.107    0.230
 1188.680    7.781   80.113    0.534    7.675    0.224
