~VERSION INFORMATION
 VERS.                 2.0:   CWLS LOG ASCII STANDARD -VERSION 2.0
 WRAP.                  NO:   ONE LINE PER DEPTH STEP
~WELL INFORMATION BLOCK
#MNEM.UNIT           DATA                    DESCRIPTION OF MNEMONIC
#---------    -------------------            -------------------------------
# Generated from Intellog Unique Number	CS_69_70/WELL/901
WELL.         MAYNARD EXPLORATION            : Well_name    - WELL
LOC .         00/12-36-070-16W4/0            : Location     - LOCATION
UWI .         00/12-36-070-16W4/0            : Uwi          - UNIQUE WELL ID
ENTR.         SP                             : Entered      - ENTERED BY
SRVC.         SCHLUMBERGER                   : Scn          - SERVICE COMPANY
STRT.M        290                            : top_depth    - START DEPTH
STOP.M        510                            : bot_depth    - STOP DEPTH
STEP.M        0.25                           : increment    - STEP LENGTH
 NULL. -999.2500:NULL Value
~CURVE INFORMATION BLOCK
#MNEM UNIT       ERCB CURVE CODE    CURVE DESCRIPTION
#-----------   ------------------   ----------------------------------
DEPT.M        00 001 00 00         : DEPTH        - DEPTH
DPHI.V/V      00 890 00 00         : PHID         - DENSITY POROSITY (LIMESTONE)
NPHI.V/V      00 330 00 00         : PHIN         - NEUTRON POROSITY (LIMESTONE)
GR  .API      00 310 00 00         : GR           - GAMMA RAY
ILD .OHMM     00 120 00 00         : RESD         - DEEP RESISTIVITY (DIL)
~PARAMETER INFORMATION
#MNEM.UNIT           DATA             DESCRIPTION OF MNEMONIC
#---------         -----------     ------------------------------
GL  .M        589.04               : gl           - GROUND LEVEL ELEVATION
EREF.M        592.24               : kb           - ELEVATION OF DEPTH REFERENCE
DATM.M        589.04               : datum        - DATUM ELEVATION
TDD .M        509                  : tdd          - TOTAL DEPTH DRILLER
RUN .         ONE                  : Run          - RUN NUMBER
ENG .         BILL                 : Engineer     - RECORDING ENGINEER
WIT .         JIM                  : Witness      - WITNESSED BY
MUD .         GEL                  : Mud_type     - MUD TYPE
MATR.         LIMESTONE            : Logunit      - NEUTRON MATRIX
TMAX.C        21                   : BHT          - MAXIMUM RECORDED TEMPERATURE
BHTD.M        509                  : BHTDEP       - MAXIMUM RECORDED TEMPERATURE
MATR.         1                    : LOGUNIT      - NEUTRON MATRIX
RMT .C        25                   : MDTP         - TEMPERATURE OF MUD
NEUT.         1                    : NEUTRON      - NEUTRON TYPE
RESI.         0                    : RESIST       - RESISTIVITY TYPE
RMC .OHMM     0.25                 : RMC          - RESISTIVITY OF MUD CAKE
RMF .OHMM     0.25                 : RMF          - RESISTIVITY OF MUD FILTRATE
SUFT.C        15                   : SUFT         - SURFACE TEMPERATURE
~A  DEPTH     PHID     PHIN       GR     RESD
# ...
  333.500    0.254    0.398   99.804    4.181
  333.750    0.248    0.395  100.057    4.264
  334.000    0.251    0.399   99.335    4.420
  334.250    0.255    0.407   98.370    4.585
  334.500    0.245    0.416   96.735    4.725
  334.750    0.239    0.422   94.611    4.701
  335.000    0.235    0.427   89.808    4.629
  335.250    0.236    0.431   86.163    4.556
  335.500    0.244    0.429   84.162    4.492
  335.750    0.234    0.425   83.501    4.444
  336.000    0.230    0.426   86.376    4.445
  336.250    0.229    0.429   90.283    4.512
  336.500    0.241    0.424   96.569    4.668
  336.750    0.227    0.409  101.088    4.775
  337.000    0.211    0.385  102.925    5.152
  337.250    0.222    0.303   98.000    6.248
  337.500    0.232    0.176   88.931    9.069
  337.750    0.209    0.138   79.253   10.002
  338.000    0.129    0.122   68.967   11.058
  338.250    0.023    0.112   61.360   12.898
  338.500    0.014    0.108   56.069   14.092
  338.750    0.176    0.150   63.452   10.341
  339.000    0.212    0.234   76.683    8.618
  339.250    0.229    0.353   84.370    7.654
  339.500    0.240    0.390   88.644    6.585
  339.750    0.243    0.413   91.152    5.401
  340.000    0.238    0.437   92.441    4.470
  340.250    0.237    0.444   92.391    4.414
  340.500    0.239    0.433   92.401    4.464
  340.750    0.244    0.426   92.168    4.490
  341.000    0.249    0.422   92.178    4.556
  341.250    0.232    0.432   93.100    4.614
  341.500    0.213    0.441   95.181    4.730
  341.750    0.201    0.444   97.871    4.780
  342.000    0.197    0.440  100.197    4.846
  342.250    0.216    0.423  100.329    4.896
  342.500    0.243    0.399   96.684    4.987
  342.750    0.262    0.389   92.916    5.078
  343.000    0.262    0.388   90.000    5.210
  343.250    0.248    0.393   86.842    5.285
  343.500    0.244    0.400   85.816    5.294
  343.750    0.230    0.409   86.861    5.254
  344.000    0.214    0.420   90.650    5.108
  344.250    0.201    0.429   93.034    4.929
  344.500    0.193    0.442   96.032    4.612
  344.750    0.198    0.454   97.930    4.465
  345.000    0.208    0.461   98.730    4.303
  345.250    0.214    0.465   98.740    4.190
  345.500    0.221    0.467   97.531    4.150
  345.750    0.207    0.468   95.592    4.257
  346.000    0.194    0.461   94.383    5.011
  346.250    0.197    0.453   96.099    5.387
  346.500    0.200    0.443   98.484    5.821
  346.750    0.212    0.438  100.384    6.346
  347.000    0.221    0.432  100.576    6.674
  347.250    0.215    0.429   99.246    6.879
  347.500    0.210    0.425   98.097    7.044
  347.750    0.213    0.414   95.975    7.094
  348.000    0.229    0.405   95.497    7.070
  348.250    0.238    0.393   95.751    6.834
  348.500    0.248    0.388   97.832    6.541
  348.750    0.251    0.389   98.146    6.110
  349.000    0.239    0.393   93.404    5.963
  349.250    0.242    0.397   86.652    5.458
  349.500    0.246    0.398   80.689    5.393
  349.750    0.234    0.395   82.284    5.075
  350.000    0.217    0.387   87.350    4.847
  350.250    0.220    0.376   91.564    4.628
  350.500    0.239    0.367   94.316    4.433
  350.750    0.259    0.359   82.445    4.237
  351.000    0.277    0.355   72.341    4.091
  351.250    0.286    0.364   64.795    3.994
  351.500    0.295    0.373   61.577    3.946
  351.750    0.302    0.380   60.793    3.947
  352.000    0.302    0.384   60.256    3.957
  352.250    0.298    0.381   60.208    3.982
  352.500    0.297    0.374   60.701    3.999
  352.750    0.299    0.373   61.751    3.993
  353.000    0.297    0.377   62.184    3.977
  353.250    0.294    0.388   64.934    3.889
  353.500    0.304    0.392   68.478    3.857
  353.750    0.311    0.382   69.221    3.760
  354.000    0.321    0.376   68.315    3.557
  354.250    0.329    0.373   62.476    3.443
  354.500    0.323    0.377   59.683    3.387
  354.750    0.319    0.374   58.901    3.339
  355.000    0.322    0.365   57.083    3.332
  355.250    0.316    0.355   54.534    3.317
  355.500    0.310    0.351   55.336    3.351
  355.750    0.308    0.347   53.883    3.385
  356.000    0.311    0.354   56.452    3.540
  356.250    0.317    0.356   59.632    3.533
  356.500    0.321    0.351   58.482    3.510
  356.750    0.317    0.348   58.127    3.462
  357.000    0.312    0.346   60.818    3.422
  357.250    0.308    0.349   62.776    3.423
  357.500    0.309    0.355   64.736    3.448
  357.750    0.322    0.365   64.806    3.507
  358.000    0.316    0.374   65.426    3.565
  358.250    0.300    0.383   66.350    3.615
  358.500    0.306    0.392   64.654    3.674
  358.750    0.307    0.400   65.943    3.715
  359.000    0.300    0.399   68.146    3.749
  359.250    0.312    0.392   70.229    3.766
  359.500    0.324    0.386   70.785    3.784
  359.750    0.316    0.381   70.978    3.769
  360.000    0.305    0.381   69.772    3.729
  360.250    0.306    0.386   67.345    3.648
  360.500    0.309    0.387   63.574    3.502
  360.750    0.308    0.381   60.294    3.397
  361.000    0.308    0.372   61.401    3.308
  361.250    0.308    0.369   62.325    3.260
  361.500    0.310    0.365   63.248    3.204
  361.750    0.310    0.362   63.258    3.180
  362.000    0.313    0.363   62.476    3.141
  362.250    0.318    0.365   64.862    3.158
  362.500    0.329    0.369   66.029    3.159
  362.750    0.342    0.375   66.099    3.185
  363.000    0.333    0.385   66.112    3.358
  363.250    0.329    0.396   66.546    3.506
  363.500    0.327    0.405   66.129    3.662
  363.750    0.320    0.417   66.322    3.876
  364.000    0.271    0.425   76.263    4.089
  364.250    0.242    0.429   84.437    4.450
  364.500    0.214    0.432   89.017    4.859
  364.750    0.225    0.424   92.256    5.212
  365.000    0.251    0.415   91.657    5.393
  365.250    0.249    0.412   88.803    5.386
  365.500    0.242    0.408   87.959    5.272
  365.750    0.232    0.410   91.441    5.036
  366.000    0.214    0.419   97.118    4.776
  366.250    0.221    0.428  101.271    4.475
  366.500    0.251    0.436  103.839    4.214
  366.750    0.277    0.426   92.762    4.052
  367.000    0.292    0.408   81.925    3.963
  367.250    0.298    0.401   76.573    3.964
  367.500    0.282    0.394   73.780    4.063
  367.750    0.272    0.391   72.330    4.285
  368.000    0.265    0.393   72.704    4.466
  368.250    0.275    0.396   74.299    4.630
  368.500    0.288    0.391   75.586    4.729
  368.750    0.289    0.388   76.816    4.779
  369.000    0.287    0.387   77.617    4.821
  369.250    0.276    0.393   78.542    4.830
  369.500    0.258    0.395   78.855    4.840
  369.750    0.251    0.391   78.622    4.784
  370.000    0.244    0.388   79.058    4.662
  370.250    0.243    0.385   80.532    4.475
  370.500    0.249    0.384   81.331    4.223
  370.750    0.252    0.383   82.684    4.028
  371.000    0.262    0.383   83.057    3.775
  371.250    0.274    0.384   79.959    3.605
  371.500    0.283    0.386   76.923    3.491
  371.750    0.287    0.390   73.825    3.525
  372.000    0.273    0.396   71.581    3.616
  372.250    0.262    0.400   70.372    3.666
  372.500    0.255    0.401   73.672    3.765
  372.750    0.255    0.401   77.094    3.783
  373.000    0.267    0.402   78.688    3.784
  373.250    0.288    0.402   76.199    3.760
  373.500    0.303    0.399   72.675    3.672
  373.750    0.307    0.397   72.442    3.583
  374.000    0.303    0.393   73.670    3.502
  374.250    0.297    0.388   74.898    3.446
  374.500    0.285    0.387   73.690    3.439
  374.750    0.273    0.386   71.142    3.448
  375.000    0.257    0.389   69.139    3.523
  375.250    0.246    0.393   68.966    3.597
  375.500    0.242    0.396   72.086    3.656
  375.750    0.266    0.392   74.714    3.681
  376.000    0.275    0.390   77.039    3.715
  376.250    0.281    0.389   79.425    3.757
  376.500    0.269    0.390   80.958    3.774
  376.750    0.260    0.392   82.126    3.816
