~VERSION INFORMATION
 VERS.                 2.0:   CWLS LOG ASCII STANDARD -VERSION 2.0
 WRAP.                  NO:   ONE LINE PER DEPTH STEP
~WELL INFORMATION BLOCK
#MNEM.UNIT           DATA                    DESCRIPTION OF MNEMONIC
#---------    -------------------            -------------------------------
# Generated from Intellog Unique Number	CW_82_90/WELL/3075
WELL.         TEXACO WOODEN                  : Well_name    - WELL
LOC .         00/11-12-087-22W4/0            : Location     - LOCATION
UWI .         00/11-12-087-22W4/0            : Uwi          - UNIQUE WELL ID
ENTR.         MAX                            : Entered      - ENTERED BY
SRVC.         SCHLUMBERGER                   : Scn          - SERVICE COMPANY
STRT.M        145                            : top_depth    - START DEPTH
STOP.M        330                            : bot_depth    - STOP DEPTH
STEP.M        0.25                           : increment    - STEP LENGTH
 NULL. -999.2500:NULL Value
~CURVE INFORMATION BLOCK
#MNEM UNIT       ERCB CURVE CODE    CURVE DESCRIPTION
#-----------   ------------------   ----------------------------------
DEPT.M        00 001 00 00         : DEPTH        - DEPTH
ILD .OHMM     00 120 00 00         : RESD         - DEEP RESISTIVITY (DIL)
NPHI.V/V      00 330 00 00         : PHIN         - NEUTRON POROSITY (SANDSTONE)
DPHI.V/V      00 890 00 00         : PHID         - DENSITY POROSITY (SANDSTONE)
CALI.MM       00 280 01 00         : CAL          - CALIPER
GR  .API      00 310 00 00         : GR           - GAMMA RAY
~PARAMETER INFORMATION
#MNEM.UNIT           DATA             DESCRIPTION OF MNEMONIC
#---------         -----------     ------------------------------
GL  .M        559.47               : gl           - GROUND LEVEL ELEVATION
EREF.M        562.92               : kb           - ELEVATION OF DEPTH REFERENCE
DATM.M        559.47               : datum        - DATUM ELEVATION
TDD .M        337                  : tdd          - TOTAL DEPTH DRILLER
RUN .         ONE                  : Run          - RUN NUMBER
ENG .         BILL                 : Engineer     - RECORDING ENGINEER
WIT .         JIM                  : Witness      - WITNESSED BY
MUD .         GEL                  : Mud_type     - MUD TYPE
MATR.         SANDSTONE            : Logunit      - NEUTRON MATRIX
TMAX.C        22.2                 : BHT          - MAXIMUM RECORDED TEMPERATURE
BHTD.M        337                  : BHTDEP       - MAXIMUM RECORDED TEMPERATURE
MATR.         1                    : LOGUNIT      - NEUTRON MATRIX
RMT .C        20                   : MDTP         - TEMPERATURE OF MUD
NEUT.         1                    : NEUTRON      - NEUTRON TYPE
RESI.         0                    : RESIST       - RESISTIVITY TYPE
RMC .OHMM     5.06                 : RMC          - RESISTIVITY OF MUD CAKE
RMF .OHMM     3.27                 : RMF          - RESISTIVITY OF MUD FILTRATE
SUFT.C        -10                  : SUFT         - SURFACE TEMPERATURE
~A  DEPTH     RESD     PHIN     PHID      CAL       GR
# ...
  218.000   11.337    0.391    0.293  227.425   65.646
  218.250   11.229    0.395    0.282  227.385   68.320
  218.500   10.625    0.408    0.266  227.849   72.783
  218.750    9.963    0.419    0.260  229.795   76.355
  219.000    8.924    0.402    0.243  232.250   81.121
  219.250    7.636    0.400    0.235  234.699   82.591
  219.500    5.963    0.427    0.237  235.168   82.270
  219.750    5.149    0.443    0.252  235.124   82.845
  220.000    4.784    0.455    0.252  234.590   84.614
  220.250    4.653    0.461    0.237  234.041   83.093
  220.500    4.693    0.450    0.222  234.011   80.671
  220.750    4.778    0.439    0.225  233.961   78.255
  221.000    4.954    0.426    0.211  234.425   76.732
  221.250    5.328    0.415    0.208  234.380   76.408
  221.500    5.944    0.403    0.224  233.846   75.489
  221.750    6.511    0.404    0.222  232.808   70.367
  222.000    7.534    0.423    0.223  230.258   67.954
  222.250    8.029    0.428    0.221  229.729   65.535
  222.500    8.249    0.421    0.222  228.692   64.314
  222.750    9.118    0.409    0.257  228.153   63.691
  223.000   10.172    0.412    0.287  227.614   61.871
  223.250   10.940    0.412    0.285  227.065   59.449
  223.500   11.343    0.407    0.283  227.035   62.116
  223.750   10.832    0.399    0.277  227.484   65.089
  224.000    9.526    0.399    0.262  228.442   68.957
  224.250    7.304    0.400    0.244  229.909   73.423
  224.500    5.916    0.396    0.238  230.867   74.893
  224.750    5.299    0.392    0.256  229.325   70.382
  225.000    5.342    0.395    0.262  226.652   60.692
  225.250    5.752    0.396    0.277  225.164   59.201
  225.500    6.607    0.395    0.288  224.171   58.905
  225.750    8.553    0.391    0.282  221.187   58.908
  226.000   10.099    0.390    0.279  222.189   60.108
  226.250   11.387    0.389    0.293  222.195   61.008
  226.500   10.486    0.393    0.273  222.201   62.806
  226.750    8.411    0.445    0.259  222.206   66.396
  227.000    7.064    0.442    0.241  221.713   71.781
  227.250    6.213    0.440    0.267  221.221   75.971
  227.500    5.315    0.440    0.240  221.227   76.272
  227.750    4.674    0.449    0.245  221.232   73.286
  228.000    4.507    0.449    0.241  221.239   69.402
  228.250    4.593    0.359    0.215  221.741   64.622
  228.500    5.679    0.325    0.201  225.734   56.852
  228.750    6.004    0.287    0.175  228.233   49.680
  229.000    7.701    0.264    0.128  229.234   44.004
  229.250    9.698    0.224    0.063  229.239   43.110
  229.500   14.547    0.125    0.019  228.745   43.711
  229.750   23.706    0.124    0.024  228.253   43.715
  230.000   31.840    0.139    0.036  228.259   43.717
  230.250   38.647    0.167    0.027  228.264   45.814
  230.500   35.920    0.203    0.049  228.270   49.405
  230.750   32.176    0.261    0.085  228.773   54.790
  231.000   27.781    0.318    0.101  229.278   60.175
  231.250   21.281    0.356    0.133  230.279   65.260
  231.500   17.227    0.366    0.169  231.281   69.449
  231.750   14.470    0.355    0.192  231.288   74.236
  232.000   13.952    0.380    0.175  230.796   77.229
  232.250   12.046    0.414    0.159  230.800   76.934
  232.500   10.497    0.409    0.135  232.301   76.339
  232.750    9.756    0.405    0.178  234.798   76.343
  233.000    9.321    0.411    0.212  236.299   78.738
  233.250    9.239    0.414    0.204  236.803   80.535
  233.500    9.159    0.408    0.203  237.805   80.240
  233.750    8.996    0.410    0.202  239.304   78.449
  234.000    9.167    0.405    0.216  240.306   76.957
  234.250    9.170    0.410    0.207  241.310   76.961
  234.500    9.174    0.411    0.203  242.312   77.562
  234.750    9.611    0.408    0.195  243.314   79.658
  235.000    9.704    0.415    0.209  243.817   82.053
  235.250    9.357    0.417    0.207  244.321   81.160
  235.500    9.106    0.409    0.212  245.323   80.565
  235.750    9.109    0.401    0.208  244.830   82.661
  236.000    8.947    0.405    0.201  244.836   81.768
  236.250    8.787    0.412    0.207  245.839   80.874
  236.500    8.954    0.400    0.210  246.841   79.981
  236.750    9.042    0.405    0.191  246.846   80.284
  237.000    9.129    0.404    0.210  246.852   80.585
  237.250    9.388    0.391    0.226  246.360   81.784
  237.500    9.567    0.391    0.209  246.364   82.387
  237.750    9.396    0.388    0.218  246.370   81.492
  238.000    9.061    0.385    0.218  246.376   80.599
  238.250    8.656    0.393    0.212  246.382   79.407
  238.500    8.120    0.403    0.204  245.889   80.904
  238.750    7.687    0.415    0.195  245.894   82.702
  239.000    7.277    0.406    0.203  246.896   85.396
  239.250    7.147    0.405    0.200  248.896   85.100
  239.500    7.216    0.415    0.184  248.901   85.104
  239.750    8.062    0.440    0.224  248.408   83.911
  240.000    9.786    0.418    0.221  249.410   80.924
  240.250    9.612    0.426    0.214  246.925   76.743
  240.500   10.641    0.440    0.200  244.440   74.354
  240.750   11.565    0.440    0.204  241.953   71.966
  241.000   12.115    0.439    0.226  239.965   70.175
  241.250   12.578    0.434    0.242  236.483   66.890
  241.500   11.794    0.418    0.248  233.000   63.604
  241.750   12.130    0.408    0.265  228.522   61.217
  242.000   12.475    0.406    0.285  226.533   62.116
  242.250   12.595    0.404    0.267  225.544   68.697
  242.500   12.258    0.406    0.258  226.546   73.783
  242.750   11.185    0.409    0.234  230.039   77.375
  243.000   10.111    0.408    0.218  233.532   79.171
  243.250    8.036    0.409    0.211  234.037   80.669
  243.500    6.626    0.418    0.217  235.039   82.168
  243.750    6.216    0.432    0.205  235.542   82.769
  244.000    6.105    0.440    0.201  235.050   82.174
  244.250    6.107    0.415    0.209  234.557   79.487
  244.500    6.281    0.402    0.224  233.068   75.604
  244.750    6.459    0.410    0.240  231.080   69.627
  245.000    6.767    0.421    0.255  229.093   62.156
  245.250    7.220    0.420    0.282  226.607   55.582
  245.500    8.293    0.393    0.289  225.616   52.596
  245.750    9.973    0.377    0.199  225.621   52.001
  246.000   12.794    0.382    0.213  224.132   53.499
  246.250   14.967    0.377    0.287  224.636   55.895
  246.500   16.417    0.370    0.278  224.641   58.589
  246.750   16.423    0.384    0.254  224.648   58.593
  247.000   15.983    0.400    0.245  224.652   59.194
  247.250   14.856    0.397    0.249  224.659   60.692
  247.500   14.324    0.402    0.261  225.162   61.592
  247.750   13.940    0.408    0.224  225.169   61.895
  248.000   13.691    0.399    0.186  225.173   60.702
  248.250   13.697    0.387    0.175  226.674   57.417
  248.500   13.702    0.379    0.213  226.181   54.430
  248.750   14.092    0.387    0.280  226.187   54.733
  249.000   14.494    0.380    0.244  226.691   54.138
  249.250   15.183    0.370    0.233  226.696   53.244
  249.500   16.349    0.386    0.233  226.702   55.939
  249.750   17.770    0.383    0.227  227.207   60.127
  250.000   18.277    0.385    0.222  229.702   70.595
  250.250   17.301    0.398    0.209  232.200   77.176
  250.500   16.080    0.411    0.200  234.698   80.169
  250.750   14.944    0.399    0.200  236.198   82.564
  251.000   14.146    0.390    0.208  237.698   83.763
  251.250   13.027    0.402    0.213  238.701   83.767
  251.500   12.219    0.397    0.221  239.702   82.873
  251.750   11.675    0.382    0.213  239.708   82.577
  252.000   11.362    0.382    0.200  239.713   83.777
  252.250   11.367    0.394    0.178  239.719   84.079
  252.500   11.690    0.408    0.181  240.223   81.691
  252.750   11.803    0.405    0.174  241.225   79.302
  253.000   11.917    0.403    0.155  242.227   81.099
  253.250   12.033    0.410    0.171  242.232   84.391
  253.500   12.038    0.408    0.180  243.235   87.385
  253.750   12.267    0.396    0.189  243.240   88.285
  254.000   12.271    0.369    0.192  243.246   86.494
  254.250   12.505    0.355    0.197  241.758   84.106
