~VERSION INFORMATION
 VERS.                 2.0:   CWLS LOG ASCII STANDARD -VERSION 2.0
 WRAP.                  NO:   ONE LINE PER DEPTH STEP
~WELL INFORMATION BLOCK
#MNEM.UNIT           DATA                    DESCRIPTION OF MNEMONIC
#---------    -------------------            -------------------------------
# Generated from Intellog Unique Number	CW_79_81/WELL/3695
WELL.         REPUBLIC RESOURCES LTD.        : Well_name    - WELL
LOC .         00/11-12-080-05W5/0            : Location     - LOCATION
UWI .         00/11-12-080-05W5/0            : Uwi          - UNIQUE WELL ID
ENTR.         JOETTE                         : Entered      - ENTERED BY
SRVC.         SCHLUMBERGER                   : Scn          - SERVICE COMPANY
DATE.         08-27-92                       : Date         - LOG DATE
STRT.M        350.52                         : top_depth    - START DEPTH
STOP.M        609.52                         : bot_depth    - STOP DEPTH
STEP.M        0.25                           : increment    - STEP LENGTH
 NULL. -999.2500:NULL Value
~CURVE INFORMATION BLOCK
#MNEM UNIT       ERCB CURVE CODE    CURVE DESCRIPTION
#-----------   ------------------   ----------------------------------
DEPT.M        00 001 00 00         : DEPTH        - DEPTH
GR  .API      00 310 00 00         : GR           - GAMMA RAY
ILD .OHMM     00 120 00 00         : RESD         - DEEP RESISTIVITY (DIL)
DELT.US/F     00 520 00 00         : DELT         - SONIC TRAVEL TIME
~PARAMETER INFORMATION
#MNEM.UNIT           DATA             DESCRIPTION OF MNEMONIC
#---------         -----------     ------------------------------
GL  .M        633.984              : gl           - GROUND LEVEL ELEVATION
EREF.M        637.642              : kb           - ELEVATION OF DEPTH REFERENCE
DATM.M        637.642              : datum        - DATUM ELEVATION
TDD .M        1791.92              : tdd          - TOTAL DEPTH DRILLER
RUN .         ONE                  : Run          - RUN NUMBER
ENG .         BILL                 : Engineer     - RECORDING ENGINEER
WIT .         JIM                  : Witness      - WITNESSED BY
MUD .         GEL                  : Mud_type     - MUD TYPE
MATR.         SANDSTONE            : Logunit      - NEUTRON MATRIX
TMAX.C        15.5556              : BHT          - MAXIMUM RECORDED TEMPERATURE
BHTD.M        1791.92              : BHTDEP       - MAXIMUM RECORDED TEMPERATURE
MATR.         1                    : LOGUNIT      - NEUTRON MATRIX
RMT .C        15.5556              : MDTP         - TEMPERATURE OF MUD
NEUT.         1                    : NEUTRON      - NEUTRON TYPE
RESI.         0                    : RESIST       - RESISTIVITY TYPE
RMC .OHMM     0.089                : RMC          - RESISTIVITY OF MUD CAKE
RMF .OHMM     0.089                : RMF          - RESISTIVITY OF MUD FILTRATE
SUFT.C        5                    : SUFT         - SURFACE TEMPERATURE
~A  DEPTH       GR     RESD     DELT
  350.520   55.428    2.306  372.152
  350.770   57.249    2.535  377.497
  351.020   60.282    2.583  378.162
  351.270   61.497    2.178  378.820
  351.520   62.117    2.097  379.478
  351.770   62.127    2.057  378.795
  352.020   62.144    2.018  377.439
  352.270   62.760    1.980  376.756
  352.520   63.373    1.980  376.744
  352.770   66.399    1.980  377.399
  353.020   69.425    1.942  376.049
  353.270   70.644    1.906  372.681
  353.520   68.251    2.095  374.010
  353.770   65.855    2.017  375.338
  354.020   65.865    1.941  373.318
  354.270   66.481    1.869  369.950
  354.520   65.293    1.799  368.596
  354.770   63.496    1.799  369.255
  355.020   64.116    1.833  369.910
  355.270   67.138    1.904  370.574
  355.520   68.357    1.940  372.573
  355.770   68.378    1.940  375.243
  356.020   71.400    1.940  377.236
  356.270   73.225    1.867  379.235
  356.520   73.837    1.832  380.564
  356.770   71.441    1.867  383.907
  357.020   69.045    2.014  382.554
  357.270   66.649    2.172  399.303
  357.520   66.061    2.213  399.961
  357.770   66.680    2.343  389.221
  358.020   66.697    2.387  387.868
  358.270   66.704    2.387  387.856
  358.520   67.324    2.387  387.844
  358.770   70.350    2.298  383.138
  359.020   71.565    2.170  383.796
  359.270   75.197    2.089  389.148
  359.520   73.406    2.050  397.852
  359.770   73.420    2.129  404.544
  360.020   75.840    2.211  391.793
  360.270   71.640    2.128  383.732
  360.520   68.638    1.899  385.060
  360.770   62.025    1.542  398.458
  361.020   57.822    1.456  455.439
  361.270   64.462    1.632  490.292
  361.520   64.476    1.695  462.119
  361.770   65.092    1.727  465.460
  362.020   68.118    1.828  498.971
  362.270   71.747    2.087  452.022
  362.520   74.170    2.126  404.406
  362.770   71.175    2.086  388.972
  363.020   66.968    2.047  414.438
  363.270   62.162    2.047  426.495
  363.520   62.179    2.046  418.437
  363.770   64.603    2.166  423.118
  364.020   67.026    2.381  440.538
  364.270   65.839    2.568  417.729
  364.520   66.455    2.520  373.462
  364.770   68.272    2.426  369.427
  365.020   73.106    2.380  376.119
  365.270   76.135    2.291  459.250
  365.520   74.941    2.291  496.111
  365.770   70.138    2.424  490.738
  366.020   68.947    2.518  479.327
  366.270   71.367    2.821  476.633
  366.520   77.409    3.043  486.678
  366.770   78.627    2.985  479.958
  367.020   79.243    2.378  475.923
  367.270   83.474    2.082  469.876
  367.520   85.295    2.332  430.305
  367.770   81.694    2.613  408.164
  368.020   73.274    2.984  412.178
  368.270   57.624    2.872  369.252
  368.520   49.806    2.927  369.239
  368.770   42.590    3.218  366.542
  369.020   37.182    3.605  364.521
  369.270   35.389    3.278  361.824
  369.520   35.409    2.817  359.130
  369.770   35.419    2.514  358.447
  370.020   34.225    2.286  357.767
  370.270   32.435    2.160  356.411
  370.520   31.846    2.119  355.731
  370.770   34.868    2.159  355.045
  371.020   36.693    2.159  355.700
  371.270   35.502    2.200  357.700
  371.520   36.121    2.200  358.358
  371.770   39.140    2.199  357.005
  372.020   50.001    2.328  358.330
  372.270   54.232    2.417  359.665
  372.520   51.836    2.417  357.641
  372.770   48.235    2.327  318.741
  373.020   44.035    2.510  309.342
  373.270   46.459    3.399  314.023
  373.520   50.686    5.563  369.661
  373.770   60.342    4.186  366.296
  374.020   62.763    3.150  363.602
  374.270   68.801    2.758  387.727
  374.520   70.629    2.655  416.545
  374.770   69.437    2.508  424.579
  375.020   68.845    2.369  415.850
  375.270   69.461    2.325  405.110
  375.520   74.295    2.555  399.060
  375.770   79.734    2.809  404.415
  376.020   81.555    2.756  419.153
  376.270   80.963    2.704  418.470
  376.520   77.365    2.808  406.383
  376.770   74.966    2.972  406.374
  377.020   69.557    3.028  395.634
  377.270   68.366    2.971  395.619
  377.520   68.383    3.145  400.973
  377.770   67.196    3.523  392.245
  378.020   64.194    3.265  382.846
  378.270   61.192    3.204  374.785
  378.520   55.184    3.143  374.102
  378.770   53.993    3.203  370.067
  379.020   54.011    3.521  372.069
  379.270   54.627    3.727  368.701
  379.520   59.456    3.726  368.689
  379.770   68.507    3.588  392.817
  380.020   69.729    3.263  442.420
  380.270   70.345    3.082  461.181
  380.520   74.576    2.699  459.158
  380.770   73.385    2.319  412.209
  381.020   71.588    2.319  390.070
  381.270   67.388    2.501  382.012
  381.520   64.386    2.749  377.977
  381.770   59.580    2.966  375.950
  382.020   55.979    3.386  375.938
  382.270   57.198    3.516  376.593
  382.520   62.034    3.385  377.254
  382.770   66.269    3.321  377.912
  383.020   66.885    3.321  378.574
  383.270   65.088    3.320  378.561
  383.520   60.888    3.320  378.543
  383.770   60.302    3.257  377.863
  384.020   60.309    3.196  377.174
  384.270   60.326    3.135  377.168
  384.520   59.734    3.076  377.826
  384.770   57.338    3.076  381.166
  385.020   60.967    3.194  386.518
  385.270   67.005    3.317  383.824
  385.520   65.814    3.511  378.448
  385.770   62.213    3.646  378.432
  386.020   55.000    3.716  383.116
  386.270   58.629    3.715  389.138
  386.520   61.052    3.645  388.456
  386.770   56.246    3.645  281.163
  387.020   47.826    4.241  257.010
  387.270   45.433    6.314  250.967
  387.520   48.459   18.248  297.888
  387.770   52.084   18.246  313.968
  388.020   56.315   18.948  338.763
  388.270   58.742   10.528  344.785
  388.520   59.355    4.402  395.059
  388.770   59.368    3.642  393.706
  389.020   62.394    3.189  380.284
  389.270   65.424    3.440  378.931
  389.520   67.245    3.505  377.574
  389.770   69.066    3.505  380.914
  390.020   70.890    3.438  386.939
  390.270   69.696    3.248  389.606
  390.520   63.688    3.068  388.920
  390.770   66.112    2.954  390.925
  391.020   70.339    2.790  386.220
  391.270   71.558    2.790  384.193
  391.520   69.162    2.789  381.496
  391.770   66.766    2.789  380.816
  392.020   63.165    2.789  380.804
  392.270   60.166    2.842  382.803
  392.520   62.590    2.842  384.128
  392.770   65.616    2.788  381.431
  393.020   68.043    2.735  380.754
  393.270   68.655    2.633  378.728
  393.520   65.664    2.487  380.056
  393.770   62.059    2.395  382.729
  394.020   59.061    2.394  384.054
  394.270   64.500    2.440  384.713
  394.520   65.715    2.440  360.563
  394.770   67.540    2.486  355.857
  395.020   67.553    2.533  355.845
  395.270   65.760    2.582  360.526
  395.520   64.569    2.581  365.878
  395.770   62.169    2.532  375.252
  396.020   58.568    2.532  383.282
  396.270   55.570    2.783  379.247
  396.520   53.174    2.891  379.235
  396.770   51.982    2.891  383.249
  397.020   55.614    2.783  394.635
  397.270   58.640    2.579  391.940
  397.520   58.051    2.436  390.584
  397.770   61.077    2.436  389.901
  398.020   64.107    2.436  386.540
  398.270   62.313    2.482  379.822
  398.520   61.122    2.578  373.776
  398.770   61.735    2.627  374.428
  399.020   64.162    2.677  377.768
  399.270   65.983    2.728  377.756
  399.520   63.587    2.727  375.061
  399.770   60.588    2.727  375.723
  400.020   61.201    2.727  377.048
  400.270   66.636    2.576  379.047
  400.520   73.879    2.527  382.387
  400.770   79.924    2.575  384.390
  401.020   81.742    3.422  389.071
  401.270   79.952    4.461  395.763
  401.520   76.960    4.295  405.138
  401.770   75.160    4.057  409.148
  402.020   73.969    3.980  403.769
  402.270   73.982    4.133  399.737
  402.520   74.599    4.375  395.702
  402.770   75.814    4.630  392.337
  403.020   79.442    4.718  389.637
  403.270   80.661    4.718  388.954
  403.520   78.871    4.717  385.586
  403.770   75.270    4.717  384.239
  404.020   72.271    4.456  378.863
  404.270   69.269    4.052  372.146
  404.520   67.475    3.616  367.440
