~VERSION INFORMATION
 VERS.                 2.0:   CWLS LOG ASCII STANDARD -VERSION 2.0
 WRAP.                  NO:   ONE LINE PER DEPTH STEP
~WELL INFORMATION BLOCK
#MNEM.UNIT           DATA                    DESCRIPTION OF MNEMONIC
#---------    -------------------            -------------------------------
# Generated from Intellog Unique Number	CW_82_90/WELL/3445
WELL.         DOME MINK                      : Well_name    - WELL
LOC .         00/10-35-088-22W4/0            : Location     - LOCATION
UWI .         00/10-35-088-22W4/0            : Uwi          - UNIQUE WELL ID
ENTR.         MAX                            : Entered      - ENTERED BY
SRVC.         WESTERN ATLAS                  : Scn          - SERVICE COMPANY
STRT.M        50                             : top_depth    - START DEPTH
STOP.M        252                            : bot_depth    - STOP DEPTH
STEP.M        0.25                           : increment    - STEP LENGTH
 NULL. -999.2500:NULL Value
~CURVE INFORMATION BLOCK
#MNEM UNIT       ERCB CURVE CODE    CURVE DESCRIPTION
#-----------   ------------------   ----------------------------------
DEPT.M        00 001 00 00         : DEPTH        - DEPTH
ILD .OHMM     00 120 00 00         : RESD         - DEEP RESISTIVITY (DIL)
NPHI.V/V      00 330 00 00         : PHIN         - NEUTRON POROSITY (SANDSTONE)
DPHI.V/V      00 890 00 00         : PHID         - DENSITY POROSITY (SANDSTONE)
CALI.MM       00 280 01 00         : CAL          - CALIPER
GR  .API      00 310 00 00         : GR           - GAMMA RAY
~PARAMETER INFORMATION
#MNEM.UNIT           DATA             DESCRIPTION OF MNEMONIC
#---------         -----------     ------------------------------
GL  .M        516.7                : gl           - GROUND LEVEL ELEVATION
EREF.M        520                  : kb           - ELEVATION OF DEPTH REFERENCE
DATM.M        516.7                : datum        - DATUM ELEVATION
TDD .M        252                  : tdd          - TOTAL DEPTH DRILLER
RUN .         ONE                  : Run          - RUN NUMBER
ENG .         BILL                 : Engineer     - RECORDING ENGINEER
WIT .         JIM                  : Witness      - WITNESSED BY
MUD .         GEL                  : Mud_type     - MUD TYPE
MATR.         SANDSTONE            : Logunit      - NEUTRON MATRIX
TMAX.C        20                   : BHT          - MAXIMUM RECORDED TEMPERATURE
BHTD.M        252                  : BHTDEP       - MAXIMUM RECORDED TEMPERATURE
MATR.         1                    : LOGUNIT      - NEUTRON MATRIX
RMT .C        18                   : MDTP         - TEMPERATURE OF MUD
NEUT.         1                    : NEUTRON      - NEUTRON TYPE
RESI.         0                    : RESIST       - RESISTIVITY TYPE
RMC .OHMM     5.4                  : RMC          - RESISTIVITY OF MUD CAKE
RMF .OHMM     4.5                  : RMF          - RESISTIVITY OF MUD FILTRATE
SUFT.C        -15                  : SUFT         - SURFACE TEMPERATURE
~A  DEPTH     RESD     PHIN     PHID      CAL       GR
# ...
   86.500    7.466    0.483    0.355  235.060   84.778
   86.750    6.077    0.472    0.352  235.533   84.169
   87.000    5.532    0.436    0.345  235.008   82.956
   87.250    5.178    0.411    0.336  234.484   80.843
   87.500    5.080    0.418    0.330  232.963   80.534
   87.750    5.030    0.447    0.335  230.938   81.115
   88.000    4.981    0.505    0.340  228.917   83.189
   88.250    4.978    0.490    0.340  227.397   83.770
   88.500    5.067    0.463    0.339  226.377   80.765
   88.750    5.209    0.481    0.349  226.848   80.451
   89.000    5.453    0.486    0.352  225.829   83.721
   89.250    5.553    0.436    0.333  223.807   88.781
   89.500    5.654    0.436    0.322  223.783   92.646
   89.750    5.651    0.480    0.324  224.250   91.133
   90.000    5.595    0.426    0.330  224.724   89.026
   90.250    5.540    0.405    0.331  225.685   88.118
   90.500    5.383    0.434    0.331  226.657   87.801
   90.750    5.331    0.455    0.331  227.124   87.187
   91.000    5.278    0.439    0.332  228.095   85.975
   91.250    5.081    0.435    0.335  228.566   85.361
   91.500    4.938    0.463    0.338  229.036   87.138
   91.750    4.889    0.504    0.337  228.508   89.212
   92.000    5.072    0.478    0.328  227.485   86.210
   92.250    5.462    0.435    0.312  225.968   81.117
   92.500    6.457    0.400    0.308  225.443   75.425
   92.750    7.923    0.374    0.317  224.915   70.631
   93.000   10.476    0.377    0.333  224.891   69.416
   93.250   13.722    0.381    0.336  225.358   69.402
   93.500   15.480    0.381    0.330  225.825   69.385
   93.750   16.362    0.388    0.332  226.295   69.371
   94.000   16.975    0.397    0.333  226.265   67.263
   94.250   17.445    0.407    0.330  226.738   66.054
   94.500   17.764    0.421    0.324  227.209   64.542
   94.750   18.258    0.424    0.319  226.684   63.330
   95.000   18.590    0.426    0.326  226.162   63.612
   95.250   18.578    0.411    0.345  227.127   67.181
   95.500   18.742    0.410    0.361  227.100   69.551
   95.750   18.905    0.411    0.382  226.578   66.551
   96.000   18.892    0.413    0.406  226.050   65.336
   96.250   18.884    0.419    0.428  226.019   65.323
   96.500   19.046    0.439    0.431  226.496   65.008
   96.750   19.032    0.437    0.413  231.940   64.689
   97.000   19.023    0.401    0.394  231.909   64.677
   97.250   19.192    0.384    0.379  227.904   64.957
   97.500   19.360    0.368    0.365  225.886   66.735
   97.750   19.528    0.357    0.380  225.361   68.211
   98.000   19.157    0.367    0.393  225.831   68.195
   98.250   19.686    0.378    0.409  226.796   66.980
   98.500   20.046    0.382    0.398  229.755   65.769
   98.750   19.664    0.386    0.388  232.714   65.456
   99.000   15.710    0.388    0.382  233.685   68.424
   99.250   11.867    0.402    0.371  234.156   72.590
   99.500    9.569    0.454    0.356  234.626   77.650
   99.750    7.789    0.491    0.340  234.592   80.916
  100.000    6.340    0.475    0.333  234.564   80.601
  100.250    5.613    0.452    0.325  235.035   78.196
  100.500    5.403    0.450    0.319  235.011   76.687
  100.750    5.400    0.455    0.320  234.980   77.566
  101.000    5.602    0.465    0.322  234.956   80.835
  101.250    5.976    0.466    0.322  234.431   82.311
  101.500    6.376    0.456    0.324  233.903   81.399
  101.750    6.552    0.405    0.326  233.879   80.190
  102.000    6.610    0.397    0.327  233.354   78.380
  102.250    6.793    0.417    0.326  233.324   75.378
  102.500    6.917    0.412    0.326  233.296   73.568
  102.750    7.043    0.391    0.326  233.266   73.255
  103.000    7.239    0.407    0.331  233.242   72.938
  103.250    7.579    0.470    0.342  233.214   71.725
  103.500    7.791    0.470    0.354  232.689   71.115
  103.750    8.158    0.445    0.368  232.659   69.606
  104.000    8.785    0.397    0.381  232.635   68.395
  104.250    9.728    0.376    0.378  233.098   58.523
  104.500   11.183    0.370    0.369  233.078   50.444
  104.750   13.851    0.379    0.353  232.052   42.960
  105.000   17.643    0.413    0.408  231.026   43.840
  105.250   22.264    0.457    0.438  229.509   43.824
  105.500   29.163    0.466    0.438  226.496   43.508
  105.750   33.520    0.388    0.433  227.464   40.205
  106.000   35.761    0.373    0.420  230.920   37.800
  106.250   37.101    0.374    0.408  231.885   36.888
  106.500   37.772    0.379    0.403  232.352   36.870
  106.750   37.755    0.390    0.396  234.319   38.649
  107.000   37.732    0.390    0.391  238.774   41.619
  107.250   37.706    0.373    0.391  236.749   40.109
  107.500   38.040    0.372    0.397  234.738   39.496
  107.750   39.090    0.383    0.406  230.729   42.165
  108.000   36.597    0.380    0.406  230.201   42.148
  108.250   29.240    0.361    0.398  232.168   44.523
  108.500   19.026    0.356    0.392  233.132   51.076
  108.750   14.779    0.372    0.388  233.108   59.420
  109.000   13.708    0.394    0.363  234.076   67.765
  109.250   13.076    0.432    0.368  234.537   67.749
  109.500   12.589    0.428    0.368  233.521   65.642
  109.750   11.897    0.413    0.362  230.010   64.131
  110.000   10.932    0.417    0.356  227.992   69.790
  110.250   10.045    0.443    0.351  227.965   76.343
  110.500    8.810    0.457    0.351  227.937   80.206
  110.750    7.872    0.458    0.358  227.907   81.683
  111.000    7.509    0.461    0.361  227.876   83.759
  111.250    7.434    0.471    0.359  227.852   84.338
  111.500    7.857    0.456    0.360  228.322   81.037
  111.750    8.461    0.441    0.353  228.298   72.062
  112.000    9.546    0.417    0.327  228.268   66.967
  112.250   10.771    0.380    0.284  228.240   66.354
  112.500   12.852    0.360    0.264  227.712   65.143
  112.750   13.969    0.343    0.286  227.187   62.142
  113.000   15.327    0.372    0.384  227.654   57.346
  113.250   19.890    0.407    0.406  228.128   54.045
  113.500   24.180    0.414    0.420  228.097   50.744
  113.750   24.619    0.413    0.404  228.077   48.934
  114.000   24.151    0.398    0.378  228.544   50.114
  114.250   23.036    0.394    0.340  228.019   56.369
  114.500   22.177    0.393    0.319  227.497   65.906
  114.750   21.352    0.375    0.313  227.467   65.593
  115.000   20.367    0.356    0.317  227.436   55.422
  115.250   19.427    0.367    0.333  228.401   53.317
  115.500   18.358    0.374    0.328  228.377   56.285
  115.750   15.657    0.368    0.318  229.341   60.750
  116.000   13.988    0.380    0.310  230.316   70.289
  116.250   12.735    0.431    0.305  231.779   81.918
  116.500   12.035    0.457    0.303  232.252   84.587
  116.750   11.372    0.454    0.302  236.701   84.274
  117.000   10.949    0.437    0.312  236.176   81.568
  117.250   10.741    0.431    0.317  235.157   81.550
  117.500   10.635    0.438    0.320  233.636   82.431
  117.750   10.528    0.439    0.318  232.614   83.311
  118.000   10.425    0.441    0.316  231.584   83.887
  118.250   10.419    0.435    0.318  231.560   84.472
  118.500   10.412    0.416    0.322  231.035   84.755
  118.750   10.309    0.395    0.325  231.008   84.738
  119.000   10.303    0.381    0.324  230.981   83.229
  119.250   10.394    0.380    0.320  229.955   81.421
  119.500   10.680    0.398    0.315  228.428   80.507
  119.750   10.979    0.396    0.306  227.415   79.893
  120.000   11.932    0.373    0.299  226.890   78.684
  120.250   12.971    0.355    0.284  226.362   75.381
  120.500   14.364    0.331    0.214  226.334   74.768
  120.750   15.466    0.347    0.218  226.805   71.168
  121.000   15.897    0.384    0.278  227.776   71.150
  121.250   14.607    0.410    0.319  228.243   74.420
  121.500   11.242    0.435    0.350  229.211   79.480
  121.750    9.236    0.463    0.364  230.169   83.642
  122.000    8.100    0.488    0.358  231.144   85.417
  122.250    7.513    0.471    0.341  231.618   85.102
  122.500    7.233    0.448    0.324  231.591   82.699
  122.750    7.297    0.445    0.309  231.563   79.099
