~V
VERS. 2.00: Ver 2.00
WRAP. NO:
VEND. PRIZM:GeoGraphix
~W
STRT.M 45.7200:START DEPTH
STOP.M 281.6352:STOP DEPTH
STEP.M 0.3048:STEP
NULL. -999.2500:NULL VALUE
WELL. NUMAC SURMONT :WELL
COMP. :COMPANY
UWI. 00_10-14-082-06W4_0:UNIQUE WELL ID
FLD. :FIELD
CNTY. :COUNTY
STAT. :STATE
CTRY. :COUNTRY
PDAT. :PERMANENT DATUM
LMF. :LOG MEASURED FROM
DMF. :DRILLING MEASURED FROM
LOC1. 10-14-082-06W4:LOCATION LINE 1
LOC2. :LOCATION LINE 2
LOC3. :LOCATION LINE 3
SEC. :SECTION
TWP. :TOWNSHIP
RAN. :RANGE
SRVC. DRESSER ATLAS:Logging Company
BASE. :Logging Unit Location
ENG. BILL:Logging Engineer
WITN. JIM:Witnessed By
DATE. 26 - MAR - 1973:Date
RUN. ONE:Run No.
MUD_TYPE. GEL:Type Fluid in Hole
MUDS. :Source of Mud Sample
RMFS. :Source of Mud Filtrate
RMCS. :Source of Mud Cake
LOC. :LOCATION
~C
DEPT.M :DEPTH
PHID. :Density Pososity
NPHI. :PHIN         - NEUTRON POROSITY (LIMESTONE)
RHOB.KG/M3 :DENS         - BULK DENSITY
GR.API :GR           - GAMMA RAY
ILD.OHMM :RESD         - DEEP RESISTIVITY (DIL)
~P
EKB. 488.6000:ELEVATION OF KELLY BUSHING
EDF. -999.2500:ELEVATION OF DRILLING FLOOR
EGL. 486.7660:ELEVATION OF GROUND LEVEL
EPD. -999.2500:ELEVATION OF PERMANENT DATUM
APD. -999.2500:LMF DISTANCE ABOVE PERMANENT DATUM
LAT. 56.1093:LATITUDE OF WELL LOCATION
LONG. 110.8227:LONGITUDE OF WELL LOCATION
TDD. 278.8920:Total Depth Driller
TDL. -999.2500:Total Depth Logger
LCSG1. -999.2500:Depth of Casing from Logger
CSIZE. -999.2500:Casing Size
CWT. -999.2500:Casing Weight
BS. -999.2500:Bit Size
TLI. 45.7200:Top Logged Interval
BLI. 281.6352:Bottom Logged Interval
MRT. 16.6667:Maximum Recorded Temperature
WMUD. -999.2500:Drilling Mud Density
DFV. -999.2500:Drilling Mud Viscosity
PH. -999.2500:Drilling Mud pH
DFL. -999.2500:Drilling Mud Fluid Loss
RM. -999.2500:Resistivity of Drilling Fluid
RMT. -999.2500:Measured Temp. of Drilling Fluid
RMF. 0.2500:Resistivity of Drilling Fluid Filtrate
RMFT. -999.2500:Measured Temp. of Drilling Fluid Filtrate
RMC. 0.2500:Resistivity of Mud Cake
RMCT. -999.2500:Measured Temp. of Mud Cake
PHImax.V/V 0.3900:Maximum allowable Porosity
RwBnd.OHMM 0.1500:Bound Water Resistivity
RhoHy.KG/MT 1000.0000:Hydrocarbon Bulk density
SwCutoff.V/V 0.7000:Water Saturation Cutoff
PHINsh.V/V 0.4800:New Description
Rw.OHMM 1.0000:Formation Water Resistivity
Rshl.OHMM 5.0000:Resistivity shale
Trw.DEGC 25.0000:Rw measured at Lab conditions
ShaleCutoff.V/V 0.4000:New Description
GRcln.API 45.0000:Gamma Ray clean
RhoM.KG/MT 2650.0000:Bulk Density Matrix
GRshl.API 90.0000:Gamma Ray shale
m. 2.0000:Archie "m"
n. 2.0000:Archie "n"
GasTol.V/V 0.0500:Gas Tollerance
BHTemp.DEGC 25.0000:Bottom Hole Temperature
BHTDepth.M 1000.0000:Bottom Hole Depth
PHIDsh.US/MT 0.1800:New Description
a. 1.0000:Archie "a"
Gas Tol.V/V 0.0500:Gas Tollerance
RhoF.KG/MT 1000.0000:Bulk Density Fluid
RhoShl.KG/MT 2300.0000:Bulk Density Shale
TarCutoff.V/V 0.0300:New Description
SurfTemp.DEGC 10.0000:New Description
HIshl.V/V 0.4000:Neutron Hydrogen Index shale
MATR. 1.0000:
NEUT. 0.0000:
BHTD.M 278.8920:
DATM.M 488.5940:
NULL. -999.2500:
RESI. 0.0000:
SUFT.C 15.0000:
~A
# ...
   82.2960     0.2733     0.2900  2199.1299    69.2730    11.3350 
   82.6008     0.2720     0.2870  2201.1599    66.8550     9.4070 
   82.9056     0.2598     0.2860  2221.4099    68.0680     9.0650 
   83.2104     0.2536     0.2870  2231.5400    70.4920     9.9550 
   83.5152     0.2548     0.2870  2229.5200    71.1000    10.5340 
   83.8200     0.2646     0.2890  2213.3301    71.7090    10.7350 
   84.1248     0.2732     0.2930  2199.1699    71.7100    10.7370 
   84.4296     0.2794     0.2950  2189.0500    72.3180    10.3460 
   84.7344     0.2745     0.2920  2197.1499    74.1380    10.3500 
   85.0392     0.2634     0.2860  2215.3799    72.9290    10.5510 
   85.3440     0.2732     0.2850  2199.1899    74.1430    10.7530 
   85.6488     0.2855     0.2910  2178.9500    76.5670    10.9580 
   85.9536     0.2990     0.2930  2156.6899    78.9900    11.1660 
   86.2584     0.3027     0.2900  2150.6201    78.9930    11.1710 
   86.5632     0.2867     0.2870  2176.9500    77.7850    10.9670 
   86.8680     0.2364     0.2950  2259.9500    76.5770    10.7690 
   87.1728     0.2253     0.3010  2278.1799    75.3700    10.3760 
   87.4776     0.2548     0.3030  2229.6001    74.1620    10.1880 
   87.7824     0.2560     0.2980  2227.5801    72.9530    10.0020 
   88.0872     0.2523     0.2950  2233.6599    64.4830    10.1930 
   88.3920     0.2548     0.2930  2229.6201    59.0380    10.5860 
   88.6968     0.2658     0.2950  2211.3999    54.8040    10.7880 
   89.0016     0.2818     0.2930  2185.0901    60.2550    10.7910 
   89.3064     0.2793     0.2880  2189.1499    62.6780    10.5950 
   89.6112     0.2805     0.2860  2187.1299    65.7070    10.5990 
   89.9160     0.2867     0.2900  2177.0100    71.1570    11.6390 
   90.2208     0.2952     0.3070  2162.8501    74.7910    13.2690 
   90.5256     0.3186     0.3080  2124.3899    79.6360    13.5250 
   90.8304     0.3149     0.3030  2130.4700    83.2700    13.5270 
   91.1352     0.2989     0.3020  2156.8000    85.0880    12.7950 
   91.4400     0.2989     0.3040  2156.8000    84.4860    12.1010 
   91.7448     0.3014     0.3040  2152.7600    83.8830    11.2340 
   92.0496     0.2805     0.3020  2187.1799    85.0970    10.8250 
   92.3544     0.2756     0.2900  2195.2800    86.9160    11.2420 
   92.6592     0.2694     0.2820  2205.4099    86.9180    11.2440 
   92.9640     0.2572     0.2770  2225.6599    85.1050    11.8970 
   93.2688     0.2559     0.2820  2227.6899    81.4760    11.9000 
   93.5736     0.2486     0.2810  2239.8401    77.2420    12.1270 
   93.8784     0.2461     0.2770  2243.8999    73.6130    12.1320 
   94.1832     0.2510     0.2790  2235.8101    66.3530    11.9100 
   94.4880     0.2596     0.2790  2221.6399    57.2770    10.4550 
   94.7928     0.2547     0.2770  2229.7500    46.9900    10.4570 
   95.0976     0.2302     0.2770  2270.2400    45.1780    10.8600 
   95.4024     0.2216     0.2760  2284.4199    46.9960    11.0670 
   95.7072     0.2277     0.2760  2274.3000    49.4200    11.9310 
   96.0120     0.2804     0.2790  2187.2600    50.6320    12.3880 
   96.3168     0.3172     0.2810  2126.5400    52.4510    12.8620 
   96.6216     0.3136     0.2860  2132.6201    53.6650    12.8660 
   96.9264     0.3025     0.2880  2150.8401    54.8770    13.1140 
   97.2312     0.2927     0.2830  2167.0400    57.9070    12.8750 
   97.5360     0.2890     0.2850  2173.1201    60.9350    12.1780 
   97.8408     0.2976     0.2910  2158.9600    63.9640    11.7350 
   98.1456     0.3001     0.2930  2154.9099    65.7830    12.1850 
   98.4504     0.2988     0.2930  2156.9399    67.6020    12.1880 
   98.7552     0.2902     0.2880  2171.1201    70.6300    11.7450 
   99.0600     0.2865     0.2820  2177.2000    77.8960    10.9030 
   99.3648     0.2914     0.2820  2169.1101    82.1350    10.3120 
   99.6696     0.2951     0.2850  2163.0400    83.3480     9.7550 
   99.9744     0.2890     0.2940  2173.1699    88.1930     9.7570 
  100.2792     0.2534     0.3210  2231.8799    92.4320     9.9460 
  100.5840     0.2436     0.3270  2248.0801    93.0410     9.9470 
  100.8888     0.2485     0.3330  2239.9900    97.2800     9.7660 
  101.1936     0.2411     0.3470  2252.1399   102.1260     6.2410 
  101.4984     0.2399     0.3520  2254.1699   103.9430     6.9820 
  101.8032     0.2215     0.3580  2284.5500   105.7620     8.1100 
  102.1080     0.2117     0.3550  2300.7500   109.3970     7.5290 
  102.4128     0.2460     0.3420  2244.0701   111.2150     6.0190 
  102.7176     0.2313     0.3320  2268.3701   111.8230     5.8000 
  103.0224     0.2239     0.3210  2280.5200   109.4040     5.0920 
  103.3272     0.2497     0.3140  2238.0200   103.3540     5.0930 
  103.6320     0.2227     0.3000  2282.5601    98.5150     5.2880 
  103.9368     0.1994     0.2920  2321.0300    97.3070     6.8710 
  104.2416     0.2055     0.2830  2310.9099    94.2830     7.8320 
  104.5464     0.2202     0.2780  2286.6299    93.0760     8.7640 
  104.8512     0.2153     0.2800  2294.7300    97.9210     9.8070 
  105.1560     0.1908     0.2840  2335.2200   103.3710    10.1830 
  105.4608     0.1871     0.2940  2341.3000   105.7940    10.1850 
  105.7656     0.1895     0.3030  2337.2600   107.0080     9.8150 
  106.0704     0.1969     0.3090  2325.1201   107.0100     8.7780 
  106.3752     0.2018     0.3110  2317.0300   104.5940     7.4220 
  106.6800     0.1797     0.3110  2353.4700   103.3850     7.0200 
  106.9848     0.1760     0.3080  2359.5500   102.1760     6.5170 
  107.2896     0.1920     0.2940  2333.2400    98.5470     6.5190 
  107.5944     0.2055     0.2840  2310.9800    95.5240     6.8960 
  107.8992     0.2030     0.2780  2315.0300    93.1050     8.1610 
  108.2040     0.2091     0.2750  2304.9199    88.8710     9.1310 
  108.5088     0.2214     0.2770  2284.6799    81.6110    10.6060 
  108.8136     0.2459     0.2890  2244.2000    86.4560    12.5520 
  109.1184     0.2545     0.3100  2230.0400    94.9330    13.5300 
  109.4232     0.2349     0.3210  2262.4299   100.3820    13.2820 
  109.7280     0.2128     0.3320  2298.8799    98.5690     9.8550 
  110.0328     0.1919     0.3340  2333.3000    94.9400     9.6760 
  110.3376     0.2214     0.3280  2284.7200    86.4690     9.6790 
  110.6424     0.2238     0.3120  2280.6799    79.2090     8.6560 
  110.9472     0.2128     0.3000  2298.8999    72.5540     8.4990 
  111.2520     0.2128     0.2890  2298.9099    61.0570     8.8240 
  111.5568     0.1993     0.2710  2321.1799    60.4560     9.8730 
  111.8616     0.2214     0.2560  2284.7500    61.0630    11.2560 
  112.1664     0.2201     0.2540  2286.7800    62.2760    10.4500 
  112.4712     0.2115     0.2530  2300.9600    62.2790    10.2580 
  112.7760     0.2054     0.2560  2311.0801    63.4920    11.9160 
  113.0808     0.1747     0.2610  2361.7000    64.7050    12.6060 
  113.3856     0.1772     0.2650  2357.6599    64.1030    10.8610 
  113.6904     0.1907     0.2670  2335.3999    62.2900     9.5340 
  113.9952     0.2066     0.2680  2309.0801    60.4770     9.7150 
  114.3000     0.2177     0.2710  2290.8701    59.2690    10.2790 
  114.6048     0.2176     0.2760  2290.8799    59.8770    10.4770 
  114.9096     0.2360     0.2810  2260.5200    58.0640    10.2850 
  115.2144     0.2459     0.2930  2244.3301    56.8560    10.2880 
  115.5192     0.2630     0.3030  2216.0000    58.0700    10.6830 
  115.8240     0.2569     0.3000  2226.1201    60.4930    11.9530 
  116.1288     0.2606     0.2960  2220.0601    60.4960    13.1270 
  116.4336     0.2937     0.2980  2165.4099    63.5240    12.6490 
  116.7384     0.3109     0.3000  2137.0701    71.3960     9.9260 
  117.0432     0.3145     0.3030  2131.0000    73.2130     9.2150 
  117.3480     0.3109     0.3050  2137.0801    75.6380     9.7490 
  117.6528     0.2851     0.3100  2179.6001    78.0610    10.5080 
  117.9576     0.2728     0.3350  2199.8501    85.3270    11.1170 
  118.2624     0.2789     0.3290  2189.7400    90.1710     9.2260 
  118.5672     0.2863     0.3270  2177.6001    96.2270     5.4720 
