~VERSION INFORMATION
 VERS.                 2.0:   CWLS LOG ASCII STANDARD -VERSION 2.0
 WRAP.                  NO:   ONE LINE PER DEPTH STEP
~WELL INFORMATION BLOCK
#MNEM.UNIT           DATA                    DESCRIPTION OF MNEMONIC
#---------    -------------------            -------------------------------
# Generated from Intellog Unique Number	CS_77_79/WELL/993
WELL.         BVX ET AL PORTAGE              : Well_name    - WELL
LOC .         00/11-09-079-15W4/0            : Location     - LOCATION
UWI .         00/11-09-079-15W4/0            : Uwi          - UNIQUE WELL ID
ENTR.         JHS                            : Entered      - ENTERED BY
SRVC.         SCHLUMBERGER                   : Scn          - SERVICE COMPANY
STRT.M        220                            : top_depth    - START DEPTH
STOP.M        453                            : bot_depth    - STOP DEPTH
STEP.M        0.25                           : increment    - STEP LENGTH
 NULL. -999.2500:NULL Value
~CURVE INFORMATION BLOCK
#MNEM UNIT       ERCB CURVE CODE    CURVE DESCRIPTION
#-----------   ------------------   ----------------------------------
DEPT.M        00 001 00 00         : DEPTH        - DEPTH
DPHI.V/V      00 890 00 00         : PHID         - DENSITY POROSITY (LIMESTONE)
NPHI.V/V      00 330 00 00         : PHIN         - NEUTRON POROSITY (LIMESTONE)
GR  .API      00 310 00 00         : GR           - GAMMA RAY
ILD .OHMM     00 120 00 00         : RESD         - DEEP RESISTIVITY (DIL)
RHOB.KG/M3    00 350 00 00         : DENS         - BULK DENSITY
~PARAMETER INFORMATION
#MNEM.UNIT           DATA             DESCRIPTION OF MNEMONIC
#---------         -----------     ------------------------------
GL  .M        627.7                : gl           - GROUND LEVEL ELEVATION
EREF.M        630.7                : kb           - ELEVATION OF DEPTH REFERENCE
DATM.M        630.7                : datum        - DATUM ELEVATION
TDD .M        460                  : tdd          - TOTAL DEPTH DRILLER
RUN .         ONE                  : Run          - RUN NUMBER
ENG .         BILL                 : Engineer     - RECORDING ENGINEER
WIT .         JIM                  : Witness      - WITNESSED BY
MUD .         GEL                  : Mud_type     - MUD TYPE
MATR.         LIMESTONE            : Logunit      - NEUTRON MATRIX
TMAX.C        22                   : BHT          - MAXIMUM RECORDED TEMPERATURE
BHTD.M        460                  : BHTDEP       - MAXIMUM RECORDED TEMPERATURE
MATR.         1                    : LOGUNIT      - NEUTRON MATRIX
RMT .C        25                   : MDTP         - TEMPERATURE OF MUD
NEUT.         1                    : NEUTRON      - NEUTRON TYPE
RESI.         0                    : RESIST       - RESISTIVITY TYPE
RMC .OHMM     0.25                 : RMC          - RESISTIVITY OF MUD CAKE
RMF .OHMM     0.25                 : RMF          - RESISTIVITY OF MUD FILTRATE
SUFT.C        15                   : SUFT         - SURFACE TEMPERATURE
~A  DEPTH     PHID     PHIN       GR     RESD     DENS
# ...
  366.000    0.051    0.205   58.640   18.390    0.000
  366.250    0.037    0.191   56.834   22.567    0.000
  366.500    0.024    0.180   55.633   26.188    0.000
  366.750    0.014    0.169   52.605   29.825    0.000
  367.000    0.010    0.163   50.798   33.340    0.000
  367.250    0.020    0.165   52.651   33.319    0.000
  367.500    0.049    0.182   52.671   29.774    0.000
  367.750    0.087    0.223   53.909   24.234    0.000
  368.000    0.150    0.282   60.026   18.648    0.000
  368.250    0.222    0.375   65.534   14.897    0.000
  368.500    0.272    0.446   66.166   12.126    0.000
  368.750    0.325    0.473   63.751    9.507    0.000
  369.000    0.319    0.465   63.766    8.984    0.000
  369.250    0.302    0.449   64.400    8.814    0.000
  369.500    0.292    0.468   66.252    8.972    0.000
  369.750    0.291    0.454   66.882    9.138    0.000
  370.000    0.315    0.458   66.898    9.131    0.000
  370.250    0.307    0.464   66.311    8.957    0.000
  370.500    0.316    0.460   65.722    8.625    0.000
  370.750    0.301    0.456   66.968    7.850    0.000
  371.000    0.291    0.436   67.597    7.701    0.000
  371.250    0.302    0.427   68.225    7.698    0.000
  371.500    0.300    0.434   67.638    7.691    0.000
  371.750    0.306    0.451   67.042    7.833    0.000
  372.000    0.297    0.467   70.118    7.826    0.000
  372.250    0.300    0.457   69.527    7.823    0.000
  372.500    0.303    0.445   68.325    7.818    0.000
  372.750    0.300    0.466   68.957    7.671    0.000
  373.000    0.303    0.468   67.759    7.524    0.000
  373.250    0.304    0.453   67.169    7.520    0.000
  373.500    0.299    0.456   65.973    7.515    0.000
  373.750    0.289    0.450   64.770    7.511    0.000
  374.000    0.284    0.438   62.357    7.505    0.000
  374.250    0.278    0.433   62.981    7.642    0.000
  374.500    0.291    0.431   65.447    7.639    0.000
  374.750    0.306    0.443   65.465    7.633    0.000
  375.000    0.285    0.450   67.313    7.631    0.000
  375.250    0.292    0.448   69.774    7.626    0.000
  375.500    0.305    0.441   69.183    7.479    0.000
  375.750    0.301    0.442   67.988    7.335    0.000
  376.000    0.290    0.458   68.620    7.333    0.000
  376.250    0.289    0.468   69.862    7.327    0.000
  376.500    0.302    0.459   70.488    7.189    0.000
  376.750    0.315    0.463   71.117    7.184    0.000
  377.000    0.319    0.465   69.308    7.180    0.000
  377.250    0.310    0.444   68.717    7.310    0.000
  377.500    0.303    0.445   68.737    7.584    0.000
  377.750    0.292    0.460   70.592    7.723    0.000
  378.000    0.280    0.451   73.048    7.863    0.000
  378.250    0.283    0.444   74.901    8.007    0.000
  378.500    0.311    0.459   75.528    7.856    0.000
  378.750    0.310    0.468   76.158    7.562    0.000
  379.000    0.311    0.467   77.401    7.282    0.000
  379.250    0.314    0.466   78.638    6.881    0.000
  379.500    0.305    0.472   80.489    6.503    0.000
  379.750    0.284    0.466   83.562    6.145    0.000
  380.000    0.269    0.456   87.240    5.807    0.000
  380.250    0.295    0.463   90.310    5.188    0.000
  380.500    0.285    0.467   93.378    4.723    0.000
  380.750    0.281    0.453   98.275    4.548    0.000
  381.000    0.255    0.442   95.860    5.685 2274.010
  381.250    0.235    0.431   91.610    6.011 2307.400
  381.500    0.221    0.414   85.533    6.974 2332.450
  381.750    0.199    0.391   78.236    7.651 2369.970
  382.000    0.167    0.375   73.381    7.939 2424.150
  382.250    0.156    0.389   77.057    7.787 2442.970
  382.500    0.184    0.424   81.956    7.638 2395.170
  382.750    0.228    0.452   83.806    7.353 2320.340
  383.000    0.241    0.451   82.002    7.214 2297.510
  383.250    0.239    0.437   77.755    7.346 2301.750
  383.500    0.230    0.442   78.381    7.763 2316.390
  383.750    0.226    0.450   81.450    8.055 2322.720
  384.000    0.215    0.453   82.083    8.356 2341.530
  384.250    0.209    0.443   82.102    8.668 2352.010
  384.500    0.213    0.434   84.560    8.992 2345.830
  384.750    0.207    0.427   82.143    8.989 2356.310
  385.000    0.196    0.428   83.997    8.983 2375.120
  385.250    0.197    0.438   82.186    8.979 2373.130
  385.500    0.199    0.420   82.818    8.972 2369.020
  385.750    0.215    0.411   87.109    8.966 2342.050
  386.000    0.232    0.411   88.954    9.132 2312.990
  386.250    0.215    0.416   88.364    9.297 2342.200
  386.500    0.194    0.409   87.780    9.466 2377.660
  386.750    0.197    0.416   90.844    9.640 2373.560
  387.000    0.192    0.405   89.648   10.001 2381.970
  387.250    0.165    0.393   86.618   10.374 2427.830
  387.500    0.148    0.384   82.370   10.963 2457.030
  387.750    0.128    0.382   83.001   10.960 2490.410
  388.000    0.134    0.384   90.947   10.748 2480.080
  388.250    0.188    0.395   96.459   10.546 2388.580
  388.500    0.200    0.426   97.702    9.782 2367.840
  388.750    0.201    0.439   97.720    8.264 2365.840
  389.000    0.184    0.434   97.129    7.112 2395.060
  389.250    0.193    0.418   95.928    6.978 2380.570
  389.500    0.213    0.403   94.730    6.845 2345.270
  389.750    0.221    0.413   92.926    6.714 2332.860
  390.000    0.234    0.426   92.943    6.345 2310.030
  390.250    0.250    0.437   94.184    5.360 2283.050
  390.500    0.224    0.441   92.376    4.879 2326.830
  390.750    0.214    0.450   89.958    4.526 2343.560
  391.000    0.217    0.477   86.937    3.970 2339.470
  391.250    0.240    0.566   84.513    2.889 2300.000
  391.500    0.268    0.585   82.705    2.395 2252.210
  391.750    0.282    0.583   80.285    2.140 2227.320
  392.000    0.297    0.550   79.084    2.099 2202.410
  392.250    0.283    0.530   80.935    2.059 2225.390
  392.500    0.263    0.507   82.175    2.136 2260.870
  392.750    0.253    0.487   80.369    2.258 2277.580
  393.000    0.220    0.469   77.341    2.771 2333.830
  393.250    0.202    0.428   76.141    3.041 2365.120
  393.500    0.202    0.419   83.476    4.097 2365.200
  393.750    0.186    0.412   90.206    5.623 2392.360
  394.000    0.183    0.405   89.618    6.648 2396.580
  394.250    0.187    0.396   84.759    7.859 2390.400
  394.500    0.203    0.395   79.292    8.786 2363.420
  394.750    0.149    0.377   76.875   10.004 2455.060
  395.000    0.119    0.356   79.335    9.815 2507.180
  395.250    0.102    0.344   83.621    8.607 2536.380
  395.500    0.157    0.394   86.691    7.549 2440.720
  395.750    0.182    0.452   87.321    6.378 2399.190
  396.000    0.187    0.413   89.784    5.806 2390.950
  396.250    0.193    0.397   88.586    5.696 2380.600
  396.500    0.200    0.389   87.997    5.484 2368.180
  396.750    0.207    0.416   89.232    4.899 2355.780
  397.000    0.233    0.448   88.644    4.378 2312.140
  397.250    0.234    0.497   87.448    3.986 2310.160
  397.500    0.242    0.508   89.904    3.561 2295.670
  397.750    0.247    0.501   94.194    3.303 2287.400
  398.000    0.237    0.489   98.482    3.180 2304.130
  398.250    0.232    0.472   99.116    3.179 2312.540
  398.500    0.226    0.460   97.915    3.488 2323.010
  398.750    0.206    0.466   94.889    3.826 2358.470
  399.000    0.186    0.470   92.468    4.197 2391.830
  399.250    0.152    0.446   91.268    4.521 2450.190
  399.500    0.130    0.411   93.118    4.868 2487.720
  399.750    0.108    0.388   96.797    5.051 2525.260
  400.000    0.142    0.409  101.700    4.863 2467.060
  400.250    0.217    0.466  102.940    4.770 2338.110
  400.500    0.230    0.472  101.739    4.857 2317.370
  400.750    0.210    0.477   99.928    5.134 2350.760
  401.000    0.202    0.461   98.119    5.738 2365.390
  401.250    0.199    0.407   92.043    6.296 2369.630
  401.500    0.187    0.386   79.260    6.781 2390.530
  401.750    0.217    0.389   73.182    7.035 2338.570
  402.000    0.227    0.407   77.472    6.901 2321.990
  402.250    0.249    0.440   80.543    6.051 2284.600
