~VERSION INFORMATION
 VERS.                 2.0:   CWLS LOG ASCII STANDARD -VERSION 2.0
 WRAP.                  NO:   ONE LINE PER DEPTH STEP
~WELL INFORMATION BLOCK
#MNEM.UNIT           DATA                    DESCRIPTION OF MNEMONIC
#---------    -------------------            -------------------------------
# Generated from Intellog Unique Number	CW_79_81/WELL/2490
WELL.         13-31-080-23W4                 : Well_name    - WELL
LOC .         00/13-31-080-23W4/0            : Location     - LOCATION
UWI .         00/13-31-080-23W4/0            : Uwi          - UNIQUE WELL ID
ENTR.         MAX                            : Entered      - ENTERED BY
SRVC.         SCHLUMBERGER                   : Scn          - SERVICE COMPANY
STRT.M        250                            : top_depth    - START DEPTH
STOP.M        479.75                         : bot_depth    - STOP DEPTH
STEP.M        0.25                           : increment    - STEP LENGTH
 NULL. -999.2500:NULL Value
~CURVE INFORMATION BLOCK
#MNEM UNIT       ERCB CURVE CODE    CURVE DESCRIPTION
#-----------   ------------------   ----------------------------------
DEPT.M        00 001 00 00         : DEPTH        - DEPTH
ILD .OHMM     00 120 00 00         : RESD         - DEEP RESISTIVITY (DIL)
NPHI.V/V      00 330 00 00         : PHIN         - NEUTRON POROSITY (SANDSTONE)
DPHI.V/V      00 890 00 00         : PHID         - DENSITY POROSITY (SANDSTONE)
GR  .API      00 310 00 00         : GR           - GAMMA RAY
CALI.MM       00 280 01 00         : CAL          - CALIPER
~PARAMETER INFORMATION
#MNEM.UNIT           DATA             DESCRIPTION OF MNEMONIC
#---------         -----------     ------------------------------
GL  .M        599.82               : gl           - GROUND LEVEL ELEVATION
EREF.M        604.05               : kb           - ELEVATION OF DEPTH REFERENCE
DATM.M        599.82               : datum        - DATUM ELEVATION
TDD .M        482                  : tdd          - TOTAL DEPTH DRILLER
RUN .         ONE                  : Run          - RUN NUMBER
ENG .         BILL                 : Engineer     - RECORDING ENGINEER
WIT .         JIM                  : Witness      - WITNESSED BY
MUD .         GEL                  : Mud_type     - MUD TYPE
MATR.         SANDSTONE            : Logunit      - NEUTRON MATRIX
TMAX.C        29                   : BHT          - MAXIMUM RECORDED TEMPERATURE
BHTD.M        482                  : BHTDEP       - MAXIMUM RECORDED TEMPERATURE
MATR.         1                    : LOGUNIT      - NEUTRON MATRIX
RMT .C        15                   : MDTP         - TEMPERATURE OF MUD
NEUT.         1                    : NEUTRON      - NEUTRON TYPE
RESI.         0                    : RESIST       - RESISTIVITY TYPE
RMC .OHMM     6.9                  : RMC          - RESISTIVITY OF MUD CAKE
RMF .OHMM     6.67                 : RMF          - RESISTIVITY OF MUD FILTRATE
SUFT.C        -20                  : SUFT         - SURFACE TEMPERATURE
~A  DEPTH     RESD     PHIN     PHID       GR      CAL
# ...
  286.500   14.961    0.458    0.360   51.253  217.802
  286.750   14.400    0.454    0.359   51.889  217.467
  287.000   14.681    0.458    0.361   52.531  216.738
  287.250   15.720    0.476    0.372   52.926  216.033
  287.500   17.013    0.498    0.380   53.468  216.107
  287.750   18.732    0.532    0.385   53.746  216.186
  288.000   20.748    0.561    0.388   54.565  216.547
  288.250   22.168    0.535    0.387   54.371  216.807
  288.500   22.314    0.472    0.381   53.039  217.074
  288.750   21.507    0.458    0.376   51.985  217.967
  289.000   22.213    0.454    0.380   52.523  218.056
  289.250   22.732    0.468    0.383   53.284  218.099
  289.500   22.126    0.512    0.381   53.330  218.163
  289.750   21.673    0.529    0.372   53.014  218.234
  290.000   22.015    0.503    0.362   53.053  218.309
  290.250   23.510    0.457    0.368   54.739  218.488
  290.500   24.086    0.470    0.377   55.781  218.955
  290.750   24.470    0.457    0.376   57.493  219.027
  291.000   24.727    0.449    0.369   58.854  219.402
  291.250   24.849    0.459    0.354   57.698  219.676
  291.500   24.830    0.474    0.331   54.686  219.744
  291.750   24.639    0.450    0.300   53.605  219.902
  292.000   24.475    0.436    0.264   55.140  220.406
  292.250   24.141    0.472    0.281   64.033  220.862
  292.500   23.945    0.485    0.335   79.387  221.029
  292.750   23.973    0.477    0.373   93.547  221.296
  293.000   24.224    0.462    0.376   99.273  221.864
  293.250   24.765    0.470    0.359   87.161  222.926
  293.500   25.579    0.503    0.364   74.244  223.823
  293.750   27.557    0.486    0.371   69.976  224.692
  294.000   31.462    0.475    0.375   69.663  225.256
  294.250   36.571    0.472    0.375   71.382  225.327
  294.500   41.000    0.473    0.374   72.981  225.003
  294.750   40.809    0.468    0.376   71.530  224.433
  295.000   36.984    0.469    0.373   68.824  223.254
  295.250   32.320    0.492    0.360   65.035  220.926
  295.500   28.614    0.496    0.341   60.530  218.315
  295.750   26.662    0.399    0.256   56.143  215.998
  296.000   26.108    0.250    0.165   53.851  214.167
  296.250   26.140    0.256    0.255   57.176  212.480
  296.500   26.171    0.407    0.304   59.214  211.739
  296.750   26.398    0.460    0.331   59.257  211.390
  297.000   26.474    0.477    0.342   59.655  211.356
  297.250   26.502    0.477    0.345   61.250  211.428
  297.500   26.434    0.469    0.347   64.223  211.598
  297.750   26.078    0.454    0.351   68.351  212.082
  298.000   26.108    0.454    0.355   69.641  212.148
  298.250   26.135    0.459    0.356   67.527  212.220
  298.500   26.311    0.469    0.355   63.619  212.291
  298.750   26.344    0.473    0.352   60.430  212.561
  299.000   26.180    0.474    0.352   59.337  212.930
  299.250   26.018    0.482    0.362   60.286  213.010
  299.500   26.046    0.480    0.368   58.840  213.092
  299.750   26.272    0.472    0.363   56.965  213.163
  300.000   26.498    0.478    0.363   56.170  213.229
  300.250   26.625    0.476    0.364   55.973  213.104
  300.500   26.605    0.464    0.363   55.954  213.081
  300.750   26.407    0.454    0.356   55.758  214.028
  301.000   26.226    0.448    0.356   55.802  214.525
  301.250   26.255    0.454    0.359   56.567  214.994
  301.500   26.872    0.459    0.356   57.684  215.454
  301.750   29.095    0.465    0.353   57.844  215.724
  302.000   33.695    0.471    0.355   56.870  215.802
  302.250   42.025    0.467    0.360   55.875  215.791
  302.500   49.615    0.465    0.353   56.667  215.450
  302.750   51.161    0.457    0.295   55.027  215.116
  303.000   43.281    0.329    0.144   53.035  215.384
  303.250   37.506    0.215    0.042   51.883  216.057
  303.500   33.830    0.178    0.024   51.868  216.931
  303.750   27.767    0.202    0.007   52.444  217.894
  304.000   23.348    0.178   -0.007   52.738  218.369
  304.250   21.853    0.170    0.005   54.464  218.853
  304.500   22.130    0.184    0.050   56.532  219.615
  304.750   22.658    0.249    0.146   59.558  220.277
  305.000   22.721    0.355    0.265   63.548  220.546
  305.250   22.312    0.459    0.336   68.009  220.063
  305.500   21.825    0.500    0.341   68.547  219.321
  305.750   21.527    0.511    0.348   65.480  218.182
  306.000   21.235    0.495    0.353   63.666  217.049
  306.250   21.027    0.492    0.356   62.870  215.924
  306.500   20.935    0.510    0.357   62.313  214.703
  306.750   20.926    0.518    0.353   60.238  212.690
  307.000   20.789    0.519    0.353   58.040  210.280
  307.250   20.503    0.498    0.352   58.322  209.141
  307.500   20.338    0.489    0.348   59.139  207.714
  307.750   20.286    0.493    0.346   60.377  206.589
  308.000   20.231    0.502    0.350   61.620  205.863
  308.250   19.896    0.500    0.359   61.854  205.067
  308.500   19.617    0.487    0.356   60.394  204.719
  308.750   19.648    0.474    0.358   59.719  204.398
  309.000   19.553    0.467    0.362   60.121  204.372
  309.250   19.496    0.483    0.365   60.999  204.642
  309.500   19.590    0.511    0.363   61.816  205.110
  309.750   20.002    0.501    0.349   62.258  205.598
  310.000   20.499    0.477    0.345   63.059  205.724
  310.250   20.828    0.465    0.345   63.806  206.137
  310.500   20.699    0.461    0.341   62.414  206.299
  310.750   20.340    0.462    0.333   59.464  206.371
  311.000   19.683    0.466    0.327   56.154  206.435
  311.250   18.241    0.481    0.320   54.798  206.514
  311.500   17.303    0.537    0.272   57.330  206.588
  311.750   16.566    0.500    0.258   60.247  206.666
  312.000   16.130    0.486    0.280   61.185  207.033
  312.250   15.909    0.501    0.315   61.819  207.303
  312.500   15.895    0.527    0.344   63.052  207.374
  312.750   16.155    0.527    0.341   65.371  207.522
  313.000   16.174    0.526    0.340   67.159  208.012
  313.250   16.075    0.514    0.339   66.245  208.481
  313.500   15.619    0.502    0.344   65.870  209.256
  313.750   15.066    0.492    0.350   66.151  209.921
  314.000   14.334    0.486    0.352   66.551  210.382
  314.250   12.847    0.483    0.347   65.778  210.874
  314.500   11.554    0.488    0.351   65.328  210.948
  314.750    9.496    0.494    0.349   66.084  211.012
  315.000    8.946    0.491    0.330   67.561  211.381
  315.250    8.956    0.480    0.313   69.156  211.854
  315.500    9.101    0.467    0.302   70.513  212.425
  315.750    9.004    0.466    0.280   71.823  213.378
  316.000    8.810    0.478    0.257   73.358  213.867
  316.250    8.625    0.470    0.262   74.845  213.931
  316.500    8.395    0.462    0.268   75.216  214.006
  316.750    7.971    0.462    0.274   75.618  214.280
  317.000    7.456    0.469    0.280   76.586  214.652
  317.250    7.024    0.465    0.291   78.459  214.741
  317.500    6.715    0.457    0.292   80.497  214.793
  317.750    6.526    0.489    0.292   81.979  215.270
  318.000    6.448    0.510    0.294   83.279  215.437
  318.250    6.454    0.516    0.292   84.515  215.309
  318.500    6.522    0.515    0.283   85.929  215.085
  318.750    6.648    0.526    0.268   88.040  215.164
  319.000    6.760    0.532    0.268   88.837  215.238
  319.250    6.869    0.521    0.267   85.526  215.309
  319.500    6.979    0.514    0.262   84.013  215.386
  319.750    7.013    0.511    0.259   83.815  215.457
  320.000    6.969    0.513    0.259   84.334  215.619
  320.250    6.927    0.519    0.267   85.366  216.174
  320.500    6.934    0.525    0.270   87.903  216.671
  320.750    6.890    0.504    0.263   88.898  217.140
  321.000    6.962    0.495    0.260   86.664  217.306
  321.250    7.049    0.501    0.263   84.795  217.174
  321.500    7.043    0.516    0.265   84.724  216.845
  321.750    6.781    0.528    0.257   85.676  216.525
  322.000    6.483    0.506    0.242   85.463  216.600
  322.250    5.843    0.487    0.236   85.027  216.664
  322.500    5.518    0.487    0.241   85.491  216.744
  322.750    5.523    0.483    0.253   86.730  216.420
