~VERSION INFORMATION
 VERS.                 2.0:   CWLS LOG ASCII STANDARD -VERSION 2.0
 WRAP.                  NO:   ONE LINE PER DEPTH STEP
~WELL INFORMATION BLOCK
#MNEM.UNIT           DATA                    DESCRIPTION OF MNEMONIC
#---------    -------------------            -------------------------------
# Generated from Intellog Unique Number	CW_79_81/WELL/2486
WELL.         11-26-080-24W4                 : Well_name    - WELL
LOC .         00/11-26-080-24W4/0            : Location     - LOCATION
UWI .         00/11-26-080-24W4/0            : Uwi          - UNIQUE WELL ID
ENTR.         MAX                            : Entered      - ENTERED BY
SRVC.         COMPUTALOG                     : Scn          - SERVICE COMPANY
STRT.M        225                            : top_depth    - START DEPTH
STOP.M        450                            : bot_depth    - STOP DEPTH
STEP.M        0.25                           : increment    - STEP LENGTH
 NULL. -999.2500:NULL Value
~CURVE INFORMATION BLOCK
#MNEM UNIT       ERCB CURVE CODE    CURVE DESCRIPTION
#-----------   ------------------   ----------------------------------
DEPT.M        00 001 00 00         : DEPTH        - DEPTH
ILD .OHMM     00 120 00 00         : RESD         - DEEP RESISTIVITY (DIL)
NPHI.V/V      00 330 00 00         : PHIN         - NEUTRON POROSITY (SANDSTONE)
DPHI.V/V      00 890 00 00         : PHID         - DENSITY POROSITY (SANDSTONE)
GR  .API      00 310 00 00         : GR           - GAMMA RAY
CALI.MM       00 280 01 00         : CAL          - CALIPER
~PARAMETER INFORMATION
#MNEM.UNIT           DATA             DESCRIPTION OF MNEMONIC
#---------         -----------     ------------------------------
GL  .M        568.3                : gl           - GROUND LEVEL ELEVATION
EREF.M        572.95               : kb           - ELEVATION OF DEPTH REFERENCE
DATM.M        568.3                : datum        - DATUM ELEVATION
TDD .M        450                  : tdd          - TOTAL DEPTH DRILLER
RUN .         ONE                  : Run          - RUN NUMBER
ENG .         BILL                 : Engineer     - RECORDING ENGINEER
WIT .         JIM                  : Witness      - WITNESSED BY
MUD .         GEL                  : Mud_type     - MUD TYPE
MATR.         SANDSTONE            : Logunit      - NEUTRON MATRIX
TMAX.C        34                   : BHT          - MAXIMUM RECORDED TEMPERATURE
BHTD.M        450                  : BHTDEP       - MAXIMUM RECORDED TEMPERATURE
MATR.         1                    : LOGUNIT      - NEUTRON MATRIX
RMT .C        15.5                 : MDTP         - TEMPERATURE OF MUD
NEUT.         1                    : NEUTRON      - NEUTRON TYPE
RESI.         0                    : RESIST       - RESISTIVITY TYPE
RMC .OHMM     1.9                  : RMC          - RESISTIVITY OF MUD CAKE
RMF .OHMM     4.5                  : RMF          - RESISTIVITY OF MUD FILTRATE
SUFT.C        -20                  : SUFT         - SURFACE TEMPERATURE
~A  DEPTH     RESD     PHIN     PHID       GR      CAL
  225.000    2.887    0.484    0.298   84.376  247.609
  225.250    3.001    0.486    0.298   83.117  247.179
  225.500    3.177    0.489    0.297   82.857  245.579
  225.750    3.397    0.484    0.300   81.167  243.961
  226.000    3.601    0.472    0.308   76.895  242.944
  226.250    3.722    0.466    0.320   69.967  242.445
  226.500    3.780    0.475    0.334   70.208  242.014
  226.750    3.724    0.476    0.341   71.641  244.402
  227.000    3.586    0.484    0.346   70.731  245.288
  227.250    3.350    0.489    0.338   69.880  239.867
  227.500    3.102    0.491    0.318   69.691  230.544
  227.750    3.012    0.509    0.302   68.760  226.590
  228.000    3.256    0.523    0.309   67.751  224.902
  228.250    4.452    0.487    0.280   62.937  224.490
  228.500    6.510    0.404    0.242   55.602  223.774
  228.750   10.277    0.344    0.202   47.545  222.958
  229.000   17.644    0.326    0.173   40.870  222.142
  229.250   37.571    0.313    0.178   37.927  221.323
  229.500  148.825    0.312    0.194   37.667  221.307
  229.750  138.056    0.351    0.223   38.619  221.294
  230.000  113.653    0.388    0.264   39.391  220.979
  230.250   92.857    0.413    0.310   41.063  220.765
  230.500   78.933    0.425    0.348   42.676  220.850
  230.750   69.923    0.435    0.354   41.725  221.315
  231.000   66.248    0.439    0.352   44.218  221.715
  231.250   79.427    0.432    0.345   46.130  221.702
  231.500   94.501    0.426    0.346   46.061  222.587
  231.750  114.682    0.423    0.347   46.412  223.972
  232.000  143.824    0.424    0.348   47.904  225.258
  232.250  186.839    0.421    0.351   49.625  225.727
  232.500  223.964    0.416    0.355   49.865  226.125
  232.750  248.196    0.413    0.358   47.215  226.112
  233.000  278.164    0.413    0.360   45.465  227.000
  233.250  325.893    0.417    0.360   45.215  227.985
  233.500  404.292    0.423    0.359   46.047  228.670
  233.750  523.711    0.425    0.356   46.717  229.053
  234.000  589.022    0.423    0.351   47.710  229.037
  234.250  575.960    0.434    0.347   49.863  229.020
  234.500  569.574    0.442    0.348   51.654  228.707
  234.750  588.344    0.446    0.348   51.405  228.493
  235.000  636.159    0.446    0.343   49.655  228.477
  235.250  707.684    0.442    0.336   49.464  228.294
  235.500  771.172    0.437    0.347   50.956  227.445
  235.750  673.029    0.425    0.354   51.908  226.225
  236.000  475.007    0.420    0.367   51.059  225.310
  236.250  337.594    0.426    0.376   51.050  224.695
  236.500  264.725    0.446    0.369   51.702  224.281
  236.750  236.210    0.474    0.332   49.309  223.864
  237.000  223.796    0.463    0.300   45.794  223.849
  237.250  198.330    0.450    0.282   43.866  223.434
  237.500  188.550    0.440    0.281   43.377  222.717
  237.750  197.997    0.436    0.298   45.289  222.101
  238.000  222.440    0.440    0.326   48.882  221.686
  238.250  225.019    0.444    0.353   51.954  221.186
  238.500  187.500    0.437    0.365   52.946  220.752
  238.750  164.896    0.435    0.367   53.178  220.739
  239.000  150.349    0.445    0.364   51.428  220.720
  239.250  141.795    0.463    0.358   48.657  220.703
  239.500  135.015    0.478    0.355   46.246  220.789
  239.750  124.506    0.473    0.359   46.746  221.424
  240.000  124.502    0.451    0.359   50.490  222.662
  240.250  134.998    0.445    0.355   50.000  223.447
  240.500  131.793    0.441    0.360   50.592  224.231
  240.750  120.775    0.438    0.366   50.463  224.617
  241.000  110.286    0.435    0.368   49.613  224.504
  241.250  104.921    0.435    0.366   49.440  224.083
  241.500   98.648    0.440    0.364   47.432  224.069
  241.750   90.818    0.446    0.364   43.818  224.454
  242.000   81.229    0.447    0.363   42.548  224.241
  242.250   73.272    0.444    0.362   42.899  223.625
  242.500   67.044    0.436    0.361   44.031  223.308
  242.750   60.193    0.424    0.366   44.830  224.493
  243.000   54.894    0.423    0.373   44.071  224.477
  243.250   52.482    0.437    0.375   44.063  224.063
  243.500   51.332    0.438    0.375   42.612  223.345
  243.750   50.190    0.436    0.375   41.161  222.730
  244.000   48.719    0.439    0.376   41.154  222.418
  244.250   46.997    0.449    0.378   44.076  222.482
  244.500   45.565    0.452    0.378   44.315  222.883
  244.750   44.222    0.448    0.376   43.587  223.270
  245.000   43.164    0.442    0.371   43.578  223.355
  245.250   41.890    0.435    0.367   43.930  223.340
  245.500   40.206    0.428    0.365   44.341  223.226
  245.750   37.937    0.422    0.364   44.721  222.889
  246.000   36.781    0.428    0.372   45.463  223.291
  246.250   35.965    0.421    0.378   43.771  223.278
  246.500   35.966    0.406    0.380   43.162  223.861
  246.750   36.099    0.405    0.381   43.873  224.445
  247.000   35.757    0.420    0.381   45.545  224.932
  247.250   33.617    0.428    0.364   47.469  225.800
  247.500   29.968    0.428    0.313   48.710  226.200
  247.750   28.436    0.423    0.323   46.779  226.186
  248.000   27.764    0.415    0.350   47.010  226.171
  248.250   27.456    0.408    0.371   48.202  226.356
  248.500   26.563    0.403    0.374   49.093  226.740
  248.750   21.864    0.403    0.357   48.411  227.205
  249.000   15.195    0.406    0.337   48.655  227.609
  249.250   13.778    0.411    0.272   48.885  228.396
  249.500   11.007    0.419    0.251   50.557  229.482
  249.750    9.995    0.431    0.272   51.508  230.667
  250.000   10.572    0.437    0.310   50.058  231.453
  250.250   11.965    0.422    0.318   45.205  231.036
  250.500   12.152    0.428    0.325   46.196  231.022
  250.750   10.852    0.438    0.332   48.590  230.606
  251.000    9.414    0.437    0.324   51.523  230.190
  251.250    8.279    0.435    0.311   54.277  229.974
  251.500    7.395    0.435    0.300   57.452  229.457
  251.750    6.427    0.442    0.292   63.966  227.186
  252.000    5.773    0.449    0.297   68.961  225.921
  252.250    5.437    0.467    0.303   71.354  227.108
  252.500    5.389    0.477    0.300   72.305  227.993
  252.750    5.529    0.480    0.298   71.936  228.379
  253.000    5.792    0.476    0.299   70.008  228.367
  253.250    6.141    0.463    0.300   66.013  228.349
  253.500    6.334    0.456    0.295   66.504  228.333
  253.750    6.381    0.450    0.292   68.177  229.520
  254.000    6.500    0.440    0.299   73.812  231.005
  254.250    6.768    0.431    0.306   79.209  232.191
  254.500    7.184    0.426    0.306   83.164  233.077
  254.750    7.697    0.413    0.297   87.276  234.425
  255.000    8.065    0.391    0.288   86.265  235.247
  255.250    8.618    0.382    0.295   84.335  234.829
  255.500    9.212    0.384    0.302   81.144  233.515
  255.750   10.023    0.380    0.290   77.291  231.899
  256.000   11.093    0.375    0.270   73.078  230.282
  256.250   12.140    0.397    0.287   68.354  228.409
  256.500   12.140    0.422    0.316   67.592  227.145
  256.750   11.960    0.409    0.288   67.344  225.930
  257.000   12.249    0.398    0.274   66.555  225.316
  257.250   12.389    0.389    0.268   66.666  225.100
  257.500   12.041    0.384    0.264   68.339  225.283
  257.750   11.012    0.393    0.250   72.652  226.230
  258.000    9.891    0.413    0.242   78.649  227.051
  258.250    8.566    0.419    0.239   82.481  228.238
  258.500    7.295    0.425    0.232   83.794  228.523
  258.750    6.244    0.431    0.232   82.945  227.909
  259.000    5.823    0.433    0.269   78.253  226.594
  259.250    6.974    0.437    0.418   62.237  224.888
  259.500    7.481    0.481    0.520   43.459  224.456
  259.750    9.955    0.566    0.587   33.601  224.444
  260.000   12.582    0.542    0.541   30.591  224.427
  260.250   15.104    0.473    0.469   33.224  224.411
  260.500   17.233    0.407    0.398   38.799  224.397
  260.750   18.464    0.377    0.292   43.814  224.380
  261.000   18.607    0.377    0.297   47.306  224.364
  261.250   18.885    0.380    0.309   47.057  224.352
