~VERSION INFORMATION
 VERS.                 2.0:   CWLS LOG ASCII STANDARD -VERSION 2.0
 WRAP.                  NO:   ONE LINE PER DEPTH STEP
~WELL INFORMATION BLOCK
#MNEM.UNIT           DATA                    DESCRIPTION OF MNEMONIC
#---------    -------------------            -------------------------------
# Generated from Intellog Unique Number	CW_70_72/WELL/1032
NULL.         -999.25                        : NULL_VALUE
WELL.         TPOC ET AL CALLW 10-03         : Well_name    - WELL              
LOC .         10-03-072-21W4                 : Location     - LOCATION          
UWI .         00/10-03-072-21W4/0            : Uwi          - UNIQUE WELL ID    
ENTR.         JAYE                           : Entered      - ENTERED BY        
SRVC.         SCHLUMBERGER                   : Scn          - SERVICE COMPANY   
DATE.         12 MAR 78                      : Date         - LOG DATE          
STRT.M        323.088                        : top_depth    - START DEPTH       
STOP.M        499.838                        : bot_depth    - STOP DEPTH        
STEP.M        0.25                           : increment    - STEP LENGTH       
~CURVE INFORMATION BLOCK
#MNEM UNIT       ERCB CURVE CODE    CURVE DESCRIPTION
#-----------   ------------------   ----------------------------------
DEPT.M        00 001 00 00         : DEPTH        - DEPTH                       
DPHI.V/V      00 890 00 00         : PHID         - DENSITY POROSITY (SANDSTONE)
NPHI.V/V      00 330 00 00         : PHIN         - NEUTRON POROSITY (SANDSTONE)
GR  .API      00 310 00 00         : GR           - GAMMA RAY                   
CALI.MM       00 280 01 00         : CAL          - CALIPER                     
ILD .OHMM     00 120 00 00         : RESD         - DEEP RESISTIVITY (DIL)      
~PARAMETER INFORMATION       
#MNEM.UNIT           DATA             DESCRIPTION OF MNEMONIC
#---------         -----------     ------------------------------
GL  .M        597.713              : gl           - GROUND LEVEL ELEVATION      
EREF.M        600.761              : kb           - ELEVATION OF DEPTH REFERENCE
DATM.M        597.713              : datum        - DATUM ELEVATION             
TDD .M        502.615              : tdd          - TOTAL DEPTH DRILLER         
RUN .         ONE                  : Run          - RUN NUMBER                  
ENG .         DEROCHIE             : Engineer     - RECORDING ENGINEER          
WIT .         MACHUK EVANS         : Witness      - WITNESSED BY                
BASE.         EDM                  : Branch       - HOME BASE OF LOGGING UNIT   
MATR.         SANDSTONE            : Logunit      - NEUTRON MATRIX              
TMAX.C        20                   : BHT          - MAXIMUM RECORDED TEMPERATURE
BHTD.M        504.444              : BHTDEP       - MAXIMUM RECORDED TEMPERATURE
RMT .C        20.5556              : MDTP         - TEMPERATURE OF MUD          
MUDD.KG/M     0                    : MWT          - MUD DENSITY                 
NEUT.         1                    : NEUTRON      - NEUTRON TYPE                
RESI.         0                    : RESIST       - RESISTIVITY TYPE            
RM  .OHMM     5.12                 : RM           - RESISTIVITY OF MUD          
RMC .OHMM     0                    : RMC          - RESISTIVITY OF MUD CAKE     
RMF .OHMM     6.13                 : RMF          - RESISTIVITY OF MUD FILTRATE 
SUFT.C        -17.7778             : SUFT         - SURFACE TEMPERATURE         
~A  DEPTH     PHID     PHIN       GR      CAL     RESD
# ...
  359.588    0.278    0.448   91.811  151.061    5.805
  359.838    0.276    0.461   92.954  151.510    5.674
  360.088    0.269    0.458   94.847  152.171    5.598
  360.338    0.273    0.427   96.364  152.943    5.605
  360.588    0.263    0.416   97.507  153.287    5.708
  360.838    0.245    0.429   98.397  153.412    5.900
  361.088    0.218    0.439  100.667  153.544    6.087
  361.338    0.187    0.446  103.939  153.460    6.221
  361.588    0.150    0.442  101.321  153.379    6.277
  361.838    0.142    0.436  103.153  153.190    6.297
  362.088    0.174    0.446  107.175  153.534    6.297
  362.338    0.191    0.450  110.572  155.150    6.270
  362.588    0.185    0.451  113.655  156.664    6.220
  362.838    0.169    0.455  109.725  157.853    6.147
  363.088    0.166    0.465  114.373  158.940    6.097
  363.338    0.152    0.473  114.388  159.702    6.072
  363.588    0.161    0.475  116.221  160.789    6.013
  363.838    0.198    0.461  118.864  161.659    6.010
  364.088    0.192    0.458  121.447  162.850    5.973
  364.338    0.169    0.449  116.702  165.632    5.961
  364.588    0.175    0.443  111.141  164.387    5.947
  364.838    0.231    0.446  102.262  159.851    5.898
  365.088    0.248    0.441   87.245  155.313    5.786
  365.338    0.268    0.432   73.105  151.626    5.624
  365.588    0.301    0.419   54.767  149.636    5.548
  365.838    0.279    0.404   49.019  148.282    5.474
  366.088    0.272    0.391   49.222  146.825    5.411
  366.338    0.267    0.377   51.116  145.998    5.369
  366.588    0.278    0.382   49.754  145.813    5.335
  366.838    0.273    0.389   48.077  147.217    5.333
  367.088    0.266    0.395   48.215  148.619    5.349
  367.338    0.271    0.398   49.797  149.918    5.357
  367.588    0.285    0.403   50.876  150.469    5.415
  367.838    0.271    0.403   50.201  150.390    5.423
  368.088    0.271    0.390   48.023  149.986    5.390
  368.338    0.272    0.378   48.351  149.275    5.358
  368.588    0.266    0.382   50.245  148.767    5.324
  368.838    0.273    0.397   52.953  148.259    5.282
  369.088    0.286    0.407   53.217  148.176    5.269
  369.338    0.295    0.401   52.856  150.110    5.230
  369.588    0.308    0.392   52.809  152.365    5.177
  369.838    0.310    0.386   51.319  152.178    5.136
  370.088    0.291    0.387   51.335  150.185    5.059
  370.338    0.289    0.399   53.415  146.714    4.926
  370.588    0.296    0.415   57.250  145.674    4.841
  370.838    0.304    0.426   58.580  145.276    4.732
  371.088    0.304    0.408   57.344  145.936    4.668
  371.338    0.298    0.390   55.539  147.761    4.522
  371.588    0.294    0.396   46.911  151.607    4.411
  371.838    0.318    0.404   44.858  154.917    4.327
  372.088    0.308    0.399   47.629  153.778    4.275
  372.338    0.310    0.393   51.840  151.680    4.195
  372.588    0.317    0.410   50.977  150.430    4.169
  372.838    0.307    0.398   51.181  149.925    4.121
  373.088    0.305    0.410   52.009  149.206    4.065
  373.338    0.305    0.407   53.903  147.853    4.041
  373.588    0.309    0.411   52.603  147.881    3.995
  373.838    0.324    0.420   50.425  147.371    3.934
  374.088    0.335    0.427   50.001  149.411    3.917
  374.338    0.329    0.439   50.641  150.183    3.893
  374.588    0.327    0.451   51.596  150.838    3.965
  374.838    0.323    0.454   53.176  151.713    4.030
  375.088    0.313    0.431   55.319  152.163    4.134
  375.338    0.307    0.414   57.651  152.610    4.249
  375.588    0.316    0.398   60.859  153.061    4.384
  375.838    0.326    0.410   65.259  152.660    4.448
  376.088    0.314    0.417   68.655  151.941    4.479
  376.338    0.322    0.407   65.413  151.117    4.461
  376.588    0.318    0.417   61.107  151.035    4.466
  376.838    0.307    0.414   58.615  151.702    4.414
  377.088    0.316    0.404   59.256  152.362    4.306
  377.338    0.309    0.408   63.467  152.593    4.194
  377.588    0.310    0.418   61.602  152.519    4.137
  377.838    0.318    0.427   62.744  152.540    4.096
  378.088    0.341    0.424   63.135  152.243    4.064
  378.338    0.341    0.421   60.957  151.425    4.032
  378.588    0.333    0.420   56.900  150.606    3.986
  378.838    0.324    0.424   57.479  150.097    3.933
  379.088    0.321    0.430   57.933  149.911    3.887
  379.338    0.325    0.445   52.123  149.617    3.869
  379.588    0.328    0.453   55.393  149.210    3.840
  379.838    0.323    0.439   57.037  148.497    3.823
  380.088    0.323    0.435   54.858  147.776    3.751
  380.338    0.331    0.446   55.250  147.269    3.708
  380.588    0.343    0.445   58.082  146.977    3.678
  380.838    0.346    0.446   57.721  147.211    3.636
  381.088    0.335    0.446   52.661  148.193    3.621
  381.338    0.327    0.439   52.488  148.642    3.585
  381.588    0.327    0.445   54.758  148.560    3.570
  381.838    0.340    0.442   54.835  148.263    3.528
  382.088    0.339    0.430   53.847  147.762    3.501
  382.338    0.324    0.419   53.549  147.571    3.473
  382.588    0.332    0.427   56.068  147.492    3.440
  382.838    0.323    0.438   62.158  147.305    3.430
  383.088    0.311    0.446   57.852  147.122    3.410
  383.338    0.326    0.442   55.737  147.143    3.402
  383.588    0.340    0.443   55.751  147.588    3.406
  383.838    0.343    0.454   56.329  148.566    3.437
  384.088    0.330    0.443   58.222  150.079    3.448
  384.338    0.317    0.424   58.362  150.951    3.472
  384.588    0.328    0.425   57.562  151.610    3.503
  384.838    0.329    0.434   60.333  152.485    3.567
  385.088    0.306    0.434   58.906  153.037    3.721
  385.338    0.294    0.415   59.422  153.278    4.022
  385.588    0.301    0.389   59.938  153.620    4.572
  385.838    0.285    0.331   57.133  153.536    5.406
  386.088    0.084    0.276   53.578  153.666    6.053
  386.338    0.059    0.221   56.536  157.508    7.090
  386.588    0.102    0.247   61.374  157.643    6.196
  386.838    0.138    0.284   63.142  154.802    5.476
  387.088    0.184    0.338   65.348  151.116    4.742
  387.338    0.254    0.406   67.806  149.976    4.151
  387.588    0.305    0.442   64.627  150.102    3.738
  387.838    0.313    0.430   61.510  149.490    3.573
  388.088    0.323    0.433   63.278  149.303    3.493
  388.338    0.324    0.438   62.916  149.756    3.478
  388.588    0.326    0.431   62.367  150.311    3.488
  388.838    0.315    0.418   61.443  150.543    3.541
  389.088    0.310    0.437   61.394  150.148    3.571
  389.338    0.323    0.420   64.540  149.746    3.603
  389.588    0.330    0.405   68.813  149.346    3.635
  389.838    0.316    0.459   68.578  149.370    3.701
  390.088    0.315    0.439   66.587  148.863    3.762
  390.338    0.321    0.418   67.855  148.360    3.852
  390.588    0.314    0.444   72.191  148.386    4.005
  390.838    0.303    0.453   77.967  148.406    4.146
  391.088    0.295    0.440   79.486  148.858    4.449
  391.338    0.276    0.426   81.692  149.200    4.910
  391.588    0.252    0.414   82.272  149.542    5.406
  391.838    0.185    0.366   78.214  149.886    6.670
  392.088    0.122    0.228   73.343  150.650    8.371
  392.338    0.069    0.209   70.100  150.994   10.194
  392.588    0.043    0.195   66.859  151.867   13.529
  392.838    0.029    0.190   64.305  153.378   16.786
  393.088    0.021    0.189   62.316  157.325   13.440
  393.338    0.025    0.221   62.016  157.987    9.081
  393.588    0.080    0.365   63.784  155.042    6.760
  393.838    0.184    0.409   66.743  150.294    5.618
  394.088    0.254    0.449   71.204  146.074    4.829
  394.338    0.308    0.443   75.477  142.922    4.521
  394.588    0.313    0.443   80.879  143.048    4.379
  394.838    0.305    0.453   84.839  145.087    4.467
  395.088    0.284    0.460   81.785  147.450    4.557
  395.338    0.261    0.471   77.352  148.531    4.684
  395.588    0.270    0.458   79.246  149.300    4.824
  395.838    0.278    0.448   81.577  148.265    4.977
