~VERSION INFORMATION
 VERS.                 2.0:   CWLS LOG ASCII STANDARD -VERSION 2.0
 WRAP.                  NO:   ONE LINE PER DEPTH STEP
~WELL INFORMATION BLOCK
#MNEM.UNIT           DATA                    DESCRIPTION OF MNEMONIC
#---------    -------------------            -------------------------------
# Generated from Intellog Unique Number	CW_73_75/WELL/2748
WELL.         UNEX ET AL MITSUE 12-20        : Well_name    - WELL
LOC .         00/12-20-073-05W5/0            : Location     - LOCATION
UWI .         00/12-20-073-05W5/0            : Uwi          - UNIQUE WELL ID
ENTR.         JAYE                           : Entered      - ENTERED BY
SRVC.         SCHLUMBERGER                   : Scn          - SERVICE COMPANY
DATE.         15 JAN 77                      : Date         - LOG DATE
STRT.M        365.76                         : top_depth    - START DEPTH
STOP.M        612.76                         : bot_depth    - STOP DEPTH
STEP.M        0.25                           : increment    - STEP LENGTH
 NULL. -999.2500:NULL Value
~CURVE INFORMATION BLOCK
#MNEM UNIT       ERCB CURVE CODE    CURVE DESCRIPTION
#-----------   ------------------   ----------------------------------
DEPT.M        00 001 00 00         : DEPTH        - DEPTH
DPHI.V/V      00 890 00 00         : PHID         - DENSITY POROSITY (SANDSTONE)
NPHI.V/V      00 330 00 00         : PHIN         - NEUTRON POROSITY (SANDSTONE)
GR  .API      00 310 00 00         : GR           - GAMMA RAY
CALI.MM       00 280 01 00         : CAL          - CALIPER
ILD .OHMM     00 120 00 00         : RESD         - DEEP RESISTIVITY (DIL)
~PARAMETER INFORMATION
#MNEM.UNIT           DATA             DESCRIPTION OF MNEMONIC
#---------         -----------     ------------------------------
GL  .M        577.291              : gl           - GROUND LEVEL ELEVATION
EREF.M        581.254              : kb           - ELEVATION OF DEPTH REFERENCE
DATM.M        577.291              : datum        - DATUM ELEVATION
TDD .M        1689.2               : tdd          - TOTAL DEPTH DRILLER
RUN .         ONE                  : Run          - RUN NUMBER
BASE.         EDM                  : Branch       - HOME BASE OF LOGGING UNIT
MATR.         SANDSTONE            : Logunit      - NEUTRON MATRIX
TMAX.C        51.1111              : BHT          - MAXIMUM RECORDED TEMPERATURE
BHTD.M        1688.29              : BHTDEP       - MAXIMUM RECORDED TEMPERATURE
RMT .C        17.7778              : MDTP         - TEMPERATURE OF MUD
MUDD.KG/M     0                    : MWT          - MUD DENSITY
NEUT.         1                    : NEUTRON      - NEUTRON TYPE
RESI.         0                    : RESIST       - RESISTIVITY TYPE
RM  .OHMM     0.75                 : RM           - RESISTIVITY OF MUD
RMC .OHMM     0                    : RMC          - RESISTIVITY OF MUD CAKE
RMF .OHMM     0.55                 : RMF          - RESISTIVITY OF MUD FILTRATE
SUFT.C        0                    : SUFT         - SURFACE TEMPERATURE
~A  DEPTH     PHID     PHIN       GR      CAL     RESD
# ...
  402.260    0.342    0.467   59.583  243.761    3.770
  402.510    0.442    0.518   62.490  314.228    3.634
  402.760    0.510    0.468   64.992  345.829    3.608
  403.010    0.384    0.453   63.282  344.427    3.807
  403.260    0.313    0.445   58.652  302.323    4.123
  403.510    0.305    0.452   54.907  273.557    4.432
  403.760    0.304    0.450   53.807  242.723    4.617
  404.010    0.316    0.441   54.407  212.001    4.626
  404.260    0.320    0.426   55.074  211.865    4.551
  404.510    0.334    0.425   56.014  215.064    4.444
  404.760    0.312    0.437   55.932  216.311    4.347
  405.010    0.315    0.448   54.496  216.635    4.292
  405.260    0.306    0.454   52.038  217.073    4.246
  405.510    0.319    0.459   50.941  219.930    4.254
  405.760    0.298    0.452   50.792  218.183    4.263
  406.010    0.297    0.453   52.207  210.920    4.272
  406.260    0.293    0.460   53.894  208.370    4.312
  406.510    0.286    0.457   53.133  207.196    4.369
  406.760    0.287    0.441   52.917  207.293    4.476
  407.010    0.296    0.429   53.518  209.000    4.672
  407.260    0.310    0.418   52.622  209.553    4.857
  407.510    0.322    0.408   51.185  209.532    4.976
  407.760    0.311    0.419   49.680  209.742    5.051
  408.010    0.324    0.430   49.804  210.181    5.109
  408.260    0.330    0.403   49.315  210.047    5.148
  408.510    0.335    0.414   47.741  209.568    5.101
  408.760    0.329    0.432   47.188  209.549    5.037
  409.010    0.335    0.430   47.378  210.332    4.982
  409.260    0.350    0.436   48.387  211.693    4.910
  409.510    0.352    0.460   50.615  215.002    4.821
  409.760    0.325    0.440   54.609  217.971    4.742
  410.010    0.325    0.438   59.758  220.250    4.700
  410.260    0.306    0.457   61.105  221.380    4.649
  410.510    0.309    0.485   57.831  221.478    4.615
  410.760    0.297    0.468   56.328  221.001    4.591
  411.010    0.324    0.460   54.618  220.292    4.583
  411.260    0.342    0.466   52.704  218.659    4.584
  411.510    0.339    0.450   50.927  218.066    4.619
  411.760    0.329    0.453   50.033  217.356    4.654
  412.010    0.340    0.465   50.902  216.531    4.672
  412.260    0.350    0.474   52.454  216.397    4.708
  412.510    0.340    0.464   55.023  217.409    4.709
  412.760    0.352    0.447   58.745  217.737    4.675
  413.010    0.329    0.438   56.493  219.211    4.676
  413.260    0.339    0.466   52.338  219.647    4.862
  413.510    0.335    0.482   48.591  219.857    5.245
  413.760    0.305    0.471   44.913  219.151    5.797
  414.010    0.270    0.300   41.030  215.566    6.772
  414.260    0.192    0.223   37.284  211.290    8.073
  414.510    0.115    0.211   37.679  208.511    9.292
  414.760    0.060    0.270   42.964  206.074   10.307
  415.010    0.033    0.321   45.736  205.366    9.935
  415.260    0.093    0.359   48.169  205.348    8.321
  415.510    0.312    0.393   48.904  207.164    7.327
  415.760    0.338    0.422   48.077  209.789    6.559
  416.010    0.361    0.440   47.792  212.530    5.850
  416.260    0.363    0.459   48.053  215.384    5.247
  416.510    0.349    0.447   48.718  218.240    4.901
  416.760    0.345    0.425   48.368  221.093    4.655
  417.010    0.338    0.414   47.339  220.727    4.554
  417.260    0.321    0.431   46.103  216.110    4.546
  417.510    0.315    0.431   45.957  201.832    4.589
  417.760    0.304    0.434   46.828  203.880    4.633
  418.010    0.316    0.442   48.988  206.617    4.694
  418.260    0.321    0.452   49.114  209.128    4.818
  418.510    0.309    0.431   45.977  210.485    4.982
  418.760    0.311    0.421   43.385  211.044    5.066
  419.010    0.332    0.417   42.015  211.945    5.105
  419.260    0.320    0.407   43.293  215.716    5.021
  419.510    0.327    0.429   46.473  218.688    4.985
  419.760    0.302    0.442   49.516  218.669    4.959
  420.010    0.301    0.424   49.777  205.424    4.951
  420.260    0.301    0.420   48.134  218.397    4.952
  420.510    0.319    0.442   47.646  222.748    4.953
  420.760    0.306    0.458   47.364  200.190    4.954
  421.010    0.310    0.412   48.236  213.392    4.982
  421.260    0.319    0.404   49.650  216.937    5.020
  421.510    0.300    0.389   51.063  212.432    5.058
  421.760    0.326    0.394   52.274  210.803    5.106
  422.010    0.325    0.406   53.757  210.669    5.145
  422.260    0.317    0.418   55.781  211.450    5.203
  422.510    0.317    0.416   56.788  211.548    5.243
  422.760    0.298    0.408   54.672  211.639    5.273
  423.010    0.290    0.411   51.468  211.275    5.284
  423.260    0.307    0.408   48.739  211.142    5.304
  423.510    0.299    0.395   48.456  212.617    5.305
  423.760    0.293    0.423   49.463  214.206    5.346
  424.010    0.311    0.438   51.420  214.645    5.436
  424.260    0.314    0.430   53.239  213.130    5.549
  424.510    0.305    0.405   53.841  210.581    5.602
  424.760    0.305    0.399   53.284  209.872    5.490
  425.010    0.321    0.405   51.373  210.770    5.176
  425.260    0.329    0.410   50.071  213.506    4.916
  425.510    0.321    0.407   50.533  216.130    4.756
  425.760    0.310    0.415   51.745  217.722    4.687
  426.010    0.321    0.422   52.681  218.856    4.688
  426.260    0.330    0.433   52.943  219.985    4.732
  426.510    0.336    0.452   52.455  219.387    4.821
  426.760    0.329    0.433   52.374  219.140    4.912
  427.010    0.318    0.430   52.433  219.923    4.986
  427.260    0.312    0.426   53.099  220.132    5.043
  427.510    0.308    0.455   51.456  219.884    5.119
  427.760    0.320    0.459   51.445  219.175    5.177
  428.010    0.334    0.444   52.858  219.261    5.150
  428.260    0.325    0.444   54.817  220.395    4.982
  428.510    0.332    0.472   58.132  221.526    4.767
  428.760    0.310    0.479   58.596  222.196    4.552
  429.010    0.302    0.464   55.731  222.294    4.437
  429.260    0.320    0.453   52.936  221.695    4.463
  429.510    0.334    0.449   51.974  221.099    4.505
  429.760    0.316    0.439   51.894  221.082    4.573
  430.010    0.303    0.425   52.085  220.596    4.650
  430.260    0.296    0.450   51.056  219.543    4.756
  430.510    0.280    0.460   51.315  218.953    4.854
  430.760    0.278    0.430   54.086  219.159    4.946
  431.010    0.290    0.413   56.383  219.948    5.011
  431.260    0.313    0.398   58.410  220.389    5.031
  431.510    0.300    0.398   60.570  220.132    5.032
  431.760    0.287    0.412   58.997  219.999    5.005
  432.010    0.292    0.429   54.639  219.635    5.015
  432.260    0.292    0.447   51.028  218.581    5.035
  432.510    0.306    0.440   50.066  217.987    5.073
  432.760    0.310    0.421   49.715  216.700    5.121
  433.010    0.313    0.447   50.653  217.367    5.141
  433.260    0.319    0.453   51.592  217.351    5.104
  433.510    0.324    0.432   52.327  207.673    5.049
  433.760    0.307    0.440   52.383  187.186    5.003
  434.010    0.312    0.443   49.926  193.142    4.976
  434.260    0.308    0.429   46.519  202.324    4.932
  434.510    0.296    0.431   44.335  205.636    4.923
  434.760    0.294    0.443   43.506  205.849    4.924
  435.010    0.307    0.445   43.700  205.941    4.944
  435.260    0.314    0.435   44.297  206.268    4.972
  435.510    0.324    0.423   44.897  206.701    4.982
  435.760    0.310    0.406   46.039  207.255    4.956
  436.010    0.316    0.385   47.048  208.046    4.920
  436.260    0.330    0.387   49.073  209.057    4.876
  436.510    0.330    0.406   52.660  209.615    4.859
  436.760    0.317    0.419   56.587  209.825    4.815
  437.010    0.322    0.431   50.396  209.461    4.798
  437.260    0.322    0.422   46.445  208.980    4.799
  437.510    0.321    0.399   44.667  209.306    4.800
  437.760    0.329    0.415   44.859  209.629    4.792
  438.010    0.342    0.425   48.038  210.646    4.766
  438.260    0.342    0.424   51.897  211.082    4.620
  438.510    0.335    0.429   52.293  211.178    4.519
