~VERSION INFORMATION
 VERS.                 2.0:   CWLS LOG ASCII STANDARD -VERSION 2.0
 WRAP.                  NO:   ONE LINE PER DEPTH STEP
~WELL INFORMATION BLOCK
#MNEM.UNIT           DATA                    DESCRIPTION OF MNEMONIC
#---------    -------------------            -------------------------------
# Generated from Intellog Unique Number	CW_79_81/WELL/694
WELL.         10-04-079-25W4                 : Well_name    - WELL
LOC .         00/10-04-079-25W4/0            : Location     - LOCATION
UWI .         00/10-04-079-25W4/0            : Uwi          - UNIQUE WELL ID
ENTR.         MAX                            : Entered      - ENTERED BY
SRVC.         SCHLUMBERGER                   : Scn          - SERVICE COMPANY
STRT.M        274.32                         : top_depth    - START DEPTH
STOP.M        502.82                         : bot_depth    - STOP DEPTH
STEP.M        0.25                           : increment    - STEP LENGTH
 NULL. -999.2500:NULL Value
~CURVE INFORMATION BLOCK
#MNEM UNIT       ERCB CURVE CODE    CURVE DESCRIPTION
#-----------   ------------------   ----------------------------------
DEPT.M        00 001 00 00         : DEPTH        - DEPTH
ILD .OHMM     00 120 00 00         : RESD         - DEEP RESISTIVITY (DIL)
NPHI.V/V      00 330 00 00         : PHIN         - NEUTRON POROSITY (SANDSTONE)
DPHI.V/V      00 890 00 00         : PHID         - DENSITY POROSITY (SANDSTONE)
CALI.MM       00 280 01 00         : CAL          - CALIPER
GR  .API      00 310 00 00         : GR           - GAMMA RAY
~PARAMETER INFORMATION
#MNEM.UNIT           DATA             DESCRIPTION OF MNEMONIC
#---------         -----------     ------------------------------
GL  .M        587.35               : gl           - GROUND LEVEL ELEVATION
EREF.M        590.855              : kb           - ELEVATION OF DEPTH REFERENCE
DATM.M        587.35               : datum        - DATUM ELEVATION
TDD .M        502.006              : tdd          - TOTAL DEPTH DRILLER
RUN .         ONE                  : Run          - RUN NUMBER
ENG .         BILL                 : Engineer     - RECORDING ENGINEER
WIT .         JIM                  : Witness      - WITNESSED BY
MUD .         GEL                  : Mud_type     - MUD TYPE
MATR.         SANDSTONE            : Logunit      - NEUTRON MATRIX
TMAX.C        21.6667              : BHT          - MAXIMUM RECORDED TEMPERATURE
BHTD.M        502.006              : BHTDEP       - MAXIMUM RECORDED TEMPERATURE
RMT .C        17.7778              : MDTP         - TEMPERATURE OF MUD
MUDD.KG/M     9800                 : MWT          - MUD DENSITY
NEUT.         1                    : NEUTRON      - NEUTRON TYPE
RESI.         0                    : RESIST       - RESISTIVITY TYPE
RM  .OHMM     4.66                 : RM           - RESISTIVITY OF MUD
RMC .OHMM     0                    : RMC          - RESISTIVITY OF MUD CAKE
RMF .OHMM     4.56                 : RMF          - RESISTIVITY OF MUD FILTRATE
SUFT.C        -20.5556             : SUFT         - SURFACE TEMPERATURE
~A  DEPTH     RESD     PHIN     PHID      CAL       GR
# ...
  420.320    9.445    0.419    0.184  283.188  105.056
  420.570    9.616    0.429    0.171  283.776  107.484
  420.820   10.057    0.457    0.190  282.327  109.912
  421.070   12.040    0.444    0.205  272.309  106.976
  421.320   12.592    0.426    0.188  269.365   98.080
  421.570   15.488    0.436    0.187  267.412   95.442
  421.820   16.793    0.438    0.184  260.945   93.102
  422.070   21.221    0.431    0.181  256.982   85.696
  422.320   23.009    0.422    0.174  254.525   80.376
  422.570   26.096    0.423    0.156  250.067   79.233
  422.820   30.409    0.428    0.173  244.600   81.959
  423.070   32.969    0.409    0.195  240.123   77.831
  423.320   32.668    0.370    0.168  235.656   74.299
  423.570   31.508    0.356    0.156  235.740   74.349
  423.820   28.788    0.314    0.111  236.814   67.538
  424.070   26.542    0.282    0.070  235.898   62.825
  424.320   21.965    0.359    0.246  235.468   69.415
  424.570   19.535    0.376    0.238  237.561   75.126
  424.820   17.062    0.379    0.215  241.682   78.757
  425.070   15.874    0.399    0.186  246.307   81.775
  425.320   15.172    0.416    0.192  247.381   86.301
  425.570   14.371    0.408    0.186  247.960   87.829
  425.820   14.112    0.407    0.176  251.577   90.561
  426.070   13.983    0.408    0.177  255.193   94.181
  426.320   13.981    0.393    0.149  257.295   82.006
  426.570   13.978    0.370    0.124  258.379   74.606
  426.820   14.230    0.363    0.104  259.967   76.730
  427.070   14.487    0.356    0.121  262.574   84.826
  427.320   15.015    0.415    0.184  265.695   86.376
  427.570   15.563    0.432    0.193  267.778   82.535
  427.820   15.843    0.419    0.195  268.853   78.115
  428.070   15.699    0.416    0.183  271.460   78.170
  428.320   14.736    0.420    0.197  274.057   80.598
  428.570   14.086    0.436    0.210  275.645   83.616
  428.820   13.342    0.467    0.217  277.252   84.852
  429.070   12.752    0.483    0.248  278.841   86.386
  429.320   12.411    0.500    0.245  279.943   91.502
  429.570   12.187    0.496    0.227  281.027   94.233
  429.820   12.075    0.471    0.219  282.101   91.297
  430.070   12.073    0.443    0.210  283.194   88.069
  430.320   12.071    0.460    0.207  283.764   88.410
  430.570   11.960    0.467    0.208  284.857   90.535
  430.820   11.852    0.459    0.217  284.427   93.868
  431.070   11.534    0.469    0.214  283.997   95.099
  431.320   11.428    0.471    0.197  283.062   94.552
  431.570   11.121    0.455    0.179  283.146   93.707
  431.820   10.921    0.460    0.173  283.229   94.938
  432.070   10.821    0.469    0.164  283.313   96.185
  432.320   10.819    0.473    0.173  282.883   96.223
  432.570   10.915    0.464    0.188  282.948   98.955
  432.820   11.112    0.441    0.192  282.013   99.004
  433.070   11.312    0.444    0.189  280.583   95.169
  433.320   11.515    0.453    0.190  279.162   95.516
  433.570   11.723    0.457    0.183  276.704   92.884
  433.820   11.826    0.466    0.185  274.760   91.736
  434.070   11.931    0.454    0.197  270.807   90.880
  434.320   12.038    0.445    0.189  266.854   87.944
  434.570   11.928    0.440    0.206  264.901   87.701
  434.820   11.819    0.438    0.210  263.461   92.215
  435.070   11.605    0.453    0.201  263.040   92.855
  435.320   11.396    0.484    0.197  262.610   95.581
  435.570   11.191    0.470    0.180  261.676   98.611
  435.820   11.191    0.464    0.171  261.255   97.766
  436.070   11.087    0.487    0.163  260.834   98.114
  436.320   10.789    0.457    0.155  260.890   97.556
  436.570   10.500    0.453    0.152  260.973   94.327
  436.820   10.311    0.441    0.159  260.048   93.472
  437.070   10.034    0.433    0.170  259.104   97.693
  437.320    9.765    0.451    0.180  257.692   95.949
  437.570    9.589    0.450    0.164  256.758   94.503
  437.820    9.501    0.437    0.160  255.823   94.851
  438.070    9.414    0.427    0.160  254.888   98.173
  438.320    9.413    0.423    0.188  253.944  100.314
  438.570    9.411    0.441    0.188  252.523   97.974
  438.820    9.411    0.444    0.172  251.588   93.857
  439.070    9.665    0.429    0.163  251.672   93.890
  439.320   10.018    0.418    0.152  251.223   95.727
  439.570   10.668    0.425    0.141  249.812   96.671
  439.820   11.259    0.434    0.158  248.363   96.406
  440.070   12.318    0.429    0.182  247.419   92.575
  440.320   14.225    0.435    0.180  246.494   92.040
  440.570   16.576    0.446    0.172  245.054   93.568
  440.820   18.800    0.435    0.174  243.129   95.996
  441.070   20.201    0.416    0.198  240.671   92.464
  441.320   21.319    0.414    0.215  237.232   88.038
  441.570   21.899    0.434    0.227  235.269   87.790
  441.820   22.903    0.427    0.219  234.334   87.845
  442.070   23.954    0.430    0.210  235.418   87.580
  442.320   25.054    0.435    0.206  236.530   83.457
  442.570   27.658    0.404    0.201  236.595   79.025
  442.820   30.260    0.344    0.116  237.174   72.513
  443.070   34.319    0.313    0.084  237.258   66.597
  443.320   35.895    0.302    0.048  236.313   63.959
  443.570   36.539    0.300    0.012  233.883   62.817
  443.820   35.560    0.298    0.045  233.958   63.760
  444.070   31.912    0.302    0.044  236.555   65.294
  444.320   26.888    0.317    0.096  241.685   68.914
  444.570   22.655    0.331    0.136  245.806   80.288
  444.820   19.261    0.358    0.174  242.348   88.085
  445.070   17.759    0.405    0.166  238.881   88.438
  445.320   16.520    0.404    0.143  234.414   91.164
  445.570   15.649    0.406    0.146  233.479   92.102
  445.820   14.558    0.419    0.169  234.077   91.848
  446.070   13.183    0.401    0.175  235.161   91.898
  446.320   12.046    0.397    0.168  235.161   92.234
  446.570   11.206    0.409    0.148  235.851   92.874
  446.820   10.520    0.415    0.149  236.393   93.818
  447.070    9.965    0.409    0.152  238.495   95.650
  447.320    9.610    0.408    0.166  240.084   99.871
  447.570    9.610    0.409    0.158  243.700  103.193
  447.820    9.435    0.408    0.170  245.793  107.117
  448.070    9.349    0.416    0.181  246.372  101.499
  448.320    9.603    0.422    0.178  245.437   98.861
  448.570   10.413    0.409    0.166  236.428   84.600
  448.820   12.133    0.398    0.099  231.989   81.074
  449.070   13.761    0.372    0.072  232.559   83.794
  449.320   14.523    0.335    0.083  233.138   88.910
  449.570   14.523    0.319    0.095  234.222   94.025
  449.820   14.649    0.335    0.136  234.801   95.857
  450.070   14.257    0.361    0.146  236.417   96.508
  450.320   13.998    0.376    0.149  240.015   96.856
  450.570   13.261    0.373    0.155  244.126   97.490
  450.820   12.448    0.368    0.150  245.219   99.030
  451.070   11.477    0.377    0.152  245.789  100.856
  451.320   10.487    0.375    0.155  246.387  100.911
  451.570    9.756    0.363    0.159  247.470  102.738
  451.820    9.754    0.378    0.162  247.545  100.999
  452.070    9.930    0.384    0.163  246.124  104.923
  452.320   10.670    0.398    0.163  242.666  105.557
  452.570   11.779    0.410    0.159  238.704   98.747
  452.820   13.240    0.432    0.141  237.246   90.745
  453.070   13.973    0.435    0.096  237.339   87.809
  453.320   14.746    0.388    0.129  238.422   89.950
  453.570   14.743    0.407    0.161  239.001   90.893
  453.820   14.478    0.408    0.158  237.562   91.826
  454.070   14.346    0.418    0.138  235.618   91.577
  454.320   14.343    0.427    0.109  233.188   89.535
  454.570   14.601    0.396    0.084  232.262   88.382
  454.820   16.119    0.366    0.059  231.318   92.007
  455.070   18.615    0.360    0.115  230.879   93.541
  455.320   30.269    0.382    0.185  229.963   82.857
  455.570   45.800    0.382    0.230  230.028   74.557
  455.820   56.842    0.369    0.270  229.607   66.257
  456.070   75.135    0.267    0.294  228.177   59.745
  456.320   89.951    0.163    0.371  227.233   49.949
  456.570   96.653    0.118    0.398  226.307   34.497
