~VERSION INFORMATION
 VERS.                 2.0:   CWLS LOG ASCII STANDARD -VERSION 2.0
 WRAP.                  NO:   ONE LINE PER DEPTH STEP
~WELL INFORMATION BLOCK
#MNEM.UNIT           DATA                    DESCRIPTION OF MNEMONIC
#---------    -------------------            -------------------------------
# Generated from Intellog Unique Number	CW_76_78/WELL/2586
WELL.         SCURRY ET AL DOUCETTE          : Well_name    - WELL
LOC .         00/12-22-078-02W5/0            : Location     - LOCATION
UWI .         00/12-22-078-02W5/0            : Uwi          - UNIQUE WELL ID
ENTR.         MAX                            : Entered      - ENTERED BY
SRVC.         WESTERN ATLAS                  : Scn          - SERVICE COMPANY
STRT.M        330                            : top_depth    - START DEPTH
STOP.M        585                            : bot_depth    - STOP DEPTH
STEP.M        0.25                           : increment    - STEP LENGTH
 NULL. -999.2500:NULL Value
~CURVE INFORMATION BLOCK
#MNEM UNIT       ERCB CURVE CODE    CURVE DESCRIPTION
#-----------   ------------------   ----------------------------------
DEPT.M        00 001 00 00         : DEPTH        - DEPTH
ILD .OHMM     00 120 00 00         : RESD         - DEEP RESISTIVITY (DIL)
NPHI.V/V      00 330 00 00         : PHIN         - NEUTRON POROSITY (SANDSTONE)
DPHI.V/V      00 890 00 00         : PHID         - DENSITY POROSITY (SANDSTONE)
CALI.MM       00 280 01 00         : CAL          - CALIPER
GR  .API      00 310 00 00         : GR           - GAMMA RAY
~PARAMETER INFORMATION
#MNEM.UNIT           DATA             DESCRIPTION OF MNEMONIC
#---------         -----------     ------------------------------
GL  .M        625.1                : gl           - GROUND LEVEL ELEVATION
EREF.M        629.33               : kb           - ELEVATION OF DEPTH REFERENCE
DATM.M        625.1                : datum        - DATUM ELEVATION
TDD .M        611.3                : tdd          - TOTAL DEPTH DRILLER
RUN .         ONE                  : Run          - RUN NUMBER
ENG .         BILL                 : Engineer     - RECORDING ENGINEER
WIT .         JIM                  : Witness      - WITNESSED BY
MUD .         GEL                  : Mud_type     - MUD TYPE
MATR.         SANDSTONE            : Logunit      - NEUTRON MATRIX
TMAX.C        29                   : BHT          - MAXIMUM RECORDED TEMPERATURE
BHTD.M        611.3                : BHTDEP       - MAXIMUM RECORDED TEMPERATURE
RMT .C        13                   : MDTP         - TEMPERATURE OF MUD
MUDD.KG/M     1170                 : MWT          - MUD DENSITY
NEUT.         1                    : NEUTRON      - NEUTRON TYPE
RESI.         0                    : RESIST       - RESISTIVITY TYPE
RM  .OHMM     5                    : RM           - RESISTIVITY OF MUD
RMC .OHMM     3.5                  : RMC          - RESISTIVITY OF MUD CAKE
RMF .OHMM     6                    : RMF          - RESISTIVITY OF MUD FILTRATE
SUFT.C        -5                   : SUFT         - SURFACE TEMPERATURE
~A  DEPTH     RESD     PHIN     PHID      CAL       GR
# ...
  403.000    6.524    0.423    0.226  204.875   93.332
  403.250    6.524    0.424    0.265  202.491   84.023
  403.500    7.029    0.420    0.277  196.709   78.512
  403.750    7.623    0.410    0.281  194.812   76.495
  404.000    8.419    0.400    0.266  195.341   80.025
  404.250    9.384    0.387    0.235  195.875   86.768
  404.500   10.093    0.362    0.218  197.874   81.253
  404.750   10.105    0.340    0.169  201.813   73.987
  405.000    9.418    0.321    0.117  205.265   73.728
  405.250    8.701    0.316    0.122  203.866   79.892
  405.500    8.038    0.354    0.162  200.024   80.205
  405.750    7.560    0.375    0.178  200.066   81.405
  406.000    7.238    0.384    0.196  202.546   83.483
  406.250    6.991    0.396    0.211  207.475   85.551
  406.500    6.694    0.406    0.215  210.429   87.914
  406.750    6.466    0.408    0.214  210.477   90.573
  407.000    6.138    0.408    0.208  211.515   92.932
  407.250    5.982    0.408    0.204  212.038   95.879
  407.500    5.934    0.413    0.203  212.098   97.954
  407.750    5.941    0.413    0.209  209.216   96.232
  408.000    6.002    0.413    0.219  204.407   96.261
  408.250    6.065    0.414    0.217  204.941   98.047
  408.500    6.125    0.415    0.212  208.400  100.407
  408.750    6.244    0.419    0.202  208.448  100.728
  409.000    6.421    0.418    0.202  207.523   96.675
  409.250    6.602    0.417    0.207  206.599   92.907
  409.500    6.730    0.419    0.217  206.166   87.396
  409.750    6.859    0.420    0.223  206.208   87.723
  410.000    6.930    0.420    0.224  206.263   89.787
  410.250    6.999    0.424    0.219  206.311   88.365
  410.500    6.946    0.426    0.215  206.365   88.098
  410.750    6.830    0.422    0.213  209.331   90.757
  411.000    6.717    0.420    0.210  211.816   94.575
  411.250    6.606    0.420    0.207  211.858   92.273
  411.500    6.497    0.418    0.203  208.022   89.100
  411.750    6.389    0.415    0.204  200.283   88.829
  412.000    6.389    0.416    0.207  197.425   91.776
  412.250    6.353    0.417    0.208  197.473   94.727
  412.500    6.242    0.420    0.204  198.014   96.798
  412.750    6.139    0.423    0.201  200.481   96.243
  413.000    6.092    0.425    0.200  203.940   93.646
  413.250    6.045    0.421    0.205  205.933   89.302
  413.500    6.107    0.409    0.209  205.981   84.370
  413.750    6.338    0.398    0.209  206.035   82.648
  414.000    6.574    0.398    0.214  206.089   83.844
  414.250    6.947    0.399    0.223  205.171   87.374
  414.500    7.017    0.409    0.233  204.720   85.656
  414.750    7.023    0.412    0.235  204.294   83.646
  415.000    7.032    0.411    0.232  204.834   83.088
  415.250    7.048    0.410    0.228  204.870   83.700
  415.500    7.050    0.410    0.228  205.411   86.074
  415.750    6.996    0.408    0.228  206.918   86.388
  416.000    6.878    0.408    0.222  212.802   89.630
  416.250    6.586    0.410    0.211  213.828   93.160
  416.500    6.419    0.418    0.212  212.904   95.818
  416.750    6.258    0.417    0.210  211.991   94.388
  417.000    6.265    0.422    0.209  211.055   91.204
  417.250    6.678    0.430    0.232  209.158   85.397
  417.500    7.781    0.428    0.254  201.911   75.213
  417.750    9.400    0.415    0.279  196.622   72.328
  418.000   10.108    0.406    0.309  194.724   72.656
  418.250    9.678    0.411    0.315  194.280   73.845
  418.500    8.941    0.408    0.300  196.760   76.791
  418.750    8.950    0.402    0.267  200.230   78.290
  419.000    8.950    0.397    0.263  202.211   78.020
  419.250    9.471    0.391    0.282  198.855   77.180
  419.500   10.550    0.382    0.299  194.046   74.284
  419.750   12.519    0.375    0.299  192.635   70.228
  420.000   15.673    0.364    0.298  191.231   67.930
  420.250   17.785    0.353    0.302  192.245   64.454
  420.500   20.181    0.373    0.297  191.807   60.693
  420.750   20.383    0.386    0.288  190.408   61.889
  421.000   20.406    0.393    0.280  189.478   63.665
  421.250   17.869    0.396    0.273  189.478   63.704
  421.500   16.654    0.396    0.275  188.625   61.687
  421.750   16.090    0.404    0.292  188.655   59.378
  422.000   15.825    0.412    0.300  190.655   58.535
  422.250   15.846    0.420    0.312  194.599   59.151
  422.500   15.721    0.425    0.319  199.504   60.344
  422.750   16.025    0.426    0.319  201.498   61.248
  423.000   16.479    0.427    0.314  200.585   61.572
  423.250   16.947    0.426    0.310  200.135   61.896
  423.500   17.589    0.422    0.304  198.736   62.797
  423.750   18.082    0.417    0.297  194.887   63.125
  424.000   18.765    0.410    0.289  191.051   62.570
  424.250   19.467    0.403    0.272  190.121   62.012
  424.500   19.841    0.394    0.251  192.624   62.340
  424.750   19.870    0.383    0.237  196.551   63.236
  425.000   19.890    0.364    0.205  200.982   66.190
  425.250   19.560    0.353    0.196  201.024   67.678
  425.500   18.727    0.354    0.216  200.099   67.707
  425.750   17.300    0.354    0.222  198.202   67.739
  426.000   15.983    0.356    0.249  198.256   68.647
  426.250   15.438    0.375    0.279  198.796   68.964
  426.500   15.186    0.406    0.303  197.380   69.584
  426.750   15.186    0.422    0.305  196.953   68.150
  427.000   15.228    0.432    0.309  196.989   67.599
  427.250   15.514    0.446    0.336  197.043   68.500
  427.500   15.954    0.450    0.347  197.578   69.112
  427.750   16.409    0.447    0.351  198.605   69.436
  428.000   16.874    0.442    0.338  199.145   68.586
  428.250   17.047    0.427    0.318  198.701   67.163
  428.500   17.082    0.418    0.278  198.268   67.192
  428.750   17.243    0.409    0.249  197.830   67.801
  429.000   17.412    0.407    0.279  198.377   69.876
  429.250   17.435    0.415    0.291  199.385   70.488
  429.500   17.614    0.420    0.298  201.379   67.603
  429.750   17.950    0.423    0.302  201.427   64.714
  430.000   18.628    0.421    0.307  200.994   62.697
  430.250   18.628    0.416    0.309  201.048   62.149
  430.500   19.356    0.413    0.309  201.103   63.630
  430.750   20.626    0.409    0.307  201.139   64.246
  431.000   21.593    0.403    0.293  201.685   62.816
  431.250   22.408    0.396    0.255  202.213   60.218
  431.500   23.670    0.386    0.217  203.234   56.169
  431.750   25.002    0.339    0.201  204.267   55.611
  432.000   26.178    0.325    0.163  202.856   56.224
  432.250   26.685    0.342    0.213  199.980   58.295
  432.500   26.708    0.358    0.252  196.150   61.541
  432.750   26.509    0.372    0.242  195.705   60.110
  433.000   26.509    0.350    0.205  196.246   59.847
  433.250   26.115    0.339    0.162  196.780   57.830
  433.500   26.126    0.321    0.159  196.828   56.696
  433.750   26.160    0.321    0.176  195.898   58.767
  434.000   26.194    0.345    0.199  194.493   62.304
  434.250   26.220    0.380    0.217  193.574   63.497
  434.500   26.251    0.384    0.242  193.142   62.946
  434.750   27.003    0.384    0.249  193.184   61.516
  435.000   27.765    0.380    0.254  196.150   60.665
  435.250   29.856    0.359    0.253  203.493   60.111
  435.500   32.983    0.343    0.208  206.477   57.225
  435.750   36.108    0.306    0.162  208.956   54.920
  436.000   39.883    0.267    0.106  210.938   53.202
  436.250   46.904    0.252    0.103  210.505   52.643
  436.500   49.111    0.242    0.106  209.581   52.676
  436.750   47.867    0.242    0.105  208.662   53.000
  437.000   45.017    0.249    0.100  207.744   52.737
  437.250   39.415    0.272    0.105  207.786   53.638
  437.500   35.766    0.292    0.126  206.375   56.876
  437.750   32.171    0.313    0.146  202.046   60.118
  438.000   30.255    0.324    0.158  195.778   57.521
  438.250   28.962    0.326    0.164  193.407   57.262
  438.500   28.996    0.330    0.174  192.464   59.628
  438.750   28.771    0.349    0.200  190.573   62.863
  439.000   27.066    0.370    0.216  192.080   64.650
  439.250   25.224    0.384    0.251  193.599   63.216
