~VERSION INFORMATION
 VERS.                 2.0:   CWLS LOG ASCII STANDARD -VERSION 2.0
 WRAP.                  NO:   ONE LINE PER DEPTH STEP
~WELL INFORMATION BLOCK
#MNEM.UNIT           DATA                    DESCRIPTION OF MNEMONIC
#---------    -------------------            -------------------------------
# Generated from Intellog Unique Number	CW_79_81/WELL/702
WELL.         ATCOR ET AL PELICAN            : Well_name    - WELL
LOC .         00/10-06-079-24W4/0            : Location     - LOCATION
UWI .         00/10-06-079-24W4/0            : Uwi          - UNIQUE WELL ID
ENTR.         MAX                            : Entered      - ENTERED BY
SRVC.         COMPUTALOG                     : Scn          - SERVICE COMPANY
STRT.M        275                            : top_depth    - START DEPTH
STOP.M        515                            : bot_depth    - STOP DEPTH
STEP.M        0.25                           : increment    - STEP LENGTH
 NULL. -999.2500:NULL Value
~CURVE INFORMATION BLOCK
#MNEM UNIT       ERCB CURVE CODE    CURVE DESCRIPTION
#-----------   ------------------   ----------------------------------
DEPT.M        00 001 00 00         : DEPTH        - DEPTH
ILD .OHMM     00 120 00 00         : RESD         - DEEP RESISTIVITY (DIL)
NPHI.V/V      00 330 00 00         : PHIN         - NEUTRON POROSITY (SANDSTONE)
DPHI.V/V      00 890 00 00         : PHID         - DENSITY POROSITY (SANDSTONE)
CALI.MM       00 280 01 00         : CAL          - CALIPER
GR  .API      00 310 00 00         : GR           - GAMMA RAY
~PARAMETER INFORMATION
#MNEM.UNIT           DATA             DESCRIPTION OF MNEMONIC
#---------         -----------     ------------------------------
GL  .M        594.9                : gl           - GROUND LEVEL ELEVATION
EREF.M        598.6                : kb           - ELEVATION OF DEPTH REFERENCE
DATM.M        594.9                : datum        - DATUM ELEVATION
TDD .M        520                  : tdd          - TOTAL DEPTH DRILLER
RUN .         ONE                  : Run          - RUN NUMBER
ENG .         BILL                 : Engineer     - RECORDING ENGINEER
WIT .         JIM                  : Witness      - WITNESSED BY
MUD .         GEL                  : Mud_type     - MUD TYPE
MATR.         SANDSTONE            : Logunit      - NEUTRON MATRIX
TMAX.C        32                   : BHT          - MAXIMUM RECORDED TEMPERATURE
BHTD.M        520                  : BHTDEP       - MAXIMUM RECORDED TEMPERATURE
RMT .C        16.7                 : MDTP         - TEMPERATURE OF MUD
MUDD.KG/M     1150                 : MWT          - MUD DENSITY
NEUT.         1                    : NEUTRON      - NEUTRON TYPE
RESI.         0                    : RESIST       - RESISTIVITY TYPE
RM  .OHMM     5.1                  : RM           - RESISTIVITY OF MUD
RMC .OHMM     0                    : RMC          - RESISTIVITY OF MUD CAKE
RMF .OHMM     4.7                  : RMF          - RESISTIVITY OF MUD FILTRATE
SUFT.C        -20                  : SUFT         - SURFACE TEMPERATURE
~A  DEPTH     RESD     PHIN     PHID      CAL       GR
# ...
  457.500   95.566    0.335    0.296  203.779   25.921
  457.750   99.261    0.338    0.295  203.822   25.950
  458.000  101.235    0.340    0.295  203.855   25.671
  458.250  101.342    0.341    0.294  203.904   25.094
  458.500  100.515    0.341    0.294  203.450   25.117
  458.750   99.694    0.340    0.295  202.986   25.140
  459.000   97.081    0.339    0.296  203.029   24.557
  459.250   94.536    0.335    0.295  203.581   25.192
  459.500   94.536    0.323    0.295  204.629   25.831
  459.750   93.839    0.306    0.293  206.208   25.857
  460.000   89.715    0.310    0.290  206.748   27.716
  460.250   87.340    0.329    0.285  206.803   29.875
  460.500   84.267    0.337    0.285  206.333   31.117
  460.750   80.533    0.335    0.285  205.360   32.366
  461.000   73.523    0.330    0.284  205.404   33.005
  461.250   69.599    0.335    0.283  205.447   32.723
  461.500   62.352    0.333    0.286  204.983   31.838
  461.750   52.363    0.324    0.284  205.534   31.556
  462.000   49.125    0.315    0.278  206.086   35.849
  462.250   42.805    0.331    0.275  206.140   40.753
  462.500   38.000    0.342    0.275  205.670   41.087
  462.750   35.981    0.345    0.276  205.714   43.551
  463.000   35.387    0.339    0.270  205.757   48.759
  463.250   33.805    0.351    0.269  205.806   54.272
  463.500   33.216    0.381    0.277  206.352   53.387
  463.750   33.872    0.365    0.278  206.407   48.837
  464.000   34.862    0.334    0.273  206.407   44.291
  464.250   33.330    0.262    0.240  206.488   41.574
  464.500   31.556    0.255    0.204  206.029   40.388
  464.750   28.540    0.280    0.171  206.078   42.849
  465.000   27.020    0.304    0.192  206.111   47.755
  465.250   26.073    0.318    0.208  206.165   47.778
  465.500   26.094    0.336    0.233  206.209   44.150
  465.750   28.136    0.339    0.258  206.258   40.217
  466.000   30.607    0.331    0.271  206.290   37.195
  466.250   36.527    0.330    0.278  205.831   34.782
  466.500   39.375    0.335    0.281  205.875   34.805
  466.750   44.056    0.334    0.283  205.924   36.968
  467.000   45.344    0.330    0.284  205.956   37.607
  467.250   45.398    0.338    0.282  205.503   37.935
  467.500   43.789    0.353    0.279  205.546   38.567
  467.750   41.848    0.363    0.278  205.092   40.727
  468.000   39.630    0.365    0.278  205.125   41.976
  468.250   37.535    0.351    0.281  205.169   42.005
  468.500   36.886    0.349    0.281  205.212   42.946
  468.750   36.243    0.355    0.279  205.256   46.020
  469.000   35.617    0.367    0.274  205.299   47.871
  469.250   35.005    0.364    0.273  205.845   50.641
  469.500   34.087    0.365    0.272  205.900   52.505
  469.750   32.888    0.371    0.268  205.938   54.354
  470.000   31.141    0.350    0.251  205.473   54.383
  470.250   28.416    0.323    0.232  205.009   55.625
  470.500   25.460    0.282    0.144  204.042   58.700
  470.750   22.596    0.269    0.092  203.069   67.264
  471.000   19.331    0.303    0.090  202.605   76.129
  471.250   13.998    0.325    0.130  203.669   82.255
  471.500   13.376    0.340    0.152  205.740   81.678
  471.750   11.764    0.352    0.133  207.815   87.184
  472.000   10.345    0.375    0.140  207.864  101.844
  472.250    9.529    0.399    0.150  208.924  112.234
  472.500    9.108    0.393    0.159  210.486  113.787
  472.750    8.705    0.372    0.159  212.561  110.457
  473.000    8.400    0.371    0.161  211.594  107.743
  473.250    8.332    0.412    0.165  210.119  108.077
  473.500    8.495    0.431    0.169  210.163  110.237
  473.750    8.990    0.442    0.174  211.228  113.007
  474.000    9.963    0.433    0.183  212.282  111.201
  474.250   12.571    0.390    0.167  212.325   95.986
  474.500   16.458    0.283    0.142  209.829   71.929
  474.750   18.581    0.241    0.081  206.316   60.982
  475.000   20.030    0.259    0.111  204.836   58.570
  475.250   19.686    0.278    0.164  204.382   59.815
  475.500   18.989    0.292    0.180  204.425   61.670
  475.750   17.490    0.328    0.184  204.425   64.138
  476.000   13.515    0.361    0.193  205.031   69.041
  476.250   12.679    0.344    0.193  205.053   76.081
  476.500   11.048    0.315    0.179  205.107   77.018
  476.750    9.808    0.277    0.155  205.140   70.643
  477.000    9.201    0.290    0.099  205.708   84.389
  477.250    8.880    0.421    0.127  206.762   95.083
  477.500    9.053    0.408    0.168  207.822   96.329
  477.750    9.760    0.383    0.210  207.357   88.430
  478.000   12.087    0.378    0.227  207.395   75.349
  478.250   14.968    0.421    0.283  207.449   68.974
  478.500   17.864    0.411    0.317  207.493   62.294
  478.750   20.168    0.398    0.315  207.531   58.974
  479.000   23.413    0.389    0.319  207.072   61.134
  479.250   25.477    0.385    0.315  206.607   67.866
  479.500   23.904    0.398    0.303  206.154   71.242
  479.750   21.020    0.407    0.296  206.186   74.929
  480.000   15.082    0.384    0.287  206.230   76.476
  480.250   13.141    0.380    0.282  206.781   78.947
  480.500   11.449    0.438    0.279  207.846   81.713
  480.750    9.976    0.466    0.316  209.927   85.701
  481.000    8.937    0.490    0.354  209.452   89.995
  481.250    8.008    0.516    0.386  206.447   91.545
  481.500    7.443    0.520    0.389  203.951   93.407
  481.750    6.985    0.516    0.340  202.978   91.302
  482.000    6.614    0.495    0.272  202.978   91.931
  482.250    6.150    0.513    0.243  202.563   94.091
  482.500    5.878    0.533    0.259  202.601   97.470
  482.750    5.670    0.539    0.272  203.666  100.853
  483.000    5.573    0.536    0.307  204.228  102.711
  483.250    5.630    0.523    0.322  204.780  105.477
  483.500    6.070    0.520    0.285  205.828  110.075
  483.750    6.602    0.504    0.257  204.867  114.067
  484.000    7.954    0.471    0.211  203.889  111.042
  484.250    8.980    0.419    0.097  204.948   86.683
  484.500    9.158    0.405    0.059  206.013   82.140
  484.750    8.834    0.391    0.158  205.035   86.430
  485.000    8.138    0.439    0.224  205.084   95.604
  485.250    7.496    0.464    0.249  205.641  105.689
  485.500    7.099    0.490    0.224  206.198  110.592
  485.750    7.041    0.476    0.210  206.733  112.755
  486.000    7.451    0.456    0.201  206.274  111.562
  486.250    8.107    0.418    0.193  206.329  102.136
  486.500    9.323    0.384    0.169  206.361   94.237
  486.750   10.723    0.370    0.144  205.897   89.694
  487.000   11.140    0.361    0.115  205.438   88.199
  487.250   10.745    0.347    0.155  205.481   88.828
  487.500   10.177    0.346    0.186  206.027   94.954
  487.750    9.461    0.355    0.192  206.579   95.285
  488.000    9.126    0.400    0.195  206.622   96.842
  488.250    8.970    0.384    0.206  206.671  103.878
  488.500    9.494    0.369    0.215  204.688  105.730
  488.750   10.232    0.386    0.225  203.208  104.842
  489.000   12.099    0.432    0.242  202.749   94.809
  489.250   13.044    0.363    0.229  202.749   80.506
  489.500   15.565    0.328    0.159  202.825   63.463
  489.750   17.573    0.277    0.033  203.382   56.478
  490.000   16.799    0.151    0.018  203.425   56.203
  490.250   14.369    0.183    0.132  202.961   64.760
  490.500   12.176    0.222    0.149  203.010   86.129
  490.750   10.321    0.289    0.164  204.064   91.944
  491.000    9.333    0.352    0.177  205.129  105.994
  491.250    8.839    0.341    0.160  206.194  109.377
  491.500    8.446    0.323    0.175  207.242  100.255
  491.750    8.072    0.326    0.189  206.281   89.003
  492.000    8.009    0.340    0.200  202.774   81.721
  492.250    8.476    0.340    0.204  201.796   79.302
  492.500    8.641    0.326    0.204  202.347   76.588
  492.750    8.650    0.309    0.198  202.904   77.220
  493.000    8.345    0.309    0.185  203.964   90.966
  493.250    8.126    0.332    0.196  203.996  106.842
  493.500    8.441    0.426    0.210  205.056  112.361
  493.750    9.015    0.527    0.224  207.148   93.178
