~VERSION INFORMATION
 VERS.                 2.0:   CWLS LOG ASCII STANDARD -VERSION 2.0
 WRAP.                  NO:   ONE LINE PER DEPTH STEP
~WELL INFORMATION BLOCK
#MNEM.UNIT           DATA                    DESCRIPTION OF MNEMONIC
#---------    -------------------            -------------------------------
# Generated from Intellog Unique Number	CC_80_83/WELL/2353
NULL.         -999.25                        : NULL_VALUE
WELL.         CHEVRON ALGAR                  : Well_name    - WELL
LOC .         10-14-081-17W4                 : Location     - LOCATION          
UWI .         00/10-14-081-17W400            : Uwi          - UNIQUE WELL ID    
ENTR.         DW                             : Entered      - ENTERED BY        
SRVC.         SCHLUMBERGER                   : Scn          - SERVICE COMPANY   
DATE.         04 FEB 75                      : Date         - LOG DATE
STRT.M        118.872                        : top_depth    - START DEPTH       
STOP.M        307.847                        : bot_depth    - STOP DEPTH        
STEP.M        0.305                          : increment    - STEP LENGTH       
~CURVE INFORMATION BLOCK
#MNEM UNIT       ERCB CURVE CODE    CURVE DESCRIPTION
#-----------   ------------------   ----------------------------------
DEPT.M        00 001 00 00         : DEPTH        - DEPTH                       
DPHI.V/V      00 890 00 00         : PHID         - DENSITY POROSITY (LIMESTONE)
NPHI.V/V      00 330 00 00         : PHIN         - NEUTRON POROSITY (LIMESTONE)
GR  .API      00 310 00 00         : GR           - GAMMA RAY                   
ILD .OHMM     00 120 00 00         : RESD         - DEEP RESISTIVITY (DIL)      
~PARAMETER INFORMATION       
#MNEM.UNIT           DATA             DESCRIPTION OF MNEMONIC
#---------         -----------     ------------------------------
GL  .M        540.106              : gl           - GROUND LEVEL ELEVATION      
EREF.M        543.763              : kb           - ELEVATION OF DEPTH REFERENCE
DATM.M        543.763              : datum        - DATUM ELEVATION             
TDD .M        310.896              : tdd          - TOTAL DEPTH DRILLER         
RUN .         ONE                  : Run          - RUN NUMBER                  
ENG .         BILL                 : Engineer     - RECORDING ENGINEER          
WIT .         JIM                  : Witness      - WITNESSED BY                
MUD .         GEL                  : Mud_type     - MUD TYPE                    
MATR.         LIMESTONE            : Logunit      - NEUTRON MATRIX              
TMAX.C        21.1111              : BHT          - MAXIMUM RECORDED TEMPERATURE
BHTD.M        310.896              : BHTDEP       - MAXIMUM RECORDED TEMPERATURE
MATR.         1                    : LOGUNIT      - NEUTRON MATRIX              
RMT .C        25                   : MDTP         - TEMPERATURE OF MUD          
NEUT.         1                    : NEUTRON      - NEUTRON TYPE                
RESI.         0                    : RESIST       - RESISTIVITY TYPE            
RMC .OHMM     0.25                 : RMC          - RESISTIVITY OF MUD CAKE     
RMF .OHMM     0.25                 : RMF          - RESISTIVITY OF MUD FILTRATE 
SUFT.C        15                   : SUFT         - SURFACE TEMPERATURE         
~A  DEPTH     PHID     PHIN       GR     RESD
# ...
  277.976    0.126    0.475   82.863   12.338
  278.281    0.218    0.468   85.887   12.113
  278.586    0.213    0.469   87.097   12.113
  278.890    0.192    0.469   82.258   12.114
  279.195    0.183    0.465   75.605   12.341
  279.500    0.189    0.434   78.024   12.573
  279.805    0.203    0.457   82.258   12.116
  280.110    0.232    0.479   84.073   11.462
  280.414    0.230    0.478   84.073   10.644
  280.719    0.229    0.455   79.234   10.070
  281.024    0.215    0.449   78.629    9.886
  281.329    0.195    0.458   79.234    9.886
  281.634    0.233    0.465   84.073    9.705
  281.938    0.225    0.461   86.492    9.706
  282.243    0.219    0.462   82.258    9.528
  282.548    0.226    0.471   81.653    9.014
  282.853    0.237    0.479   86.492    8.687
  283.158    0.232    0.484   90.726    8.371
  283.463    0.209    0.494   91.936    8.067
  283.767    0.196    0.497   92.540    7.492
  284.072    0.198    0.460   96.169    7.087
  284.377    0.188    0.446   98.589    6.226
  284.682    0.186    0.463   99.798    5.890
  284.987    0.218    0.474  104.637    5.782
  285.291    0.219    0.492  110.081    5.782
  285.596    0.213    0.495  112.500    5.891
  285.901    0.206    0.478  109.476    6.583
  286.206    0.192    0.468  101.613    7.923
  286.511    0.157    0.377   79.839   10.269
  286.815    0.018    0.313   79.839   13.066
  287.120    0.029    0.292   81.048   14.334
  287.425    0.138    0.422   89.516   14.335
  287.730    0.218    0.450   97.984   13.561
  288.035    0.224    0.460  101.008   12.363
  288.339    0.212    0.467  103.427   11.914
  288.644    0.178    0.469  101.613   12.364
  288.949    0.121    0.385   92.540   13.818
  289.254    0.091    0.340   85.887   14.340
  289.559    0.098    0.411   88.306   14.341
  289.864    0.108    0.457   93.145   14.079
  290.168    0.178    0.454   95.564   13.319
  290.473    0.157    0.443   95.564   12.600
  290.778    0.154    0.451   96.169   12.836
  291.083    0.161    0.445   97.984   14.082
  291.388    0.169    0.427   97.379   15.166
  291.692    0.156    0.405   94.355   16.033
  291.997    0.102    0.383   90.121   16.334
  292.302    0.105    0.373   91.331   16.035
  292.607    0.150    0.393   96.774   15.742
  292.912    0.162    0.414  109.476   15.454
  293.216    0.168    0.425  118.548   14.088
  293.521    0.134    0.433  122.782   12.376
  293.826    0.142    0.458  120.968    9.550
  294.131    0.171    0.474  110.685    7.507
  294.436    0.202    0.524   94.960    5.379
  294.740    0.225    0.569   82.258    4.470
  295.045    0.248    0.520   74.395    4.554
  295.350    0.226    0.477   66.532    6.973
  295.655    0.215    0.448   70.766    9.378
  295.960    0.204    0.431   72.581   11.079
  296.265    0.186    0.428   73.186   11.713
  296.569    0.168    0.438   70.766   11.499
  296.874    0.167    0.429   70.161   11.082
  297.179    0.189    0.431   75.605   10.679
  297.484    0.196    0.439   79.839    9.381
  297.789    0.197    0.445   84.677    8.090
  298.093    0.200    0.451   95.564    5.484
  298.398    0.197    0.465  102.218    4.817
  298.703    0.185    0.480  101.613    4.642
  299.008    0.166    0.446   93.750    4.818
  299.313    0.165    0.452   92.540    4.908
  299.617    0.184    0.475   92.540    5.094
  299.922    0.178    0.454   95.564    5.286
  300.227    0.142    0.472  104.032    5.486
  300.532    0.106    0.489  107.661    5.589
  300.837    0.085    0.463  113.710    5.694
  301.141    0.085    0.478  128.831    5.487
  301.446    0.144    0.475  145.161    5.095
  301.751    0.175    0.460  145.161    4.820
  302.056    0.185    0.473  134.879    4.821
  302.361    0.186    0.514  122.177    5.003
  302.666    0.171    0.502  145.161    5.388
  302.970    0.129    0.457  137.903    6.021
  303.275    0.122    0.444   76.814    6.855
  303.580    0.116    0.421   74.395    7.950
  303.885    0.114    0.414   75.605    8.562
  304.190    0.121    0.425   77.419    9.221
  304.494    0.138    0.435   77.419   10.116
  304.799    0.167    0.443   76.210   10.895
  305.104    0.197    0.426   74.395    9.054
  305.409    0.219    0.402   73.790    5.391
  305.714    0.229    0.403   76.210    4.735
  306.018    0.231    0.490   79.234    5.100
  306.323    0.227    0.500   81.048    6.370
  306.628    0.206    0.501   80.444    7.387
  306.933    0.184    0.502   78.629    9.398
  307.238    0.180    0.508   77.419   10.900
  307.542    0.180    0.512   76.210   11.524
  307.847    0.181    0.517   76.210   11.740
