~VERSION INFORMATION
 VERS.                 2.0:   CWLS LOG ASCII STANDARD -VERSION 2.0
 WRAP.                  NO:   ONE LINE PER DEPTH STEP
~WELL INFORMATION BLOCK
#MNEM.UNIT           DATA                    DESCRIPTION OF MNEMONIC
#---------    -------------------            -------------------------------
# Generated from Intellog Unique Number	CW_70_72/WELL/1029
NULL.         -999.25                        : NULL_VALUE
WELL.         SUNDANCE ET AL SMITH 10-01     : Well_name    - WELL              
LOC .         10-01-071-23W4                 : Location     - LOCATION          
UWI .         00/10-01-071-23W4/0            : Uwi          - UNIQUE WELL ID    
ENTR.         J                              : Entered      - ENTERED BY        
SRVC.         SCHLUMBERGER                   : Scn          - SERVICE COMPANY   
DATE.         20 FEB 76                      : Date         - LOG DATE          
STRT.M        414.528                        : top_depth    - START DEPTH       
STOP.M        594.278                        : bot_depth    - STOP DEPTH        
STEP.M        0.25                           : increment    - STEP LENGTH       
~CURVE INFORMATION BLOCK
#MNEM UNIT       ERCB CURVE CODE    CURVE DESCRIPTION
#-----------   ------------------   ----------------------------------
DEPT.M        00 001 00 00         : DEPTH        - DEPTH                       
DPHI.V/V      00 890 00 00         : PHID         - DENSITY POROSITY (SANDSTONE)
NPHI.V/V      00 330 00 00         : PHIN         - NEUTRON POROSITY (SANDSTONE)
GR  .API      00 310 00 00         : GR           - GAMMA RAY                   
CALI.MM       00 280 01 00         : CAL          - CALIPER                     
ILD .OHMM     00 120 00 00         : RESD         - DEEP RESISTIVITY (DIL)      
~PARAMETER INFORMATION       
#MNEM.UNIT           DATA             DESCRIPTION OF MNEMONIC
#---------         -----------     ------------------------------
GL  .M        658.216              : gl           - GROUND LEVEL ELEVATION      
EREF.M        661.416              : kb           - ELEVATION OF DEPTH REFERENCE
DATM.M        658.216              : datum        - DATUM ELEVATION             
TDD .M        622.097              : tdd          - TOTAL DEPTH DRILLER         
RUN .         ONE                  : Run          - RUN NUMBER                  
BASE.         EDM                  : Branch       - HOME BASE OF LOGGING UNIT   
MUD .         GEL                  : Mud_type     - MUD TYPE                    
MATR.         SANDSTONE            : Logunit      - NEUTRON MATRIX              
TMAX.C        26.6667              : BHT          - MAXIMUM RECORDED TEMPERATURE
BHTD.M        622.097              : BHTDEP       - MAXIMUM RECORDED TEMPERATURE
RMT .C        18.8889              : MDTP         - TEMPERATURE OF MUD          
MUDD.KG/M     0                    : MWT          - MUD DENSITY                 
NEUT.         1                    : NEUTRON      - NEUTRON TYPE                
RESI.         0                    : RESIST       - RESISTIVITY TYPE            
RM  .OHMM     1.56                 : RM           - RESISTIVITY OF MUD          
RMC .OHMM     0                    : RMC          - RESISTIVITY OF MUD CAKE     
RMF .OHMM     1.85                 : RMF          - RESISTIVITY OF MUD FILTRATE 
SUFT.C        -17.7778             : SUFT         - SURFACE TEMPERATURE         
~A  DEPTH     PHID     PHIN       GR      CAL     RESD
# ...
  524.028    0.248    0.451  102.418  161.590    4.102
  524.278    0.242    0.463  106.894  163.169    4.112
  524.528    0.260    0.480  111.756  164.745    3.845
  524.778    0.242    0.499  114.749  166.536    3.583
  525.028    0.230    0.513  113.101  169.204    3.290
  525.278    0.242    0.529  114.611  171.651    3.005
  525.528    0.247    0.566  118.699  172.791    2.936
  525.778    0.275    0.557  118.730  173.490    3.008
  526.028    0.257    0.492  115.533  173.975    3.273
  526.278    0.220    0.451  111.373  174.243    3.548
  526.528    0.216    0.434  107.338  174.617    3.960
  526.778    0.207    0.424  105.241  175.099    4.412
  527.028    0.192    0.421  103.656  175.149    4.998
  527.278    0.164    0.423  102.457  175.308    5.458
  527.528    0.155    0.414  101.394  175.245    5.747
  527.778    0.162    0.420  101.418  175.399    5.792
  528.028    0.171    0.425  103.830  175.339    5.711
  528.278    0.179    0.417  105.146  175.165    5.549
  528.528    0.188    0.412  104.082  174.671    5.451
  528.778    0.193    0.418  104.044  174.499    5.484
  529.028    0.185    0.426  103.685  174.435    5.660
  529.278    0.172    0.421  102.875  174.040    5.819
  529.528    0.163    0.415  100.712  173.765    5.994
  529.778    0.162    0.412  100.223  173.596    6.175
  530.028    0.178    0.410  100.507  173.317    6.258
  530.278    0.185    0.409  101.567  173.247    6.341
  530.528    0.174    0.409  102.950  173.195    6.356
  530.778    0.187    0.411  103.428  172.797    6.313
  531.028    0.171    0.412  103.584  172.630    6.179
  531.278    0.179    0.401  104.644  172.125    5.993
  531.528    0.178    0.390  106.735  171.628    5.856
  531.778    0.166    0.417  111.724  170.803    5.722
  532.028    0.171    0.442  118.068  169.763    5.662
  532.278    0.177    0.422  116.164  168.718    5.623
  532.528    0.184    0.420  110.776  167.885    5.616
  532.778    0.193    0.437  104.618  166.080    5.629
  533.028    0.179    0.443   99.233  164.158    5.704
  533.278    0.177    0.424   94.297  161.476    5.855
  533.528    0.178    0.401   90.455  157.925    6.142
  533.778    0.170    0.366   87.516  156.010    6.970
  534.028    0.156    0.350   84.968  155.072    7.779
  534.278    0.138    0.326   83.254  155.017    9.056
  534.528    0.094    0.272   80.317  154.947   10.657
  534.778    0.051    0.236   82.537  154.882   11.809
  535.028    0.055    0.225   88.431  155.040   12.077
  535.278    0.125    0.300   93.743  155.096    9.778
  535.528    0.178    0.393   96.864  155.031    7.989
  535.778    0.174    0.417   92.574  155.180    6.516
  536.028    0.163    0.408   87.059  155.779    6.138
  536.278    0.142    0.391   90.308  156.586    6.086
  536.528    0.109    0.357   98.265  157.722    6.022
  536.778    0.141    0.372  110.991  158.537    5.993
  537.028    0.154    0.402  113.983  159.465    5.909
  537.278    0.162    0.414  111.692  159.829    5.773
  537.528    0.166    0.412  111.075  160.318    5.640
  537.778    0.171    0.413  111.682  160.584    5.481
  538.028    0.175    0.411  111.454  161.064    5.404
  538.278    0.179    0.403  110.193  161.547    5.377
  538.528    0.177    0.399  108.609  162.142    5.399
  538.778    0.180    0.410  107.220  162.515    5.412
  539.028    0.172    0.417  107.116  162.887    5.385
  539.278    0.155    0.413  107.212  163.371    5.378
  539.528    0.161    0.411  107.947  163.747    5.341
  539.778    0.176    0.409  108.553  164.014    5.305
  540.028    0.189    0.399  110.194  164.281    5.260
  540.278    0.177    0.383  111.962  164.980    5.243
  540.528    0.178    0.395  113.278  165.462    5.217
  540.778    0.182    0.404  113.244  166.284    5.220
  541.028    0.187    0.409  112.110  166.647    5.194
  541.278    0.184    0.414  110.783  166.926    5.215
  541.528    0.174    0.414  109.458  166.965    5.227
  541.778    0.167    0.402  108.456  166.790    5.230
  542.028    0.170    0.402  106.870  166.180    5.213
  542.278    0.176    0.412  104.578  165.358    5.254
  542.528    0.171    0.419  101.255  164.202    5.304
  542.778    0.147    0.430   95.740  162.831    5.803
  543.028    0.136    0.417   88.867  161.578    6.513
  543.278    0.121    0.395   82.773  160.957    8.615
  543.528    0.126    0.372   76.999  160.135   10.401
  543.778    0.103    0.338   70.775  159.204   10.219
  544.028    0.080    0.270   73.575  158.050    9.821
  544.278    0.064    0.285   77.020  157.221    7.851
  544.528    0.109    0.346   80.785  156.504    6.391
  544.778    0.153    0.394   84.232  155.893    6.476
  545.028    0.175    0.422   81.550  154.962    8.051
  545.278    0.151    0.344   76.037  154.024    9.253
  545.528    0.100    0.276   72.065  153.963   11.010
  545.778    0.058    0.250   74.670  154.225   15.550
  546.028    0.065    0.254   80.308  155.147   12.706
  546.278    0.111    0.286   87.940  155.741    8.858
  546.528    0.132    0.346   95.254  157.212    7.344
  546.778    0.168    0.366   99.213  158.676    6.549
  547.028    0.182    0.378  100.979  160.477    6.059
  547.278    0.181    0.379  102.236  161.603    5.791
  547.528    0.189    0.389  103.163  162.855    5.658
  547.778    0.178    0.385  106.220  164.097    5.548
  548.028    0.167    0.394  111.275  165.245    5.431
  548.278    0.163    0.407  117.041  166.484    5.335
  548.528    0.174    0.422  113.717  167.517    5.222
  548.778    0.182    0.419  108.848  168.330    5.158
  549.028    0.192    0.413  104.941  168.595    5.161
  549.278    0.197    0.413  102.325  169.402    5.375
  549.528    0.198    0.403  100.163  170.003    5.577
  549.778    0.175    0.394   99.416  170.695    5.798
  550.028    0.164    0.392  103.955  171.289    5.919
  550.278    0.169    0.395  111.977  171.996    5.944
  550.528    0.181    0.405  118.195  172.913    5.797
  550.778    0.211    0.417  119.638  173.726    5.541
  551.028    0.203    0.433  121.988  174.644    5.163
  551.278    0.208    0.465  124.270  175.897    4.881
  551.528    0.214    0.481  126.102  176.815    4.657
  551.778    0.230    0.490  127.165  177.300    4.477
  552.028    0.256    0.503  128.677  176.467    4.389
  552.278    0.230    0.510  130.182  169.972    4.320
  552.528    0.211    0.501  127.117  171.328    4.283
  552.778    0.187    0.469  121.216  173.990    4.285
  553.028    0.168    0.427  114.861  171.854    4.406
  553.278    0.154    0.411  110.891  170.270    4.547
  553.528    0.155    0.399  107.503  170.209    4.761
  553.778    0.149    0.389  105.728  169.485    5.153
  554.028    0.153    0.381  105.046  168.552    5.455
  554.278    0.144    0.383  106.495  166.963    5.640
  554.528    0.115    0.387  110.258  164.938    5.653
  554.778    0.148    0.391  110.481  163.786    5.554
  555.028    0.162    0.396  109.157  163.070    5.446
  555.278    0.158    0.401  107.634  162.021    5.350
  555.528    0.169    0.409  103.666  161.413    5.542
  555.778    0.155    0.421   98.731  160.585    6.008
  556.028    0.129    0.425   92.956  159.867    6.525
  556.278    0.101    0.367   92.340  159.478    7.074
  556.528    0.057    0.350  104.421  157.231    6.836
  556.778    0.094    0.340  112.507  157.723    6.358
  557.028    0.118    0.384  115.372  157.657    5.935
  557.278    0.146    0.409  115.335  159.019    5.715
  557.528    0.176    0.423  114.395  160.598    5.739
  557.778    0.165    0.429  113.326  161.290    5.816
  558.028    0.153    0.430  112.388  160.685    5.980
  558.278    0.137    0.423  110.678  160.728    6.071
  558.528    0.125    0.411  111.734  161.216    6.096
  558.778    0.129    0.408  114.536  160.938    6.000
  559.028    0.145    0.409  114.562  161.198    5.883
  559.278    0.146    0.411  114.074  161.795    5.790
  559.528    0.134    0.410  114.618  162.060    5.730
  559.778    0.141    0.409  117.224  162.225    5.681
  560.028    0.165    0.405  118.927  162.480    5.673
  560.278    0.168    0.399  114.637  163.072    5.749
