~VERSION INFORMATION
 VERS.                 2.0:   CWLS LOG ASCII STANDARD -VERSION 2.0
 WRAP.                  NO:   ONE LINE PER DEPTH STEP
~WELL INFORMATION BLOCK
#MNEM.UNIT           DATA                    DESCRIPTION OF MNEMONIC
#---------    -------------------            -------------------------------
# Generated from Intellog Unique Number	CS_73_76/WELL/838
WELL.         MIAMI OIL PRODUCERS            : Well_name    - WELL
LOC .         00/10-32-073-11W4/0            : Location     - LOCATION
UWI .         00/10-32-073-11W4/0            : Uwi          - UNIQUE WELL ID
ENTR.         SP                             : Entered      - ENTERED BY
SRVC.         SCHLUMBERGER                   : Scn          - SERVICE COMPANY
STRT.M        295.656                        : top_depth    - START DEPTH
STOP.M        533.156                        : bot_depth    - STOP DEPTH
STEP.M        0.25                           : increment    - STEP LENGTH
 NULL. -999.2500:NULL Value
~CURVE INFORMATION BLOCK
#MNEM UNIT       ERCB CURVE CODE    CURVE DESCRIPTION
#-----------   ------------------   ----------------------------------
DEPT.M        00 001 00 00         : DEPTH        - DEPTH
GR  .API      00 310 00 00         : GR           - GAMMA RAY
DPHI.V/V      00 890 00 00         : PHID         - DENSITY POROSITY (SANDSTONE)
NPHI.V/V      00 330 00 00         : PHIN         - NEUTRON POROSITY (SANDSTONE)
ILD .OHMM     00 120 00 00         : RESD         - DEEP RESISTIVITY (DIL)
~PARAMETER INFORMATION
#MNEM.UNIT           DATA             DESCRIPTION OF MNEMONIC
#---------         -----------     ------------------------------
GL  .M        644.347              : gl           - GROUND LEVEL ELEVATION
EREF.M        647.395              : kb           - ELEVATION OF DEPTH REFERENCE
DATM.M        644.347              : datum        - DATUM ELEVATION
TDD .M        636.727              : tdd          - TOTAL DEPTH DRILLER
RUN .         ONE                  : Run          - RUN NUMBER
ENG .         BILL                 : Engineer     - RECORDING ENGINEER
WIT .         JIM                  : Witness      - WITNESSED BY
MUD .         GEL                  : Mud_type     - MUD TYPE
MATR.         SANDSTONE            : Logunit      - NEUTRON MATRIX
TMAX.C        25.5556              : BHT          - MAXIMUM RECORDED TEMPERATURE
BHTD.M        636.727              : BHTDEP       - MAXIMUM RECORDED TEMPERATURE
MATR.         1                    : LOGUNIT      - NEUTRON MATRIX
RMT .C        25                   : MDTP         - TEMPERATURE OF MUD
NEUT.         1                    : NEUTRON      - NEUTRON TYPE
RESI.         0                    : RESIST       - RESISTIVITY TYPE
RMC .OHMM     0.25                 : RMC          - RESISTIVITY OF MUD CAKE
RMF .OHMM     0.25                 : RMF          - RESISTIVITY OF MUD FILTRATE
SUFT.C        15                   : SUFT         - SURFACE TEMPERATURE
~A  DEPTH       GR     PHID     PHIN     RESD
# ...
  426.156   73.386    0.315    0.467    6.094
  426.406   74.466    0.317    0.458    6.108
  426.656   74.811    0.313    0.452    6.100
  426.906   75.069    0.307    0.444    6.238
  427.156   75.144    0.306    0.439    6.230
  427.406   74.491    0.302    0.436    6.224
  427.656   73.840    0.301    0.452    6.363
  427.906   73.366    0.314    0.465    6.345
  428.156   72.522    0.320    0.477    6.494
  428.406   71.578    0.327    0.482    6.486
  428.656   71.614    0.321    0.461    6.616
  428.906   71.737    0.316    0.448    6.614
  429.156   72.762    0.311    0.433    6.611
  429.406   73.794    0.306    0.430    6.748
  429.656   73.994    0.307    0.432    6.722
  429.906   73.483    0.311    0.437    6.622
  430.156   72.482    0.305    0.441    6.568
  430.406   72.320    0.304    0.445    6.520
  430.656   75.358    0.302    0.449    6.419
  430.906   77.493    0.305    0.451    6.407
  431.156   78.766    0.302    0.455    6.407
  431.406   78.407    0.301    0.451    6.411
  431.656   76.631    0.296    0.447    6.416
  431.906   76.999    0.292    0.439    6.420
  432.156   77.364    0.298    0.429    6.419
  432.406   77.431    0.287    0.432    6.399
  432.656   77.038    0.296    0.439    6.311
  432.906   76.424    0.299    0.447    6.260
  433.156   76.714    0.295    0.453    6.069
  433.406   78.761    0.290    0.454    5.991
  433.656   79.701    0.283    0.453    5.818
  433.906   80.658    0.287    0.459    5.774
  434.156   82.076    0.292    0.464    5.591
  434.406   84.103    0.292    0.469    5.584
  434.656   85.396    0.285    0.474    5.585
  434.906   88.034    0.282    0.473    5.755
  435.156   89.139    0.272    0.467    6.115
  435.406   89.476    0.263    0.473    6.702
  435.656   88.647    0.269    0.481    7.260
  435.906   81.927    0.274    0.459    7.958
  436.156   76.262    0.247    0.446    8.831
  436.406   70.336    0.221    0.433    8.718
  436.656   67.580    0.206    0.411    8.018
  436.906   66.642    0.171    0.358    7.704
  437.156   66.174    0.126    0.426    7.178
  437.406   70.348    0.173    0.433    6.854
  437.656   74.941    0.271    0.446    6.575
  437.906   76.524    0.290    0.439    6.403
  438.156   75.986    0.270    0.425    6.166
  438.406   79.520    0.239    0.412    6.067
  438.656   81.210    0.253    0.431    5.943
  438.906   82.020    0.276    0.433    5.953
  439.156   80.916    0.270    0.427    6.124
  439.406   82.818    0.255    0.426    6.451
  439.656   83.699    0.244    0.423    6.647
  439.906   84.525    0.240    0.426    6.667
  440.156   86.927    0.249    0.430    6.520
  440.406   89.791    0.255    0.443    6.128
  440.656   92.337    0.272    0.453    5.900
  440.906   93.206    0.291    0.450    5.548
  441.156   93.472    0.294    0.457    5.201
  441.406   94.888    0.314    0.473    4.946
  441.656   94.402    0.333    0.488    4.903
  441.906   96.165    0.296    0.473    5.106
  442.156   98.767    0.260    0.471    5.428
  442.406   98.087    0.237    0.461    5.780
  442.656   97.265    0.237    0.448    5.837
  442.906   98.849    0.239    0.448    6.023
  443.156   96.323    0.236    0.428    5.931
  443.406   92.548    0.231    0.440    5.760
  443.656   89.828    0.242    0.456    5.598
  443.906   94.551    0.245    0.459    5.525
  444.156   95.933    0.245    0.458    5.502
  444.406   94.460    0.245    0.453    5.612
  444.656   93.788    0.241    0.447    5.784
  444.906   94.595    0.236    0.443    5.944
  445.156   96.765    0.248    0.445    5.934
  445.406   97.327    0.248    0.439    6.139
  445.656   94.060    0.259    0.421    6.051
  445.906   93.800    0.249    0.405    5.868
  446.156   94.535    0.219    0.399    5.635
  446.406   94.435    0.193    0.408    5.408
  446.656   91.974    0.222    0.427    4.856
  446.906   89.104    0.230    0.445    4.415
  447.156   86.227    0.234    0.466    3.751
  447.406   88.601    0.248    0.484    3.289
  447.656   89.698    0.252    0.486    2.710
  447.906   88.664    0.263    0.492    2.532
  448.156   88.246    0.276    0.524    2.367
  448.406   88.865    0.288    0.529    2.256
  448.656   89.341    0.289    0.523    2.194
  448.906   86.342    0.286    0.519    2.196
  449.156   85.649    0.278    0.506    2.207
  449.406   86.062    0.271    0.507    2.273
  449.656   89.302    0.267    0.515    2.494
  449.906   91.099    0.262    0.518    2.751
  450.156   90.262    0.262    0.505    3.046
  450.406   88.480    0.262    0.500    3.493
  450.656   87.557    0.262    0.499    3.888
  450.906   88.368    0.259    0.476    4.269
  451.156   85.996    0.252    0.451    4.723
  451.406   86.387    0.244    0.440    4.671
  451.656   85.461    0.236    0.430    4.566
  451.906   84.655    0.228    0.429    4.818
  452.156   85.901    0.228    0.434    5.192
  452.406   83.879    0.236    0.448    5.472
  452.656   84.080    0.222    0.454    5.631
  452.906   83.247    0.229    0.481    5.826
  453.156   79.166    0.231    0.444    5.720
  453.406   76.336    0.211    0.432    5.615
  453.656   74.738    0.211    0.444    5.281
  453.906   74.719    0.249    0.458    5.105
  454.156   73.491    0.274    0.461    5.052
  454.406   71.272    0.313    0.456    5.163
  454.656   70.468    0.300    0.462    5.709
  454.906   71.052    0.295    0.451    6.593
  455.156   72.650    0.285    0.433    8.091
  455.406   73.297    0.270    0.418    9.976
  455.656   68.180    0.235    0.401   11.221
  455.906   61.672    0.149    0.363   12.103
  456.156   54.420    0.079    0.265   12.760
  456.406   56.320    0.165    0.331   10.139
  456.656   60.991    0.185    0.369    7.914
  456.906   64.160    0.217    0.383    7.053
  457.156   66.391    0.276    0.418    6.454
  457.406   70.050    0.299    0.439    5.972
  457.656   72.931    0.301    0.430    6.008
  457.906   73.279    0.295    0.425    5.888
  458.156   72.234    0.304    0.422    5.881
  458.406   72.289    0.299    0.435    5.797
  458.656   74.004    0.289    0.441    5.803
  458.906   74.175    0.288    0.443    5.807
  459.156   74.718    0.287    0.436    5.808
  459.406   75.055    0.281    0.427    5.769
  459.656   75.422    0.272    0.435    5.713
  459.906   76.414    0.265    0.431    5.715
  460.156   77.070    0.265    0.422    5.719
  460.406   76.015    0.264    0.423    5.722
  460.656   75.719    0.259    0.422    5.726
  460.906   77.816    0.260    0.424    5.734
  461.156   81.224    0.256    0.434    5.014
  461.406   84.186    0.250    0.438    4.043
  461.656   86.314    0.246    0.450    3.582
  461.906   88.306    0.242    0.469    3.172
  462.156   89.288    0.238    0.477    2.991
  462.406   90.998    0.237    0.483    3.109
  462.656   92.515    0.239    0.489    3.404
  462.906   92.222    0.234    0.491    3.707
  463.156   90.879    0.229    0.491    3.932
  463.406   92.520    0.223    0.470    4.076
  463.656   92.313    0.221    0.456    4.022
  463.906   90.887    0.228    0.470    3.660
  464.156   89.756    0.230    0.473    3.350
  464.406   91.074    0.245    0.477    3.082
  464.656   92.593    0.244    0.489    3.036
  464.906   91.465    0.245    0.500    3.353
  465.156   89.534    0.238    0.507    3.735
  465.406   84.957    0.225    0.449    4.289
  465.656   83.808    0.209    0.416    4.767
  465.906   84.468    0.199    0.410    5.324
  466.156   84.369    0.204    0.419    5.846
  466.406   85.067    0.215    0.424    6.302
  466.656   85.645    0.218    0.425    7.240
  466.906   86.107    0.206    0.417    8.203
  467.156   82.935    0.192    0.404    9.338
  467.406   78.819    0.121    0.391   10.210
  467.656   74.493    0.092    0.367   11.555
  467.906   73.414    0.120    0.350   12.456
  468.156   75.482    0.183    0.390   13.435
  468.406   77.516    0.223    0.404   14.021
  468.656   77.183    0.242    0.422   14.633
  468.906   72.770    0.260    0.430   15.531
  469.156   69.303    0.267    0.416   16.473
  469.406   69.814    0.275    0.420   17.870
