~VERSION INFORMATION
 VERS.                 2.0:   CWLS LOG ASCII STANDARD -VERSION 2.0
 WRAP.                  NO:   ONE LINE PER DEPTH STEP
~WELL INFORMATION BLOCK
#MNEM.UNIT           DATA                    DESCRIPTION OF MNEMONIC
#---------    -------------------            -------------------------------
# Generated from Intellog Unique Number	CX_WELLS/WELL/3051
WELL.         MLC ET AL MCADAMS              : Well_name    - WELL
LOC .         00/10-16-082-14W4/0            : Location     - LOCATION
UWI .         00/10-16-082-14W400            : Uwi          - UNIQUE WELL ID
ENTR.         TIM                            : Entered      - ENTERED BY
SRVC.         SCHLUMBERGER                   : Scn          - SERVICE COMPANY
STRT.M        135                            : top_depth    - START DEPTH
STOP.M        350                            : bot_depth    - STOP DEPTH
STEP.M        0.25                           : increment    - STEP LENGTH
 NULL. -999.2500:NULL Value
~CURVE INFORMATION BLOCK
#MNEM UNIT       ERCB CURVE CODE    CURVE DESCRIPTION
#-----------   ------------------   ----------------------------------
DEPT.M        00 001 00 00         : DEPTH        - DEPTH
GR  .API      00 310 00 00         : GR           - GAMMA RAY
NPHI.V/V      00 330 00 00         : PHIN         - NEUTRON POROSITY (SANDSTONE)
DPHI.V/V      00 890 00 00         : PHID         - DENSITY POROSITY (SANDSTONE)
ILD .OHMM     00 120 00 00         : RESD         - DEEP RESISTIVITY (OTHER)
~PARAMETER INFORMATION
#MNEM.UNIT           DATA             DESCRIPTION OF MNEMONIC
#---------         -----------     ------------------------------
GL  .M        581                  : gl           - GROUND LEVEL ELEVATION
EREF.M        584.4                : kb           - ELEVATION OF DEPTH REFERENCE
DATM.M        584.4                : datum        - DATUM ELEVATION
TDD .M        254                  : tdd          - TOTAL DEPTH DRILLER
RUN .         ONE                  : Run          - RUN NUMBER
ENG .         BILL                 : Engineer     - RECORDING ENGINEER
WIT .         JIM                  : Witness      - WITNESSED BY
MUD .         GEL                  : Mud_type     - MUD TYPE
MATR.         SANDSTONE            : Logunit      - NEUTRON MATRIX
TMAX.C        25                   : BHT          - MAXIMUM RECORDED TEMPERATURE
BHTD.M        254                  : BHTDEP       - MAXIMUM RECORDED TEMPERATURE
MATR.         1                    : LOGUNIT      - NEUTRON MATRIX
RMT .C        21                   : MDTP         - TEMPERATURE OF MUD
NEUT.         1                    : NEUTRON      - NEUTRON TYPE
RESI.         4                    : RESIST       - RESISTIVITY TYPE
RMC .OHMM     3.2                  : RMC          - RESISTIVITY OF MUD CAKE
RMF .OHMM     5                    : RMF          - RESISTIVITY OF MUD FILTRATE
SUFT.C        2                    : SUFT         - SURFACE TEMPERATURE
~A  DEPTH       GR     PHIN     PHID     RESD
# ...
  309.000  103.989    0.461    0.198    4.043
  309.250  102.124    0.470    0.201    4.198
  309.500  100.884    0.474    0.208    4.197
  309.750  102.099    0.476    0.216    4.195
  310.000  105.169    0.474    0.223    4.194
  310.250  107.626    0.465    0.229    4.355
  310.500  111.929    0.466    0.232    5.069
  310.750  113.766    0.460    0.226    7.134
  311.000  110.668    0.441    0.231    7.993
  311.250  106.343    0.376    0.238    9.304
  311.500   90.302    0.349    0.248   11.247
  311.750   78.573    0.343    0.270   13.088
  312.000   77.941    0.342    0.297   13.851
  312.250   77.928    0.342    0.294   14.385
  312.500   77.300    0.344    0.281   14.936
  312.750   73.591    0.336    0.281   16.110
  313.000   63.715    0.310    0.294   17.050
  313.250   53.836    0.276    0.310   18.391
  313.500   57.522    0.289    0.311   19.837
  313.750   61.206    0.300    0.306   20.996
  314.000   55.648    0.302    0.314   24.905
  314.250   48.238    0.301    0.307   30.110
  314.500   41.444    0.299    0.300   37.101
  314.750   37.732    0.300    0.293   43.181
  315.000   43.885    0.321    0.283   20.956
  315.250   53.737    0.403    0.272    8.251
  315.500   66.671    0.421    0.262    6.565
  315.750   77.139    0.429    0.248    6.438
  316.000   85.141    0.431    0.212    6.687
  316.250   85.129    0.393    0.225    7.782
  316.500   83.883    0.366    0.225    9.590
  316.750   82.632    0.361    0.222   11.161
  317.000   85.085    0.364    0.227   12.269
  317.250   88.155    0.369    0.232   12.738
  317.500   86.910    0.372    0.240   14.003
  317.750   90.597    0.369    0.245   14.820
  318.000   96.136    0.356    0.250   16.607
  318.250  101.672    0.343    0.257   19.328
  318.500   86.244    0.340    0.272   23.368
  318.750   82.536    0.326    0.274   26.182
  319.000   73.889    0.294    0.269   27.187
  319.250   73.254    0.268    0.265   27.699
  319.500   74.478    0.282    0.257   26.151
  319.750   75.702    0.300    0.235   25.169
  320.000   77.536    0.321    0.221   25.155
  320.250   79.376    0.341    0.223   26.121
  320.500   79.360    0.337    0.223   27.126
  320.750   81.198    0.331    0.220   27.634
  321.000   83.651    0.329    0.208   29.243
  321.250   84.255    0.325    0.213   30.371
  321.500   83.629    0.319    0.224   32.756
  321.750   79.915    0.313    0.247   34.017
  322.000   76.204    0.307    0.255   37.396
  322.250   71.256    0.310    0.282   41.111
  322.500   68.165    0.319    0.291   45.195
  322.750   66.303    0.331    0.298   40.307
  323.000   69.989    0.341    0.297   36.639
  323.250   75.522    0.344    0.266   32.058
  323.500   79.212    0.345    0.225   30.270
  323.750   80.433    0.338    0.227   29.684
  324.000   74.869    0.332    0.229   29.678
  324.250   71.154    0.322    0.223   29.109
  324.500   74.844    0.322    0.208   26.459
  324.750   80.996    0.325    0.178   24.049
  325.000   82.831    0.330    0.143   23.587
  325.250   79.736    0.337    0.190   25.440
  325.500   76.027    0.343    0.219   26.926
  325.750   73.549    0.350    0.235   28.499
  326.000   74.153    0.355    0.254   30.737
  326.250   72.898    0.360    0.259   32.529
  326.500   71.659    0.364    0.259   34.420
  326.750   69.181    0.366    0.265   36.431
  327.000   66.086    0.369    0.291   37.833
  327.250   62.375    0.370    0.300   43.199
  327.500   58.657    0.362    0.291   45.722
  327.750   59.261    0.359    0.287   45.702
  328.000   60.488    0.360    0.278   47.452
  328.250   62.322    0.363    0.274   50.228
  328.500   57.994    0.365    0.301   55.218
  328.750   51.814    0.367    0.308   64.266
  329.000   46.873    0.359    0.317   63.033
  329.250   41.309    0.348    0.321   39.164
  329.500   43.762    0.337    0.302   32.374
  329.750   49.918    0.331    0.246   26.759
  330.000   58.533    0.335    0.226   21.292
  330.250   64.073    0.342    0.211   18.281
  330.500   70.225    0.346    0.197   16.936
  330.750   78.227    0.351    0.179   15.991
  331.000   86.846    0.357    0.158   15.683
  331.250   94.232    0.362    0.160   16.597
  331.500   99.768    0.368    0.174   17.235
  331.750  104.684    0.373    0.189   17.559
  332.000  105.905    0.377    0.215   18.583
  332.250  103.427    0.374    0.236   20.042
  332.500   99.099    0.362    0.236   22.885
  332.750   97.234    0.352    0.232   24.224
  333.000   99.690    0.341    0.237   28.733
  333.250   99.062    0.345    0.237   31.590
  333.500   93.501    0.350    0.230   33.429
  333.750   89.173    0.357    0.222   33.414
  334.000   83.609    0.362    0.199   33.408
  334.250   81.130    0.358    0.198   34.031
  334.500   86.050    0.357    0.213   32.129
  334.750   92.200    0.362    0.231   30.343
  335.000   94.037    0.365    0.241   26.052
  335.250   94.024    0.365    0.243   22.365
  335.500   95.862    0.355    0.181   20.722
  335.750   99.548    0.347    0.172   19.197
  336.000  103.854    0.344    0.172   18.473
  336.250  108.768    0.345    0.174   18.118
  336.500  103.830    0.347    0.181   18.459
  336.750   98.882    0.350    0.192   19.911
  337.000   97.637    0.354    0.155   21.887
  337.250   90.843    0.354    0.098   24.525
  337.500   81.583    0.354    0.068   28.544
  337.750   74.786    0.352    0.191   35.847
  338.000   72.305    0.351    0.229   34.497
  338.250   74.148    0.351    0.249   29.060
  338.500   78.451    0.341    0.235   25.430
  338.750   83.368    0.343    0.214   22.253
  339.000   88.901    0.344    0.180   19.844
  339.250   93.823    0.346    0.181   18.381
  339.500   98.743    0.348    0.180   17.692
  339.750  101.813    0.350    0.173   16.387
  340.000  106.116    0.355    0.170   16.076
  340.250  109.803    0.359    0.169   16.070
  340.500  111.637    0.359    0.170   15.759
  340.750  107.929    0.356    0.173   15.756
  341.000  101.135    0.354    0.175   15.750
  341.250   94.341    0.349    0.169   16.047
  341.500   92.473    0.342    0.161   16.349
  341.750   93.077    0.338    0.160   16.655
  342.000   96.150    0.332    0.171   17.295
  342.250   94.905    0.332    0.182   17.287
  342.500   91.810    0.338    0.182   17.282
  342.750   91.794    0.340    0.179   17.276
  343.000   94.865    0.336    0.166   17.599
  343.250   99.171    0.331    0.153   18.275
  343.500  102.238    0.328    0.142   18.619
  343.750  102.229    0.326    0.109   18.970
  344.000  103.449    0.328    0.112   18.963
  344.250  104.044    0.333    0.128   19.320
  344.500  103.421    0.339    0.142   20.841
  344.750  104.022    0.346    0.145   19.306
  345.000  104.626    0.352    0.143   17.549
  345.250  105.228    0.353    0.147   15.651
  345.500  105.218    0.354    0.153   14.778
  345.750  105.209    0.353    0.165   15.053
  346.000  104.574    0.349    0.174   15.340
  346.250  104.568    0.346    0.179   16.234
  346.500  103.933    0.337    0.185   17.509
  346.750  103.917    0.331    0.195   18.888
  347.000  103.911    0.323    0.176   22.405
  347.250  103.282    0.317    0.067  966.606
  347.500  102.653    0.314    0.022 1190.930
  347.750  101.405    0.312    0.015 1334.370
  348.000  100.776    0.314   -0.000 1466.930
  348.250  100.147    0.316   -0.001 1259.480
  348.500   99.518    0.322    0.010 1041.010
  348.750   99.506    0.330    0.025  982.939
  349.000  100.723    0.331    0.037 1001.450
  349.250  101.331    0.326    0.051 1020.300
  349.500  101.935    0.326    0.054 1019.930
  349.750  101.922    0.329    0.054 1000.360
  350.000  104.373    0.330    0.054 1000.000
