~VERSION INFORMATION
 VERS.                 2.0:   CWLS LOG ASCII STANDARD -VERSION 2.0
 WRAP.                  NO:   ONE LINE PER DEPTH STEP
~WELL INFORMATION BLOCK
#MNEM.UNIT           DATA                    DESCRIPTION OF MNEMONIC
#---------    -------------------            -------------------------------
# Generated from Intellog Unique Number	CC_80_83/WELL/2357
NULL.         -999.25                        : NULL_VALUE
WELL.         PEX HOUSE                      : Well_name    - WELL
LOC .         10-18-080-16W4                 : Location     - LOCATION          
UWI .         00/10-18-080-16W4/0            : Uwi          - UNIQUE WELL ID    
ENTR.         DW                             : Entered      - ENTERED BY        
SRVC.         SCHLUMBERGER                   : Scn          - SERVICE COMPANY   
DATE.         30 JAN 82                      : Date         - LOG DATE
STRT.M        145                            : top_depth    - START DEPTH       
STOP.M        369.996                        : bot_depth    - STOP DEPTH        
STEP.M        0.3                            : increment    - STEP LENGTH       
~CURVE INFORMATION BLOCK
#MNEM UNIT       ERCB CURVE CODE    CURVE DESCRIPTION
#-----------   ------------------   ----------------------------------
DEPT.M        00 001 00 00         : DEPTH        - DEPTH                       
DPHI.V/V      00 890 00 00         : PHID         - DENSITY POROSITY (LIMESTONE)
NPHI.V/V      00 330 00 00         : PHIN         - NEUTRON POROSITY (LIMESTONE)
GR  .API      00 310 00 00         : GR           - GAMMA RAY                   
ILD .OHMM     00 120 00 00         : RESD         - DEEP RESISTIVITY (DIL)      
~PARAMETER INFORMATION       
#MNEM.UNIT           DATA             DESCRIPTION OF MNEMONIC
#---------         -----------     ------------------------------
GL  .M        556                  : gl           - GROUND LEVEL ELEVATION      
EREF.M        559.8                : kb           - ELEVATION OF DEPTH REFERENCE
DATM.M        559.8                : datum        - DATUM ELEVATION             
TDD .M        370                  : tdd          - TOTAL DEPTH DRILLER         
RUN .         ONE                  : Run          - RUN NUMBER                  
ENG .         BILL                 : Engineer     - RECORDING ENGINEER          
WIT .         JIM                  : Witness      - WITNESSED BY                
MUD .         GEL                  : Mud_type     - MUD TYPE                    
MATR.         LIMESTONE            : Logunit      - NEUTRON MATRIX              
TMAX.C        18.3                 : BHT          - MAXIMUM RECORDED TEMPERATURE
BHTD.M        370                  : BHTDEP       - MAXIMUM RECORDED TEMPERATURE
MATR.         1                    : LOGUNIT      - NEUTRON MATRIX              
RMT .C        25                   : MDTP         - TEMPERATURE OF MUD          
NEUT.         1                    : NEUTRON      - NEUTRON TYPE                
RESI.         0                    : RESIST       - RESISTIVITY TYPE            
RMC .OHMM     0.25                 : RMC          - RESISTIVITY OF MUD CAKE     
RMF .OHMM     0.25                 : RMF          - RESISTIVITY OF MUD FILTRATE 
SUFT.C        15                   : SUFT         - SURFACE TEMPERATURE         
~A  DEPTH     PHID     PHIN       GR     RESD
# ...
  197.201    0.279    0.431   84.159    9.550
  197.501    0.291    0.450   83.523   10.506
  197.801    0.256    0.406   83.512   11.559
  198.101    0.250    0.395   76.627   11.559
  198.401    0.252    0.390   82.238   10.710
  198.701    0.237    0.404   79.102    9.735
  199.001    0.235    0.466   81.591    8.682
  199.301    0.264    0.422   89.075    8.045
  199.601    0.279    0.420   94.685    8.045
  199.901    0.258    0.427   97.796    7.744
  200.201    0.250    0.452   99.033    6.399
  200.501    0.255    0.465   96.524    5.493
  200.801    0.263    0.471   89.015    5.599
  201.101    0.275    0.497   77.135    6.776
  201.401    0.292    0.490   65.879   11.562
  201.701    0.305    0.444   58.369   16.936
  202.001    0.348    0.474   55.235   24.337
  202.301    0.334    0.482   55.847   26.269
  202.601    0.338    0.426   57.086   26.775
  202.901    0.349    0.423   55.821   24.339
  203.201    0.343    0.428   54.563   20.894
  203.501    0.330    0.448   53.925   19.732
  203.801    0.323    0.453   52.666   17.937
  204.101    0.323    0.411   49.531   16.939
  204.401    0.327    0.383   52.641   16.620
  204.701    0.332    0.385   57.001   16.620
  205.001    0.343    0.429   58.866   16.941
  205.301    0.343    0.429   51.354   16.942
  205.601    0.339    0.402   50.719   16.942
  205.901    0.341    0.428   51.332   16.942
  206.201    0.337    0.409   50.072   16.623
  206.501    0.338    0.404   51.308   15.698
  206.801    0.349    0.423   53.798   15.402
  207.101    0.356    0.409   56.907   14.826
  207.401    0.349    0.400   55.648   14.826
  207.701    0.328    0.410   52.513   15.403
  208.001    0.319    0.442   51.249   15.404
  208.301    0.329    0.448   53.114   15.701
  208.601    0.339    0.435   53.727   15.701
  208.901    0.347    0.430   54.340   15.405
  209.201    0.349    0.433   56.202   15.406
  209.501    0.343    0.441   54.939   15.406
  209.801    0.335    0.443   54.305   15.703
  210.101    0.340    0.441   58.664   15.407
  210.401    0.350    0.443   56.780   15.407
  210.701    0.352    0.459   54.267   16.007
  211.001    0.353    0.446   54.258   17.277
  211.301    0.240    0.457   55.494   19.373
  211.601    0.033    0.443   54.860   34.342
  211.901    0.000    0.106   49.226  133.116
  212.201    0.000    0.106   42.965  173.886
  212.501    0.000    0.119   41.704  167.379
  212.801    0.000    0.135   42.941  110.001
  213.101    0.000    0.140   43.556   75.104
  213.401    0.034    0.146   43.544   52.266
  213.701    0.084    0.164   46.031   34.349
  214.001    0.148    0.267   47.267   31.224
  214.301    0.213    0.317   45.383   30.635
  214.601    0.049    0.186   39.125   34.352
  214.901    0.000    0.140   37.863   46.619
  215.201    0.000    0.133   41.599  103.904
  215.501    0.000    0.117   45.336   98.126
  215.801    0.013    0.114   45.949   92.669
  216.101    0.022    0.120   39.688   85.861
  216.401    0.044    0.138   39.679   68.291
  216.701    0.073    0.175   43.414   53.290
  217.001    0.089    0.201   47.775   38.528
  217.301    0.195    0.245   49.012   27.328
  217.601    0.327    0.334   48.374   15.714
  217.901    0.349    0.452   47.738   13.235
  218.201    0.350    0.465   48.352   12.499
  218.501    0.357    0.427   50.215   12.263
  218.801    0.355    0.429   52.703   12.264
  219.101    0.343    0.426   53.316   12.264
  219.401    0.350    0.446   50.802   12.501
  219.701    0.350    0.456   48.917   12.501
  220.001    0.340    0.456   48.283   12.742
  220.301    0.324    0.442   50.770   12.988
  220.601    0.336    0.429   54.506   13.239
  220.901    0.341    0.429   58.240   13.494
  221.201    0.339    0.431   60.727   13.754
  221.501    0.303    0.429   61.968   14.020
  221.801    0.309    0.443   63.204   14.020
  222.101    0.324    0.436   62.568   14.020
  222.401    0.307    0.431   60.683   13.756
  222.701    0.308    0.490   60.046   13.756
  223.001    0.310    0.466   60.659   14.292
  223.301    0.313    0.398   57.525   14.292
  223.601    0.318    0.408   55.010   14.023
  223.901    0.318    0.445   58.124   13.243
  224.201    0.303    0.465   61.237   12.270
  224.501    0.287    0.453   66.221   11.154
  224.801    0.279    0.453   70.584   10.533
  225.101    0.310    0.474   76.818   10.736
  225.401    0.317    0.486   66.812   10.944
  225.701    0.314    0.461   59.929   11.370
  226.001    0.324    0.435   56.793   11.589
  226.301    0.328    0.435   60.528   12.272
  226.601    0.314    0.463   63.016   12.509
  226.901    0.311    0.463   62.379   12.750
  227.201    0.313    0.458   61.744   12.996
  227.501    0.319    0.463   61.730   12.751
  227.801    0.316    0.474   62.345   12.510
  228.101    0.298    0.482   64.205   12.042
  228.401    0.311    0.467   63.571   11.592
  228.701    0.329    0.457   62.934   11.373
  229.001    0.324    0.447   62.922   11.592
  229.301    0.314    0.454   67.284   11.593
  229.601    0.315    0.437   73.519   11.816
  229.901    0.316    0.455   69.134   11.593
  230.201    0.327    0.463   63.500   11.594
  230.501    0.326    0.437   64.111   11.375
  230.801    0.327    0.439   64.726   11.375
  231.101    0.335    0.480   62.213   11.595
  231.401    0.336    0.485   62.202   11.818
  231.701    0.330    0.434   65.314   12.279
  232.001    0.332    0.453   65.928   12.279
  232.301    0.332    0.456   63.418   12.279
  232.601    0.327    0.449   62.157   12.516
  232.901    0.320    0.446   62.144   12.280
  233.201    0.306    0.444   66.506   12.048
  233.501    0.317    0.448   67.118   11.597
  233.801    0.328    0.457   62.734   11.163
  234.101    0.322    0.458   64.593   10.745
  234.401    0.290    0.456   67.082   10.148
  234.701    0.300    0.467   67.696    9.225
  235.001    0.301    0.477   67.685    8.072
  235.301    0.249    0.482   75.170    7.337
  235.601    0.236    0.478   87.025    6.670
  235.901    0.241    0.455   86.388    6.180
  236.201    0.263    0.422   82.629    6.299
  236.501    0.269    0.432   85.740    6.930
  236.801    0.269    0.483   81.358    9.052
  237.101    0.288    0.513   68.227   11.167
  237.401    0.296    0.498   64.468   11.601
  237.701    0.300    0.436   66.954   11.167
  238.001    0.289    0.416   70.065   10.546
  238.301    0.285    0.456   69.429   10.347
  238.601    0.300    0.437   65.045    8.550
  238.901    0.310    0.430   60.660    7.922
  239.201    0.295    0.486   63.145    7.922
  239.501    0.253    0.515   68.758    8.883
  239.801    0.254    0.482   68.121    9.773
  240.101    0.262    0.456   70.609   10.153
  240.401    0.272    0.442   70.594   10.154
  240.701    0.293    0.440   68.709    9.774
  241.001    0.295    0.445   72.445    9.589
  241.301    0.293    0.459   74.309    9.590
  241.601    0.309    0.499   65.552    9.590
  241.901    0.299    0.471   65.540    9.409
  242.201    0.215    0.419   72.399    8.718
  242.501    0.222    0.431   82.383    7.203
  242.801    0.234    0.451   90.493    5.952
  243.101    0.232    0.450   89.231    5.308
  243.401    0.249    0.464   88.591    4.918
  243.701    0.272    0.515   89.208    4.222
  244.001    0.277    0.506   89.821    3.912
  244.301    0.279    0.512   89.181    3.912
  244.601    0.274    0.530   88.546    4.471
  244.901    0.272    0.540   87.287    5.111
  245.201    0.248    0.545   89.149    6.185
  245.501    0.231    0.511   96.632    6.676
  245.801    0.216    0.493   96.620    6.550
  246.101    0.207    0.494   93.485    6.305
  246.401    0.219    0.480   92.848    5.842
  246.701    0.226    0.488   92.213    5.517
  247.001    0.216    0.498   90.328    5.517
  247.301    0.234    0.470   89.067    6.069
  247.601    0.248    0.478   89.052    6.427
  247.901    0.257    0.452   88.416    6.806
  248.201    0.269    0.453   87.157    7.207
  248.501    0.256    0.505   85.272    7.488
  248.801    0.245    0.515   79.012    7.488
  249.101    0.260    0.512   77.752    7.488
