~VERSION INFORMATION
 VERS.                 2.0:   CWLS LOG ASCII STANDARD -VERSION 2.0
 WRAP.                  NO:   ONE LINE PER DEPTH STEP
~WELL INFORMATION BLOCK
#MNEM.UNIT           DATA                    DESCRIPTION OF MNEMONIC
#---------    -------------------            -------------------------------
# Generated from Intellog Unique Number	CS_77_79/WELL/999
WELL.         HUSKEY OIL OPERATIONS LTD      : Well_name    - WELL
LOC .         00/11-26-077-16W4/0            : Location     - LOCATION
UWI .         00/11-26-077-16W4/0            : Uwi          - UNIQUE WELL ID
ENTR.         SP                             : Entered      - ENTERED BY
SRVC.         SCHLUMBERGER                   : Scn          - SERVICE COMPANY
STRT.M        280                            : top_depth    - START DEPTH
STOP.M        480                            : bot_depth    - STOP DEPTH
STEP.M        0.25                           : increment    - STEP LENGTH
 NULL. -999.2500:NULL Value
~CURVE INFORMATION BLOCK
#MNEM UNIT       ERCB CURVE CODE    CURVE DESCRIPTION
#-----------   ------------------   ----------------------------------
DEPT.M        00 001 00 00         : DEPTH        - DEPTH
ILD .OHMM     00 120 00 00         : RESD         - DEEP RESISTIVITY (DIL)
DPHI.V/V      00 890 00 00         : PHID         - DENSITY POROSITY (LIMESTONE)
NPHI.V/V      00 330 00 00         : PHIN         - NEUTRON POROSITY (LIMESTONE)
GR  .API      00 310 00 00         : GR           - GAMMA RAY
~PARAMETER INFORMATION
#MNEM.UNIT           DATA             DESCRIPTION OF MNEMONIC
#---------         -----------     ------------------------------
GL  .M        672.11               : gl           - GROUND LEVEL ELEVATION
EREF.M        675.69               : kb           - ELEVATION OF DEPTH REFERENCE
DATM.M        672.11               : datum        - DATUM ELEVATION
TDD .M        487                  : tdd          - TOTAL DEPTH DRILLER
RUN .         ONE                  : Run          - RUN NUMBER
ENG .         BILL                 : Engineer     - RECORDING ENGINEER
WIT .         JIM                  : Witness      - WITNESSED BY
MUD .         GEL                  : Mud_type     - MUD TYPE
MATR.         LIMESTONE            : Logunit      - NEUTRON MATRIX
TMAX.C        22                   : BHT          - MAXIMUM RECORDED TEMPERATURE
BHTD.M        487                  : BHTDEP       - MAXIMUM RECORDED TEMPERATURE
MATR.         1                    : LOGUNIT      - NEUTRON MATRIX
RMT .C        25                   : MDTP         - TEMPERATURE OF MUD
NEUT.         1                    : NEUTRON      - NEUTRON TYPE
RESI.         0                    : RESIST       - RESISTIVITY TYPE
RMC .OHMM     0.25                 : RMC          - RESISTIVITY OF MUD CAKE
RMF .OHMM     0.25                 : RMF          - RESISTIVITY OF MUD FILTRATE
SUFT.C        15                   : SUFT         - SURFACE TEMPERATURE
~A  DEPTH     RESD     PHID     PHIN       GR
# ...
  367.000   17.723    0.287    0.447   53.923
  367.250   18.407    0.295    0.454   53.924
  367.500   19.482    0.297    0.466   53.925
  367.750   20.616    0.281    0.476   54.535
  368.000   22.230    0.272    0.486   55.146
  368.250   23.970    0.291    0.493   55.147
  368.500   26.336    0.303    0.487   55.757
  368.750   29.484    0.313    0.471   56.368
  369.000   32.390    0.318    0.461   56.369
  369.250   34.280    0.306    0.450   55.760
  369.500   31.827    0.323    0.437   55.761
  369.750   30.104    0.321    0.427   55.761
  370.000   26.921    0.314    0.435   57.591
  370.250   24.986    0.298    0.438   60.031
  370.500   21.531    0.289    0.422   61.251
  370.750   20.362    0.284    0.436   63.081
  371.000   18.900    0.300    0.448   63.692
  371.250   17.876    0.308    0.456   63.083
  371.500   16.594    0.308    0.461   63.084
  371.750   15.404    0.291    0.469   62.474
  372.000   14.571    0.287    0.460   61.866
  372.250   13.785    0.285    0.437   62.476
  372.500   13.533    0.281    0.441   63.087
  372.750   12.566    0.287    0.453   64.307
  373.000   12.336    0.291    0.461   66.137
  373.250   11.453    0.286    0.475   67.967
  373.500   10.435    0.282    0.489   68.578
  373.750    9.332    0.290    0.499   69.188
  374.000    8.826    0.291    0.461   69.799
  374.250    8.507    0.280    0.453   71.629
  374.500    8.046    0.270    0.454   73.459
  374.750    7.470    0.261    0.454   74.679
  375.000    7.334    0.267    0.454   75.899
  375.250    7.337    0.261    0.469   80.168
  375.500    7.480    0.243    0.482   85.657
  375.750    7.916    0.233    0.501   90.536
  376.000    8.537    0.242    0.509   96.024
  376.250    8.866    0.250    0.505   97.854
  376.500    9.209    0.239    0.465   96.636
  376.750    9.566    0.222    0.437   89.929
  377.000    9.220    0.167    0.416   83.832
  377.250    8.401    0.123    0.392   78.345
  377.500    8.095    0.167    0.409   83.224
  377.750    7.949    0.197    0.439   88.103
  378.000    7.662    0.235    0.464   91.762
  378.250    7.523    0.236    0.483   91.763
  378.500    7.251    0.231    0.495   91.154
  378.750    7.119    0.223    0.498   90.545
  379.000    6.991    0.213    0.484   88.106
  379.250    6.866    0.211    0.480   88.717
  379.500    6.868    0.220    0.487   91.767
  379.750    6.499    0.235    0.505   95.426
  380.000    6.381    0.232    0.516   97.256
  380.250    6.265    0.229    0.515   92.989
  380.500    6.151    0.224    0.506   92.379
  380.750    5.928    0.219    0.517   92.990
  381.000    5.713    0.232    0.526   92.991
  381.250    5.406    0.217    0.500   92.992
  381.500    5.307    0.218    0.503   92.383
  381.750    5.211    0.229    0.498   92.383
  382.000    5.116    0.232    0.484   92.994
  382.250    5.025    0.240    0.484   93.604
  382.500    5.123    0.241    0.500   94.825
  382.750    5.124    0.247    0.510   96.045
  383.000    5.323    0.249    0.509   94.216
  383.250    5.529    0.241    0.494   92.388
  383.500    5.636    0.234    0.477   92.389
  383.750    5.965    0.221    0.473   92.389
  384.000    6.080    0.229    0.478   91.171
  384.250    6.557    0.241    0.493   89.952
  384.500    7.205    0.254    0.506   88.733
  384.750    7.625    0.268    0.512   85.685
  385.000    7.773    0.256    0.496   83.247
  385.250    7.216    0.246    0.487   80.199
  385.500    6.575    0.230    0.493   77.151
  385.750    6.218    0.212    0.487   75.322
  386.000    5.881    0.206    0.467   77.762
  386.250    5.162    0.242    0.499   82.641
  386.500    4.702    0.288    0.511   87.519
  386.750    3.830    0.307    0.523   92.398
  387.000    3.298    0.293    0.544   94.839
  387.250    2.737    0.275    0.563   95.449
  387.500    2.314    0.270    0.594   92.401
  387.750    2.188    0.298    0.606   94.231
  388.000    2.109    0.311    0.632   95.451
  388.250    2.110    0.319    0.640   96.061
  388.500    2.111    0.336    0.633   93.623
  388.750    2.235    0.363    0.580   95.453
  389.000    2.365    0.359    0.580   97.283
  389.250    2.647    0.328    0.588   94.235
  389.500    2.801    0.313    0.594   91.187
  389.750    3.136    0.303    0.602   90.578
  390.000    3.445    0.299    0.590   91.189
  390.250    2.913    0.292    0.569   89.360
  390.500    2.556    0.276    0.544   88.142
  390.750    2.043    0.271    0.521   88.142
  391.000    2.044    0.285    0.540   89.972
  391.250    2.420    0.291    0.572   86.924
  391.500    3.148    0.296    0.590   82.657
  391.750    4.016    0.297    0.555   77.170
  392.000    6.181    0.307    0.532   74.731
  392.250    7.742    0.316    0.489   71.074
  392.500    8.193    0.313    0.472   68.026
  392.750    7.752    0.327    0.457   66.197
  393.000    7.756    0.332    0.444   66.198
  393.250    7.616    0.332    0.443   66.808
  393.500    7.619    0.326    0.465   68.029
  393.750    7.622    0.324    0.479   69.249
  394.000    7.773    0.321    0.477   70.469
  394.250    7.776    0.324    0.460   71.080
  394.500    7.925    0.325    0.462   71.080
  394.750    8.233    0.321    0.466   69.252
  395.000    8.392    0.307    0.454   68.643
  395.250    9.050    0.316    0.455   69.863
  395.500    9.224    0.310    0.465   69.254
  395.750    9.763    0.287    0.466   68.645
  396.000    9.769    0.277    0.445   68.646
  396.250    9.591    0.291    0.439   69.256
  396.500    9.420    0.297    0.450   71.087
  396.750    9.423    0.305    0.461   71.087
  397.000   10.160    0.311    0.460   69.259
  397.250   11.590    0.297    0.443   67.430
  397.500   14.515    0.243    0.358   64.382
  397.750   19.232    0.132    0.314   63.164
  398.000   25.480    0.092    0.272   62.555
  398.250   29.614    0.084    0.243   62.555
  398.500   25.992    0.072    0.232   62.556
  398.750   22.387    0.084    0.230   64.386
  399.000   17.233    0.119    0.252   65.606
  399.250   13.772    0.151    0.320   68.656
  399.500   11.428    0.179    0.389   71.096
  399.750   10.030    0.232    0.446   72.316
  400.000    9.310    0.277    0.478   74.146
  400.250    8.644    0.302    0.472   75.366
  400.500    8.329    0.295    0.467   77.197
  400.750    8.028    0.306    0.472   78.416
  401.000    7.738    0.311    0.479   77.198
  401.250    7.740    0.319    0.488   72.930
  401.500    7.604    0.300    0.485   70.492
  401.750    7.607    0.300    0.478   69.883
  402.000    7.610    0.311    0.479   71.713
  402.250    7.472    0.309    0.485   73.543
  402.500    7.336    0.306    0.477   73.544
  402.750    7.206    0.310    0.459   75.374
  403.000    7.075    0.313    0.451   77.204
  403.250    7.080    0.302    0.449   78.424
  403.500    6.950    0.299    0.461   78.425
  403.750    6.955    0.303    0.478   76.596
  404.000    6.828    0.288    0.487   75.988
  404.250    6.961    0.276    0.468   76.598
  404.500    6.964    0.270    0.468   78.428
  404.750    6.968    0.275    0.467   81.478
  405.000    6.972    0.271    0.468   83.308
  405.250    6.975    0.267    0.469   84.528
  405.500    6.979    0.256    0.459   81.480
  405.750    7.117    0.247    0.461   80.871
  406.000    7.118    0.243    0.477   81.481
  406.250    7.534    0.241    0.484   79.653
  406.500    7.538    0.258    0.485   82.093
  406.750    7.542    0.267    0.485   83.313
  407.000    7.546    0.261    0.486   84.533
  407.250    7.273    0.272    0.488   81.485
  407.500    7.009    0.270    0.483   82.096
  407.750    6.754    0.260    0.480   83.316
  408.000    6.389    0.263    0.486   86.975
  408.250    6.042    0.271    0.495   88.196
  408.500    5.824    0.249    0.500   90.026
  408.750    5.827    0.236    0.506   90.636
  409.000    5.722    0.228    0.489   92.466
  409.250    5.618    0.222    0.479   93.076
  409.500    5.621    0.243    0.479   92.468
  409.750    5.623    0.232    0.488   92.468
  410.000    5.628    0.222    0.494   94.299
  410.250    5.629    0.231    0.482   94.909
