~VERSION INFORMATION
 VERS.                 2.0:   CWLS LOG ASCII STANDARD -VERSION 2.0
 WRAP.                  NO:   ONE LINE PER DEPTH STEP
~WELL INFORMATION BLOCK
#MNEM.UNIT           DATA                    DESCRIPTION OF MNEMONIC
#---------    -------------------            -------------------------------
# Generated from Intellog Unique Number	CS_71_72/WELL/872
WELL.         PACIFIC PHILLIPS AEC WIAU      : Well_name    - WELL
LOC .         00/10-29-072-08W4/0            : Location     - LOCATION
UWI .         00/10-29-072-08W4/0            : Uwi          - UNIQUE WELL ID
ENTR.         SP                             : Entered      - ENTERED BY
SRVC.         SCHLUMBERGER                   : Scn          - SERVICE COMPANY
STRT.M        315                            : top_depth    - START DEPTH
STOP.M        540                            : bot_depth    - STOP DEPTH
STEP.M        0.25                           : increment    - STEP LENGTH
 NULL. -999.2500:NULL Value
~CURVE INFORMATION BLOCK
#MNEM UNIT       ERCB CURVE CODE    CURVE DESCRIPTION
#-----------   ------------------   ----------------------------------
DEPT.M        00 001 00 00         : DEPTH        - DEPTH
GR  .API      00 310 00 00         : GR           - GAMMA RAY
NPHI.V/V      00 330 00 00         : PHIN         - NEUTRON POROSITY (LIMESTONE)
DPHI.V/V      00 890 00 00         : PHID         - DENSITY POROSITY (LIMESTONE)
ILD .OHMM     00 120 00 00         : RESD         - DEEP RESISTIVITY (DIL)
~PARAMETER INFORMATION
#MNEM.UNIT           DATA             DESCRIPTION OF MNEMONIC
#---------         -----------     ------------------------------
GL  .M        686.5                : gl           - GROUND LEVEL ELEVATION
EREF.M        689.5                : kb           - ELEVATION OF DEPTH REFERENCE
DATM.M        686.5                : datum        - DATUM ELEVATION
TDD .M        555                  : tdd          - TOTAL DEPTH DRILLER
RUN .         ONE                  : Run          - RUN NUMBER
ENG .         BILL                 : Engineer     - RECORDING ENGINEER
WIT .         JIM                  : Witness      - WITNESSED BY
MUD .         GEL                  : Mud_type     - MUD TYPE
MATR.         LIMESTONE            : Logunit      - NEUTRON MATRIX
TMAX.C        32.2                 : BHT          - MAXIMUM RECORDED TEMPERATURE
BHTD.M        555                  : BHTDEP       - MAXIMUM RECORDED TEMPERATURE
MATR.         1                    : LOGUNIT      - NEUTRON MATRIX
RMT .C        25                   : MDTP         - TEMPERATURE OF MUD
NEUT.         1                    : NEUTRON      - NEUTRON TYPE
RESI.         0                    : RESIST       - RESISTIVITY TYPE
RMC .OHMM     0.25                 : RMC          - RESISTIVITY OF MUD CAKE
RMF .OHMM     0.25                 : RMF          - RESISTIVITY OF MUD FILTRATE
SUFT.C        15                   : SUFT         - SURFACE TEMPERATURE
~A  DEPTH       GR     PHIN     PHID     RESD
# ...
  489.000   50.836    0.415    0.273   23.778
  489.250   48.411    0.420    0.284   29.722
  489.500   50.218    0.401    0.292   32.010
  489.750   53.236    0.386    0.285   27.569
  490.000   56.860    0.373    0.279   25.113
  490.250   61.088    0.366    0.273   20.078
  490.500   65.314    0.374    0.272   17.952
  490.750   68.938    0.379    0.272   15.463
  491.000   73.165    0.379    0.272   14.085
  491.250   75.579    0.381    0.278   13.070
  491.500   76.176    0.383    0.290   11.905
  491.750   77.381    0.388    0.279   10.841
  492.000   79.190    0.398    0.280   10.442
  492.250   82.207    0.402    0.259   10.247
  492.500   84.017    0.411    0.243    9.871
  492.750   85.219    0.417    0.250    9.686
  493.000   85.213    0.417    0.248    8.988
  493.250   87.023    0.412    0.248    8.657
  493.500   92.460    0.410    0.258    8.033
  493.750   98.502    0.408    0.247    7.883
  494.000  103.335    0.406    0.249    7.592
  494.250  106.959    0.406    0.236    7.450
  494.500  100.903    0.415    0.210    7.311
  494.750   93.035    0.432    0.216    7.446
  495.000   84.561    0.434    0.213    7.727
  495.250   80.927    0.420    0.199    8.167
  495.500   79.106    0.404    0.188    8.474
  495.750   77.890    0.389    0.197    8.631
  496.000   74.859    0.380    0.210    8.791
  496.250   72.434    0.370    0.220    9.122
  496.500   72.428    0.365    0.205    9.291
  496.750   75.446    0.365    0.221    9.463
  497.000   79.069    0.361    0.215    9.461
  497.250   80.878    0.357    0.208    9.458
  497.500   81.476    0.362    0.190    9.632
  497.750   82.076    0.376    0.181    9.629
  498.000   82.070    0.388    0.190    9.449
  498.250   76.620    0.394    0.199    9.447
  498.500   66.936    0.397    0.192    9.444
  498.750   65.721    0.400    0.206    9.095
  499.000   70.552    0.383    0.223    8.926
  499.250   78.409    0.367    0.233    8.439
  499.500   85.660    0.359    0.231    8.128
  499.750   88.681    0.357    0.230    7.684
  500.000   91.094    0.355    0.197    7.682
  500.250   90.481    0.363    0.178    7.971
  500.500   88.056    0.381    0.184    8.271
  500.750   85.026    0.393    0.187    8.424
  501.000   81.996    0.370    0.190    8.580
  501.250   81.386    0.359    0.190    8.903
  501.500   81.985    0.346    0.188    9.066
  501.750   79.558    0.340    0.188    9.233
  502.000   76.528    0.336    0.187    8.895
  502.250   76.524    0.349    0.196    8.892
  502.500   77.726    0.352    0.204    8.890
  502.750   78.931    0.353    0.211    9.054
  503.000   80.737    0.357    0.220    9.051
  503.250   81.337    0.358    0.216    9.049
  503.500   81.936    0.358    0.203    9.216
  503.750   84.348    0.355    0.199    9.214
  504.000   85.554    0.350    0.196    9.384
  504.250   84.338    0.359    0.194    9.737
  504.500   80.704    0.368    0.202   10.486
  504.750   77.672    0.357    0.215   10.883
  505.000   76.456    0.350    0.221   11.504
  505.250   74.032    0.347    0.222   12.161
  505.500   72.210    0.350    0.226   12.619
  505.750   74.020    0.366    0.231   12.382
  506.000   77.038    0.378    0.243   11.278
  506.250   79.451    0.384    0.253   10.663
  506.500   79.444    0.371    0.254    9.532
  506.750   77.622    0.360    0.220    9.182
  507.000   75.804    0.354    0.206    8.208
  507.250   71.563    0.360    0.214    7.618
  507.500   68.534    0.374    0.229    6.684
  507.750   66.713    0.381    0.240    6.439
  508.000   67.916    0.391    0.252    6.202
  508.250   70.328    0.400    0.266    6.085
  508.500   72.139    0.395    0.278    6.197
  508.750   76.969    0.381    0.301    6.312
  509.000   78.174    0.380    0.298    6.429
  509.250   79.982    0.394    0.310    6.548
  509.500   82.394    0.400    0.281    6.669
  509.750   84.206    0.413    0.269    6.792
  510.000   87.224    0.415    0.247    6.790
  510.250   90.845    0.408    0.236    6.788
  510.500   95.073    0.405    0.232    6.786
  510.750   99.301    0.403    0.211    6.659
  511.000  104.737    0.399    0.200    6.658
  511.250  107.757    0.400    0.210    6.532
  511.500  110.171    0.406    0.202    6.654
  511.750  104.116    0.408    0.192    6.777
  512.000  101.691    0.404    0.158    7.032
  512.250  100.475    0.409    0.118    7.297
  512.500   93.211    0.408    0.075    7.432
  512.750   82.924    0.397    0.116    7.430
  513.000   80.498    0.385    0.148    7.156
  513.250   82.910    0.379    0.171    7.022
  513.500   82.299    0.367    0.204    6.639
  513.750   76.848    0.343    0.191    5.935
  514.000   75.031    0.342    0.175    5.824
  514.250   73.210    0.363    0.203    5.610
  514.500   73.203    0.374    0.234    5.504
  514.750   77.429    0.384    0.259    5.606
  515.000   80.450    0.395    0.276    5.710
  515.250   86.489    0.380    0.261    5.925
  515.500   90.112    0.357    0.246    6.263
  515.750   91.319    0.351    0.234    6.379
  516.000   94.335    0.345    0.210    6.619
  516.250   96.749    0.341    0.192    6.997
  516.500   99.767    0.342    0.178    7.260
  516.750  103.995    0.353    0.194    6.865
  517.000  102.780    0.363    0.194    6.862
  517.250   95.515    0.373    0.198    6.861
  517.500   91.277    0.393    0.207    6.732
  517.750   87.640    0.421    0.189    6.606
  518.000   88.845    0.445    0.187    6.363
  518.250   94.281    0.419    0.194    6.129
  518.500   96.090    0.406    0.199    5.903
  518.750   90.035    0.398    0.208    5.685
  519.000   87.007    0.413    0.187    5.579
  519.250   82.765    0.427    0.185    5.081
  519.500   80.340    0.440    0.201    4.894
  519.750   74.286    0.424    0.204    4.458
  520.000   57.345    0.426    0.203    4.060
  520.250   48.268    0.431    0.207    3.768
  520.500   47.657    0.432    0.212    3.562
  520.750   49.464    0.442    0.232    3.306
  521.000   44.620    0.419    0.266    3.184
  521.250   38.564    0.389    0.266    3.010
  521.500   36.745    0.399    0.259    2.954
  521.750   39.761    0.411    0.273    2.953
  522.000   42.173    0.404    0.288    2.952
  522.250   43.379    0.400    0.306    3.063
  522.500   44.584    0.395    0.316    3.178
  522.750   51.231    0.405    0.299    3.298
  523.000   62.111    0.415    0.290    3.619
  523.250   68.152    0.420    0.311    4.198
  523.500   69.962    0.414    0.318    4.439
  523.750   74.189    0.379    0.295    4.780
  524.000   79.022    0.364    0.244    4.961
  524.250   85.669    0.363    0.221    5.147
  524.500   89.897    0.358    0.232    5.146
  524.750   91.101    0.353    0.215    5.241
  525.000   98.353    0.351    0.186    5.240
  525.250  105.604    0.357    0.179    5.335
  525.500  109.226    0.363    0.175    5.235
  525.750  110.432    0.384    0.181    5.138
  526.000  106.796    0.391    0.181    5.042
  526.250   99.532    0.396    0.173    4.948
  526.500   91.663    0.414    0.190    4.855
  526.750   93.472    0.426    0.199    4.853
  527.000   89.231    0.414    0.202    4.762
  527.250   85.598    0.401    0.205    4.673
  527.500   88.010    0.393    0.193    4.672
  527.750   85.585    0.393    0.202    4.500
  528.000   73.483    0.385    0.216    4.254
  528.250   60.775    0.378    0.237    4.098
  528.500   55.931    0.378    0.231    4.021
  528.750   54.714    0.389    0.233    4.019
  529.000   59.547    0.398    0.237    4.094
  529.250   65.589    0.392    0.252    4.328
  529.500   72.236    0.387    0.273    5.409
  529.750   67.994    0.380    0.271    5.936
  530.000   64.965    0.369    0.146    8.611
  530.250   61.936    0.357    0.035   10.765
  530.500   61.326    0.334    0.049   13.456
  530.750   64.339    0.297    0.042   13.963
  531.000   65.547    0.270    0.036   12.715
  531.250   70.982    0.256    0.029   12.020
  531.500   73.398    0.253    0.041   11.364
  531.750   78.230    0.275    0.048   10.947
  532.000   82.456    0.292    0.060   10.351
  532.250   87.288    0.310    0.058    9.252
