~VERSION INFORMATION
 VERS.                 2.0:   CWLS LOG ASCII STANDARD -VERSION 2.0
 WRAP.                  NO:   ONE LINE PER DEPTH STEP
~WELL INFORMATION BLOCK
#MNEM.UNIT           DATA                    DESCRIPTION OF MNEMONIC
#---------    -------------------            -------------------------------
# Generated from Intellog Unique Number	CS_73_76/WELL/3277
WELL.         STAR OIL & GAS LTD.            : Well_name    - WELL
LOC .         00/14-04-076-10W4/0            : Location     - LOCATION
UWI .         00/14-04-076-10W4/0            : Uwi          - UNIQUE WELL ID
ENTR.         SP                             : Entered      - ENTERED BY
SRVC.         SCHLUMBERGER                   : Scn          - SERVICE COMPANY
STRT.M        265                            : top_depth    - START DEPTH
STOP.M        485                            : bot_depth    - STOP DEPTH
STEP.M        0.25                           : increment    - STEP LENGTH
 NULL. -999.2500:NULL Value
~CURVE INFORMATION BLOCK
#MNEM UNIT       ERCB CURVE CODE    CURVE DESCRIPTION
#-----------   ------------------   ----------------------------------
DEPT.M        00 001 00 00         : DEPTH        - DEPTH
ILD .OHMM     00 120 00 00         : RESD         - DEEP RESISTIVITY (DIL)
DPHI.V/V      00 890 00 00         : PHID         - DENSITY POROSITY (LIMESTONE)
NPHI.V/V      00 330 00 00         : PHIN         - NEUTRON POROSITY (LIMESTONE)
GR  .API      00 310 00 00         : GR           - GAMMA RAY
~PARAMETER INFORMATION
#MNEM.UNIT           DATA             DESCRIPTION OF MNEMONIC
#---------         -----------     ------------------------------
GL  .M        662.45               : gl           - GROUND LEVEL ELEVATION
EREF.M        665.5                : kb           - ELEVATION OF DEPTH REFERENCE
DATM.M        662.45               : datum        - DATUM ELEVATION
TDD .M        530                  : tdd          - TOTAL DEPTH DRILLER
RUN .         ONE                  : Run          - RUN NUMBER
ENG .         BILL                 : Engineer     - RECORDING ENGINEER
WIT .         JIM                  : Witness      - WITNESSED BY
MUD .         GEL                  : Mud_type     - MUD TYPE
MATR.         LIMESTONE            : Logunit      - NEUTRON MATRIX
TMAX.C        24                   : BHT          - MAXIMUM RECORDED TEMPERATURE
BHTD.M        530                  : BHTDEP       - MAXIMUM RECORDED TEMPERATURE
MATR.         1                    : LOGUNIT      - NEUTRON MATRIX
RMT .C        25                   : MDTP         - TEMPERATURE OF MUD
NEUT.         1                    : NEUTRON      - NEUTRON TYPE
RESI.         0                    : RESIST       - RESISTIVITY TYPE
RMC .OHMM     0.25                 : RMC          - RESISTIVITY OF MUD CAKE
RMF .OHMM     0.25                 : RMF          - RESISTIVITY OF MUD FILTRATE
SUFT.C        15                   : SUFT         - SURFACE TEMPERATURE
~A  DEPTH     RESD     PHID     PHIN       GR
# ...
  439.000    3.561    0.234    0.484   98.913
  439.250    3.630    0.240    0.480   97.034
  439.500    3.916    0.244    0.490   97.028
  439.750    4.225    0.245    0.510   97.024
  440.000    4.558    0.240    0.519   94.520
  440.250    5.405    0.234    0.506   82.642
  440.500    7.459    0.231    0.482   72.638
  440.750    8.679    0.263    0.440   65.134
  441.000   10.895    0.286    0.396   55.755
  441.250   13.167    0.311    0.385   47.626
  441.500   15.913    0.318    0.391   58.246
  441.750   18.171    0.289    0.391   75.116
  442.000   19.236    0.262    0.374   79.487
  442.250   19.982    0.253    0.383   73.233
  442.500   20.757    0.264    0.396   60.729
  442.750   21.562    0.281    0.395   60.724
  443.000   21.979    0.299    0.385   63.845
  443.250   21.982    0.300    0.375   68.841
  443.500   21.989    0.294    0.373   72.586
  443.750   21.991    0.286    0.379   74.456
  444.000   21.994    0.267    0.389   75.077
  444.250   21.999    0.280    0.389   72.574
  444.500   22.003    0.286    0.378   71.320
  444.750   21.192    0.269    0.363   75.065
  445.000   20.026    0.249    0.368   77.561
  445.250   18.923    0.226    0.391   78.181
  445.500   16.896    0.203    0.405   78.803
  445.750   16.271    0.218    0.417   80.672
  446.000   15.377    0.239    0.426   83.794
  446.250   14.807    0.257    0.416   88.165
  446.500   13.992    0.272    0.411   93.160
  446.750   12.975    0.262    0.411   98.156
  447.000   11.806    0.255    0.421  101.902
  447.250   11.369    0.252    0.424  103.147
  447.500   10.346    0.246    0.425  103.768
  447.750    9.963    0.232    0.424  104.388
  448.000    9.415    0.179    0.425  103.758
  448.250    9.066    0.182    0.425  103.130
  448.500    8.732    0.186    0.427   97.501
  448.750    8.733    0.189    0.441   93.746
  449.000    8.902    0.196    0.430   93.118
  449.250    9.074    0.207    0.420   91.238
  449.500    9.426    0.211    0.405   89.984
  449.750    9.608    0.201    0.409   86.855
  450.000    9.793    0.199    0.409   81.851
  450.250    9.982    0.215    0.399   78.722
  450.500   10.175    0.225    0.393   79.967
  450.750    9.986    0.233    0.397   84.963
  451.000    9.617    0.237    0.399   91.208
  451.250    9.438    0.218    0.406   94.955
  451.500    9.263    0.199    0.405  100.575
  451.750    9.443    0.194    0.399   92.445
  452.000    9.624    0.211    0.394   87.441
  452.250    9.810    0.216    0.390   88.062
  452.500   10.191    0.220    0.388   88.057
  452.750   10.387    0.225    0.387   86.804
  453.000   10.791    0.238    0.390   80.550
  453.250   11.209    0.268    0.390   78.670
  453.500   11.643    0.278    0.383   76.166
  453.750   12.095    0.275    0.377   72.412
  454.000   12.329    0.268    0.390   67.408
  454.250   12.332    0.267    0.395   64.904
  454.500   12.334    0.278    0.384   66.149
  454.750   12.336    0.273    0.374   69.896
  455.000   12.106    0.247    0.381   83.016
  455.250   11.882    0.215    0.387   89.261
  455.500   11.884    0.209    0.384   88.632
  455.750   11.886    0.205    0.384   86.752
  456.000   12.115    0.205    0.394   86.747
  456.250   12.119    0.220    0.399   82.995
  456.500   12.121    0.236    0.400   78.616
  456.750   12.123    0.230    0.392   87.361
  457.000   11.898    0.212    0.379   94.857
  457.250   11.033    0.202    0.369  101.728
  457.500   10.230    0.184    0.411  104.847
  457.750   10.041    0.176    0.429  102.967
  458.000   10.234    0.170    0.431   98.588
  458.250   10.431    0.179    0.425   92.960
  458.500   11.255    0.195    0.418   91.707
  458.750   11.915    0.202    0.409   89.827
  459.000   12.612    0.214    0.403   78.573
  459.250   13.867    0.240    0.404   67.944
  459.500   14.960    0.270    0.409   61.690
  459.750   15.837    0.294    0.407   59.811
  460.000   16.765    0.290    0.399   62.306
  460.250   17.748    0.274    0.387   63.552
  460.500   19.147    0.279    0.383   65.422
  460.750   20.270    0.264    0.387   67.293
  461.000   21.868    0.237    0.384   71.039
  461.250   24.044    0.243    0.377   71.035
  461.500   25.938    0.279    0.383   62.281
  461.750   29.621    0.305    0.378   52.277
  462.000   31.357    0.316    0.373   58.522
  462.250   32.573    0.310    0.376   60.391
  462.500   33.199    0.283    0.384   61.638
  462.750   33.843    0.285    0.391   62.260
  463.000   33.847    0.293    0.388   61.630
  463.250   30.220    0.290    0.374   62.250
  463.500   26.476    0.280    0.368   70.372
  463.750   22.761    0.262    0.365   80.367
  464.000   20.709    0.248    0.362   88.487
  464.250   18.490    0.254    0.383   70.984
  464.500   17.146    0.271    0.394   64.104
  464.750   16.203    0.288    0.414   60.351
  465.000   15.023    0.304    0.423   78.470
  465.250   13.414    0.295    0.414   89.716
  465.500   12.438    0.267    0.405   97.836
  465.750   11.318    0.216    0.383   96.581
  466.000   11.107    0.191    0.377   99.703
  466.250   10.901    0.167    0.371   99.074
  466.500   10.903    0.191    0.387   90.319
  466.750   11.764    0.230    0.392   85.316
  467.000   12.220    0.261    0.392   81.561
  467.250   12.693    0.261    0.388   84.056
  467.500   13.185    0.253    0.384   80.928
  467.750   13.188    0.250    0.383   74.674
  468.000   12.463    0.258    0.379   69.669
  468.250   12.002    0.264    0.378   75.290
  468.500   11.341    0.272    0.396   84.661
  468.750   10.126    0.262    0.413   99.032
  469.000    9.752    0.252    0.420  103.403
  469.250    9.571    0.229    0.406  102.773
  469.500    9.573    0.210    0.381  104.019
  469.750    9.575    0.162    0.363  105.265
  470.000    9.577    0.153    0.357  103.385
  470.250    9.761    0.161    0.356   97.131
  470.500    9.949    0.168    0.367   97.751
  470.750    9.952    0.174    0.365   97.747
  471.000   10.536    0.182    0.363   93.994
  471.250   11.153    0.192    0.363   85.239
  471.500   11.807    0.227    0.366   81.485
  471.750   12.499    0.243    0.368   78.356
  472.000   13.743    0.243    0.377   73.976
  472.250   14.276    0.243    0.388   73.347
  472.500   14.829    0.261    0.380   71.468
  472.750   15.113    0.287    0.376   66.463
  473.000   15.701    0.292    0.380   64.585
  473.250   16.003    0.281    0.382   63.956
  473.500   14.839    0.273    0.375   65.827
  473.750   12.757    0.269    0.367   63.322
  474.000    9.789    0.261    0.357   60.818
  474.250    7.656    0.234    0.356   56.439
  474.500    6.581    0.235    0.370   52.684
  474.750    5.552    0.298    0.383   51.431
  475.000    4.773    0.314    0.398   53.925
  475.250    4.510    0.319    0.380   55.172
  475.500    4.344    0.328    0.373   55.166
  475.750    4.183    0.335    0.360   54.538
  476.000    4.029    0.334    0.366   52.658
  476.250    4.029    0.328    0.371   53.281
  476.500    4.107    0.325    0.380   53.275
  476.750    4.348    0.324    0.378   53.895
  477.000    4.602    0.320    0.373   56.391
  477.250    5.256    0.317    0.365   59.513
  477.500    6.233    0.303    0.359   64.508
  477.750    7.253    0.296    0.352   67.004
  478.000    8.601    0.279    0.330   60.750
  478.250   11.214    0.099    0.305   49.496
  478.500   12.805    0.084    0.272   28.868
  478.750   14.346    0.078    0.234   19.489
  479.000   17.338    0.085    0.229   16.359
  479.250   25.806    0.094    0.229   15.728
  479.500   28.913    0.082    0.221   21.974
  479.750   34.945    0.073    0.215   21.971
  480.000   38.419    0.069    0.199   23.216
  480.250   43.049    0.070    0.185   23.835
  480.500   44.716    0.072    0.174   25.708
  480.750   47.339    0.073    0.176   26.328
  481.000   49.173    0.077    0.179   26.325
  481.250   50.127    0.082    0.181   25.696
  481.500   51.095    0.088    0.181   24.440
  481.750   52.080    0.091    0.182   24.437
  482.000   53.084    0.093    0.186   23.181
  482.250   53.095    0.091    0.186   22.554
