~VERSION INFORMATION
 VERS.                 2.0:   CWLS LOG ASCII STANDARD -VERSION 2.0
 WRAP.                  NO:   ONE LINE PER DEPTH STEP
~WELL INFORMATION BLOCK
#MNEM.UNIT           DATA                    DESCRIPTION OF MNEMONIC
#---------    -------------------            -------------------------------
# Generated from Intellog Unique Number	CS_73_76/WELL/3256
WELL.         DOME ET AL KIRBY               : Well_name    - WELL
LOC .         00/11-04-075-06W4/0            : Location     - LOCATION
UWI .         00/11-04-075-06W4/0            : Uwi          - UNIQUE WELL ID
ENTR.         SP                             : Entered      - ENTERED BY
SRVC.         SCHLUMBERGER                   : Scn          - SERVICE COMPANY
STRT.M        265                            : top_depth    - START DEPTH
STOP.M        480                            : bot_depth    - STOP DEPTH
STEP.M        0.25                           : increment    - STEP LENGTH
 NULL. -999.2500:NULL Value
~CURVE INFORMATION BLOCK
#MNEM UNIT       ERCB CURVE CODE    CURVE DESCRIPTION
#-----------   ------------------   ----------------------------------
DEPT.M        00 001 00 00         : DEPTH        - DEPTH
ILD .OHMM     00 120 00 00         : RESD         - DEEP RESISTIVITY (DIL)
DPHI.V/V      00 890 00 00         : PHID         - DENSITY POROSITY (LIMESTONE)
NPHI.V/V      00 330 00 00         : PHIN         - NEUTRON POROSITY (LIMESTONE)
GR  .API      00 310 00 00         : GR           - GAMMA RAY
~PARAMETER INFORMATION
#MNEM.UNIT           DATA             DESCRIPTION OF MNEMONIC
#---------         -----------     ------------------------------
GL  .M        654.52               : gl           - GROUND LEVEL ELEVATION
EREF.M        658.42               : kb           - ELEVATION OF DEPTH REFERENCE
DATM.M        654.52               : datum        - DATUM ELEVATION
TDD .M        484                  : tdd          - TOTAL DEPTH DRILLER
RUN .         ONE                  : Run          - RUN NUMBER
ENG .         BILL                 : Engineer     - RECORDING ENGINEER
WIT .         JIM                  : Witness      - WITNESSED BY
MUD .         GEL                  : Mud_type     - MUD TYPE
MATR.         LIMESTONE            : Logunit      - NEUTRON MATRIX
TMAX.C        16                   : BHT          - MAXIMUM RECORDED TEMPERATURE
BHTD.M        484                  : BHTDEP       - MAXIMUM RECORDED TEMPERATURE
MATR.         1                    : LOGUNIT      - NEUTRON MATRIX
RMT .C        25                   : MDTP         - TEMPERATURE OF MUD
NEUT.         1                    : NEUTRON      - NEUTRON TYPE
RESI.         0                    : RESIST       - RESISTIVITY TYPE
RMC .OHMM     0.25                 : RMC          - RESISTIVITY OF MUD CAKE
RMF .OHMM     0.25                 : RMF          - RESISTIVITY OF MUD FILTRATE
SUFT.C        15                   : SUFT         - SURFACE TEMPERATURE
~A  DEPTH     RESD     PHID     PHIN       GR
# ...
  439.000   89.350    0.312    0.388   49.364
  439.250   81.295    0.307    0.382   51.800
  439.500   73.959    0.296    0.395   54.846
  439.750   71.210    0.304    0.400   58.499
  440.000   68.564    0.303    0.411   59.717
  440.250   67.270    0.299    0.406   60.323
  440.500   63.555    0.305    0.393   61.539
  440.750   57.828    0.312    0.382   64.582
  441.000   50.676    0.311    0.389   65.799
  441.250   42.764    0.306    0.395   65.796
  441.500   39.650    0.298    0.402   65.183
  441.750   39.639    0.300    0.412   63.349
  442.000   39.623    0.299    0.408   62.737
  442.250   38.875    0.303    0.407   63.343
  442.500   38.142    0.304    0.404   63.948
  442.750   36.035    0.295    0.391   63.944
  443.000   34.049    0.282    0.377   63.941
  443.250   28.734    0.256    0.366   65.158
  443.500   23.797    0.203    0.334   66.374
  443.750   18.278    0.158    0.314   69.419
  444.000   14.856    0.127    0.300   74.294
  444.250   11.628    0.137    0.322   79.168
  444.500   10.190    0.160    0.353   87.700
  444.750    8.929    0.203    0.368   91.356
  445.000    8.279    0.195    0.382   93.791
  445.250    8.276    0.205    0.394   96.837
  445.500    8.431    0.197    0.388   98.662
  445.750    8.752    0.210    0.387   91.952
  446.000    9.432    0.219    0.392   80.363
  446.250    9.977    0.203    0.359   70.603
  446.500   10.755    0.188    0.347   65.112
  446.750   12.264    0.178    0.359   59.011
  447.000   13.221    0.210    0.359   55.959
  447.250   15.655    0.241    0.364   53.517
  447.500   17.855    0.256    0.362   54.122
  447.750   19.610    0.260    0.349   55.948
  448.000   20.742    0.237    0.342   56.554
  448.250   21.132    0.232    0.333   54.722
  448.500   21.527    0.258    0.365   55.937
  448.750   21.120    0.266    0.360   60.202
  449.000   17.491    0.256    0.353   67.515
  449.250   13.434    0.205    0.343   71.171
  449.500   11.996    0.193    0.336   73.606
  449.750   11.550    0.187    0.328   73.603
  450.000   12.217    0.195    0.330   68.110
  450.250   12.922    0.216    0.348   65.059
  450.500   13.415    0.236    0.354   65.055
  450.750   13.411    0.249    0.369   69.320
  451.000   12.434    0.237    0.356   74.804
  451.250   11.102    0.226    0.363   80.288
  451.500   10.103    0.222    0.370   83.334
  451.750    9.021    0.217    0.378   86.379
  452.000    8.208    0.210    0.398   90.643
  452.250    8.206    0.199    0.411   90.030
  452.500    8.517    0.202    0.394   91.247
  452.750    9.533    0.199    0.393   94.902
  453.000   11.723    0.205    0.415   83.923
  453.250   21.003    0.229    0.432   60.139
  453.500   32.372    0.288    0.401   54.648
  453.750   46.273    0.313    0.388   55.862
  454.000   52.774    0.310    0.392   61.348
  454.250   52.758    0.319    0.388   63.173
  454.500   44.523    0.310    0.378   63.169
  454.750   33.559    0.300    0.384   62.556
  455.000   28.861    0.293    0.392   63.163
  455.250   25.292    0.305    0.395   63.159
  455.500   20.555    0.296    0.394   64.374
  455.750   17.674    0.280    0.392   64.981
  456.000   16.701    0.274    0.391   68.636
  456.250   16.079    0.274    0.391   69.851
  456.500   16.380    0.260    0.382   68.019
  456.750   16.685    0.253    0.369   62.528
  457.000   16.680    0.259    0.374   62.525
  457.250   16.365    0.268    0.372   65.570
  457.500   16.054    0.264    0.367   68.615
  457.750   15.457    0.238    0.361   71.660
  458.000   15.162    0.234    0.365   69.218
  458.250   14.874    0.259    0.378   63.727
  458.500   14.872    0.273    0.382   65.551
  458.750   14.588    0.263    0.368   72.255
  459.000   14.586    0.241    0.360   75.910
  459.250   13.781    0.224    0.360   77.735
  459.500   12.539    0.201    0.357   78.342
  459.750   11.409    0.181    0.353   78.338
  460.000   11.405    0.171    0.343   73.457
  460.250   11.840    0.201    0.337   67.965
  460.500   13.249    0.229    0.341   66.743
  460.750   14.015    0.234    0.368   67.959
  461.000   14.824    0.235    0.383   66.736
  461.250   15.389    0.241    0.394   65.512
  461.500   15.976    0.245    0.402   66.119
  461.750   17.218    0.253    0.402   67.335
  462.000   17.542    0.260    0.400   66.112
  462.250   18.208    0.267    0.400   64.889
  462.500   18.548    0.271    0.410   66.105
  462.750   18.896    0.241    0.391   67.321
  463.000   19.247    0.198    0.374   66.708
  463.250   19.243    0.169    0.346   60.607
  463.500   19.237    0.163    0.360   59.383
  463.750   18.873    0.191    0.365   67.307
  464.000   17.499    0.235    0.377   72.791
  464.250   16.847    0.236    0.380   75.837
  464.500   16.843    0.226    0.380   77.053
  464.750   17.815    0.235    0.400   67.903
  465.000   18.844    0.258    0.415   60.582
  465.250   20.311    0.282    0.408   51.432
  465.500   22.730    0.302    0.393   52.038
  465.750   23.597    0.295    0.382   56.913
  466.000   24.961    0.286    0.376   60.568
  466.250   26.403    0.258    0.398   61.784
  466.500   28.453    0.283    0.414   58.732
  466.750   28.987    0.314    0.409   61.775
  467.000   28.979    0.333    0.392   65.432
  467.250   28.973    0.297    0.377   74.573
  467.500   24.450    0.265    0.398   76.400
  467.750   20.249    0.276    0.413   79.445
  468.000   17.412    0.280    0.396   78.832
  468.250   15.549    0.289    0.392   89.193
  468.500   14.691    0.269    0.382   96.508
  468.750   13.880    0.245    0.399  102.602
  469.000   13.876    0.223    0.418   96.500
  469.250   13.614    0.206    0.411   86.131
  469.500   14.952    0.241    0.415   74.543
  469.750   19.091    0.264    0.422   62.953
  470.000   34.855    0.285    0.429   53.804
  470.250   47.091    0.308    0.412   45.873
  470.500   69.896    0.327    0.404   45.261
  470.750   82.770    0.331    0.402   45.866
  471.000   90.910    0.329    0.408   45.862
  471.250   92.610    0.342    0.414   46.469
  471.500   87.501    0.350    0.421   47.075
  471.750   76.677    0.338    0.426   52.560
  472.000   52.607    0.317    0.430   59.263
  472.250   39.655    0.296    0.419   67.796
  472.500   31.038    0.284    0.401   69.622
  472.750   25.226    0.266    0.402   69.618
  473.000   24.748    0.255    0.413   65.957
  473.250   27.181    0.256    0.421   53.757
  473.500   30.999    0.256    0.426   50.096
  473.750   34.049    0.294    0.419   49.483
  474.000   36.699    0.314    0.410   53.138
  474.250   32.772    0.305    0.410   59.841
  474.500   25.172    0.278    0.430   64.716
  474.750   24.695    0.264    0.443   67.760
  475.000   29.243    0.256    0.443   54.953
  475.250   35.289    0.247    0.432   40.315
  475.500   45.915    0.257    0.425   36.653
  475.750   58.628    0.275    0.412   31.772
  476.000   79.201    0.315    0.407   28.110
  476.250   90.331    0.352    0.402   29.325
  476.500  101.097    0.365    0.393   31.760
  476.750  106.932    0.357    0.397   32.367
  477.000  102.947    0.349    0.408   31.754
  477.250   93.677    0.336    0.418   29.311
  477.500   76.138    0.322    0.421   23.208
  477.750   58.482    0.316    0.413   21.987
  478.000   48.435    0.302    0.400   20.154
  478.250   40.876    0.284    0.379   20.150
  478.500   37.900    0.276    0.369   20.147
  478.750   35.139    0.282    0.361   20.752
  479.000   33.199    0.298    0.355   20.749
  479.250   31.369    0.299    0.353   21.355
  479.500   28.543    0.250    0.359   21.352
  479.750   23.639    0.154    0.355   21.348
  480.000   22.758    0.061    0.345   21.955
