~VERSION INFORMATION
 VERS.                 2.0:   CWLS LOG ASCII STANDARD -VERSION 2.0
 WRAP.                  NO:   ONE LINE PER DEPTH STEP
~WELL INFORMATION BLOCK
#MNEM.UNIT           DATA                    DESCRIPTION OF MNEMONIC
#---------    -------------------            -------------------------------
# Generated from Intellog Unique Number	CW_73_75/WELL/2996
WELL.         G & W ET AL SPUR               : Well_name    - WELL
LOC .         00/10-08-073-01W5/0            : Location     - LOCATION
UWI .         00/10-08-073-01W5/0            : Uwi          - UNIQUE WELL ID
ENTR.         CAMPBELL                       : Entered      - ENTERED BY
SRVC.         SCHLUMBERGER                   : Scn          - SERVICE COMPANY
DATE.         14 DEC 1988                    : Date         - LOG DATE
STRT.M        487                            : top_depth    - START DEPTH
STOP.M        635                            : bot_depth    - STOP DEPTH
STEP.M        0.25                           : increment    - STEP LENGTH
 NULL. -999.2500:NULL Value
~CURVE INFORMATION BLOCK
#MNEM UNIT       ERCB CURVE CODE    CURVE DESCRIPTION
#-----------   ------------------   ----------------------------------
DEPT.M        00 001 00 00         : DEPTH        - DEPTH
ILD .OHMM     00 120 00 00         : RESD         - DEEP RESISTIVITY (DIL)
DELT.US/F     00 520 00 00         : DELT         - SONIC TRAVEL TIME
NPHI.V/V      00 330 00 00         : PHIN         - NEUTRON POROSITY (SANDSTONE)
GR  .API      00 310 00 00         : GR           - GAMMA RAY
~PARAMETER INFORMATION
#MNEM.UNIT           DATA             DESCRIPTION OF MNEMONIC
#---------         -----------     ------------------------------
GL  .M        604.8                : gl           - GROUND LEVEL ELEVATION
EREF.M        608.2                : kb           - ELEVATION OF DEPTH REFERENCE
DATM.M        608.2                : datum        - DATUM ELEVATION
TDD .M        636                  : tdd          - TOTAL DEPTH DRILLER
RUN .         ONE                  : Run          - RUN NUMBER
ENG .         CARROLL              : Engineer     - RECORDING ENGINEER
WIT .         AMDREWS              : Witness      - WITNESSED BY
MUD .         GEL                  : Mud_type     - MUD TYPE
MATR.         SANDSTONE            : Logunit      - NEUTRON MATRIX
TMAX.C        29                   : BHT          - MAXIMUM RECORDED TEMPERATURE
BHTD.M        636                  : BHTDEP       - MAXIMUM RECORDED TEMPERATURE
RMT .C        17                   : MDTP         - TEMPERATURE OF MUD
MUDD.KG/M     1120                 : MWT          - MUD DENSITY
NEUT.         1                    : NEUTRON      - NEUTRON TYPE
RESI.         0                    : RESIST       - RESISTIVITY TYPE
RM  .OHMM     3.14                 : RM           - RESISTIVITY OF MUD
RMC .OHMM     0                    : RMC          - RESISTIVITY OF MUD CAKE
RMF .OHMM     2.78                 : RMF          - RESISTIVITY OF MUD FILTRATE
SUFT.C        -20                  : SUFT         - SURFACE TEMPERATURE
~A  DEPTH     RESD     DELT     PHIN       GR
# ...
  574.000    7.388  322.865    0.305   91.696
  574.250    7.466  326.807    0.308   93.435
  574.500    8.042  326.447    0.307   94.298
  574.750    8.347  322.947    0.304   94.873
  575.000    8.511  323.371    0.296   95.447
  575.250    8.522  321.829    0.280   93.107
  575.500    8.379  300.315    0.266   88.729
  575.750    7.874  285.068    0.247   83.477
  576.000    6.282  272.167    0.213   85.216
  576.250    5.058  278.074    0.254   93.069
  576.500    3.489  293.771    0.274   97.138
  576.750    2.364  317.304    0.280   98.877
  577.000    1.463  321.642    0.326  102.361
  577.250    1.465  329.504    0.452  101.187
  577.500    1.467  380.460    0.492   96.808
  577.750    1.495  436.504    0.483   97.091
  578.000    1.567  453.771    0.453   99.121
  578.250    1.750  453.408    0.451   99.694
  578.500    1.867  449.911    0.448   97.938
  578.750    1.956  440.147    0.416   98.508
  579.000    2.087  430.380    0.413   99.374
  579.250    2.395  420.617    0.415   99.364
  579.500    2.698  420.254    0.424  102.558
  579.750    3.330  420.289    0.425  105.172
  580.000    4.146  405.818    0.369   99.629
  580.250    5.654  370.986    0.317   93.503
  580.500    5.765  359.656    0.285   87.377
  580.750    5.988  343.621    0.290   82.998
  581.000    6.104  311.531    0.299   91.436
  581.250    6.396  320.569    0.304   96.669
  581.500    6.580  330.390    0.297  101.320
  581.750    7.022  338.651    0.300  105.097
  582.000    7.562  335.934    0.304  109.748
  582.250    7.922  323.425    0.287  103.622
  582.500    7.443  311.703    0.277   96.332
  582.750    7.059  298.414    0.253   91.079
  583.000    6.693  292.959    0.257   86.119
  583.250    6.640  289.071    0.236   82.615
  583.500    6.651  286.358    0.295   91.052
  583.750    6.720  317.334    0.332   98.032
  584.000    6.851  336.163    0.307   95.693
  584.250    6.984  321.308    0.283   90.148
  584.500    7.123  297.443    0.274   90.721
  584.750    7.261  316.273    0.285   91.005
  585.000    7.542  325.709    0.293   90.412
  585.250    7.347  323.388    0.290   90.404
  585.500    7.159  320.671    0.281   91.559
  585.750    7.040  320.700    0.294   94.170
  586.000    6.984  320.337    0.276   96.201
  586.250    6.744  319.190    0.277   96.772
  586.500    6.571  310.605    0.291   99.093
  586.750    6.118  318.072    0.298   87.143
  587.000    5.594  329.072    0.261   75.193
  587.250    5.069  323.229    0.211   52.466
  587.500    4.551  326.779    0.204   42.553
  587.750    4.013  338.167    0.231   43.416
  588.000    3.770  347.600    0.247   43.991
  588.250    3.776  336.661    0.267   43.980
  588.500    3.781  327.289    0.274   44.265
  588.750    3.820  321.834    0.280   45.711
  589.000    3.859  318.341    0.281   47.448
  589.250    3.864  317.187    0.273   48.021
  589.500    3.940  316.044    0.265   48.303
  589.750    3.981  315.685    0.267   48.295
  590.000    4.023  315.714    0.266   48.575
  590.250    4.028  316.130    0.266   49.442
  590.500    4.070  316.551    0.270   51.761
  590.750    4.114  316.975    0.270   53.790
  591.000    4.155  317.391    0.272   54.946
  591.250    4.275  317.815    0.270   56.103
  591.500    4.400  318.631    0.267   57.550
  591.750    4.527  319.048    0.269   58.706
  592.000    4.658  319.468    0.274   53.745
  592.250    4.750  317.937    0.275   54.027
  592.500    4.799  316.395    0.283   61.299
  592.750    4.894  315.640    0.290   64.200
  593.000    4.990  316.449    0.282   65.648
  593.250    5.087  316.873    0.275   67.969
  593.500    5.189  316.898    0.275   72.329
  593.750    5.290  316.538    0.273   75.815
  594.000    5.345  315.780    0.269   75.513
  594.250    5.449  315.032    0.264   73.756
  594.500    5.608  313.886    0.260   72.583
  594.750    5.717  311.953    0.258   73.447
  595.000    5.829  310.414    0.271   74.894
  595.250    5.999  308.876    0.264   74.302
  595.500    6.171  307.342    0.262   74.293
  595.750    6.352  306.192    0.262   75.156
  596.000    6.476  304.654    0.259   76.022
  596.250    6.309  303.507    0.256   73.974
  596.500    6.038  301.189    0.252   70.177
  596.750    5.829  298.864    0.251   63.178
  597.000    5.680  294.983    0.258   55.597
  597.250    5.688  292.263    0.264   45.685
  597.500    5.695  286.808    0.260   40.725
  597.750    5.600  287.623    0.245   38.093
  598.000    5.606  288.435    0.194   41.870
  598.250    5.414  286.505    0.172   45.355
  598.500    5.180  267.729    0.197   48.259
  598.750    5.001  243.081    0.246   52.910
  599.000    5.241  276.799    0.265   57.270
  599.250    5.592  290.929    0.268   62.794
  599.500    6.189  294.874    0.262   70.940
  599.750    6.543  297.257    0.242   75.298
  600.000    6.731  289.839    0.236   84.901
  600.250    6.499  285.168    0.259   91.300
  600.500    5.888  310.268    0.280   96.242
  600.750    5.146  323.618    0.294  103.514
  601.000    5.540  331.872    0.302  111.077
  601.250    5.805  340.518    0.296  116.310
  601.500    5.761  346.814    0.288  113.679
  601.750    5.717  334.308    0.308  108.427
  602.000    5.882  330.420    0.323  113.369
  602.250    6.448  339.853    0.336  118.311
  602.500    7.334  348.890    0.340  123.545
  602.750    8.115  341.085    0.322  114.507
  603.000    8.816  327.405    0.283   97.022
  603.250    9.579  315.287    0.257   87.110
  603.500   10.314  301.607    0.238   77.489
  603.750   11.414  291.451    0.233   77.769
  604.000   12.290  292.263    0.240   78.344
  604.250   12.194  293.467    0.226   71.344
  604.500   10.752  284.487    0.190   56.773
  604.750    8.736  275.898    0.175   40.163
  605.000    6.906  263.784    0.183   42.191
  605.250    5.363  256.762    0.217   55.872
  605.500    3.871  286.955    0.260   66.930
  605.750    2.821  304.610    0.296   49.153
  606.000    2.774  320.310    0.266   30.504
  606.250    2.854  325.434    0.260   17.096
  606.500    2.991  325.854    0.256   15.339
  606.750    3.220  325.103    0.251   17.077
  607.000    3.797  323.166    0.246   19.981
  607.250    4.993  317.319    0.240   32.787
  607.500    6.274  308.339    0.267   54.913
  607.750    8.175  304.451    0.277   76.456
  608.000   13.247  305.654    0.262   56.060
  608.250   17.901  281.790    0.224   41.488
  608.500   22.289  254.005    0.186   37.108
  608.750   26.051  240.324    0.134   33.313
  609.000   29.083  240.748    0.099   28.062
  609.250   33.078  222.363    0.097   33.295
  609.500   34.658  212.992    0.099   34.160
  609.750   34.383  210.278    0.104   33.859
  610.000   25.744  216.574    0.112   35.306
  610.250   19.627  220.520    0.119   36.462
  610.500   14.171  224.860    0.125   33.248
  610.750    9.777  229.201    0.132   31.491
  611.000    8.620  236.277    0.156   62.937
  611.250    8.631  279.003    0.196   81.569
  611.500    9.128  322.122    0.306  106.607
  611.750   10.473  326.463    0.277  103.685
  612.000   16.366  318.654    0.250   97.849
  612.250   24.218  296.356    0.265   95.801
  612.500   28.297  292.080    0.272   89.677
  612.750   33.380  279.962    0.186   74.230
  613.000   34.647  261.190    0.107   58.785
  613.250   25.943  228.312    0.068   38.971
  613.500   21.658  206.794    0.039   36.922
  613.750   18.924  201.731    0.050   54.680
  614.000   16.991  226.440    0.082   63.991
  614.250   17.483  250.365    0.167   74.758
  614.500   22.372  273.112    0.248   80.865
  614.750   29.154  283.328    0.224   63.380
  615.000   34.375  253.193    0.076   41.527
  615.250   32.896  227.370    0.060   32.489
  615.500   29.005  205.069    0.101   42.965
  615.750   23.564  212.151    0.126   49.945
  616.000   18.629  228.239    0.148   55.470
  616.250   14.864  236.885    0.172   60.994
  616.500    9.712  244.360    0.186   61.275
  616.750    7.819  245.959    0.172   59.810
  617.000    6.648  276.147    0.193   87.178
  617.250    6.303  293.411    0.247  112.800
