~VERSION INFORMATION
 VERS.                 2.0:   CWLS LOG ASCII STANDARD -VERSION 2.0
 WRAP.                  NO:   ONE LINE PER DEPTH STEP
~WELL INFORMATION BLOCK
#MNEM.UNIT           DATA                    DESCRIPTION OF MNEMONIC
#---------    -------------------            -------------------------------
# Generated from Intellog Unique Number	CC_80_83/WELL/2380
NULL.         -999.25                        : NULL_VALUE
WELL.         BVX ET AL WATCHUSK             : Well_name    - WELL
LOC .         10-27-082-02W4                 : Location     - LOCATION          
UWI .         00/10-27-082-02W400            : Uwi          - UNIQUE WELL ID    
ENTR.         DW                             : Entered      - ENTERED BY        
SRVC.         SCHLUMBERGER                   : Scn          - SERVICE COMPANY   
DATE.         04 FEB 79                      : Date         - LOG DATE
STRT.M        125                            : top_depth    - START DEPTH       
STOP.M        310.099                        : bot_depth    - STOP DEPTH        
STEP.M        0.3                            : increment    - STEP LENGTH       
~CURVE INFORMATION BLOCK
#MNEM UNIT       ERCB CURVE CODE    CURVE DESCRIPTION
#-----------   ------------------   ----------------------------------
DEPT.M        00 001 00 00         : DEPTH        - DEPTH                       
DPHI.V/V      00 890 00 00         : PHID         - DENSITY POROSITY (LIMESTONE)
NPHI.V/V      00 330 00 00         : PHIN         - NEUTRON POROSITY (LIMESTONE)
GR  .API      00 310 00 00         : GR           - GAMMA RAY                   
ILD .OHMM     00 120 00 00         : RESD         - DEEP RESISTIVITY (DIL)      
~PARAMETER INFORMATION       
#MNEM.UNIT           DATA             DESCRIPTION OF MNEMONIC
#---------         -----------     ------------------------------
GL  .M        466                  : gl           - GROUND LEVEL ELEVATION      
EREF.M        469.4                : kb           - ELEVATION OF DEPTH REFERENCE
DATM.M        469.4                : datum        - DATUM ELEVATION             
TDD .M        322                  : tdd          - TOTAL DEPTH DRILLER         
RUN .         ONE                  : Run          - RUN NUMBER                  
ENG .         BILL                 : Engineer     - RECORDING ENGINEER          
WIT .         JIM                  : Witness      - WITNESSED BY                
MUD .         GEL                  : Mud_type     - MUD TYPE                    
MATR.         LIMESTONE            : Logunit      - NEUTRON MATRIX              
TMAX.C        25                   : BHT          - MAXIMUM RECORDED TEMPERATURE
BHTD.M        322                  : BHTDEP       - MAXIMUM RECORDED TEMPERATURE
MATR.         1                    : LOGUNIT      - NEUTRON MATRIX              
RMT .C        25                   : MDTP         - TEMPERATURE OF MUD          
NEUT.         1                    : NEUTRON      - NEUTRON TYPE                
RESI.         0                    : RESIST       - RESISTIVITY TYPE            
RMC .OHMM     0.25                 : RMC          - RESISTIVITY OF MUD CAKE     
RMF .OHMM     0.25                 : RMF          - RESISTIVITY OF MUD FILTRATE 
SUFT.C        15                   : SUFT         - SURFACE TEMPERATURE         
~A  DEPTH     PHID     PHIN       GR     RESD
# ...
  281.600    0.282    0.367   31.495    3.737
  281.900    0.296    0.376   20.984    2.924
  282.200    0.317    0.384   18.519    2.711
  282.500    0.333    0.378   17.294    2.661
  282.800    0.331    0.375   16.695    2.661
  283.100    0.334    0.378   17.335    2.763
  283.400    0.328    0.371   17.345    2.816
  283.700    0.323    0.386   17.977    2.816
  284.000    0.329    0.376   19.232    2.816
  284.300    0.339    0.357   19.251    2.870
  284.600    0.342    0.378   19.879    3.095
  284.900    0.356    0.385   20.513    3.402
  285.200    0.346    0.435   25.481    3.466
  285.500    0.324    0.430   32.310    3.215
  285.800    0.321    0.394   23.034    3.096
  286.100    0.316    0.378   18.712    3.155
  286.400    0.326    0.379   28.638    3.467
  286.700    0.364    0.416   45.996    3.883
  287.000    0.396    0.448   55.303    4.431
  287.300    0.444    0.559   42.929    4.516
  287.600    0.409    0.542   26.222    4.188
  287.900    0.332    0.397   21.902    3.811
  288.200    0.333    0.374   24.398    3.468
  288.500    0.341    0.395   23.794    3.339
  288.800    0.338    0.407   22.568    3.403
  289.100    0.331    0.402   20.104    3.403
  289.400    0.279    0.317   18.878    3.403
  289.700    0.275    0.302   20.135    3.403
  290.000    0.277    0.311   21.390    3.277
  290.300    0.279    0.322   22.019    3.277
  290.600    0.275    0.318   20.803    3.340
  290.900    0.276    0.309   20.813    3.340
  291.200    0.282    0.303   19.592    3.404
  291.500    0.277    0.298   18.982    3.469
  291.800    0.267    0.292   19.623    3.469
  292.100    0.258    0.285   19.633    3.671
  292.400    0.275    0.276   20.270    3.812
  292.700    0.262    0.276   22.139    4.035
  293.000    0.214    0.296   35.161    4.270
  293.300    0.238    0.318   48.185    4.190
  293.600    0.262    0.413   45.725    3.959
  293.900    0.305    0.415   33.349    3.405
  294.200    0.318    0.377   23.453    3.098
  294.500    0.296    0.352   18.513    2.873
  294.800    0.284    0.347   17.911    2.767
  295.100    0.284    0.345   19.782    2.767
  295.400    0.292    0.351   25.993    2.767
  295.700    0.295    0.366   39.633    2.873
  296.000    0.283    0.392   60.708    3.279
  296.300    0.268    0.483   78.685    3.470
  296.600    0.268    0.501  110.909    3.814
  296.900    0.258    0.516  125.790    4.113
  297.200    0.209    0.503  128.903    4.436
  297.500    0.203    0.475  128.299    4.607
  297.800    0.194    0.456  120.882    4.695
  298.100    0.185    0.420  114.703    4.695
  298.400    0.183    0.437  114.717    4.521
  298.700    0.220    0.478  119.070    4.354
  299.000    0.239    0.519  118.467    4.192
  299.300    0.268    0.490  119.100    4.037
  299.600    0.231    0.502  121.588    3.962
  299.900    0.212    0.509  127.177    3.888
  300.200    0.207    0.491  132.150    4.038
  300.500    0.202    0.460  125.971    4.193
  300.799    0.192    0.420  121.032    4.273
  301.099    0.175    0.397  114.232    4.438
  301.399    0.170    0.411  104.955    4.115
  301.699    0.191    0.405   78.335    3.538
  301.999    0.219    0.396   74.014    3.220
  302.299    0.245    0.398   79.605    3.101
  302.599    0.239    0.381   89.531    3.160
  302.899    0.213    0.360  101.313    3.344
  303.199    0.191    0.390  102.568    3.606
  303.499    0.183    0.401   92.053    3.817
  303.799    0.175    0.385   75.965    4.195
  304.099    0.129    0.327   56.157    5.463
  304.399    0.083    0.259   37.591    6.724
  304.699    0.004    0.224   32.655   10.984
  304.999    0.000    0.196   31.425   14.579
  305.299    0.000    0.178   30.827   20.477
  305.599    0.004    0.165   29.599   29.868
  305.899    0.005    0.157   25.896   36.074
  306.199    0.010    0.144   20.958   42.754
  306.499    0.020    0.130   19.735   40.402
  306.799    0.025    0.130   23.463   36.077
  307.099    0.034    0.152   43.300   27.701
  307.399    0.050    0.208   48.888   22.087
  307.699    0.058    0.214   47.664   20.872
  307.999    0.035    0.205   30.336   20.873
  308.299    0.024    0.171   29.112   21.271
  308.599    0.022    0.203   48.328   22.940
  308.899    0.022    0.211   48.965   25.691
  309.199    0.022    0.153   35.351   28.773
  309.499    0.019    0.140   30.411   29.881
  309.799    0.017    0.138   31.048   28.774
  310.099    0.019    0.152   37.876   27.191
