~VERSION INFORMATION
 VERS.                 2.0:   CWLS LOG ASCII STANDARD -VERSION 2.0
 WRAP.                  NO:   ONE LINE PER DEPTH STEP
~WELL INFORMATION BLOCK
#MNEM.UNIT           DATA                    DESCRIPTION OF MNEMONIC
#---------    -------------------            -------------------------------
# Generated from Intellog Unique Number	CS_69_70/WELL/870
WELL.         ET AL HEART LAKE               : Well_name    - WELL
LOC .         00/10-21-069-09W4/0            : Location     - LOCATION
UWI .         00/10-21-069-09W4/0            : Uwi          - UNIQUE WELL ID
ENTR.         SP                             : Entered      - ENTERED BY
SRVC.         SCHLUMBERGER                   : Scn          - SERVICE COMPANY
STRT.M        375                            : top_depth    - START DEPTH
STOP.M        590                            : bot_depth    - STOP DEPTH
STEP.M        0.25                           : increment    - STEP LENGTH
 NULL. -999.2500:NULL Value
~CURVE INFORMATION BLOCK
#MNEM UNIT       ERCB CURVE CODE    CURVE DESCRIPTION
#-----------   ------------------   ----------------------------------
DEPT.M        00 001 00 00         : DEPTH        - DEPTH
GR  .API      00 310 00 00         : GR           - GAMMA RAY
NPHI.V/V      00 330 00 00         : PHIN         - NEUTRON POROSITY (LIMESTONE)
DPHI.V/V      00 890 00 00         : PHID         - DENSITY POROSITY (LIMESTONE)
ILD .OHMM     00 120 00 00         : RESD         - DEEP RESISTIVITY (DIL)
~PARAMETER INFORMATION
#MNEM.UNIT           DATA             DESCRIPTION OF MNEMONIC
#---------         -----------     ------------------------------
GL  .M        706.23               : gl           - GROUND LEVEL ELEVATION
EREF.M        709                  : kb           - ELEVATION OF DEPTH REFERENCE
DATM.M        706.23               : datum        - DATUM ELEVATION
TDD .M        600                  : tdd          - TOTAL DEPTH DRILLER
RUN .         ONE                  : Run          - RUN NUMBER
ENG .         BILL                 : Engineer     - RECORDING ENGINEER
WIT .         JIM                  : Witness      - WITNESSED BY
MUD .         GEL                  : Mud_type     - MUD TYPE
MATR.         LIMESTONE            : Logunit      - NEUTRON MATRIX
TMAX.C        17.7                 : BHT          - MAXIMUM RECORDED TEMPERATURE
BHTD.M        600                  : BHTDEP       - MAXIMUM RECORDED TEMPERATURE
MATR.         1                    : LOGUNIT      - NEUTRON MATRIX
RMT .C        25                   : MDTP         - TEMPERATURE OF MUD
NEUT.         1                    : NEUTRON      - NEUTRON TYPE
RESI.         0                    : RESIST       - RESISTIVITY TYPE
RMC .OHMM     0.25                 : RMC          - RESISTIVITY OF MUD CAKE
RMF .OHMM     0.25                 : RMF          - RESISTIVITY OF MUD FILTRATE
SUFT.C        15                   : SUFT         - SURFACE TEMPERATURE
~A  DEPTH       GR     PHIN     PHID     RESD
# ...
  462.000   87.380    0.500    0.232    5.218
  462.250   84.989    0.513    0.268    5.209
  462.500   80.692    0.530    0.302    5.219
  462.750   76.641    0.540    0.328    5.230
  463.000   74.004    0.511    0.354    5.349
  463.250   73.457    0.499    0.357    5.747
  463.500   73.279    0.481    0.348    6.001
  463.750   72.611    0.465    0.342    6.186
  464.000   71.571    0.481    0.349    6.245
  464.250   69.795    0.493    0.364    6.222
  464.500   68.202    0.488    0.368    6.187
  464.750   67.349    0.478    0.371    6.306
  465.000   67.539    0.475    0.365    6.499
  465.250   68.160    0.483    0.360    7.021
  465.500   66.078    0.480    0.346    7.360
  465.750   64.915    0.476    0.352    7.500
  466.000   66.642    0.481    0.360    6.441
  466.250   68.985    0.498    0.355    5.986
  466.500   71.758    0.499    0.353    5.975
  466.750   74.347    0.483    0.352    5.987
  467.000   73.922    0.474    0.352    5.987
  467.250   76.266    0.461    0.340    5.977
  467.500   78.362    0.451    0.327    5.989
  467.750   78.183    0.460    0.331    5.978
  468.000   77.821    0.468    0.323    6.024
  468.250   79.365    0.507    0.320    5.968
  468.500   74.884    0.486    0.333    6.071
  468.750   71.264    0.469    0.334    6.129
  469.000   69.978    0.454    0.317    6.211
  469.250   69.431    0.438    0.309    6.317
  469.500   69.437    0.432    0.310    6.450
  469.750   70.428    0.453    0.308    6.586
  470.000   71.540    0.476    0.302    6.712
  470.250   73.269    0.494    0.298    6.737
  470.500   75.612    0.489    0.314    6.650
  470.750   77.217    0.472    0.315    6.502
  471.000   77.960    0.464    0.304    6.430
  471.250   75.753    0.487    0.304    6.382
  471.500   76.251    0.478    0.297    6.383
  471.750   77.118    0.445    0.282    6.420
  472.000   75.096    0.473    0.295    6.433
  472.250   75.102    0.498    0.312    6.421
  472.500   80.273    0.501    0.308    6.422
  472.750   84.583    0.491    0.273    6.446
  473.000   88.093    0.475    0.224    6.521
  473.250   90.683    0.453    0.218    6.645
  473.500   91.979    0.432    0.224    6.721
  473.750   91.248    0.426    0.224    6.760
  474.000   89.348    0.435    0.227    6.685
  474.250   89.540    0.448    0.243    6.598
  474.500   89.668    0.451    0.256    6.439
  474.750   89.368    0.456    0.267    6.214
  475.000   88.084    0.472    0.261    5.973
  475.250   85.692    0.485    0.259    5.841
  475.500   86.190    0.484    0.261    5.841
  475.750   87.488    0.471    0.246    5.930
  476.000   87.740    0.482    0.239    6.010
  476.250   87.070    0.487    0.253    6.090
  476.500   87.507    0.471    0.231    6.148
  476.750   86.837    0.463    0.216    6.195
  477.000   85.368    0.466    0.221    6.208
  477.250   87.280    0.467    0.238    6.197
  477.500   90.915    0.459    0.225    6.221
  477.750   93.011    0.464    0.202    6.221
  478.000   94.738    0.472    0.190    6.257
  478.250   93.024    0.460    0.195    6.341
  478.500   89.895    0.449    0.198    6.450
  478.750   86.643    0.437    0.192    6.648
  479.000   85.358    0.429    0.190    6.762
  479.250   88.254    0.425    0.195    6.839
  479.500   92.871    0.451    0.200    6.892
  479.750   97.611    0.463    0.207    6.815
  480.000   95.773    0.470    0.216    6.527
  480.250   93.506    0.457    0.223    6.346
  480.500   93.265    0.459    0.229    6.205
  480.750   93.887    0.484    0.239    6.124
  481.000   92.049    0.497    0.238    6.056
  481.250   93.162    0.510    0.232    5.989
  481.500   96.305    0.520    0.225    5.867
  481.750   98.584    0.478    0.219    5.619
  482.000   98.960    0.456    0.215    5.432
  482.250   99.397    0.446    0.212    5.252
  482.500  100.203    0.456    0.199    5.097
  482.750  100.577    0.459    0.189    4.937
  483.000   99.969    0.469    0.182    4.764
  483.250   96.963    0.484    0.195    4.606
  483.500   93.650    0.473    0.228    4.361
  483.750   93.779    0.459    0.238    4.038
  484.000   96.982    0.488    0.223    3.810
  484.250  102.030    0.519    0.231    3.520
  484.500  108.675    0.509    0.226    3.290
  484.750  113.661    0.522    0.217    3.163
  485.000  108.811    0.532    0.210    3.075
  485.250  103.900    0.519    0.191    3.018
  485.500  102.000    0.521    0.195    2.996
  485.750  101.515    0.527    0.218    3.019
  486.000  100.046    0.524    0.238    3.106
  486.250   96.364    0.481    0.248    3.293
  486.500   92.805    0.460    0.248    3.544
  486.750   94.963    0.473    0.239    3.792
  487.000   99.027    0.501    0.224    4.013
  487.250  101.492    0.520    0.206    4.311
  487.500   97.626    0.515    0.219    4.460
  487.750   92.591    0.485    0.231    4.614
  488.000   93.888    0.472    0.236    4.774
  488.250   95.063    0.471    0.231    4.865
  488.500   92.610    0.458    0.229    4.865
  488.750   91.880    0.469    0.243    4.802
  489.000   91.517    0.487    0.261    4.695
  489.250   86.175    0.491    0.279    4.626
  489.500   77.759    0.470    0.299    4.652
  489.750   69.343    0.459    0.306    4.750
  490.000   65.600    0.449    0.309    4.896
  490.250   69.233    0.440    0.323    5.075
  490.500   72.868    0.439    0.331    5.240
  490.750   75.086    0.451    0.316    5.370
  491.000   77.982    0.450    0.305    5.483
  491.250   79.955    0.440    0.298    5.588
  491.500   80.638    0.443    0.292    5.631
  491.750   75.973    0.458    0.297    5.631
  492.000   72.106    0.478    0.307    5.621
  492.250   68.239    0.483    0.320    5.611
  492.500   65.541    0.466    0.322    5.538
  492.750   65.117    0.445    0.304    5.581
  493.000   70.903    0.425    0.261    5.666
  493.250   74.413    0.438    0.172    5.895
  493.500   71.469    0.453    0.147    6.380
  493.750   63.053    0.423    0.104    7.293
  494.000   59.001    0.395    0.052    8.305
  494.250   64.971    0.377    0.086    8.905
  494.500   70.634    0.245    0.114    9.265
  494.750   76.234    0.303    0.125    8.450
  495.000   81.589    0.326    0.196    6.743
  495.250   84.731    0.409    0.232    5.421
  495.500   86.335    0.467    0.232    4.681
  495.750   86.526    0.471    0.241    4.012
  496.000   86.533    0.470    0.262    3.843
  496.250   86.233    0.474    0.250    3.851
  496.500   86.300    0.461    0.239    3.917
  496.750   86.859    0.450    0.232    3.939
  497.000   87.911    0.470    0.236    3.985
  497.250   88.839    0.489    0.242    4.023
  497.500   90.690    0.499    0.248    4.053
  497.750   90.697    0.476    0.233    4.039
  498.000   88.182    0.440    0.222    4.009
  498.250   88.127    0.428    0.221    4.109
  498.500   90.163    0.438    0.228    3.972
  498.750   91.214    0.455    0.226    3.980
  499.000   91.650    0.477    0.225    4.010
  499.250   89.690    0.467    0.238    4.049
  499.500   88.529    0.458    0.230    4.080
  499.750   91.793    0.450    0.237    4.134
  500.000   93.828    0.454    0.246    4.189
  500.250   92.359    0.470    0.233    4.262
  500.500   89.906    0.482    0.218    4.278
  500.750   91.758    0.478    0.208    4.311
  501.000   92.071    0.480    0.212    4.368
  501.250   91.647    0.485    0.223    4.393
  501.500   89.502    0.475    0.226    4.435
  501.750   86.927    0.462    0.222    4.486
  502.000   85.949    0.450    0.220    4.572
  502.250   87.309    0.440    0.220    4.642
  502.500   89.281    0.451    0.231    4.651
  502.750   91.686    0.470    0.236    4.547
  503.000   93.537    0.485    0.227    4.140
  503.250   95.449    0.501    0.232    3.719
  503.500   99.575    0.523    0.241    3.366
  503.750  103.576    0.548    0.247    3.019
  504.000  106.595    0.563    0.253    2.769
  504.250  107.954    0.540    0.258    2.578
  504.500  107.715    0.527    0.257    2.455
  504.750  108.090    0.528    0.259    2.290
  505.000  107.543    0.529    0.265    2.050
  505.250  107.489    0.538    0.272    1.916
