~VERSION INFORMATION
 VERS.                 2.0:   CWLS LOG ASCII STANDARD -VERSION 2.0
 WRAP.                  NO:   ONE LINE PER DEPTH STEP
~WELL INFORMATION BLOCK
#MNEM.UNIT           DATA                    DESCRIPTION OF MNEMONIC
#---------    -------------------            -------------------------------
# Generated from Intellog Unique Number	CS_77_79/WELL/1002
WELL.         MAYNARD ET AL THORNBURY        : Well_name    - WELL
LOC .         00/11-29-079-11W4/0            : Location     - LOCATION
UWI .         00/11-29-079-11W4/0            : Uwi          - UNIQUE WELL ID
ENTR.         JHS                            : Entered      - ENTERED BY
SRVC.         SCHLUMBERGER                   : Scn          - SERVICE COMPANY
STRT.M        250                            : top_depth    - START DEPTH
STOP.M        495                            : bot_depth    - STOP DEPTH
STEP.M        0.25                           : increment    - STEP LENGTH
 NULL. -999.2500:NULL Value
~CURVE INFORMATION BLOCK
#MNEM UNIT       ERCB CURVE CODE    CURVE DESCRIPTION
#-----------   ------------------   ----------------------------------
DEPT.M        00 001 00 00         : DEPTH        - DEPTH
DPHI.V/V      00 890 00 00         : PHID         - DENSITY POROSITY (LIMESTONE)
NPHI.V/V      00 330 00 00         : PHIN         - NEUTRON POROSITY (LIMESTONE)
GR  .API      00 310 00 00         : GR           - GAMMA RAY
ILD .OHMM     00 120 00 00         : RESD         - DEEP RESISTIVITY (DIL)
RHOB.KG/M3    00 350 00 00         : DENS         - BULK DENSITY
~PARAMETER INFORMATION
#MNEM.UNIT           DATA             DESCRIPTION OF MNEMONIC
#---------         -----------     ------------------------------
GL  .M        690.19               : gl           - GROUND LEVEL ELEVATION
EREF.M        693.39               : kb           - ELEVATION OF DEPTH REFERENCE
DATM.M        693.39               : datum        - DATUM ELEVATION
TDD .M        500                  : tdd          - TOTAL DEPTH DRILLER
RUN .         ONE                  : Run          - RUN NUMBER
ENG .         BILL                 : Engineer     - RECORDING ENGINEER
WIT .         JIM                  : Witness      - WITNESSED BY
MUD .         GEL                  : Mud_type     - MUD TYPE
MATR.         LIMESTONE            : Logunit      - NEUTRON MATRIX
TMAX.C        22                   : BHT          - MAXIMUM RECORDED TEMPERATURE
BHTD.M        500                  : BHTDEP       - MAXIMUM RECORDED TEMPERATURE
MATR.         1                    : LOGUNIT      - NEUTRON MATRIX
RMT .C        25                   : MDTP         - TEMPERATURE OF MUD
NEUT.         1                    : NEUTRON      - NEUTRON TYPE
RESI.         0                    : RESIST       - RESISTIVITY TYPE
RMC .OHMM     0.25                 : RMC          - RESISTIVITY OF MUD CAKE
RMF .OHMM     0.25                 : RMF          - RESISTIVITY OF MUD FILTRATE
SUFT.C        15                   : SUFT         - SURFACE TEMPERATURE
~A  DEPTH     PHID     PHIN       GR     RESD     DENS
# ...
  323.000    0.353    0.407   48.111   23.474    0.000
  323.250    0.351    0.405   48.763   24.339    0.000
  323.500    0.348    0.407   47.565   25.206    0.000
  323.750    0.346    0.411   47.603   25.252    0.000
  324.000    0.352    0.415   47.627   25.297    0.000
  324.250    0.355    0.422   47.040   25.335    0.000
  324.500    0.354    0.431   48.906   25.373    0.000
  324.750    0.353    0.425   47.111   25.432    0.000
  325.000    0.351    0.417   46.531   24.652    0.000
  325.250    0.341    0.409   47.164   24.693    0.000
  325.500    0.334    0.399   49.643   24.724    0.000
  325.750    0.329    0.394   49.674   24.788    0.000
  326.000    0.331    0.390   49.705   24.831    0.000
  326.250    0.333    0.386   47.284   24.867    0.000
  326.500    0.331    0.380   46.089   24.920    0.000
  326.750    0.337    0.378   47.351   24.956    0.000
  327.000    0.337    0.385   45.549   25.002    0.000
  327.250    0.337    0.395   44.350   24.229    0.000
  327.500    0.354    0.401   43.764   24.277    0.000
  327.750    0.349    0.407   43.806   24.325    0.000
  328.000    0.353    0.407   43.215   24.356    0.000
  328.250    0.346    0.405   43.247   24.400    0.000
  328.500    0.353    0.403   42.663   24.455    0.000
  328.750    0.370    0.402   41.480   24.494    0.000
  329.000    0.371    0.405   41.497   23.717    0.000
  329.250    0.357    0.410   43.369   23.756    0.000
  329.500    0.333    0.421   42.172   24.644    0.000
  329.750    0.320    0.430   40.987   24.669    0.000
  330.000    0.319    0.421   41.626   24.718    0.000
  330.250    0.334    0.409   42.262   24.762    0.000
  330.500    0.329    0.399   41.070   24.808    0.000
  330.750    0.329    0.391   42.332   24.860    0.000
  331.000    0.332    0.385   42.966   24.900    0.000
  331.250    0.329    0.384   43.609   24.937    0.000
  331.500    0.335    0.391   44.261   24.980    0.000
  331.750    0.347    0.403   45.514   24.216    0.000
  332.000    0.342    0.413   44.929   24.262    0.000
  332.250    0.353    0.420   43.738   24.299    0.000
  332.500    0.344    0.418   43.762   24.339    0.000
  332.750    0.344    0.418   43.183   24.397    0.000
  333.000    0.340    0.426   41.989   23.615    0.000
  333.250    0.339    0.421   40.798   23.655    0.000
  333.500    0.360    0.411   38.381   22.875    0.000
  333.750    0.354    0.403   37.185   22.924    0.000
  334.000    0.344    0.395   37.212   22.969    0.000
  334.250    0.336    0.390   39.694   23.022    0.000
  334.500    0.333    0.392   40.343   22.231    0.000
  334.750    0.339    0.390   42.202   22.283    0.000
  335.000    0.342    0.384   43.456   22.319    0.000
  335.250    0.352    0.380   42.874   22.383    0.000
  335.500    0.342    0.380   44.747   23.230    0.000
  335.750    0.341    0.381   45.997   23.280    0.000
  336.000    0.343    0.386   45.419   23.319    0.000
  336.250    0.346    0.391   47.285   22.544    0.000
  336.500    0.363    0.398   45.483   22.594    0.000
  336.750    0.360    0.407   43.058   22.636    0.000
  337.000    0.355    0.419   44.318   23.518    0.000
  337.250    0.345    0.425   43.739   23.550    0.000
  337.500    0.336    0.425   43.764   22.776    0.000
  337.750    0.326    0.423   45.634   22.815    0.000
  338.000    0.318    0.418   46.888   22.867    0.000
  338.250    0.321    0.416   48.139   22.082    0.000
  338.500    0.329    0.424   48.782   22.123    0.000
  338.750    0.349    0.416   48.206   22.173    0.000
  339.000    0.346    0.410   47.625   22.238    0.000
  339.250    0.347    0.411   47.041   21.439    0.000
  339.500    0.368    0.414   47.690   21.492    0.000
  339.750    0.369    0.406   47.711   21.529    0.000
  340.000    0.369    0.410   46.521   21.579    0.000
  340.250    0.363    0.420   44.715   21.619    0.000
  340.500    0.351    0.423   45.359   21.661    0.000
  340.750    0.348    0.427   47.221   21.705    0.000
  341.000    0.351    0.438   50.318   21.759    0.000
  341.250    0.357    0.445   52.180   20.974    0.000
  341.500    0.354    0.447   57.721   21.017    0.000
  341.750    0.354    0.444   55.304   21.893    0.000
  342.000    0.357    0.441   52.888   21.941    0.000
  342.250    0.365    0.437   50.473   21.974    0.000
  342.500    0.361    0.433   48.664   22.027    0.000
  342.750    0.356    0.429   48.698   22.080    0.000
  343.000    0.345    0.424   49.946   22.110    0.000
  343.250    0.339    0.418   52.425   22.162    0.000
  343.500    0.335    0.421   54.292   22.204    0.000
  343.750    0.330    0.427   57.390   22.253    0.000
  344.000    0.328    0.435   58.025   21.484    0.000
  344.250    0.332    0.439   57.446   21.531    0.000
  344.500    0.349    0.434   58.700   21.555    0.000
  344.750    0.349    0.436   58.735   21.601    0.000
  345.000    0.347    0.438   60.598   21.658    0.000
  345.250    0.350    0.436   60.014   21.694    0.000
  345.500    0.354    0.442   56.990   21.741    0.000
  345.750    0.356    0.448   55.179   22.616    0.000
  346.000    0.352    0.446   57.664   23.478    0.000
  346.250    0.338    0.423   58.916   25.169    0.000
  346.500    0.325    0.392   58.946   26.859    0.000
  346.750    0.277    0.353   54.691   26.904    0.000
  347.000    0.272    0.330   53.499   25.302    0.000
  347.250    0.271    0.326   54.142   23.698    0.000
  347.500    0.277    0.343   55.396   22.918    0.000
  347.750    0.338    0.414   57.871   22.150    0.000
  348.000    0.358    0.439   59.128   21.365    0.000
  348.250    0.354    0.448   60.383   16.809    0.000
  348.500    0.351    0.452   59.803   16.073    0.000
  348.750    0.345    0.457   57.385   15.750    0.000
  349.000    0.336    0.464   56.802   15.754    0.000
  349.250    0.339    0.465   58.057   16.089    0.000
  349.500    0.349    0.455   61.761   16.338    0.000
  349.750    0.337    0.447   65.463   17.167    0.000
  350.000    0.334    0.442   66.112   17.666    0.000
  350.250    0.330    0.436   62.471   17.918    0.000
  350.500    0.324    0.422   61.269   17.922    0.000
  350.750    0.337    0.416   60.078   17.350    0.000
  351.000    0.351    0.416   62.555   16.367    0.000
  351.250    0.365    0.419   64.421   14.643    0.000
  351.500    0.355    0.432   63.842   11.685    0.000
  351.750    0.322    0.454   64.485   10.291    0.000
  352.000    0.301    0.472   67.576    8.979    0.000
  352.250    0.291    0.484   71.281    7.420    0.000
  352.500    0.279    0.494   73.757    5.861    0.000
  352.750    0.277    0.495   73.181    5.207    0.000
  353.000    0.285    0.493   71.983    4.800    0.000
  353.250    0.264    0.507   73.862    4.558    0.000
  353.500    0.256    0.513   77.554    4.562    0.000
  353.750    0.269    0.521   88.605    4.979    0.000
  354.000    0.263    0.532   97.204    5.479    0.000
  354.250    0.264    0.517  105.811    5.812    0.000
  354.500    0.271    0.487  105.840    6.064    0.000
  354.750    0.281    0.475  101.585    5.821    0.000
  355.000    0.292    0.470   96.106    5.167    0.000
  355.250    0.302    0.465   86.340    4.595    0.000
  355.500    0.313    0.466   84.535    4.106    0.000
  355.750    0.319    0.529   88.237    3.617    0.000
  356.000    0.297    0.574   98.678    3.210    0.000
  356.250    0.267    0.591  106.057    2.886    0.000
  356.500    0.239    0.591  108.537    2.890    0.000
  356.750    0.220    0.582  107.957    2.896    0.000
  357.000    0.212    0.577  109.204    2.900    0.000
  357.250    0.211    0.574  108.623    2.822    0.000
  357.500    0.221    0.581  108.048    2.827    0.000
  357.750    0.224    0.609  111.746    2.832    0.000
  358.000    0.224    0.626  112.390    2.836    0.000
  358.250    0.220    0.626  114.872    2.758    0.000
  358.500    0.218    0.630  114.287    2.681    0.000
  358.750    0.222    0.631  110.650    2.685    0.000
  359.000    0.231    0.622  108.838    2.691    0.000
  359.250    0.228    0.620  104.581    2.859    0.000
