~VERSION INFORMATION
 VERS.                 2.0:   CWLS LOG ASCII STANDARD -VERSION 2.0
 WRAP.                  NO:   ONE LINE PER DEPTH STEP
~WELL INFORMATION BLOCK
#MNEM.UNIT           DATA                    DESCRIPTION OF MNEMONIC
#---------    -------------------            -------------------------------
# Generated from Intellog Unique Number	CS_67_68/WELL/840
WELL.         INTER-CITY MANUFACTURING       : Well_name    - WELL
LOC .         00/11-22-068-14W4/0            : Location     - LOCATION
UWI .         00/11-22-068-14W4/0            : Uwi          - UNIQUE WELL ID
ENTR.         SP                             : Entered      - ENTERED BY
SRVC.         SCHLUMBERGER                   : Scn          - SERVICE COMPANY
STRT.M        280                            : top_depth    - START DEPTH
STOP.M        474                            : bot_depth    - STOP DEPTH
STEP.M        0.25                           : increment    - STEP LENGTH
 NULL. -999.2500:NULL Value
~CURVE INFORMATION BLOCK
#MNEM UNIT       ERCB CURVE CODE    CURVE DESCRIPTION
#-----------   ------------------   ----------------------------------
DEPT.M        00 001 00 00         : DEPTH        - DEPTH
ILD .OHMM     00 120 00 00         : RESD         - DEEP RESISTIVITY (DIL)
DPHI.V/V      00 890 00 00         : PHID         - DENSITY POROSITY (LIMESTONE)
NPHI.V/V      00 330 00 00         : PHIN         - NEUTRON POROSITY (LIMESTONE)
GR  .API      00 310 00 00         : GR           - GAMMA RAY
~PARAMETER INFORMATION
#MNEM.UNIT           DATA             DESCRIPTION OF MNEMONIC
#---------         -----------     ------------------------------
GL  .M        564.76               : gl           - GROUND LEVEL ELEVATION
EREF.M        567.8                : kb           - ELEVATION OF DEPTH REFERENCE
DATM.M        564.76               : datum        - DATUM ELEVATION
TDD .M        471                  : tdd          - TOTAL DEPTH DRILLER
RUN .         ONE                  : Run          - RUN NUMBER
ENG .         BILL                 : Engineer     - RECORDING ENGINEER
WIT .         JIM                  : Witness      - WITNESSED BY
MUD .         GEL                  : Mud_type     - MUD TYPE
MATR.         LIMESTONE            : Logunit      - NEUTRON MATRIX
TMAX.C        21                   : BHT          - MAXIMUM RECORDED TEMPERATURE
BHTD.M        471                  : BHTDEP       - MAXIMUM RECORDED TEMPERATURE
MATR.         1                    : LOGUNIT      - NEUTRON MATRIX
RMT .C        25                   : MDTP         - TEMPERATURE OF MUD
NEUT.         1                    : NEUTRON      - NEUTRON TYPE
RESI.         0                    : RESIST       - RESISTIVITY TYPE
RMC .OHMM     0.25                 : RMC          - RESISTIVITY OF MUD CAKE
RMF .OHMM     0.25                 : RMF          - RESISTIVITY OF MUD FILTRATE
SUFT.C        15                   : SUFT         - SURFACE TEMPERATURE
~A  DEPTH     RESD     PHID     PHIN       GR
# ...
  323.500    2.276    0.286    0.433  125.048
  323.750    2.280    0.257    0.425  117.754
  324.000    2.271    0.247    0.441  114.414
  324.250    2.267    0.262    0.453  111.440
  324.500    2.254    0.260    0.447  109.740
  324.750    2.266    0.258    0.441  107.252
  325.000    2.283    0.270    0.437  105.128
  325.250    2.317    0.271    0.441  103.916
  325.500    2.356    0.256    0.429  105.807
  325.750    2.387    0.283    0.416  102.832
  326.000    2.405    0.298    0.417   97.789
  326.250    2.427    0.314    0.427   94.326
  326.500    2.422    0.319    0.422   92.081
  326.750    2.409    0.323    0.416   93.363
  327.000    2.373    0.307    0.426   95.497
  327.250    2.351    0.298    0.436   96.842
  327.500    2.329    0.285    0.435   93.561
  327.750    2.329    0.263    0.423   88.458
  328.000    2.337    0.278    0.411   86.333
  328.250    2.328    0.303    0.418   84.331
  328.500    2.307    0.310    0.413   83.181
  328.750    2.264    0.309    0.420   81.483
  329.000    2.185    0.305    0.430   80.332
  329.250    2.089    0.295    0.422   84.838
  329.500    2.062    0.291    0.421   89.893
  329.750    2.046    0.297    0.425   93.425
  330.000    2.039    0.309    0.425   97.749
  330.250    2.088    0.305    0.420  101.769
  330.500    2.144    0.298    0.429  102.809
  330.750    2.196    0.308    0.442  102.450
  331.000    2.262    0.293    0.451  102.332
  331.250    2.339    0.285    0.441  101.851
  331.500    2.419    0.286    0.436  101.491
  331.750    2.497    0.286    0.430  105.755
  332.000    2.539    0.264    0.445  108.253
  332.250    2.572    0.245    0.456  111.665
  332.500    2.591    0.246    0.457  111.183
  332.750    2.625    0.251    0.454  114.047
  333.000    2.664    0.238    0.454  118.067
  333.250    2.786    0.229    0.452  121.966
  333.500    2.806    0.221    0.450  124.160
  333.750    2.838    0.233    0.448  126.355
  334.000    2.886    0.240    0.447  126.421
  334.250    2.912    0.228    0.449  123.324
  334.500    2.967    0.258    0.452  119.740
  334.750    2.995    0.273    0.457  114.636
  335.000    3.034    0.273    0.462  111.356
  335.250    3.079    0.261    0.462  114.829
  335.500    3.108    0.246    0.459  119.275
  335.750    3.119    0.236    0.460  121.652
  336.000    3.084    0.224    0.464  125.916
  336.250    2.988    0.217    0.469  128.110
  336.500    2.927    0.207    0.470  127.324
  336.750    2.943    0.223    0.443  121.855
  337.000    2.998    0.243    0.415  117.908
  337.250    3.066    0.264    0.404  116.391
  337.500    3.176    0.228    0.409  115.362
  337.750    3.254    0.227    0.416  113.664
  338.000    3.315    0.246    0.418  111.479
  338.250    3.333    0.263    0.410  115.317
  338.500    3.339    0.245    0.407  118.667
  338.750    3.357    0.230    0.417  118.490
  339.000    3.382    0.222    0.426  116.002
  339.250    3.543    0.224    0.414  117.223
  339.500    3.576    0.221    0.393  119.966
  339.750    3.623    0.214    0.379  121.734
  340.000    3.691    0.211    0.379  116.752
  340.250    3.802    0.212    0.379  114.567
  340.500    3.859    0.219    0.392  117.493
  340.750    3.888    0.213    0.397  120.356
  341.000    3.902    0.193    0.406  122.855
  341.250    3.902    0.175    0.428  122.435
  341.500    3.894    0.208    0.430  124.083
  341.750    3.887    0.198    0.428  125.851
  342.000    3.865    0.191    0.437  128.291
  342.250    3.814    0.208    0.449  124.767
  342.500    3.553    0.233    0.448  116.317
  342.750    3.335    0.257    0.442  108.840
  343.000    3.153    0.266    0.438  100.025
  343.250    2.981    0.246    0.440  101.248
  343.500    2.814    0.240    0.441  103.320
  343.750    2.695    0.261    0.441  104.481
  344.000    2.582    0.276    0.451  102.844
  344.250    2.441    0.291    0.445  100.234
  344.500    2.401    0.292    0.434   98.597
  344.750    2.326    0.267    0.427   96.961
  345.000    2.236    0.277    0.419   95.264
  345.250    1.898    0.291    0.426   94.114
  345.500    1.849    0.301    0.438   93.146
  345.750    1.804    0.303    0.449   92.602
  346.000    1.781    0.306    0.458   91.816
  346.250    1.767    0.310    0.455   91.152
  346.500    1.748    0.308    0.451   88.845
  346.750    1.734    0.304    0.446   85.139
  347.000    1.731    0.316    0.447   82.164
  347.250    1.731    0.321    0.449   82.960
  347.500    1.731    0.322    0.433   87.162
  347.750    1.731    0.304    0.420   89.722
  348.000    1.740    0.308    0.408   90.700
  348.250    1.737    0.316    0.397   88.820
  348.500    1.740    0.323    0.410   86.635
  348.750    1.756    0.319    0.418   84.573
  349.000    1.776    0.317    0.420   85.308
  349.250    1.823    0.312    0.415   91.457
  349.500    1.902    0.295    0.411   97.301
  349.750    1.986    0.280    0.407  103.754
  350.000    2.096    0.266    0.404  108.564
  350.250    2.287    0.223    0.397  113.374
  350.500    2.553    0.221    0.391  116.908
  350.750    2.808    0.231    0.387  121.780
  351.000    3.014    0.233    0.388  126.042
  351.250    3.128    0.207    0.392  126.231
  351.500    3.175    0.196    0.390  121.673
  351.750    3.116    0.203    0.385  112.981
  352.000    3.007    0.221    0.382  106.841
  352.250    2.849    0.238    0.386   98.513
  352.500    2.719    0.243    0.377   97.606
  352.750    2.644    0.231    0.372  102.417
  353.000    2.604    0.217    0.384  104.976
  353.250    2.604    0.215    0.379  107.171
  353.500    2.604    0.215    0.394  109.063
  353.750    2.604    0.200    0.407  102.741
  354.000    2.618    0.242    0.416   96.299
  354.250    2.628    0.252    0.420   92.107
  354.500    2.627    0.267    0.426   96.126
  354.750    2.588    0.280    0.425  103.979
  355.000    2.536    0.289    0.422  109.824
  355.250    2.493    0.280    0.425  115.668
  355.500    2.447    0.273    0.441  120.479
  355.750    2.397    0.265    0.454  125.229
  356.000    2.344    0.250    0.439  129.978
  356.250    2.309    0.248    0.429  134.302
  356.500    2.292    0.298    0.459  129.501
  356.750    2.296    0.329    0.484  124.823
  357.000    2.317    0.355    0.517  122.030
  357.250    2.378    0.256    0.529  119.907
  357.500    2.478    0.222    0.471  118.755
  357.750    2.601    0.212    0.433  115.111
  358.000    2.649    0.231    0.442  110.615
  358.250    2.418    0.247    0.452  102.957
  358.500    2.211    0.278    0.444   95.783
  358.750    2.059    0.291    0.436   87.090
  359.000    1.951    0.303    0.432   84.541
  359.250    1.890    0.307    0.433   84.425
  359.500    1.855    0.298    0.434   83.821
  359.750    1.844    0.293    0.431   83.036
  360.000    1.851    0.295    0.429   84.014
  360.250    1.872    0.301    0.440   87.548
  360.500    1.896    0.310    0.449   89.438
  360.750    1.910    0.312    0.454   90.234
  361.000    1.914    0.313    0.449   89.144
  361.250    1.921    0.293    0.434   92.495
  361.500    1.935    0.284    0.425   96.880
  361.750    1.956    0.277    0.426  101.264
  362.000    1.971    0.263    0.449  107.535
  362.250    2.004    0.241    0.461  113.684
  362.500    2.049    0.221    0.476  118.676
  362.750    2.107    0.227    0.493  115.519
  363.000    2.224    0.244    0.473  108.226
  363.250    2.441    0.264    0.456  104.155
  363.500    2.690    0.259    0.441   99.172
  363.750    3.064    0.160    0.408   95.527
  364.000    3.382    0.032    0.331   90.667
  364.250    3.839    0.007    0.267   87.325
  364.500    4.374    0.058    0.223   72.793
  364.750    4.206    0.172    0.317   82.531
  365.000    3.490    0.238    0.386   91.660
  365.250    3.109    0.263    0.419   98.599
  365.500    2.744    0.274    0.434   98.969
  365.750    2.444    0.276    0.447  102.807
  366.000    2.408    0.269    0.445  106.097
  366.250    2.448    0.254    0.427  107.805
  366.500    2.490    0.241    0.428  107.080
  366.750    2.628    0.228    0.442  105.869
