~VERSION INFORMATION
 VERS.                 2.0:   CWLS LOG ASCII STANDARD -VERSION 2.0
 WRAP.                  NO:   ONE LINE PER DEPTH STEP
~WELL INFORMATION BLOCK
#MNEM.UNIT           DATA                    DESCRIPTION OF MNEMONIC
#---------    -------------------            -------------------------------
# Generated from Intellog Unique Number	CW_70_72/WELL/1063
NULL.         -999.25                        : NULL_VALUE
WELL.         JOFFRE ET AL CALLW 11-35       : Well_name    - WELL              
LOC .         11-35-072-20W4                 : Location     - LOCATION          
UWI .         00/11-35-072-20W4/0            : Uwi          - UNIQUE WELL ID    
ENTR.         JAYE                           : Entered      - ENTERED BY        
SRVC.         SCHLUMBERGER                   : Scn          - SERVICE COMPANY   
DATE.         5 JAN 79                       : Date         - LOG DATE          
STRT.M        355                            : top_depth    - START DEPTH       
STOP.M        565                            : bot_depth    - STOP DEPTH        
STEP.M        0.25                           : increment    - STEP LENGTH       
~CURVE INFORMATION BLOCK
#MNEM UNIT       ERCB CURVE CODE    CURVE DESCRIPTION
#-----------   ------------------   ----------------------------------
DEPT.M        00 001 00 00         : DEPTH        - DEPTH                       
DPHI.V/V      00 890 00 00         : PHID         - DENSITY POROSITY (SANDSTONE)
NPHI.V/V      00 330 00 00         : PHIN         - NEUTRON POROSITY (SANDSTONE)
GR  .API      00 310 00 00         : GR           - GAMMA RAY                   
CALI.MM       00 280 01 00         : CAL          - CALIPER                     
ILD .OHMM     00 120 00 00         : RESD         - DEEP RESISTIVITY (DIL)      
~PARAMETER INFORMATION       
#MNEM.UNIT           DATA             DESCRIPTION OF MNEMONIC
#---------         -----------     ------------------------------
GL  .M        643.2                : gl           - GROUND LEVEL ELEVATION      
EREF.M        646.5                : kb           - ELEVATION OF DEPTH REFERENCE
DATM.M        643.2                : datum        - DATUM ELEVATION             
TDD .M        605                  : tdd          - TOTAL DEPTH DRILLER         
RUN .         ONE                  : Run          - RUN NUMBER                  
WIT .         O'REILY              : Witness      - WITNESSED BY                
BASE.         LLOYD                : Branch       - HOME BASE OF LOGGING UNIT   
MUD .         GEL CHEM             : Mud_type     - MUD TYPE                    
MATR.         SANDSTONE            : Logunit      - NEUTRON MATRIX              
TMAX.C        0                    : BHT          - MAXIMUM RECORDED TEMPERATURE
BHTD.M        604.5                : BHTDEP       - MAXIMUM RECORDED TEMPERATURE
RMT .C        10                   : MDTP         - TEMPERATURE OF MUD          
MUDD.KG/M     1102                 : MWT          - MUD DENSITY                 
NEUT.         1                    : NEUTRON      - NEUTRON TYPE                
RESI.         0                    : RESIST       - RESISTIVITY TYPE            
RM  .OHMM     5.21                 : RM           - RESISTIVITY OF MUD          
RMC .OHMM     0                    : RMC          - RESISTIVITY OF MUD CAKE     
RMF .OHMM     3.6                  : RMF          - RESISTIVITY OF MUD FILTRATE 
SUFT.C        0                    : SUFT         - SURFACE TEMPERATURE         
~A  DEPTH     PHID     PHIN       GR      CAL     RESD
# ...
  464.500    0.314    0.443  137.763  161.860   13.505
  464.750    0.312    0.451  137.462  161.768   10.674
  465.000    0.307    0.453  137.222  162.089    7.622
  465.250    0.298    0.446  140.745  162.515    6.171
  465.500    0.297    0.438  142.974  162.834    5.185
  465.750    0.306    0.430  143.720  163.154    4.445
  466.000    0.284    0.426  145.145  163.267    4.158
  466.250    0.290    0.423  145.153  163.382    4.210
  466.500    0.295    0.419  143.865  164.217    4.239
  466.750    0.298    0.411  141.343  163.817    4.333
  467.000    0.286    0.416  138.821  163.314    4.411
  467.250    0.291    0.431  137.903  162.606    4.526
  467.500    0.289    0.433  138.281  162.105    4.608
  467.750    0.299    0.429  139.336  162.837    4.666
  468.000    0.288    0.424  141.563  164.905    4.706
  468.250    0.260    0.423  145.148  168.822    4.750
  468.500    0.227    0.417  148.979  172.945    4.773
  468.750    0.228    0.435  152.564  178.098    4.815
  469.000    0.237    0.455  156.703  180.165    4.822
  469.250    0.247    0.478  151.838  181.926    4.827
  469.500    0.230    0.481  149.131  180.498    4.826
  469.750    0.228    0.474  147.904  179.893    4.842
  470.000    0.214    0.464  146.061  179.905    4.868
  470.250    0.226    0.474  147.981  180.327    4.864
  470.500    0.235    0.495  149.838  182.807    4.835
  470.750    0.245    0.510  151.696  189.603    4.806
  471.000    0.270    0.526  152.628  194.343    4.777
  471.250    0.230    0.492  153.560  190.038    4.723
  471.500    0.234    0.475  156.713  183.779    4.668
  471.750    0.228    0.461  157.521  180.296    4.580
  472.000    0.229    0.440  154.383  180.720    4.503
  472.250    0.224    0.423  146.619  179.293    4.477
  472.500    0.209    0.407  145.022  176.117    4.458
  472.750    0.231    0.423  148.299  173.662    4.382
  473.000    0.236    0.426  149.416  172.647    4.300
  473.250    0.202    0.427  149.793  172.761    4.066
  473.500    0.215    0.433  148.258  175.755    3.802
  473.750    0.213    0.437  150.548  177.514    3.556
  474.000    0.203    0.426  155.982  177.525    3.382
  474.250    0.196    0.446  159.505  177.228    3.515
  474.500    0.178    0.462  155.379  175.596    3.705
  474.750    0.222    0.441  146.073  171.392    4.108
  475.000    0.216    0.422  142.071  165.750    4.699
  475.250    0.192    0.401  141.955  167.922    5.114
  475.500    0.217    0.410  138.385  169.888    5.415
  475.750    0.222    0.421  137.528  170.105    5.563
  476.000    0.232    0.420  139.509  170.117    5.136
  476.250    0.216    0.425  139.331  169.921    4.603
  476.500    0.222    0.424  138.845  169.626    4.006
  476.750    0.201    0.436  144.958  169.640    3.564
  477.000    0.202    0.431  147.741  169.650    3.351
  477.250    0.203    0.425  143.800  169.663    3.501
  477.500    0.202    0.413  144.671  169.468    3.926
  477.750    0.212    0.399  147.824  169.171    4.582
  478.000    0.223    0.403  151.285  169.286    5.203
  478.250    0.230    0.419  148.455  169.708    5.673
  478.500    0.230    0.428  146.982  169.103    5.798
  478.750    0.211    0.431  144.707  168.703    5.949
  479.000    0.200    0.437  141.445  172.109    6.023
  479.250    0.204    0.443  140.219  173.765    6.063
  479.500    0.212    0.440  140.719  173.674    6.107
  479.750    0.218    0.430  141.898  172.349    6.149
  480.000    0.228    0.416  144.557  170.615    6.157
  480.250    0.232    0.415  144.503  168.982    6.167
  480.500    0.237    0.413  145.373  167.347    6.140
  480.750    0.219    0.400  148.094  166.743    6.173
  481.000    0.222    0.395  148.348  172.101    6.192
  481.250    0.224    0.406  146.567  175.300    6.189
  481.500    0.207    0.414  146.082  175.929    6.141
  481.750    0.210    0.425  145.656  175.734    6.073
  482.000    0.196    0.425  143.010  173.586    6.146
  482.250    0.206    0.427  135.739  169.590    6.009
  482.500    0.197    0.430  129.702  167.237    5.897
  482.750    0.211    0.429  130.327  168.073    5.830
  483.000    0.232    0.415  134.527  168.289    5.794
  483.250    0.250    0.428  139.099  168.198    5.803
  483.500    0.245    0.450  139.723  168.107    5.714
  483.750    0.239    0.430  135.351  167.710    5.609
  484.000    0.230    0.421  128.820  167.104    5.554
  484.250    0.156    0.389  121.919  166.601    5.501
  484.500    0.114    0.300  116.067  170.107    5.406
  484.750    0.093    0.263  114.347  174.746    5.354
  485.000    0.136    0.303  116.636  173.318    5.293
  485.250    0.195    0.337  117.321  170.040    5.090
  485.500    0.146    0.317  116.096  171.594    4.957
  485.750    0.128    0.286  113.635  173.353    4.846
  486.000    0.121    0.265  109.078  174.600    4.773
  486.250    0.107    0.248  109.702  175.332    4.987
  486.500    0.140    0.276  112.546  174.623    5.570
  486.750    0.190    0.348  116.501  172.375    6.325
  487.000    0.300    0.419  115.089  170.123    7.466
  487.250    0.266    0.419  111.211  169.004    8.895
  487.500    0.216    0.370  108.566  170.251    9.878
  487.750    0.156    0.301  106.352  172.626   10.113
  488.000    0.200    0.333  110.122  173.871   10.128
  488.250    0.283    0.392  114.940  165.659    9.792
  488.500    0.284    0.434  116.181  163.823    9.972
  488.750    0.276    0.435  117.914  163.731   10.227
  489.000    0.271    0.437  120.389  164.669    9.745
  489.250    0.262    0.438  119.225  165.707    8.980
  489.500    0.274    0.423  117.936  167.467    8.019
  489.750    0.286    0.421  115.477  168.302    7.016
  490.000    0.290    0.426  114.990  168.621    6.242
  490.250    0.282    0.441  115.490  168.427    5.805
  490.500    0.292    0.441  117.471  168.337    5.510
  490.750    0.298    0.426  121.982  169.480    5.337
  491.000    0.280    0.422  125.318  170.313    5.226
  491.250    0.273    0.434  129.519  169.091    5.148
  491.500    0.273    0.436  130.452  167.254    5.137
  491.750    0.269    0.424  129.904  166.751    5.134
  492.000    0.272    0.428  130.035  167.071    5.076
  492.250    0.286    0.436  126.958  168.112    4.990
  492.500    0.274    0.444  122.401  169.459    4.869
  492.750    0.243    0.443  122.964  170.603    4.777
  493.000    0.251    0.438  123.525  170.511    4.689
  493.250    0.259    0.440  123.533  170.009    4.626
  493.500    0.257    0.439  121.504  168.993    4.597
  493.750    0.240    0.433  113.123  168.593    4.545
  494.000    0.245    0.418  104.063  169.018    4.518
  494.250    0.201    0.400   98.643  170.057    4.493
  494.500    0.182    0.367   98.897  170.788    4.464
  494.750    0.193    0.370  103.222  171.108    4.422
  495.000    0.221    0.373  111.370  169.784    4.396
  495.250    0.237    0.401  120.012  169.178    4.354
  495.500    0.218    0.436  128.654  174.844    4.350
  495.750    0.211    0.456  131.128  181.538    4.356
  496.000    0.203    0.463  127.805  185.148    4.420
  496.250    0.200    0.472  128.983  179.713    4.532
  496.500    0.203    0.469  133.308  180.134    4.897
  496.750    0.228    0.460  136.214  182.100    5.310
  497.000    0.224    0.468  137.517  183.450    5.746
  497.250    0.228    0.453  136.784  183.049    6.500
  497.500    0.216    0.451  133.090  182.340    6.582
  497.750    0.219    0.461  132.048  182.045    5.976
  498.000    0.228    0.471  132.981  182.056    5.386
  498.250    0.237    0.484  132.926  181.759    4.774
  498.500    0.247    0.475  133.552  184.034    4.288
  498.750    0.229    0.467  132.941  182.399    3.995
  499.000    0.222    0.480  128.754  182.309    3.841
  499.250    0.230    0.493  123.950  181.395    3.748
  499.500    0.187    0.457  119.084  186.958    3.658
  499.750    0.151    0.419  117.241  183.989    3.635
  500.000    0.155    0.438  121.195  179.273    3.641
  500.250    0.211    0.448  123.916  180.830    3.645
  500.500    0.203    0.431  121.457  181.660    3.698
  500.750    0.200    0.418  123.870  185.683    3.773
