~VERSION INFORMATION
 VERS.                 2.0:   CWLS LOG ASCII STANDARD -VERSION 2.0
 WRAP.                  NO:   ONE LINE PER DEPTH STEP
~WELL INFORMATION BLOCK
#MNEM.UNIT           DATA                    DESCRIPTION OF MNEMONIC
#---------    -------------------            -------------------------------
# Generated from Intellog Unique Number	CW_73_75/WELL/1034
WELL.         SUNDANCE MCMORAN MARTEN H 11-0 : Well_name    - WELL
LOC .         00/11-04-074-24W4/0            : Location     - LOCATION
UWI .         00/11-04-074-24W4/0            : Uwi          - UNIQUE WELL ID
ENTR.         JAYE                           : Entered      - ENTERED BY
SRVC.         SCHLUMBERGER                   : Scn          - SERVICE COMPANY
DATE.         2 FEB 73                       : Date         - LOG DATE
STRT.M        381                            : top_depth    - START DEPTH
STOP.M        597.5                          : bot_depth    - STOP DEPTH
STEP.M        0.25                           : increment    - STEP LENGTH
 NULL. -999.2500:NULL Value
~CURVE INFORMATION BLOCK
#MNEM UNIT       ERCB CURVE CODE    CURVE DESCRIPTION
#-----------   ------------------   ----------------------------------
DEPT.M        00 001 00 00         : DEPTH        - DEPTH
ILD .OHMM     00 120 00 00         : RESD         - DEEP RESISTIVITY (DIL)
DPHI.V/V      00 890 00 00         : PHID         - DENSITY POROSITY (SANDSTONE)
NPHI.V/V      00 330 00 00         : PHIN         - NEUTRON POROSITY (SANDSTONE)
CALI.MM       00 280 01 00         : CAL          - CALIPER
GR  .API      00 310 00 00         : GR           - GAMMA RAY
~PARAMETER INFORMATION
#MNEM.UNIT           DATA             DESCRIPTION OF MNEMONIC
#---------         -----------     ------------------------------
GL  .M        642.214              : gl           - GROUND LEVEL ELEVATION
EREF.M        644.5                : kb           - ELEVATION OF DEPTH REFERENCE
DATM.M        642.214              : datum        - DATUM ELEVATION
TDD .M        600.456              : tdd          - TOTAL DEPTH DRILLER
RUN .         ONE                  : Run          - RUN NUMBER
ENG .         DESROCHES            : Engineer     - RECORDING ENGINEER
WIT .         GREEN                : Witness      - WITNESSED BY
BASE.         RD                   : Branch       - HOME BASE OF LOGGING UNIT
MUD .         GEL CHEM             : Mud_type     - MUD TYPE
MATR.         SANDSTONE            : Logunit      - NEUTRON MATRIX
TMAX.C        26.1111              : BHT          - MAXIMUM RECORDED TEMPERATURE
BHTD.M        600.456              : BHTDEP       - MAXIMUM RECORDED TEMPERATURE
RMT .C        26.1111              : MDTP         - TEMPERATURE OF MUD
MUDD.KG/M     1104                 : MWT          - MUD DENSITY
NEUT.         1                    : NEUTRON      - NEUTRON TYPE
RESI.         0                    : RESIST       - RESISTIVITY TYPE
RM  .OHMM     4.6                  : RM           - RESISTIVITY OF MUD
RMC .OHMM     0                    : RMC          - RESISTIVITY OF MUD CAKE
RMF .OHMM     5.47                 : RMF          - RESISTIVITY OF MUD FILTRATE
SUFT.C        -17.7778             : SUFT         - SURFACE TEMPERATURE
~A  DEPTH     RESD     PHID     PHIN      CAL       GR
# ...
  490.500    6.279    0.205    0.431  126.175   71.181
  490.750    6.107    0.209    0.434  128.570   66.860
  491.000    5.842    0.230    0.437  133.732   65.500
  491.250    5.537    0.222    0.429  137.758   65.406
  491.500    5.277    0.205    0.423  142.818   64.347
  491.750    5.076    0.234    0.413  145.830   63.167
  492.000    4.812    0.245    0.409  147.203   62.588
  492.250    4.502    0.256    0.450  148.068   64.248
  492.500    4.534    0.281    0.458  148.830   64.272
  492.750    4.737    0.289    0.437  149.082   62.610
  493.000    5.068    0.283    0.458  148.915   61.187
  493.250    5.522    0.283    0.457  148.352   58.496
  493.500    5.738    0.229    0.441  147.892   59.006
  493.750    5.940    0.206    0.412  147.937   59.761
  494.000    6.003    0.206    0.376  148.185   58.159
  494.250    6.001    0.225    0.374  149.154   56.674
  494.500    5.880    0.233    0.424  149.402   54.646
  494.750    5.708    0.208    0.420  149.756   53.405
  495.000    5.410    0.227    0.429  149.389   55.066
  495.250    5.242    0.224    0.461  149.025   57.928
  495.500    5.250    0.226    0.460  147.636   58.800
  495.750    5.607    0.260    0.447  144.513   58.586
  496.000    5.836    0.218    0.431  142.213   57.105
  496.250    6.085    0.211    0.415  142.259   56.346
  496.500    6.334    0.192    0.403  143.013   56.916
  496.750    6.438    0.184    0.393  144.389   60.746
  497.000    6.330    0.200    0.386  145.763   62.587
  497.250    6.236    0.176    0.398  147.346   62.613
  497.500    6.042    0.191    0.404  148.211   62.639
  497.750    5.664    0.202    0.410  148.354   62.848
  498.000    5.339    0.208    0.419  149.528   64.323
  498.250    5.212    0.235    0.438  150.596   68.335
  498.500    5.201    0.240    0.448  151.558   75.246
  498.750    5.305    0.191    0.439  152.530   83.061
  499.000    5.593    0.169    0.420  153.603   89.247
  499.250    5.811    0.196    0.435  153.952   96.701
  499.500    5.863    0.199    0.443  154.300  100.712
  499.750    5.904    0.170    0.439  154.655  102.370
  500.000    5.838    0.171    0.428  154.706  100.828
  500.250    5.761    0.183    0.446  154.945   99.043
  500.500    5.613    0.171    0.453  155.617   97.561
  500.750    5.663    0.173    0.450  155.863   96.019
  501.000    5.745    0.180    0.440  156.315   95.138
  501.250    5.807    0.185    0.421  156.152   97.099
  501.500    5.901    0.195    0.419  156.102  103.587
  501.750    5.943    0.169    0.429  156.142  104.218
  502.000    6.018    0.159    0.428  156.291  101.407
  502.250    6.049    0.175    0.443  156.640   98.715
  502.500    6.025    0.177    0.460  156.383  102.546
  502.750    6.090    0.176    0.467  156.322  100.099
  503.000    6.132    0.175    0.464  156.372   97.288
  503.250    6.233    0.158    0.458  156.312   95.381
  503.500    6.334    0.169    0.449  157.077   93.899
  503.750    6.367    0.140    0.453  157.943   93.141
  504.000    6.436    0.124    0.450  158.805   95.885
  504.250    6.457    0.151    0.441  159.667  101.587
  504.500    6.455    0.155    0.438  160.120   99.381
  504.750    6.465    0.166    0.443  160.474   97.717
  505.000    6.451    0.150    0.455  159.905   97.865
  505.250    6.508    0.152    0.453  159.653   95.538
  505.500    6.542    0.146    0.445  159.386   93.994
  505.750    6.649    0.159    0.438  159.634   96.315
  506.000    6.732    0.140    0.434  160.904  100.208
  506.250    6.867    0.162    0.415  162.692  101.083
  506.500    6.954    0.169    0.411  162.534   98.994
  506.750    6.978    0.180    0.434  162.066   97.027
  507.000    6.886    0.186    0.432  161.807   98.624
  507.250    6.709    0.184    0.420  161.551  100.463
  507.500    6.537    0.174    0.411  161.594  104.898
  507.750    6.416    0.150    0.416  161.330  104.562
  508.000    6.332    0.172    0.431  161.070  101.570
  508.250    6.307    0.175    0.440  160.604  102.566
  508.500    6.351    0.173    0.419  159.831  103.073
  508.750    6.431    0.166    0.431  159.158  100.989
  509.000    6.453    0.160    0.455  159.414   99.022
  509.250    6.618    0.161    0.458  159.768   98.809
  509.500    7.017    0.155    0.448  161.037  105.295
  509.750    8.259    0.143    0.443  162.614  113.051
  510.000    9.937    0.169    0.453  166.547  112.052
  510.250   11.761    0.118    0.454  164.955  101.753
  510.500   13.053    0.170    0.457  159.887   81.613
  510.750   12.931    0.272    0.458  153.292   72.403
  511.000   13.166    0.266    0.457  150.377   68.685
  511.250   13.554    0.273    0.454  150.007   67.144
  511.500   14.133    0.263    0.453  150.459   66.144
  511.750   14.874    0.256    0.452  151.324   64.665
  512.000   16.119    0.240    0.449  152.500   63.300
  512.250   17.342    0.216    0.445  152.644   61.636
  512.500   19.071    0.177    0.432  153.205   60.153
  512.750   19.312    0.139    0.385  153.762   58.428
  513.000   18.679    0.041    0.314  155.234   59.243
  513.250   18.433    0.016    0.303  155.692   60.958
  513.500   18.496    0.058    0.326  156.353   63.404
  513.750   18.524    0.110    0.365  158.344   64.333
  514.000   18.723    0.196    0.411  160.329   62.005
  514.250   19.133    0.243    0.438  159.655   61.673
  514.500   19.268    0.236    0.463  155.921   62.786
  514.750   18.163    0.238    0.457  154.020   63.898
  515.000   17.343    0.226    0.456  153.559   63.987
  515.250   16.348    0.240    0.461  154.520   64.077
  515.500   15.929    0.219    0.463  157.537   64.281
  515.750   16.918    0.200    0.465  159.627   65.637
  516.000   17.099    0.235    0.464  157.930   65.484
  516.250   16.845    0.231    0.461  154.300   66.175
  516.500   17.119    0.215    0.457  152.917   66.806
  516.750   17.885    0.220    0.455  152.960   65.864
  517.000   17.846    0.232    0.460  153.725   65.411
  517.250   17.103    0.230    0.462  154.271   67.126
  517.500   16.360    0.206    0.462  155.657   68.119
  517.750   16.176    0.213    0.463  156.104   66.697
  518.000   16.171    0.237    0.462  156.561   68.717
  518.250   16.494    0.258    0.459  156.706   71.340
  518.500   16.826    0.231    0.455  156.958   71.127
  518.750   17.838    0.244    0.452  156.999   69.100
  519.000   18.601    0.245    0.458  157.255   67.979
  519.250   19.395    0.235    0.463  157.307   69.757
  519.500   19.822    0.236    0.464  157.447   70.450
  519.750   20.071    0.233    0.465  157.498   68.123
  520.000   20.213    0.225    0.463  157.543   66.279
  520.250   19.985    0.233    0.463  157.377   64.854
  520.500   19.651    0.236    0.461  157.122   66.874
  520.750   19.465    0.224    0.458  156.959   72.032
  521.000   19.282    0.208    0.450  157.106   74.598
  521.250   19.099    0.223    0.451  157.151   72.993
  521.500   18.953    0.214    0.458  157.510   72.056
  521.750   18.912    0.204    0.462  157.652   71.718
  522.000   18.941    0.194    0.464  157.811   69.450
  522.250   19.356    0.187    0.467  157.747   66.218
  522.500   19.781    0.221    0.466  157.997   66.427
  522.750   20.551    0.237    0.463  157.844   68.082
  523.000   21.156    0.237    0.458  157.986   65.396
  523.250   21.502    0.248    0.456  157.928   66.088
  523.500   21.652    0.240    0.460  158.075   68.228
  523.750   21.567    0.237    0.465  158.121   71.089
  524.000   21.285    0.236    0.467  158.275   74.799
  524.250   20.852    0.227    0.468  158.328   74.826
  524.500   20.317    0.237    0.468  158.357   69.662
  524.750   19.650    0.239    0.467  158.508   68.844
  525.000   18.866    0.239    0.466  158.970   69.718
  525.250   18.348    0.245    0.465  159.011   70.471
  525.500   17.878    0.250    0.463  158.952   70.432
  525.750   17.259    0.241    0.452  159.000   69.014
  526.000   16.662    0.218    0.455  159.052   68.374
  526.250   15.939    0.202    0.447  159.189   67.194
  526.500   15.219    0.190    0.448  159.337   65.472
  526.750   14.478    0.218    0.463  159.696   66.220
