~VERSION INFORMATION
 VERS.                 2.0:   CWLS LOG ASCII STANDARD -VERSION 2.0
 WRAP.                  NO:   ONE LINE PER DEPTH STEP
~WELL INFORMATION BLOCK
#MNEM.UNIT           DATA                    DESCRIPTION OF MNEMONIC
#---------    -------------------            -------------------------------
# Generated from Intellog Unique Number	CC_84_87/WELL/2549
WELL.         HOMESTEAD ET AL WATCHUSK       : Well_name    - WELL
LOC .         00/10-16-084-03W4/0            : Location     - LOCATION
UWI .         00/10-16-084-03W400            : Uwi          - UNIQUE WELL ID
ENTR.         JHS                            : Entered      - ENTERED BY
SRVC.         SCHLUMBERGER                   : Scn          - SERVICE COMPANY
STRT.M        86.563                         : top_depth    - START DEPTH
STOP.M        298.563                        : bot_depth    - STOP DEPTH
STEP.M        0.25                           : increment    - STEP LENGTH
 NULL. -999.2500:NULL Value
~CURVE INFORMATION BLOCK
#MNEM UNIT       ERCB CURVE CODE    CURVE DESCRIPTION
#-----------   ------------------   ----------------------------------
DEPT.M        00 001 00 00         : DEPTH        - DEPTH
ILD .OHMM     00 120 00 00         : RESD         - DEEP RESISTIVITY (DIL)
GR  .API      00 310 00 00         : GR           - GAMMA RAY
DPHI.V/V      00 890 00 00         : PHID         - DENSITY POROSITY (SANDSTONE)
NPHI.V/V      00 330 00 00         : PHIN         - NEUTRON POROSITY (SANDSTONE)
~PARAMETER INFORMATION
#MNEM.UNIT           DATA             DESCRIPTION OF MNEMONIC
#---------         -----------     ------------------------------
GL  .M        454.457              : gl           - GROUND LEVEL ELEVATION
EREF.M        458.114              : kb           - ELEVATION OF DEPTH REFERENCE
DATM.M        458.114              : datum        - DATUM ELEVATION
TDD .M        312.42               : tdd          - TOTAL DEPTH DRILLER
RUN .         ONE                  : Run          - RUN NUMBER
ENG .         BILL                 : Engineer     - RECORDING ENGINEER
WIT .         JIM                  : Witness      - WITNESSED BY
MUD .         GEL                  : Mud_type     - MUD TYPE
MATR.         SANDSTONE            : Logunit      - NEUTRON MATRIX
TMAX.C        19.4444              : BHT          - MAXIMUM RECORDED TEMPERATURE
BHTD.M        312.42               : BHTDEP       - MAXIMUM RECORDED TEMPERATURE
MATR.         1                    : LOGUNIT      - NEUTRON MATRIX
RMT .C        25                   : MDTP         - TEMPERATURE OF MUD
NEUT.         1                    : NEUTRON      - NEUTRON TYPE
RESI.         0                    : RESIST       - RESISTIVITY TYPE
RMC .OHMM     0.25                 : RMC          - RESISTIVITY OF MUD CAKE
RMF .OHMM     0.25                 : RMF          - RESISTIVITY OF MUD FILTRATE
SUFT.C        15                   : SUFT         - SURFACE TEMPERATURE
~A  DEPTH     RESD       GR     PHID     PHIN
# ...
  260.563    3.170   59.830    0.272    0.368
  260.813    3.213   58.067    0.251    0.410
  261.063    3.352   47.016    0.293    0.439
  261.313    3.466   36.352    0.306    0.401
  261.563    3.476   32.612    0.271    0.351
  261.813    3.390   35.054    0.265    0.347
  262.063    3.240   39.669    0.294    0.348
  262.313    3.276   44.371    0.284    0.354
  262.563    3.415   48.441    0.275    0.382
  262.813    3.618   66.355    0.229    0.411
  263.063    3.839   78.145    0.196    0.461
  263.313    4.104   68.825    0.201    0.515
  263.563    4.350   60.095    0.183    0.478
  263.813    4.172   49.100    0.220    0.390
  264.063    4.011   47.307    0.248    0.366
  264.313    3.933   60.849    0.278    0.417
  264.563    4.099   74.485    0.293    0.493
  264.813    4.516   74.898    0.275    0.534
  265.063    4.954   68.492    0.262    0.497
  265.313    5.653   60.615    0.229    0.404
  265.563    5.733   52.827    0.207    0.338
  265.813    5.554   49.177    0.177    0.337
  266.063    5.311   48.561    0.171    0.346
  266.313    4.897   45.482    0.213    0.326
  266.563    4.544   39.365    0.243    0.322
  266.813    4.142   36.432    0.240    0.334
  267.063    3.911   37.491    0.237    0.333
  267.313    3.790   38.598    0.226    0.334
  267.563    3.686   37.550    0.234    0.359
  267.813    3.563   34.483    0.267    0.381
  268.063    3.405   30.511    0.279    0.365
  268.313    3.350   28.736    0.278    0.347
  268.563    3.314   29.695    0.273    0.345
  268.813    3.231   31.691    0.266    0.352
  269.063    3.138   30.704    0.268    0.366
  269.313    3.034   26.982    0.286    0.383
  269.563    2.900   25.227    0.308    0.381
  269.813    2.854   24.584    0.312    0.366
  270.063    2.814   25.472    0.306    0.366
  270.313    2.795   25.869    0.310    0.394
  270.563    2.807   24.618    0.323    0.425
  270.813    2.798   22.451    0.335    0.433
  271.063    2.755   20.551    0.342    0.420
  271.313    2.718   20.035    0.335    0.403
  271.563    2.642   19.515    0.312    0.388
  271.813    2.584   19.550    0.303    0.372
  272.063    2.552   20.344    0.317    0.362
  272.313    2.513   21.459    0.330    0.361
  272.563    2.477   22.998    0.325    0.365
  272.813    2.442   24.887    0.332    0.378
  273.063    2.404   27.298    0.340    0.377
  273.313    2.383   24.959    0.347    0.383
  273.563    2.415   21.992    0.345    0.388
  273.813    2.503   24.388    0.339    0.375
  274.063    2.625   29.018    0.341    0.369
  274.313    2.828   34.426    0.331    0.379
  274.563    3.092   40.362    0.333    0.395
  274.813    3.401   46.127    0.339    0.408
  275.063    3.694   51.231    0.310    0.441
  275.313    3.887   52.536    0.282    0.479
  275.563    3.933   45.222    0.308    0.468
  275.813    3.833   32.368    0.293    0.433
  276.063    3.593   26.529    0.290    0.403
  276.313    3.264   26.268    0.286    0.354
  276.563    2.922   28.813    0.280    0.338
  276.813    2.724   31.822    0.289    0.370
  277.063    2.741   31.574    0.298    0.368
  277.313    2.735   32.504    0.311    0.354
  277.563    2.838   34.009    0.318    0.368
  277.813    2.976   38.066    0.317    0.372
  278.063    3.142   44.262    0.291    0.364
  278.313    3.422   53.723    0.253    0.371
  278.563    3.817   63.199    0.238    0.385
  278.813    4.272   56.327    0.221    0.395
  279.063    4.503   55.446    0.205    0.374
  279.313    4.791   67.138    0.185    0.344
  279.563    5.161   78.455    0.173    0.362
  279.813    5.325   75.517    0.179    0.409
  280.063    5.223   65.664    0.189    0.420
  280.313    4.935   78.090    0.200    0.459
  280.563    4.500   97.141    0.241    0.496
  280.813    3.912   96.181    0.250    0.492
  281.063    3.398   78.624    0.247    0.459
  281.313    3.087   65.239    0.251    0.441
  281.563    2.820   63.356    0.228    0.448
  281.813    2.671   68.175    0.271    0.437
  282.063    2.785   78.684    0.255    0.391
  282.313    3.014   87.688    0.215    0.381
  282.563    3.392   89.192    0.187    0.397
  282.813    3.861   85.160    0.169    0.395
  283.063    4.147   81.311    0.179    0.385
  283.313    4.373   79.499    0.174    0.362
  283.563    4.264   80.567    0.156    0.367
  283.813    4.002   79.447    0.159    0.396
  284.063    3.779   74.145    0.180    0.404
  284.313    3.438   67.661    0.192    0.392
  284.563    2.945   62.346    0.196    0.400
  284.813    2.793   58.518    0.220    0.388
  285.063    2.785   58.788    0.249    0.377
  285.313    2.818   62.405    0.256    0.383
  285.563    2.990   67.508    0.244    0.393
  285.813    3.294   75.861    0.230    0.397
  286.063    3.544   89.153    0.228    0.410
  286.313    3.662   99.660    0.237    0.469
  286.563    3.736   99.043    0.226    0.518
  286.813    3.733   94.348    0.209    0.515
  287.063    3.641   90.935    0.201    0.471
  287.313    3.537   88.220    0.199    0.424
  287.563    3.429   87.489    0.200    0.404
  287.813    3.223   88.947    0.192    0.415
  288.063    3.136   85.054    0.191    0.409
  288.313    3.136   83.251    0.199    0.397
  288.563    3.137   88.332    0.195    0.392
  288.813    3.139   92.428    0.176    0.387
  289.063    3.141   89.956    0.167    0.381
  289.313    3.140   90.526    0.181    0.385
  289.563    3.174   94.432    0.185    0.398
  289.813    3.258   97.313    0.180    0.415
  290.063    3.370   99.267    0.190    0.413
  290.313    3.464  104.630    0.213    0.421
  290.563    3.515  111.452    0.219    0.485
  290.813    3.573  108.849    0.206    0.530
  291.063    3.595  105.457    0.206    0.543
  291.313    3.554  104.798    0.200    0.528
  291.563    3.512  104.977    0.203    0.505
  291.813    3.535  103.069    0.216    0.486
  292.063    3.592   99.633    0.201    0.464
  292.313    3.633  101.412    0.183    0.448
  292.563    3.853  103.705    0.166    0.438
  292.813    3.997  102.932    0.177    0.443
  293.063    4.035   98.972    0.201    0.464
  293.313    3.984   93.077    0.209    0.485
  293.563    3.738   87.212    0.214    0.490
  293.813    3.590   83.567    0.223    0.489
  294.063    3.222   80.186    0.229    0.460
  294.313    2.909   67.340    0.229    0.405
  294.563    2.710   59.045    0.218    0.382
  294.813    2.537   60.746    0.188    0.398
  295.063    2.512   52.762    0.159    0.420
  295.313    2.466   41.846    0.157    0.458
  295.563    2.534   31.852    0.050    0.267
  295.813    2.697   26.467   -0.010    0.138
  296.063    5.166   23.595    0.003    0.122
  296.313    9.162   21.938   -0.001    0.079
  296.563   16.786   26.072    0.000    0.075
  296.813   37.553   35.104    0.000    0.075
  297.063   39.967   41.870   -0.000    0.099
  297.313   33.066   46.985    0.002    0.135
  297.563   29.417   46.949    0.002    0.168
  297.813   27.151   40.119   -0.000    0.167
  298.063   26.062   36.265    0.000    0.131
  298.313   26.299   42.026    0.000    0.143
  298.563   28.561   45.913   -0.000    0.167
