~VERSION INFORMATION
 VERS.                 2.0:   CWLS LOG ASCII STANDARD -VERSION 2.0
 WRAP.                  NO:   ONE LINE PER DEPTH STEP
~WELL INFORMATION BLOCK
#MNEM.UNIT           DATA                    DESCRIPTION OF MNEMONIC
#---------    -------------------            -------------------------------
# Generated from Intellog Unique Number	CS_77_79/WELL/993
WELL.         BVX ET AL PORTAGE              : Well_name    - WELL
LOC .         00/11-09-079-15W4/0            : Location     - LOCATION
UWI .         00/11-09-079-15W4/0            : Uwi          - UNIQUE WELL ID
ENTR.         JHS                            : Entered      - ENTERED BY
SRVC.         SCHLUMBERGER                   : Scn          - SERVICE COMPANY
STRT.M        220                            : top_depth    - START DEPTH
STOP.M        453                            : bot_depth    - STOP DEPTH
STEP.M        0.25                           : increment    - STEP LENGTH
 NULL. -999.2500:NULL Value
~CURVE INFORMATION BLOCK
#MNEM UNIT       ERCB CURVE CODE    CURVE DESCRIPTION
#-----------   ------------------   ----------------------------------
DEPT.M        00 001 00 00         : DEPTH        - DEPTH
DPHI.V/V      00 890 00 00         : PHID         - DENSITY POROSITY (LIMESTONE)
NPHI.V/V      00 330 00 00         : PHIN         - NEUTRON POROSITY (LIMESTONE)
GR  .API      00 310 00 00         : GR           - GAMMA RAY
ILD .OHMM     00 120 00 00         : RESD         - DEEP RESISTIVITY (DIL)
RHOB.KG/M3    00 350 00 00         : DENS         - BULK DENSITY
~PARAMETER INFORMATION
#MNEM.UNIT           DATA             DESCRIPTION OF MNEMONIC
#---------         -----------     ------------------------------
GL  .M        627.7                : gl           - GROUND LEVEL ELEVATION
EREF.M        630.7                : kb           - ELEVATION OF DEPTH REFERENCE
DATM.M        630.7                : datum        - DATUM ELEVATION
TDD .M        460                  : tdd          - TOTAL DEPTH DRILLER
RUN .         ONE                  : Run          - RUN NUMBER
ENG .         BILL                 : Engineer     - RECORDING ENGINEER
WIT .         JIM                  : Witness      - WITNESSED BY
MUD .         GEL                  : Mud_type     - MUD TYPE
MATR.         LIMESTONE            : Logunit      - NEUTRON MATRIX
TMAX.C        22                   : BHT          - MAXIMUM RECORDED TEMPERATURE
BHTD.M        460                  : BHTDEP       - MAXIMUM RECORDED TEMPERATURE
MATR.         1                    : LOGUNIT      - NEUTRON MATRIX
RMT .C        25                   : MDTP         - TEMPERATURE OF MUD
NEUT.         1                    : NEUTRON      - NEUTRON TYPE
RESI.         0                    : RESIST       - RESISTIVITY TYPE
RMC .OHMM     0.25                 : RMC          - RESISTIVITY OF MUD CAKE
RMF .OHMM     0.25                 : RMF          - RESISTIVITY OF MUD FILTRATE
SUFT.C        15                   : SUFT         - SURFACE TEMPERATURE
~A  DEPTH     PHID     PHIN       GR     RESD     DENS
# ...
  256.500    0.247    0.432  115.536    6.161    0.000
  256.750    0.216    0.446  116.176    6.517    0.000
  257.000    0.207    0.447  116.252    7.860    0.000
  257.250    0.216    0.421  112.021   10.028    0.000
  257.500    0.236    0.414  100.497   10.809    0.000
  257.750    0.260    0.411   99.328   11.651    0.000
  258.000    0.281    0.421  102.437   12.097    0.000
  258.250    0.293    0.445  104.936   12.328    0.000
  258.500    0.269    0.449  104.387   12.101    0.000
  258.750    0.261    0.434  100.167   11.658    0.000
  259.000    0.259    0.417  100.246   11.444    0.000
  259.250    0.264    0.420  102.116   11.232    0.000
  259.500    0.277    0.435  105.213   10.821    0.000
  259.750    0.282    0.422  108.926   10.823    0.000
  260.000    0.258    0.414  111.428   10.824    0.000
  260.250    0.240    0.411  112.703   11.030    0.000
  260.500    0.235    0.422  108.495   11.033    0.000
  260.750    0.254    0.430  101.847   11.034    0.000
  261.000    0.251    0.428   95.192   11.243    0.000
  261.250    0.247    0.410   87.926   11.246    0.000
  261.500    0.258    0.389   78.225   11.460    0.000
  261.750    0.250    0.375   75.840   11.461    0.000
  262.000    0.265    0.363   76.531   11.900    0.000
  262.250    0.269    0.349   77.792   12.127    0.000
  262.500    0.280    0.335   77.839   12.128    0.000
  262.750    0.308    0.328   77.289   12.592    0.000
  263.000    0.286    0.359   73.691   14.091    0.000
  263.250    0.285    0.339   67.646   15.477    0.000
  263.500    0.304    0.324   65.263   16.683    0.000
  263.750    0.327    0.312   70.203   16.375    0.000
  264.000    0.340    0.344   73.305   15.484    0.000
  264.250    0.319    0.373   72.761   15.198    0.000
  264.500    0.323    0.390   70.982   15.781    0.000
  264.750    0.319    0.396   68.601   15.783    0.000
  265.000    0.303    0.426   67.436   14.923    0.000
  265.250    0.302    0.447   67.491   14.648    0.000
  265.500    0.300    0.443   68.159   13.593    0.000
  265.750    0.289    0.443   70.035   12.614    0.000
  266.000    0.282    0.454   72.561   11.706    0.000
  266.250    0.287    0.451   73.204   10.863    0.000
  266.500    0.279    0.457   72.649   10.865    0.000
  266.750    0.275    0.459   72.091   11.281    0.000
  267.000    0.292    0.454   70.326   12.390    0.000
  267.250    0.297    0.447   69.774   13.107    0.000
  267.500    0.299    0.441   66.785   14.128    0.000
  267.750    0.311    0.443   63.795   14.946    0.000
  268.000    0.294    0.453   61.402   16.416    0.000
  268.250    0.299    0.443   60.265   17.695    0.000
  268.500    0.314    0.439   60.288   18.720    0.000
  268.750    0.312    0.446   57.923   19.076    0.000
  269.000    0.313    0.460   58.585   20.181    0.000
  269.250    0.321    0.440   59.255   20.565    0.000
  269.500    0.336    0.414   59.303   20.957    0.000
  269.750    0.326    0.418   59.365   20.190    0.000
  270.000    0.317    0.441   58.797   19.451    0.000
  270.250    0.315    0.457   55.211   19.821    0.000
  270.500    0.330    0.444   52.817   19.456    0.000
  270.750    0.325    0.444   56.541   18.745    0.000
  271.000    0.314    0.467   59.035   18.746    0.000
  271.250    0.300    0.453   56.663   20.208    0.000
  271.500    0.306    0.461   56.087   20.982    0.000
  271.750    0.332    0.454   57.980   20.985    0.000
  272.000    0.335    0.445   59.857   20.987    0.000
  272.250    0.320    0.445   62.989   20.600    0.000
  272.500    0.300    0.441   64.258   19.846    0.000
  272.750    0.304    0.435   63.081   18.076    0.000
  273.000    0.310    0.431   60.709   16.773    0.000
  273.250    0.311    0.444   60.145   14.716    0.000
  273.500    0.308    0.454   65.699   12.910    0.000
  273.750    0.292    0.436   71.251   10.910    0.000
  274.000    0.273    0.428   74.949    9.394    0.000
  274.250    0.246    0.427   80.489    8.241    0.000
  274.500    0.236    0.433   84.804    8.242    0.000
  274.750    0.253    0.430   80.603    8.399    0.000
  275.000    0.239    0.429   74.555    8.721    0.000
  275.250    0.230    0.437   77.068    9.055    0.000
  275.500    0.257    0.432   79.556    9.402    0.000
  275.750    0.268    0.436   80.226    9.581    0.000
  276.000    0.255    0.448   82.106    9.583    0.000
  276.250    0.244    0.439   85.818    9.406    0.000
  276.500    0.255    0.428   84.046    8.729    0.000
  276.750    0.257    0.424   80.443    8.100    0.000
  277.000    0.248    0.434   82.322    7.517    0.000
  277.250    0.254    0.436   84.212    7.378    0.000
  277.500    0.250    0.440   85.493    7.242    0.000
  277.750    0.241    0.445   85.546    7.380    0.000
  278.000    0.241    0.434   84.381    7.663    0.000
  278.250    0.251    0.434   85.051    7.957    0.000
  278.500    0.235    0.455   82.665    8.417    0.000
  278.750    0.228    0.488   79.678    9.073    0.000
  279.000    0.243    0.478   75.453    9.599    0.000
  279.250    0.265    0.476   74.320    9.967    0.000
  279.500    0.282    0.461   73.741    9.969    0.000
  279.750    0.294    0.446   71.363    9.785    0.000
  280.000    0.282    0.438   69.584    9.080    0.000
  280.250    0.266    0.444   75.140    8.426    0.000
  280.500    0.256    0.448   79.461    6.988    0.000
  280.750    0.243    0.462   81.335    6.247    0.000
  281.000    0.237    0.458   79.568    7.123    0.000
  281.250    0.240    0.442   72.923    8.121    0.000
  281.500    0.257    0.433   68.711    9.434    0.000
  281.750    0.269    0.447   63.879   10.757    0.000
  282.000    0.278    0.459   63.965   11.814    0.000
  282.250    0.301    0.459   64.605   12.734    0.000
  282.500    0.311    0.454   63.444   15.074    0.000
  282.750    0.308    0.455   58.616   17.187    0.000
  283.000    0.323    0.469   53.199   19.232    0.000
  283.250    0.337    0.468   50.805   23.634    0.000
  283.500    0.326    0.460   50.252   27.456    0.000
  283.750    0.323    0.459   52.145   32.498    0.000
  284.000    0.331    0.461   50.382   39.194    0.000
  284.250    0.343    0.476   50.422   44.689    0.000
  284.500    0.355    0.494   52.323   52.898    0.000
  284.750    0.356    0.482   54.189   60.312    0.000
  285.000    0.355    0.489   54.270   70.071    0.000
  285.250    0.345    0.513   53.082   72.749    0.000
  285.500    0.341    0.513   51.929   72.763    0.000
  285.750    0.346    0.490   51.994   70.100    0.000
  286.000    0.335    0.465   50.813   66.281    0.000
  286.250    0.320    0.451   49.651   63.852    0.000
  286.500    0.318    0.444   51.538   59.255    0.000
  286.750    0.311    0.446   50.380   57.084    0.000
  287.000    0.306    0.467   52.258   52.974    0.000
  287.250    0.317    0.478   54.775   55.007    0.000
  287.500    0.328    0.476   54.209   56.051    0.000
  287.750    0.340    0.468   52.428   58.202    0.000
  288.000    0.335    0.462   51.276   58.208    0.000
  288.250    0.327    0.456   52.545   55.035    0.000
  288.500    0.322    0.451   53.829   47.388    0.000
  288.750    0.334    0.443   53.272   43.158    0.000
  289.000    0.334    0.437   54.554   37.161    0.000
  289.250    0.335    0.436   56.445   32.601    0.000
  289.500    0.332    0.436   57.111   28.602    0.000
  289.750    0.320    0.449   56.550   25.567    0.000
  290.000    0.309    0.470   57.213   22.014    0.000
  290.250    0.321    0.457   58.474   19.678    0.000
  290.500    0.317    0.448   57.928   17.922    0.000
  290.750    0.312    0.435   62.259   17.265    0.000
  291.000    0.311    0.430   62.307   15.725    0.000
  291.250    0.309    0.430   59.931   15.436    0.000
  291.500    0.301    0.441   59.377   15.438    0.000
  291.750    0.296    0.437   60.048   15.440    0.000
  292.000    0.291    0.440   60.707   15.735    0.000
  292.250    0.287    0.446   61.987   16.035    0.000
  292.500    0.286    0.437   62.663   16.339    0.000
  292.750    0.279    0.438   61.502   16.341    0.000
