~VERSION INFORMATION
 VERS.                 2.0:   CWLS LOG ASCII STANDARD -VERSION 2.0
 WRAP.                  NO:   ONE LINE PER DEPTH STEP
~WELL INFORMATION BLOCK
#MNEM.UNIT           DATA                    DESCRIPTION OF MNEMONIC
#---------    -------------------            -------------------------------
# Generated from Intellog Unique Number	CW_70_72/WELL/1064
NULL.         -999.25                        : NULL_VALUE
WELL.         LANDBANK ET AL MITSUE 11-36    : Well_name    - WELL              
LOC .         11-36-072-03W5                 : Location     - LOCATION          
UWI .         00/11-36-072-03W5/0            : Uwi          - UNIQUE WELL ID    
ENTR.         JAYE                           : Entered      - ENTERED BY        
SRVC.         SCHLUMBERGER                   : Scn          - SERVICE COMPANY   
DATE.         29 FEB 79                      : Date         - LOG DATE          
STRT.M        395                            : top_depth    - START DEPTH       
STOP.M        635                            : bot_depth    - STOP DEPTH        
STEP.M        0.25                           : increment    - STEP LENGTH       
~CURVE INFORMATION BLOCK
#MNEM UNIT       ERCB CURVE CODE    CURVE DESCRIPTION
#-----------   ------------------   ----------------------------------
DEPT.M        00 001 00 00         : DEPTH        - DEPTH                       
DPHI.V/V      00 890 00 00         : PHID         - DENSITY POROSITY (SANDSTONE)
NPHI.V/V      00 330 00 00         : PHIN         - NEUTRON POROSITY (SANDSTONE)
GR  .API      00 310 00 00         : GR           - GAMMA RAY                   
CALI.MM       00 280 01 00         : CAL          - CALIPER                     
ILD .OHMM     00 120 00 00         : RESD         - DEEP RESISTIVITY (DIL)      
~PARAMETER INFORMATION       
#MNEM.UNIT           DATA             DESCRIPTION OF MNEMONIC
#---------         -----------     ------------------------------
GL  .M        589                  : gl           - GROUND LEVEL ELEVATION      
EREF.M        591.7                : kb           - ELEVATION OF DEPTH REFERENCE
DATM.M        589                  : datum        - DATUM ELEVATION             
TDD .M        637                  : tdd          - TOTAL DEPTH DRILLER         
RUN .         ONE                  : Run          - RUN NUMBER                  
ENG .         MARSCHNER            : Engineer     - RECORDING ENGINEER          
WIT .         LOWTHER              : Witness      - WITNESSED BY                
BASE.         EDM                  : Branch       - HOME BASE OF LOGGING UNIT   
MUD .         GEL XHEM             : Mud_type     - MUD TYPE                    
MATR.         SANDSTONE            : Logunit      - NEUTRON MATRIX              
TMAX.C        25.5                 : BHT          - MAXIMUM RECORDED TEMPERATURE
BHTD.M        638                  : BHTDEP       - MAXIMUM RECORDED TEMPERATURE
RMT .C        7.8                  : MDTP         - TEMPERATURE OF MUD          
MUDD.KG/M     1190                 : MWT          - MUD DENSITY                 
NEUT.         1                    : NEUTRON      - NEUTRON TYPE                
RESI.         0                    : RESIST       - RESISTIVITY TYPE            
RM  .OHMM     4.55                 : RM           - RESISTIVITY OF MUD          
RMC .OHMM     0                    : RMC          - RESISTIVITY OF MUD CAKE     
RMF .OHMM     4.7                  : RMF          - RESISTIVITY OF MUD FILTRATE 
SUFT.C        32                   : SUFT         - SURFACE TEMPERATURE         
~A  DEPTH     PHID     PHIN       GR      CAL     RESD
# ...
  504.500    0.228    0.445   97.895  170.966    2.933
  504.750    0.239    0.444   93.505  170.316    2.795
  505.000    0.277    0.445   83.147  167.821    2.654
  505.250    0.311    0.443   76.049  165.417    2.582
  505.500    0.332    0.436   82.302  164.871    2.474
  505.750    0.328    0.432   86.337  164.834    2.412
  506.000    0.314    0.452   86.869  164.996    2.381
  506.250    0.311    0.482   84.137  164.963    2.364
  506.500    0.317    0.486   82.454  165.021    2.343
  506.750    0.330    0.457   81.510  164.990    2.314
  507.000    0.329    0.440   81.731  165.043    2.301
  507.250    0.329    0.447   83.614  165.118    2.290
  507.500    0.336    0.454   85.931  164.662    2.321
  507.750    0.339    0.455   86.278  164.421    2.428
  508.000    0.329    0.442   83.240  164.178    2.721
  508.250    0.268    0.419   81.309  164.452    3.280
  508.500    0.230    0.367   76.549  165.132    4.128
  508.750    0.194    0.309   70.869  167.450    5.391
  509.000    0.165    0.239   67.954  169.765    8.344
  509.250    0.117    0.252   66.885  170.958   10.422
  509.500    0.118    0.251   67.169  171.531   10.862
  509.750    0.104    0.230   67.209  171.604    9.307
  510.000    0.095    0.246   66.507  171.566    6.619
  510.250    0.095    0.233   65.376  171.424    5.353
  510.500    0.102    0.235   64.188  170.667    4.370
  510.750    0.108    0.257   66.317  169.504    3.379
  511.000    0.170    0.301   70.106  166.694    2.907
  511.250    0.300    0.371   73.715  164.094    2.542
  511.500    0.332    0.430   77.690  162.819    2.325
  511.750    0.351    0.447   79.571  162.071    2.163
  512.000    0.348    0.458   79.549  161.105    2.046
  512.250    0.338    0.466   78.175  160.252    2.002
  512.500    0.339    0.462   78.147  159.387    2.017
  512.750    0.342    0.460   78.804  159.551    2.099
  513.000    0.332    0.460   79.583  159.830    2.212
  513.250    0.317    0.466   79.620  160.713    2.686
  513.500    0.286    0.467   76.645  162.004    4.028
  513.750    0.163    0.408   72.130  163.402    7.401
  514.000    0.113    0.385   67.926  165.726    9.886
  514.250    0.068    0.215   63.720  170.091    8.859
  514.500    0.061    0.186   60.375  171.083    6.418
  514.750    0.093    0.235   63.549  170.427    4.936
  515.000    0.141    0.275   67.834  170.493    3.977
  515.250    0.254    0.318   71.993  170.451    3.134
  515.500    0.323    0.373   75.600  169.289    2.530
  515.750    0.337    0.412   77.483  167.505    2.271
  516.000    0.339    0.447   75.861  165.929    2.132
  516.250    0.349    0.465   76.638  164.249    2.086
  516.500    0.346    0.483   74.279  163.291    2.056
  516.750    0.347    0.488   72.041  162.428    2.057
  517.000    0.352    0.486   73.185  161.983    2.096
  517.250    0.358    0.480   74.640  161.434    2.116
  517.500    0.352    0.474   71.110  160.979    2.133
  517.750    0.340    0.466   70.103  160.637    2.134
  518.000    0.328    0.459   73.031  160.698    2.139
  518.250    0.331    0.470   75.286  160.971    2.143
  518.500    0.345    0.461   76.432  161.337    2.148
  518.750    0.357    0.456   74.748  161.303    2.161
  519.000    0.345    0.471   74.909  161.264    2.174
  519.250    0.345    0.467   76.670  160.918    2.203
  519.500    0.357    0.453   79.415  160.469    2.250
  519.750    0.365    0.469   76.255  160.013    2.302
  520.000    0.378    0.505   77.769  159.980    2.337
  520.250    0.390    0.532   80.516  159.946    2.347
  520.500    0.395    0.524   82.522  160.110    2.343
  520.750    0.380    0.537   81.883  159.969    2.314
  521.000    0.373    0.521   80.385  159.826    2.073
  521.250    0.366    0.504   79.317  159.795    1.606
  521.500    0.359    0.524   77.632  159.958    1.190
  521.750    0.349    0.506   73.794  159.925    0.840
  522.000    0.334    0.502   69.649  159.988    0.717
  522.250    0.311    0.529   65.445  160.052    0.831
  522.500    0.195    0.557   70.035  159.899    1.002
  522.750    0.227    0.479   76.655  159.873    1.392
  523.000    0.313    0.472   79.951  159.836    1.804
  523.250    0.306    0.480   81.346  160.096    2.216
  523.500    0.329    0.477   82.183  160.056    2.288
  523.750    0.343    0.462   82.038  159.820    2.311
  524.000    0.332    0.456   77.769  159.779    2.377
  524.250    0.312    0.460   79.162  159.747    2.487
  524.500    0.324    0.465   80.617  159.913    2.616
  524.750    0.321    0.470   82.066  160.181    2.747
  525.000    0.319    0.482   82.289  160.452    2.928
  525.250    0.304    0.422   79.933  160.824    3.104
  525.500    0.248    0.390   75.358  160.991    3.193
  525.750    0.207    0.361   73.673  161.871    3.159
  526.000    0.210    0.351   74.451  162.756    3.021
  526.250    0.240    0.397   80.395  163.336    2.758
  526.500    0.304    0.474   82.400  163.912    2.463
  526.750    0.330    0.484   83.608  164.484    2.270
  527.000    0.334    0.487   84.571  165.169    2.143
  527.250    0.331    0.491   84.486  165.431    2.124
  527.500    0.321    0.476   81.938  165.398    2.189
  527.750    0.309    0.474   80.254  165.460    2.290
  528.000    0.289    0.476   80.969  165.528    2.414
  528.250    0.280    0.474   83.716  165.695    2.516
  528.500    0.288    0.459   84.370  165.753    2.622
  528.750    0.282    0.439   86.006  165.609    2.647
  529.000    0.258    0.406   87.708  165.472    2.658
  529.250    0.260    0.407   88.485  165.334    2.649
  529.500    0.288    0.441   89.814  165.197    2.675
  529.750    0.291    0.466   90.654  165.155    2.768
  530.000    0.295    0.476   90.814  165.121    2.944
  530.250    0.303    0.450   90.053  165.179    3.209
  530.500    0.268    0.428   87.693  165.347    3.876
  530.750    0.219    0.382   84.532  165.514    4.859
  531.000    0.167    0.336   80.204  165.579    6.442
  531.250    0.139    0.297   76.120  165.949    7.956
  531.500    0.119    0.279   73.329  166.733    9.808
  531.750    0.103    0.258   71.769  168.026   10.871
  532.000    0.117    0.245   70.946  169.217    9.963
  532.250    0.138    0.246   71.108  170.616    8.255
  532.500    0.160    0.271   72.253  172.014    6.904
  532.750    0.188    0.314   74.013  174.027    6.327
  533.000    0.209    0.346   76.760  173.580    6.075
  533.250    0.234    0.378   79.197  166.469    5.855
  533.500    0.210    0.361   79.297  164.064    5.426
  533.750    0.194    0.343   79.703  163.827    5.066
  534.000    0.172    0.333   80.356  163.791    4.599
  534.250    0.199    0.368   83.409  163.337    4.129
  534.500    0.231    0.415   86.464  162.888    3.666
  534.750    0.291    0.454   85.332  162.437    3.353
  535.000    0.268    0.463   84.019  161.581    3.119
  535.250    0.280    0.472   85.593  160.831    2.995
  535.500    0.292    0.487   87.724  160.074    2.979
  535.750    0.287    0.475   89.609  159.830    3.025
  536.000    0.273    0.462   90.570  161.023    3.060
  536.250    0.271    0.459   89.134  163.751    3.219
  536.500    0.257    0.466   87.204  167.713    3.406
  536.750    0.253    0.476   86.012  166.951    3.497
  537.000    0.241    0.453   85.682  165.275    3.479
  537.250    0.229    0.435   86.642  164.006    3.397
  537.500    0.227    0.418   88.588  162.836    3.367
  537.750    0.257    0.437   88.196  162.290    3.355
  538.000    0.272    0.450   90.757  162.047    3.376
  538.250    0.250    0.439   94.424  162.318    3.421
  538.500    0.236    0.448  100.000  162.896    3.553
  538.750    0.223    0.424  104.344  164.083    3.850
  539.000    0.171    0.432  102.292  165.277    4.268
  539.250    0.145    0.442   94.148  166.570    4.566
  539.500    0.137    0.396   94.678  167.356    4.706
  539.750    0.173    0.386   99.023  168.027    4.586
  540.000    0.200    0.400  106.194  168.403    4.315
  540.250    0.227    0.417  110.415  168.669    4.158
  540.500    0.246    0.433  114.456  168.945    4.037
  540.750    0.241    0.450  111.049  169.113    3.935
