~VERSION INFORMATION
 VERS.                 2.0:   CWLS LOG ASCII STANDARD -VERSION 2.0
 WRAP.                  NO:   ONE LINE PER DEPTH STEP
~WELL INFORMATION BLOCK
#MNEM.UNIT           DATA                    DESCRIPTION OF MNEMONIC
#---------    -------------------            -------------------------------
# Generated from Intellog Unique Number	CW_73_75/WELL/3526
WELL.         G W ET AL SPUR                 : Well_name    - WELL
LOC .         00/11-06-073-01W5/0            : Location     - LOCATION
UWI .         00/11-06-073-01W5/0            : Uwi          - UNIQUE WELL ID
ENTR.         TIM                            : Entered      - ENTERED BY
SRVC.         SCHLUMBERGER                   : Scn          - SERVICE COMPANY
STRT.M        370                            : top_depth    - START DEPTH
STOP.M        615                            : bot_depth    - STOP DEPTH
STEP.M        0.25                           : increment    - STEP LENGTH
 NULL. -999.2500:NULL Value
~CURVE INFORMATION BLOCK
#MNEM UNIT       ERCB CURVE CODE    CURVE DESCRIPTION
#-----------   ------------------   ----------------------------------
DEPT.M        00 001 00 00         : DEPTH        - DEPTH
GR  .API      00 310 00 00         : GR           - GAMMA RAY
CALI.MM       00 280 01 00         : CAL          - CALIPER
NPHI.V/V      00 330 00 00         : PHIN         - NEUTRON POROSITY (SANDSTONE)
ILD .OHMM     00 120 00 00         : RESD         - DEEP RESISTIVITY (DIL)
~PARAMETER INFORMATION
#MNEM.UNIT           DATA             DESCRIPTION OF MNEMONIC
#---------         -----------     ------------------------------
GL  .M        612.1                : gl           - GROUND LEVEL ELEVATION
EREF.M        615.2                : kb           - ELEVATION OF DEPTH REFERENCE
DATM.M        615.2                : datum        - DATUM ELEVATION
TDD .M        624                  : tdd          - TOTAL DEPTH DRILLER
RUN .         ONE                  : Run          - RUN NUMBER
ENG .         BILL                 : Engineer     - RECORDING ENGINEER
WIT .         JIM                  : Witness      - WITNESSED BY
MUD .         GEL                  : Mud_type     - MUD TYPE
MATR.         SANDSTONE            : Logunit      - NEUTRON MATRIX
TMAX.C        28                   : BHT          - MAXIMUM RECORDED TEMPERATURE
BHTD.M        624                  : BHTDEP       - MAXIMUM RECORDED TEMPERATURE
MATR.         1                    : LOGUNIT      - NEUTRON MATRIX
RMT .C        23                   : MDTP         - TEMPERATURE OF MUD
NEUT.         1                    : NEUTRON      - NEUTRON TYPE
RESI.         0                    : RESIST       - RESISTIVITY TYPE
RMC .OHMM     3.417                : RMC          - RESISTIVITY OF MUD CAKE
RMF .OHMM     3.8                  : RMF          - RESISTIVITY OF MUD FILTRATE
SUFT.C        5                    : SUFT         - SURFACE TEMPERATURE
~A  DEPTH       GR      CAL     PHIN     RESD
# ...
  587.500  111.910  159.594    0.350    5.321
  587.750  109.546  159.575    0.348    5.625
  588.000  107.182  159.550    0.344    5.837
  588.250  104.821  159.541    0.339    6.400
  588.500  100.105  160.491    0.333    7.017
  588.750   94.797  160.482    0.322    7.836
  589.000   90.669  160.462    0.311    8.435
  589.250   95.362  160.442    0.315    7.842
  589.500  105.936  161.403    0.341    6.653
  589.750  108.276  161.374    0.352    5.964
  590.000  105.912  162.339    0.324    5.857
  590.250  103.548  163.290    0.321    5.649
  590.500  102.360  163.275    0.317    5.651
  590.750  102.346  163.261    0.315    5.866
  591.000  103.510  164.221    0.314    5.977
  591.250  105.853  164.202    0.316    6.202
  591.500  111.134  164.177    0.320    6.320
  591.750  114.063  165.133    0.326    6.680
  592.000  116.989  165.123    0.363    6.807
  592.250   92.866  166.079    0.360    6.936
  592.500   81.093  166.064    0.339    7.331
  592.750   72.848  167.020    0.300    7.607
  593.000   63.428  167.980    0.268    8.040
  593.250   56.947  168.936    0.249   10.396
  593.500   51.637  168.921    0.225   13.441
  593.750   51.628  169.872    0.216   15.857
  594.000   51.611  169.862    0.225   17.385
  594.250   52.193  170.818    0.234   19.413
  594.500   52.769  170.803    0.242   22.081
  594.750   55.109  170.779    0.249   22.093
  595.000   57.450  169.779    0.254   21.308
  595.250   59.203  169.760    0.257   20.928
  595.500   59.191  168.765    0.259   20.186
  595.750   59.176  167.751    0.262   19.828
  596.000   59.161  167.746    0.267   19.837
  596.250   59.150  167.712    0.273   19.843
  596.500   59.144  167.702    0.281   19.854
  596.750   57.362  167.682    0.285   19.863
  597.000   57.350  167.658    0.286   20.239
  597.250   58.512  167.638    0.289   20.247
  597.500   59.094  167.614    0.291   19.886
  597.750   60.844  167.604    0.295   18.495
  598.000   63.769  167.580    0.300   17.834
  598.250   65.528  167.560    0.307   16.284
  598.500   65.513  167.541    0.307   15.418
  598.750   66.680  167.526    0.307   14.868
  599.000   67.845  167.506    0.309   14.079
  599.250   69.594  167.487    0.310   12.622
  599.500   70.171  167.462    0.311   12.172
  599.750   68.392  167.443    0.312   11.738
  600.000   67.210  167.418    0.317   11.322
  600.250   66.022  167.399    0.330   11.121
  600.500   61.888  167.375    0.358   11.127
  600.750   55.410  167.365    0.367   11.130
  601.000   39.521  167.340    0.375   11.765
  601.250   32.452  167.326    0.368   12.209
  601.500   33.029  167.301    0.349   13.143
  601.750   37.130  167.282    0.335   13.639
  602.000   37.707  167.262    0.324   14.156
  602.250   37.695  167.247    0.315   13.905
  602.500   37.686  167.218    0.308   12.928
  602.750   40.615  167.203    0.301   12.020
  603.000   45.305  167.184    0.293   11.591
  603.250   50.586  167.164    0.287   10.976
  603.500   55.278  167.145    0.284   10.784
  603.750   61.735  167.125    0.279   10.787
  604.000   69.368  167.101    0.280   10.992
  604.250   76.414  167.086    0.305   11.200
  604.500   82.871  167.062    0.325   11.413
  604.750   89.916  167.042    0.351    9.862
  605.000   98.137  167.023    0.356    8.520
  605.250  102.242  167.003    0.349    7.362
  605.500  104.579  166.984    0.343    6.479
  605.750  106.923  166.964    0.341    5.914
  606.000  108.675  166.940    0.360    5.499
  606.250  105.723  166.915    0.373    5.208
  606.500   93.947  166.905    0.393    5.404
  606.750   82.174  166.881    0.403    5.818
  607.000   66.284  166.861    0.350    6.616
  607.250   59.804  166.842    0.287    7.664
  607.500   52.736  166.822    0.268    9.042
  607.750   47.431  165.828    0.256    9.383
  608.000   41.536  165.808    0.269    9.917
  608.250   42.112  165.788    0.292    8.890
  608.500   42.691  165.769    0.308    7.967
  608.750   45.620  165.745    0.310    7.012
  609.000   54.429  165.725    0.307    6.170
  609.250   49.125  166.681    0.300    5.235
  609.500   37.349  167.641    0.290    4.607
  609.750   29.104  167.622    0.281    4.055
  610.000   24.385  167.602    0.282    3.634
  610.250   26.726  167.578    0.275    3.318
  610.500   30.245  166.583    0.268    3.142
  610.750   39.643  166.568    0.247    3.143
  611.000   46.100  165.569    0.219    3.384
  611.250   42.559  165.549    0.191    4.065
  611.500   34.315  165.530    0.169    5.655
  611.750   29.599  165.505    0.147   10.942
  612.000   27.817  165.476    0.133   17.625
  612.250   28.390  165.461    0.128   26.872
  612.500   28.970  165.442    0.157   22.797
  612.750   30.131  165.417    0.179   20.433
  613.000   30.713  165.398    0.196   17.656
  613.250   33.048  165.388    0.232   15.826
  613.500   34.218  165.368    0.250   14.987
  613.750   35.383  165.344    0.274   14.192
  614.000   35.368  165.324    0.287   13.687
  614.250   35.353  165.305    0.301   11.401
  614.500   35.347  165.285    0.315    8.054
  614.750   35.336  165.261    0.333    7.218
  615.000   35.321  165.241    0.360    6.470
