~VERSION INFORMATION
 VERS.                 2.0:   CWLS LOG ASCII STANDARD -VERSION 2.0
 WRAP.                  NO:   ONE LINE PER DEPTH STEP
~WELL INFORMATION BLOCK
#MNEM.UNIT           DATA                    DESCRIPTION OF MNEMONIC
#---------    -------------------            -------------------------------
# Generated from Intellog Unique Number	CW_79_81/WELL/2898
WELL.         MOBIL WABISKAW                 : Well_name    - WELL
LOC .         00/10-06-080-25W4/0            : Location     - LOCATION
UWI .         00/10-06-080-25W4/0            : Uwi          - UNIQUE WELL ID
ENTR.         JJ                             : Entered      - ENTERED BY
SRVC.         SCHLUMBERGER                   : Scn          - SERVICE COMPANY
DATE.         20 DEC 66                      : Date         - LOG DATE
STRT.M        329.184                        : top_depth    - START DEPTH
STOP.M        457.184                        : bot_depth    - STOP DEPTH
STEP.M        0.25                           : increment    - STEP LENGTH
 NULL. -999.2500:NULL Value
~CURVE INFORMATION BLOCK
#MNEM UNIT       ERCB CURVE CODE    CURVE DESCRIPTION
#-----------   ------------------   ----------------------------------
DEPT.M        00 001 00 00         : DEPTH        - DEPTH
DELT.US/F     00 520 00 00         : DELT         - SONIC TRAVEL TIME
GR  .API      00 310 00 00         : GR           - GAMMA RAY
RHOB.KG/M3    00 350 00 00         : DENS         - BULK DENSITY
ILD .OHMM     00 120 00 00         : RESD         - DEEP RESISTIVITY (DIL)
~PARAMETER INFORMATION
#MNEM.UNIT           DATA             DESCRIPTION OF MNEMONIC
#---------         -----------     ------------------------------
GL  .M        555.315              : gl           - GROUND LEVEL ELEVATION
EREF.M        559.308              : kb           - ELEVATION OF DEPTH REFERENCE
DATM.M        555.315              : datum        - DATUM ELEVATION
TDD .M        466.344              : tdd          - TOTAL DEPTH DRILLER
RUN .         ONE                  : Run          - RUN NUMBER
ENG .         DEMETRICK            : Engineer     - RECORDING ENGINEER
WIT .         SMITH                : Witness      - WITNESSED BY
BASE.         WCT                  : Branch       - HOME BASE OF LOGGING UNIT
MUD .         GEL                  : Mud_type     - MUD TYPE
MATR.         SANDSTONE            : Logunit      - NEUTRON MATRIX
TMAX.C        26.6667              : BHT          - MAXIMUM RECORDED TEMPERATURE
BHTD.M        466.649              : BHTDEP       - MAXIMUM RECORDED TEMPERATURE
RMT .C        22.2222              : MDTP         - TEMPERATURE OF MUD
MUDD.KG/M     1140                 : MWT          - MUD DENSITY
NEUT.         1                    : NEUTRON      - NEUTRON TYPE
RESI.         0                    : RESIST       - RESISTIVITY TYPE
RM  .OHMM     4.1                  : RM           - RESISTIVITY OF MUD
RMC .OHMM     2.98                 : RMC          - RESISTIVITY OF MUD CAKE
RMF .OHMM     3.22                 : RMF          - RESISTIVITY OF MUD FILTRATE
SUFT.C        5                    : SUFT         - SURFACE TEMPERATURE
~A  DEPTH     DELT       GR     DENS     RESD
  329.184  408.689   75.442 2297.900    8.712
  329.434  408.088   76.988 2281.150    8.506
  329.684  414.386   76.288 2264.600    8.504
  329.934  417.334   77.335 2271.570    8.482
  330.184  420.484   81.925 2276.290    8.562
  330.434  426.111   85.018 2255.240    9.032
  330.684  428.457   80.526 2237.260    9.441
  330.934  424.709   72.193 2222.760    9.808
  331.184  415.670   72.291 2210.100   10.237
  331.434  410.984   75.833 2210.110   10.072
  331.684  409.512   83.017 2216.260    9.578
  331.934  412.394   84.314 2208.920    9.187
  332.184  408.713   81.070 2196.660    8.693
  332.434  414.608   80.969 2197.700    8.261
  332.684  416.619   91.496 2210.800    8.034
  332.934  414.679   92.892 2216.540    7.951
  333.184  407.783   82.813 2218.800    7.970
  333.434  410.330   72.334 2220.040    8.111
  333.684  417.564   64.649 2220.060    8.848
  333.934  415.021   61.155 2223.140    9.830
  334.184  405.313   60.406 2230.720   10.772
  334.434  398.149   59.657 2243.000   11.672
  334.684  402.236   60.454 2260.390   12.921
  334.934  405.855   58.058 2245.680   14.477
  335.184  403.915   54.615 2233.430   15.439
  335.434  401.371   50.273 2227.520   16.073
  335.684  405.526   53.615 2223.650   16.277
  335.934  404.188   57.905 2223.050   16.295
  336.184  401.779   61.347 2229.200   16.109
  336.434  399.973   63.691 2242.090   15.923
  336.684  399.038   66.984 2262.150   15.614
  336.934  398.571   62.542 2272.790   16.269
  337.184  397.702   58.050 2285.070   17.354
  337.434  397.302   60.145 2250.530   18.111
  337.684  404.872   62.938 2233.170   16.858
  337.934  407.217   65.981 2233.390   15.299
  338.184  400.121   70.171 2236.260   14.067
  338.434  394.564   74.761 2244.660   12.856
  338.684  396.441   78.502 2240.580   11.850
  338.934  404.212   84.389 2233.440   10.639
  339.184  405.955   88.180 2242.860    9.571
  339.434  409.506   83.739 2240.830   10.041
  339.684  413.325   75.206 2232.670   10.347
  339.934  422.167   65.126 2219.190   10.796
  340.184  424.044   60.435 2201.620   12.374
  340.434  418.354   58.937 2188.140   19.793
  340.684  392.774   63.127 2197.760   29.549
  340.934  309.868   64.124 2210.860   34.714
  341.184  286.431   62.527 2218.850   37.500
  341.434  280.942   50.352 2208.230   38.729
  341.684  273.845   45.461 2216.830   32.352
  341.934  219.803   47.905 2234.640   27.758
  342.184  198.911   49.301 2260.410   23.492
  342.434  255.233   54.439 2303.570   19.616
  342.684  311.489   60.875 2332.210   16.047
  342.934  372.098   71.402 2358.390   13.607
  343.184  394.467   74.595 2473.110   11.555
  343.434  411.279   62.319 2505.220    9.729
  343.684  410.343   61.371 2528.340    8.969
  343.934  414.430   62.667 2515.070    8.906
  344.184  418.852   63.664 2491.980    9.253
  344.434  421.131   66.757 2504.670    9.354
  344.684  414.436   74.490 2531.680    9.659
  344.934  417.318   81.724 2540.890    9.924
  345.184  419.797   77.631 2517.800    9.861
  345.434  412.366   69.996 2493.070    9.552
  345.684  404.465   67.850 2443.810    9.243
  345.934  411.633   69.546 2365.720    8.975
  346.184  418.131   74.035 2314.210    8.604
  346.434  424.227   86.309 2282.740    8.418
  346.684  418.068   85.959 2243.290    8.888
  346.934  413.449   67.446 2223.060    9.686
  347.184  413.451   55.620 2181.570   10.566
  347.434  417.136   54.971 2161.960   11.856
  347.684  418.210   67.095 2143.980   13.474
  347.934  414.930   72.034 2175.690   15.030
  348.184  411.182   74.178 2178.770   16.566
  348.434  412.657   71.732 2170.810   17.631
  348.684  412.793   62.850 2180.020   16.420
  348.934  406.098   56.962 2184.130   14.306
  349.184  405.698   47.830 2186.390   12.193
  349.434  411.526   66.240 2190.290    9.896
  349.684  410.725   72.077 2188.060    8.151
  349.934  407.378   74.421 2191.140    7.330
  350.184  411.934   77.963 2188.700    6.960
  350.434  415.686   81.056 2182.380    6.876
  350.684  418.033   76.714 2175.030    7.018
  350.934  419.709   76.713 2169.110    7.160
  351.184  421.184   80.005 2166.260    7.261
  351.434  422.458   78.308 2174.050    7.403
  351.684  424.268   79.255 2181.830    7.462
  351.934  426.145   82.597 2189.820    7.584
  352.184  418.847   76.958 2191.260    7.623
  352.434  404.987   78.155 2183.100    7.560
  352.684  403.717   83.942 2183.320    7.497
  352.934  408.339   85.987 2180.680    7.557
  353.184  410.082   85.187 2182.320    7.781
  353.434  406.200   82.592 2193.380    8.128
  353.684  401.983   76.554 2194.630    9.110
  353.934  399.039   70.815 2193.620   10.215
  354.184  397.165   64.378 2198.540   11.383
  354.434  390.001   66.722 2205.300   12.611
  354.684  383.508   75.103 2213.490   13.614
  354.934  383.643   81.190 2215.340   14.555
  355.184  386.793   81.438 2210.040   13.344
  355.434  388.670   64.223 2219.670   11.867
  355.684  394.833   56.638 2230.720   13.813
  355.934  394.568   55.390 2236.050   16.599
  356.184  392.895   61.177 2238.110   19.816
  356.434  390.687   55.538 2239.350   23.545
  356.684  243.558   49.899 2240.800   24.774
  356.934  213.960   46.056 2241.830   23.829
  357.184  212.221   46.305 2238.170   17.390
  357.434  244.569   62.221 2243.910   14.867
  357.684  288.569   70.602 2250.870   12.570
  357.934  341.410   70.402 2253.750   11.174
  358.184  374.963   68.505 2251.110   10.742
  358.434  396.663   66.359 2247.240   10.556
  358.684  398.607   69.052 2246.840   10.575
  358.934  386.286   72.344 2249.930   10.758
  359.184  348.853   74.090 2253.620   11.023
  359.434  335.394   72.392 2261.810   11.780
  359.684  339.482   69.098 2297.470   12.250
  359.934  344.774   65.106 2287.470   12.084
  360.184  348.459   60.614 2272.740   11.734
  360.434  357.770   61.362 2281.480   10.892
  360.684  365.540   64.804 2259.690   10.419
  360.934  376.190   70.491 2228.890    9.782
  361.184  384.831   69.742 2208.880    9.390
  361.434  390.257   69.391 2211.890    9.061
  361.684  398.965   70.638 2217.210    8.793
  361.934  406.200   73.681 2198.250    8.627
  362.184  404.661   78.121 2207.380    8.502
  362.434  400.913   80.415 2214.120    8.378
  362.684  405.402   86.402 2215.940    8.294
  362.934  411.096   85.253 2216.920    8.149
  363.184  417.728   86.250 2218.780    7.984
  363.434  415.855   89.493 2223.250    7.839
  363.684  414.049   91.487 2236.660    7.817
  363.934  415.658   95.329 2256.250    7.774
  364.184  416.397   86.646 2246.040    7.772
  364.434  410.773   82.204 2232.570    7.730
  364.684  405.150   82.902 2224.550    7.790
  364.934  402.875   85.745 2226.780    7.850
  365.184  402.006   88.938 2233.130    8.053
  365.434  400.669   81.852 2250.440    8.256
  365.684  397.657   82.350 2274.480    8.316
  365.934  401.342   91.031 2284.060    8.294
  366.184  403.420   94.672 2247.340    8.272
  366.434  404.828   92.226 2230.380    8.045
  366.684  403.625   84.043 2238.550    7.736
  366.934  404.297   78.753 2226.280    7.591
  367.184  406.308   74.062 2233.230    7.671
  367.434  409.725   76.356 2238.270    8.633
  367.684  412.540   94.916 2236.040    9.677
  367.934  410.466   88.678 2218.450   11.275
  368.184  403.570   79.696 2201.330   12.646
  368.434  396.071   73.159 2198.080   13.445
  368.684  388.908   68.019 2213.560   15.350
  368.934  392.861   77.299 2218.640   13.626
  369.184  391.390   79.593 2208.650   14.895
  369.434  391.994   80.989 2213.060   16.698
  369.684  394.273   78.344 2228.790   19.115
  369.934  303.197   65.620 2281.390   22.025
  370.184  223.238   56.887 2376.180   36.886
  370.434  207.570   53.643 2518.490   45.350
  370.684  225.251   58.282 2534.590   46.517
  370.934  235.700   63.022 2504.190   48.873
  371.184  246.283   59.927 2501.320   50.102
  371.434  219.096   50.596 2535.140   49.957
  371.684  208.651   44.757 2533.910   44.584
  371.934  220.372   59.026 2463.350   38.186
  372.184  251.984   68.805 2350.180   31.748
  372.434  322.236   74.043 2287.360   23.157
