~VERSION INFORMATION
 VERS.                 2.0:   CWLS LOG ASCII STANDARD -VERSION 2.0
 WRAP.                  NO:   ONE LINE PER DEPTH STEP
~WELL INFORMATION BLOCK
#MNEM.UNIT           DATA                    DESCRIPTION OF MNEMONIC
#---------    -------------------            -------------------------------
# Generated from Intellog Unique Number	CS_73_76/WELL/805
WELL.         BOW VALLEY INDUSTRIES LTD      : Well_name    - WELL
LOC .         00/10-01-073-15W4/0            : Location     - LOCATION
UWI .         00/10-01-073-15W4/0            : Uwi          - UNIQUE WELL ID
ENTR.         SP                             : Entered      - ENTERED BY
SRVC.         SCHLUMBERGER                   : Scn          - SERVICE COMPANY
STRT.M        289.56                         : top_depth    - START DEPTH
STOP.M        482.06                         : bot_depth    - STOP DEPTH
STEP.M        0.25                           : increment    - STEP LENGTH
 NULL. -999.2500:NULL Value
~CURVE INFORMATION BLOCK
#MNEM UNIT       ERCB CURVE CODE    CURVE DESCRIPTION
#-----------   ------------------   ----------------------------------
DEPT.M        00 001 00 00         : DEPTH        - DEPTH
GR  .API      00 310 00 00         : GR           - GAMMA RAY
DPHI.V/V      00 890 00 00         : PHID         - DENSITY POROSITY (SANDSTONE)
NPHI.V/V      00 330 00 00         : PHIN         - NEUTRON POROSITY (SANDSTONE)
ILD .OHMM     00 120 00 00         : RESD         - DEEP RESISTIVITY (DIL)
~PARAMETER INFORMATION
#MNEM.UNIT           DATA             DESCRIPTION OF MNEMONIC
#---------         -----------     ------------------------------
GL  .M        625.45               : gl           - GROUND LEVEL ELEVATION
EREF.M        629.107              : kb           - ELEVATION OF DEPTH REFERENCE
DATM.M        625.45               : datum        - DATUM ELEVATION
TDD .M        490.728              : tdd          - TOTAL DEPTH DRILLER
RUN .         ONE                  : Run          - RUN NUMBER
ENG .         BILL                 : Engineer     - RECORDING ENGINEER
WIT .         JIM                  : Witness      - WITNESSED BY
MUD .         GEL                  : Mud_type     - MUD TYPE
MATR.         SANDSTONE            : Logunit      - NEUTRON MATRIX
TMAX.C        15.5556              : BHT          - MAXIMUM RECORDED TEMPERATURE
BHTD.M        490.728              : BHTDEP       - MAXIMUM RECORDED TEMPERATURE
MATR.         1                    : LOGUNIT      - NEUTRON MATRIX
RMT .C        25                   : MDTP         - TEMPERATURE OF MUD
NEUT.         1                    : NEUTRON      - NEUTRON TYPE
RESI.         0                    : RESIST       - RESISTIVITY TYPE
RMC .OHMM     0.25                 : RMC          - RESISTIVITY OF MUD CAKE
RMF .OHMM     0.25                 : RMF          - RESISTIVITY OF MUD FILTRATE
SUFT.C        15                   : SUFT         - SURFACE TEMPERATURE
~A  DEPTH       GR     PHID     PHIN     RESD
# ...
  333.060  112.019    0.230    0.443    6.604
  333.310  116.356    0.241    0.445    6.668
  333.560  118.148    0.246    0.448    6.786
  333.810  120.483    0.239    0.460    6.938
  334.060  118.664    0.242    0.476    6.925
  334.310  114.152    0.232    0.480    7.070
  334.560  111.309    0.191    0.470    7.072
  334.810  111.108    0.150    0.470    6.946
  335.060  115.575    0.162    0.484    6.885
  335.310  117.794    0.217    0.491    6.673
  335.560  116.742    0.238    0.496    6.469
  335.810  112.354    0.249    0.496    6.473
  336.060  108.660    0.233    0.510    6.336
  336.310  103.678    0.244    0.498    6.444
  336.560   96.417    0.263    0.472    6.468
  336.810   93.282    0.278    0.477    6.474
  337.060   94.317    0.282    0.468    6.563
  337.310   95.309    0.272    0.454    6.600
  337.560   99.219    0.264    0.447    6.607
  337.810  101.506    0.254    0.444    6.612
  338.060  105.395    0.237    0.452    6.613
  338.310  105.528    0.231    0.466    6.633
  338.560  106.411    0.244    0.479    6.306
  338.810  107.470    0.252    0.485    6.124
  339.060  109.203    0.236    0.498    5.848
  339.310  105.655    0.219    0.508    5.724
  339.560  102.434    0.242    0.488    5.620
  339.810  104.470    0.223    0.463    5.541
  340.060  106.141    0.205    0.482    5.646
  340.310  106.039    0.241    0.511    5.632
  340.560  106.046    0.222    0.482    5.801
  340.810  104.873    0.234    0.465    6.144
  341.060  103.334    0.256    0.472    6.406
  341.310   93.067    0.268    0.485    6.688
  341.560   86.503    0.286    0.493    6.672
  341.810   81.168    0.303    0.443    6.674
  342.060   76.814    0.319    0.434    6.667
  342.310   76.433    0.320    0.440    6.814
  342.560   76.584    0.320    0.443    6.821
  342.810   74.028    0.325    0.444    6.677
  343.060   72.814    0.320    0.435    6.695
  343.310   74.314    0.312    0.427    6.700
  343.560   75.758    0.318    0.429    6.711
  343.810   77.673    0.306    0.432    6.588
  344.060   76.643    0.311    0.426    6.591
  344.310   76.508    0.318    0.425    6.593
  344.560   75.918    0.325    0.437    6.596
  344.810   75.867    0.327    0.437    6.597
  345.060   75.796    0.328    0.435    6.588
  345.310   75.238    0.326    0.440    6.482
  345.560   75.137    0.321    0.446    6.490
  345.810   77.263    0.311    0.450    6.494
  346.060   80.260    0.312    0.457    6.499
  346.310   82.266    0.328    0.449    6.512
  346.560   81.938    0.330    0.442    6.387
  346.810   83.489    0.322    0.436    6.394
  347.060   84.734    0.317    0.431    6.393
  347.310   82.625    0.320    0.430    6.403
  347.560   81.766    0.324    0.434    6.275
  347.810   84.120    0.333    0.444    6.289
  348.060   85.497    0.332    0.449    6.292
  348.310   86.057    0.340    0.447    6.295
  348.560   84.247    0.347    0.452    6.292
  348.810   82.150    0.351    0.459    6.093
  349.060   81.732    0.350    0.458    6.082
  349.310   82.022    0.347    0.448    6.083
  349.560   83.017    0.350    0.443    6.089
  349.810   84.115    0.351    0.453    6.124
  350.060   86.784    0.347    0.456    6.208
  350.310   88.642    0.341    0.461    6.211
  350.560   92.112    0.334    0.466    6.215
  350.810   97.199    0.329    0.477    6.218
  351.060  107.345    0.321    0.484    6.234
  351.310  117.254    0.331    0.488    6.104
  351.560  122.795    0.332    0.499    6.117
  351.810  115.219    0.339    0.493    6.119
  352.060  107.276    0.318    0.489    6.123
  352.310   91.798    0.319    0.473    6.131
  352.560   82.151    0.301    0.451    6.173
  352.810   82.070    0.196    0.434    6.248
  353.060   83.927    0.120    0.415    6.504
  353.310   76.817    0.011    0.345    7.067
  353.560   71.946   -0.000    0.226    7.766
  353.810   65.365   -0.000    0.163    9.055
  354.060   60.301    0.000    0.157   11.960
  354.310   64.825    0.017    0.154   16.362
  354.560   67.801    0.040    0.162   25.028
  354.810   70.700    0.081    0.193   33.183
  355.060   73.189    0.130    0.250   40.802
  355.310   76.221    0.226    0.307   31.990
  355.560   78.514    0.273    0.376   26.757
  355.810   78.672    0.319    0.435   19.022
  356.060   77.355    0.320    0.480   13.080
  356.310   74.835    0.326    0.470    9.143
  356.560   76.539    0.333    0.460    7.344
  356.810   76.544    0.313    0.473    6.466
  357.060   75.519    0.293    0.470    6.425
  357.310   74.815    0.281    0.457    6.622
  357.560   74.897    0.294    0.458    6.827
  357.810   79.206    0.302    0.459    7.040
  358.060   82.632    0.308    0.445    7.205
  358.310   89.219    0.291    0.435    7.187
  358.560   98.638    0.255    0.440    6.853
  358.810  108.822    0.210    0.444    6.473
  359.060  114.242    0.212    0.457    6.224
  359.310  114.738    0.223    0.479    6.110
  359.560  111.545    0.241    0.472    6.121
  359.810  107.076    0.246    0.461    6.119
  360.060  102.615    0.231    0.453    6.238
  360.310   99.859    0.252    0.457    6.369
  360.560   96.338    0.256    0.445    6.463
  360.810   96.261    0.236    0.433    6.610
  361.060   99.409    0.212    0.424    6.766
  361.310  101.257    0.223    0.433    6.674
  361.560   98.071    0.262    0.447    6.452
  361.810   94.021    0.258    0.437    6.258
  362.060   89.368    0.265    0.418    6.164
  362.310   89.527    0.255    0.433    6.043
  362.560   95.438    0.241    0.440    5.942
  362.810  105.364    0.238    0.452    5.954
  363.060  113.349    0.223    0.482    5.787
  363.310  116.114    0.227    0.497    5.444
  363.560  115.659    0.222    0.488    5.119
  363.810  117.544    0.200    0.493    4.936
  364.060  119.402    0.208    0.499    4.797
  364.310  122.497    0.224    0.503    4.548
  364.560  120.085    0.239    0.502    4.518
  364.810  118.194    0.253    0.511    4.446
  365.060  115.032    0.249    0.543    4.330
  365.310  114.912    0.271    0.570    4.205
  365.560  115.559    0.315    0.582    3.952
  365.810  115.608    0.279    0.597    3.657
  366.060  117.295    0.272    0.597    2.585
  366.310  117.014    0.238    0.519    1.905
  366.560  115.015    0.213    0.510    1.461
  366.810  111.478    0.220    0.531    1.214
  367.060  111.528    0.226    0.524    1.079
  367.310  113.996    0.236    0.516    1.084
  367.560  115.625    0.250    0.515    1.167
  367.810  115.849    0.241    0.537    1.378
  368.060  115.473    0.231    0.553    2.076
  368.310  107.707    0.229    0.563    3.075
  368.560   95.790    0.236    0.518    3.957
  368.810   86.526    0.262    0.488    4.487
  369.060   80.554    0.291    0.475    5.135
  369.310   79.543    0.275    0.456    5.871
  369.560   81.003    0.291    0.445    6.711
  369.810   83.606    0.273    0.445    7.305
  370.060   85.255    0.278    0.440    7.577
  370.310   86.245    0.289    0.430    7.714
  370.560   89.082    0.273    0.436    7.268
  370.810   93.465    0.266    0.442    6.989
  371.060   98.255    0.256    0.441    6.461
  371.310  104.621    0.229    0.459    5.862
  371.560  109.104    0.213    0.473    5.029
  371.810  110.593    0.233    0.490    4.514
  372.060  107.366    0.261    0.508    4.143
  372.310  105.360    0.271    0.491    3.908
  372.560  105.679    0.260    0.467    3.673
  372.810  106.690    0.264    0.460    3.656
  373.060  107.713    0.242    0.460    3.889
  373.310  107.434    0.265    0.484    4.224
  373.560  102.393    0.302    0.508    4.485
  373.810   96.881    0.308    0.499    4.704
  374.060   96.695    0.310    0.473    4.715
  374.310   99.474    0.298    0.459    4.722
  374.560  102.699    0.271    0.466    4.868
  374.810  104.674    0.255    0.473    5.165
  375.060  105.370    0.259    0.470    5.379
  375.310  105.097    0.258    0.477    5.730
  375.560  106.233    0.253    0.494    5.940
  375.810  106.006    0.252    0.508    6.022
  376.060  106.720    0.259    0.500    6.088
  376.310  104.783    0.281    0.467    6.136
