~VERSION INFORMATION
 VERS.                 2.0:   CWLS LOG ASCII STANDARD -VERSION 2.0
 WRAP.                  NO:   ONE LINE PER DEPTH STEP
~WELL INFORMATION BLOCK
#MNEM.UNIT           DATA                    DESCRIPTION OF MNEMONIC
#---------    -------------------            -------------------------------
# Generated from Intellog Unique Number	CW_76_78/WELL/2770
WELL.         11-10-076-25W4                 : Well_name    - WELL
LOC .         00/11-10-076-25W4/0            : Location     - LOCATION
UWI .         00/11-10-076-25W4/0            : Uwi          - UNIQUE WELL ID
ENTR.         JAYE                           : Entered      - ENTERED BY
SRVC.         SCHLUMBERGER                   : Scn          - SERVICE COMPANY
DATE.         17 FEB 75                      : Date         - LOG DATE
STRT.M        591.312                        : top_depth    - START DEPTH
STOP.M        751.062                        : bot_depth    - STOP DEPTH
STEP.M        0.25                           : increment    - STEP LENGTH
 NULL. -999.2500:NULL Value
~CURVE INFORMATION BLOCK
#MNEM UNIT       ERCB CURVE CODE    CURVE DESCRIPTION
#-----------   ------------------   ----------------------------------
DEPT.M        00 001 00 00         : DEPTH        - DEPTH
DPHI.V/V      00 890 00 00         : PHID         - DENSITY POROSITY (LIMESTONE)
ILD .OHMM     00 120 00 00         : RESD         - DEEP RESISTIVITY (DIL)
CALI.IN       00 280 01 00         : CAL          - CALIPER
GR  .API      00 310 00 00         : GR           - GAMMA RAY
NPHI.V/V      00 330 00 00         : PHIN         - NEUTRON POROSITY (LIMESTONE)
~PARAMETER INFORMATION
#MNEM.UNIT           DATA             DESCRIPTION OF MNEMONIC
#---------         -----------     ------------------------------
GL  .M        844.479              : gl           - GROUND LEVEL ELEVATION
EREF.M        848.594              : kb           - ELEVATION OF DEPTH REFERENCE
DATM.M        844.479              : datum        - DATUM ELEVATION
TDD .M        748.589              : tdd          - TOTAL DEPTH DRILLER
RUN .         ONE                  : Run          - RUN NUMBER
ENG .         FETTERLEY            : Engineer     - RECORDING ENGINEER
WIT .         WOOLSEY              : Witness      - WITNESSED BY
BASE.         EDM                  : Branch       - HOME BASE OF LOGGING UNIT
MUD .         GEL CHEM             : Mud_type     - MUD TYPE
MATR.         LIMESTONE            : Logunit      - NEUTRON MATRIX
TMAX.C        29.4444              : BHT          - MAXIMUM RECORDED TEMPERATURE
BHTD.M        748.894              : BHTDEP       - MAXIMUM RECORDED TEMPERATURE
RMT .C        18.3333              : MDTP         - TEMPERATURE OF MUD
MUDD.KG/M     1068                 : MWT          - MUD DENSITY
NEUT.         1                    : NEUTRON      - NEUTRON TYPE
RESI.         0                    : RESIST       - RESISTIVITY TYPE
RM  .OHMM     4.25                 : RM           - RESISTIVITY OF MUD
RMC .OHMM     0.25                 : RMC          - RESISTIVITY OF MUD CAKE
RMF .OHMM     3.26                 : RMF          - RESISTIVITY OF MUD FILTRATE
SUFT.C        -17.7778             : SUFT         - SURFACE TEMPERATURE
~A  DEPTH     PHID     RESD      CAL       GR     PHIN
# ...
  627.812    0.156   13.814    9.062   53.283    0.331
  628.062    0.173   16.271    9.095   55.421    0.376
  628.312    0.214   20.958    9.108   58.044    0.392
  628.562    0.136   28.676    9.117   60.729    0.348
  628.812    0.093   33.588    9.106   54.854    0.128
  629.062    0.021   26.946    9.099   47.522    0.117
  629.312    0.000   18.271    9.080   43.044    0.119
  629.562    0.006   12.663    9.068   44.271    0.134
  629.812    0.031    9.391    9.065   48.715    0.166
  630.062    0.058    7.520    9.062   54.071    0.195
  630.312    0.090    6.455    9.051   60.579    0.235
  630.562    0.203    5.800    9.027   66.845    0.334
  630.812    0.246    5.396    8.996   71.349    0.395
  631.062    0.273    5.188    8.928   76.522    0.460
  631.312    0.260    5.108    8.896   75.869    0.461
  631.562    0.250    5.057    8.901   76.064    0.449
  631.812    0.244    5.108    8.971   79.172    0.455
  632.062    0.249    5.188    9.053   84.102    0.470
  632.312    0.244    5.289    9.135   85.208    0.463
  632.562    0.237    5.390    9.095   83.461    0.450
  632.812    0.211    5.556    9.177   85.843    0.445
  633.062    0.201    5.820    9.299   91.135    0.472
  633.312    0.221    6.199    9.231   88.417    0.476
  633.562    0.221    6.566    9.078   85.213    0.462
  633.812    0.230    6.892    9.035   82.677    0.461
  634.062    0.249    7.038    9.040   80.626    0.449
  634.312    0.225    7.071    9.053   76.877    0.428
  634.562    0.199    6.974    9.066   72.883    0.402
  634.812    0.171    6.755    9.079   75.810    0.398
  635.062    0.192    6.541    9.055   84.200    0.440
  635.312    0.217    6.266    9.012   88.949    0.452
  635.562    0.223    5.981    8.964   88.476    0.457
  635.812    0.237    5.729    8.965   85.211    0.448
  636.062    0.213    5.548    9.051   84.314    0.438
  636.312    0.225    5.335    9.201   90.457    0.446
  636.562    0.205    5.166    9.392   89.621    0.474
  636.812    0.214    4.976    9.280   89.998    0.498
  637.062    0.237    4.873    9.188   95.171    0.520
  637.312    0.189    4.788    9.221  101.619    0.497
  637.562    0.212    4.681    9.578   98.475    0.487
  637.812    0.205    4.633    9.713   94.180    0.470
  638.062    0.182    4.471    9.640   91.764    0.466
  638.312    0.200    4.190    9.451   90.077    0.478
  638.562    0.202    3.690    9.319   92.397    0.490
  638.812    0.214    3.255    9.242   95.931    0.489
  639.062    0.209    2.936    9.231   99.830    0.472
  639.312    0.222    3.059    9.248  103.970    0.459
  639.562    0.231    3.349    9.302  102.951    0.461
  639.812    0.207    3.700    9.303  100.962    0.466
  640.062    0.198    4.109    9.522   97.636    0.472
  640.312    0.223    4.692    9.430   97.407    0.485
  640.562    0.244    5.328    9.131   98.634    0.463
  640.812    0.241    5.480    9.153   95.856    0.463
  641.062    0.227    5.366    9.222   91.437    0.467
  641.312    0.215    5.283    9.340   89.932    0.479
  641.562    0.200    5.240    9.451   90.614    0.509
  641.812    0.218    5.168    9.492   91.719    0.501
  642.062    0.231    5.117    9.440   91.793    0.482
  642.312    0.232    5.112    9.291   91.505    0.464
  642.562    0.217    5.269    9.296   91.152    0.462
  642.812    0.246    5.459    9.402   90.316    0.478
  643.062    0.258    5.658    9.444   91.664    0.489
  643.312    0.252    5.788    9.254   92.832    0.495
  643.562    0.261    5.751    9.097   91.386    0.486
  643.812    0.271    5.570    9.042   84.420    0.467
  644.062    0.260    5.404    9.059   84.069    0.455
  644.312    0.223    5.458    9.161   83.535    0.444
  644.562    0.212    5.584    9.303   85.127    0.438
  644.812    0.228    5.756    9.373   90.725    0.457
  645.062    0.225    5.888    9.321   92.558    0.487
  645.312    0.245    5.969    8.974   88.688    0.508
  645.562    0.267    6.163    8.805   83.662    0.500
  645.812    0.277    6.387    8.688   81.551    0.494
  646.062    0.288    6.766    8.698   80.107    0.492
  646.312    0.297    7.460    8.707   78.967    0.476
  646.562    0.283    8.836    8.724   80.559    0.470
  646.812    0.258    9.959    8.749   78.144    0.478
  647.062    0.207   11.665    8.782   73.301    0.465
  647.312    0.172   13.318    8.839   69.489    0.433
  647.562    0.137   13.626    8.978   65.678    0.387
  647.812    0.146   11.803    9.003   64.904    0.367
  648.062    0.153    9.644    9.008   64.005    0.355
  648.312    0.136    8.173    8.964   62.563    0.350
  648.562    0.124    6.965    8.852   62.211    0.357
  648.812    0.116    6.259    8.687   60.585    0.355
  649.062    0.205    5.696    8.647   60.234    0.412
  649.312    0.260    5.407    8.693   64.010    0.466
  649.562    0.297    5.207    8.783   69.184    0.480
  649.812    0.276    5.099    8.832   69.137    0.465
  650.062    0.267    5.048    8.833   65.750    0.487
  650.312    0.275    5.098    8.842   62.910    0.487
  650.562    0.293    5.255    8.863   62.985    0.482
  650.812    0.307    5.425    8.872   66.518    0.478
  651.062    0.271    5.581    8.865   71.630    0.469
  651.312    0.271    5.912    8.870   75.164    0.450
  651.562    0.269    6.217    8.875   76.757    0.441
  651.812    0.279    6.465    8.855   78.833    0.449
  652.062    0.262    6.519    8.848   81.335    0.463
  652.312    0.247    6.244    8.841   78.859    0.455
  652.562    0.231    6.126    8.846   75.655    0.430
  652.812    0.217    6.313    8.907   78.036    0.415
  653.062    0.224    6.687    8.989   81.752    0.440
  653.312    0.233    7.308    8.974   80.915    0.491
  653.562    0.230    8.780    8.934   77.833    0.457
  653.812    0.237   10.687    8.907   69.954    0.417
  654.062    0.199   12.136    9.021   63.655    0.382
  654.312    0.159   11.905    9.111   56.809    0.352
  654.562    0.084   10.145    9.136   55.243    0.285
  654.812    0.113    8.597    9.165   60.841    0.371
  655.062    0.163    7.571    9.187   68.260    0.396
  655.312    0.198    7.095    9.216   72.098    0.393
  655.562    0.218    7.037    9.225   75.146    0.429
  655.812    0.227    7.252    9.230   79.044    0.445
  656.062    0.229    7.896    9.218   82.457    0.455
  656.312    0.192    8.723    9.203   80.225    0.451
  656.562    0.162    9.548    9.188   76.473    0.370
  656.812    0.128    8.549    9.164   72.723    0.351
  657.062    0.115    7.639    9.177   72.858    0.360
  657.312    0.121    6.965    9.178   75.906    0.366
  657.562    0.129    6.672    9.163   80.291    0.356
  657.812    0.149    6.802    9.156   83.582    0.419
  658.062    0.210    6.934    9.144   87.540    0.434
  658.312    0.222    7.132    9.149   90.891    0.436
  658.562    0.203    7.310    9.195   85.807    0.415
  658.812    0.180    7.659    9.277   85.516    0.426
  659.062    0.184    7.807    9.306   86.622    0.428
  659.312    0.193    7.814    9.307   89.247    0.421
  659.562    0.201    7.624    9.308   91.200    0.420
  659.812    0.212    7.370    9.304   89.757    0.433
  660.062    0.208    6.996    9.301   86.311    0.431
  660.312    0.194    6.689    9.302   85.170    0.426
  660.562    0.187    6.454    9.028   86.884    0.426
  660.812    0.203    6.194    8.984   89.810    0.434
  661.062    0.208    6.087    9.143   93.040    0.445
  661.312    0.216    6.004    9.285   95.724    0.458
  661.562    0.212    5.955    9.351   96.284    0.455
  661.812    0.195    5.982    9.400   95.630    0.451
  662.062    0.169    5.999    9.482   93.943    0.464
  662.312    0.196    6.026    9.297   93.774    0.458
  662.562    0.190    6.042    9.294   95.124    0.479
  662.812    0.210    6.104    9.275   97.079    0.480
  663.062    0.205    6.153    9.263   97.942    0.469
  663.312    0.217    6.148    9.256   96.316    0.458
  663.562    0.228    6.198    9.277   89.955    0.443
  663.812    0.234    6.318    9.298   85.477    0.449
  664.062    0.202    6.464    9.295   84.824    0.439
