~VERSION INFORMATION
 VERS.                 2.0:   CWLS LOG ASCII STANDARD -VERSION 2.0
 WRAP.                  NO:   ONE LINE PER DEPTH STEP
~WELL INFORMATION BLOCK
#MNEM.UNIT           DATA                    DESCRIPTION OF MNEMONIC
#---------    -------------------            -------------------------------
# Generated from Intellog Unique Number	CS_71_72/WELL/852
WELL.         BVX ET AL CALLING LAKE         : Well_name    - WELL
LOC .         00/10-09-071-16W4/0            : Location     - LOCATION
UWI .         00/10-09-071-16W4/0            : Uwi          - UNIQUE WELL ID
ENTR.         SP                             : Entered      - ENTERED BY
SRVC.         SCHLUMBERGER                   : Scn          - SERVICE COMPANY
STRT.M        285                            : top_depth    - START DEPTH
STOP.M        477                            : bot_depth    - STOP DEPTH
STEP.M        0.25                           : increment    - STEP LENGTH
 NULL. -999.2500:NULL Value
~CURVE INFORMATION BLOCK
#MNEM UNIT       ERCB CURVE CODE    CURVE DESCRIPTION
#-----------   ------------------   ----------------------------------
DEPT.M        00 001 00 00         : DEPTH        - DEPTH
ILD .OHMM     00 120 00 00         : RESD         - DEEP RESISTIVITY (DIL)
DPHI.V/V      00 890 00 00         : PHID         - DENSITY POROSITY (LIMESTONE)
NPHI.V/V      00 330 00 00         : PHIN         - NEUTRON POROSITY (LIMESTONE)
GR  .API      00 310 00 00         : GR           - GAMMA RAY
~PARAMETER INFORMATION
#MNEM.UNIT           DATA             DESCRIPTION OF MNEMONIC
#---------         -----------     ------------------------------
GL  .M        590.14               : gl           - GROUND LEVEL ELEVATION
EREF.M        593.79               : kb           - ELEVATION OF DEPTH REFERENCE
DATM.M        590.14               : datum        - DATUM ELEVATION
TDD .M        479                  : tdd          - TOTAL DEPTH DRILLER
RUN .         ONE                  : Run          - RUN NUMBER
ENG .         BILL                 : Engineer     - RECORDING ENGINEER
WIT .         JIM                  : Witness      - WITNESSED BY
MUD .         GEL                  : Mud_type     - MUD TYPE
MATR.         LIMESTONE            : Logunit      - NEUTRON MATRIX
TMAX.C        23                   : BHT          - MAXIMUM RECORDED TEMPERATURE
BHTD.M        479                  : BHTDEP       - MAXIMUM RECORDED TEMPERATURE
MATR.         1                    : LOGUNIT      - NEUTRON MATRIX
RMT .C        25                   : MDTP         - TEMPERATURE OF MUD
NEUT.         1                    : NEUTRON      - NEUTRON TYPE
RESI.         0                    : RESIST       - RESISTIVITY TYPE
RMC .OHMM     0.25                 : RMC          - RESISTIVITY OF MUD CAKE
RMF .OHMM     0.25                 : RMF          - RESISTIVITY OF MUD FILTRATE
SUFT.C        15                   : SUFT         - SURFACE TEMPERATURE
~A  DEPTH     RESD     PHID     PHIN       GR
# ...
  372.000   12.849    0.333    0.403   70.059
  372.250   12.965    0.342    0.383   68.317
  372.500   13.008    0.348    0.368   64.547
  372.750   12.734    0.352    0.359   61.830
  373.000   12.280    0.352    0.364   58.242
  373.250   11.554    0.348    0.360   58.040
  373.500   10.469    0.346    0.352   63.717
  373.750    9.065    0.344    0.355   66.694
  374.000    8.016    0.344    0.378   68.141
  374.250    7.128    0.346    0.414   65.542
  374.500    6.302    0.347    0.416   58.893
  374.750    6.216    0.310    0.405   57.092
  375.000    7.631    0.260    0.304   54.737
  375.250    9.932    0.175    0.174   50.971
  375.500   11.675    0.126    0.148   47.513
  375.750   13.266    0.134    0.208   42.827
  376.000   11.751    0.178    0.276   37.529
  376.250    8.834    0.246    0.307   43.018
  376.500    6.009    0.299    0.343   49.983
  376.750    5.155    0.329    0.375   54.009
  377.000    4.742    0.328    0.388   57.171
  377.250    4.487    0.327    0.401   56.288
  377.500    4.246    0.327    0.381   55.825
  377.750    4.102    0.327    0.364   55.748
  378.000    4.077    0.327    0.355   59.644
  378.250    4.098    0.326    0.348   60.233
  378.500    4.158    0.327    0.341   57.203
  378.750    4.219    0.334    0.362   55.893
  379.000    4.314    0.339    0.370   57.031
  379.250    4.369    0.340    0.367   58.044
  379.500    4.441    0.340    0.364   58.026
  379.750    4.489    0.341    0.362   57.387
  380.000    4.470    0.341    0.362   51.783
  380.250    4.426    0.341    0.366   46.300
  380.500    4.267    0.341    0.376   50.443
  380.750    4.038    0.340    0.380   53.792
  381.000    3.722    0.338    0.381   55.178
  381.250    3.555    0.335    0.374   53.434
  381.500    3.383    0.333    0.368   53.163
  381.750    3.281    0.325    0.361   53.753
  382.000    3.556    0.284    0.341   52.805
  382.250    4.324    0.227    0.289   51.311
  382.500    5.161    0.140    0.224   47.731
  382.750    6.336    0.094    0.177   43.471
  383.000    7.778    0.084    0.166   44.798
  383.250    9.213    0.084    0.163   46.306
  383.500    9.725    0.078    0.163   44.442
  383.750    9.868    0.069    0.155   44.293
  384.000    9.919    0.058    0.145   44.083
  384.250    9.839    0.052    0.135   41.296
  384.500    9.834    0.051    0.133   38.945
  384.750    9.792    0.061    0.132   35.294
  385.000    9.767    0.075    0.136   33.928
  385.250    9.763    0.088    0.148   33.721
  385.500    9.959    0.096    0.158   35.714
  385.750   10.013    0.101    0.165   36.549
  386.000   10.257    0.102    0.170   37.080
  386.250   10.787    0.103    0.173   37.967
  386.500   11.496    0.097    0.168   38.317
  386.750   12.507    0.087    0.161   39.257
  387.000   13.455    0.074    0.154   39.246
  387.250   14.585    0.062    0.146   37.076
  387.500   15.839    0.053    0.140   35.089
  387.750   17.298    0.049    0.130   33.592
  388.000   18.573    0.055    0.129   34.119
  388.250   19.533    0.060    0.131   35.626
  388.500   20.047    0.066    0.137   37.133
  388.750   19.810    0.081    0.149   39.746
  389.000   17.286    0.114    0.173   46.708
  389.250   13.960    0.155    0.202   50.426
  389.500   11.190    0.227    0.263   53.465
  389.750    8.868    0.300    0.304   55.032
  390.000    7.340    0.316    0.339   55.195
  390.250    6.829    0.327    0.376   54.248
  390.500    6.413    0.334    0.391   54.775
  390.750    6.103    0.339    0.380   55.303
  391.000    5.830    0.338    0.350   53.126
  391.250    5.761    0.338    0.347   51.267
  391.500    5.802    0.338    0.356   49.022
  391.750    5.887    0.336    0.377   50.175
  392.000    5.973    0.335    0.390   54.073
  392.250    5.992    0.334    0.382   56.928
  392.500    5.979    0.333    0.371   56.290
  392.750    5.710    0.334    0.358   52.956
  393.000    5.273    0.334    0.354   51.643
  393.250    4.787    0.336    0.350   55.786
  393.500    4.297    0.336    0.359   57.664
  393.750    3.967    0.334    0.359   56.964
  394.000    3.804    0.333    0.368   55.218
  394.250    3.586    0.331    0.383   57.647
  394.500    3.504    0.329    0.385   61.732
  394.750    3.392    0.327    0.380   64.712
  395.000    3.346    0.322    0.373   60.702
  395.250    3.389    0.310    0.366   66.066
  395.500    3.477    0.277    0.362   70.702
  395.750    3.699    0.262    0.358   74.298
  396.000    3.912    0.257    0.366   78.248
  396.250    4.060    0.268    0.375   79.215
  396.500    4.111    0.285    0.381   77.656
  396.750    4.025    0.307    0.375   72.236
  397.000    3.838    0.326    0.370   64.544
  397.250    3.666    0.337    0.372   58.942
  397.500    3.443    0.337    0.384   53.645
  397.750    3.215    0.337    0.396   50.983
  398.000    3.178    0.337    0.393   55.065
  398.250    3.110    0.336    0.386   58.782
  398.500    3.109    0.335    0.384   61.577
  398.750    3.108    0.336    0.373   61.675
  399.000    3.106    0.341    0.365   59.748
  399.250    3.093    0.342    0.359   58.680
  399.500    3.079    0.341    0.353   60.557
  399.750    3.066    0.341    0.349   60.531
  400.000    3.035    0.339    0.346   57.686
  400.250    3.028    0.338    0.352   56.127
  400.500    2.975    0.340    0.362   60.998
  400.750    2.947    0.343    0.368   62.637
  401.000    2.906    0.344    0.363   64.698
  401.250    2.840    0.343    0.383   65.775
  401.500    2.738    0.340    0.421   67.407
  401.750    2.640    0.336    0.446   72.654
  402.000    2.585    0.321    0.466   81.704
  402.250    2.555    0.299    0.482   94.923
  402.500    2.637    0.281    0.455   99.312
  402.750    2.907    0.268    0.394  101.003
  403.000    3.422    0.260    0.369   97.544
  403.250    3.580    0.257    0.357   92.857
  403.500    4.044    0.256    0.364   87.376
  403.750    4.359    0.256    0.384   83.121
  404.000    4.628    0.256    0.401   80.583
  404.250    4.785    0.256    0.385   83.624
  404.500    4.874    0.255    0.371   87.150
  404.750    4.844    0.258    0.364   89.210
  405.000    4.778    0.261    0.359   89.863
  405.250    4.721    0.265    0.379   90.082
  405.500    4.656    0.267    0.382   90.545
  405.750    4.620    0.269    0.379   90.518
  406.000    4.556    0.268    0.382   89.948
  406.250    4.544    0.263    0.393   85.876
  406.500    4.544    0.260    0.397   84.380
  406.750    4.636    0.263    0.401   84.354
  407.000    4.858    0.266    0.408   85.861
  407.250    5.187    0.259    0.407   83.568
  407.500    5.475    0.232    0.386   76.858
  407.750    5.587    0.190    0.348   68.496
  408.000    5.543    0.162    0.319   61.175
  408.250    5.354    0.282    0.331   65.075
  408.500    4.963    0.306    0.351   67.991
  408.750    4.380    0.321    0.375   70.049
  409.000    3.938    0.329    0.383   70.886
  409.250    3.596    0.332    0.379   67.730
  409.500    3.320    0.329    0.368   64.765
  409.750    3.166    0.322    0.358   63.268
  410.000    3.158    0.318    0.355   62.812
  410.250    3.174    0.313    0.361   61.500
  410.500    3.221    0.309    0.365   61.046
  410.750    3.420    0.301    0.370   66.781
  411.000    3.700    0.288    0.376   70.806
  411.250    3.920    0.271    0.381   77.393
  411.500    4.061    0.256    0.376   80.192
  411.750    4.152    0.259    0.373   82.749
  412.000    4.173    0.271    0.371   84.930
  412.250    4.140    0.289    0.368   82.512
  412.500    4.083    0.297    0.362   76.849
  412.750    3.975    0.306    0.358   70.325
  413.000    3.824    0.308    0.356   69.315
  413.250    3.809    0.303    0.363   73.334
  413.500    3.786    0.299    0.372   76.006
  413.750    3.790    0.298    0.379   77.336
  414.000    3.803    0.297    0.373   75.717
  414.250    3.801    0.298    0.369   72.260
  414.500    3.828    0.298    0.371   71.007
  414.750    3.833    0.296    0.380   71.163
  415.000    3.802    0.295    0.384   72.119
  415.250    3.793    0.294    0.381   72.464
