~VERSION INFORMATION
 VERS.                 2.0:   CWLS LOG ASCII STANDARD -VERSION 2.0
 WRAP.                  NO:   ONE LINE PER DEPTH STEP
~WELL INFORMATION BLOCK
#MNEM.UNIT           DATA                    DESCRIPTION OF MNEMONIC
#---------    -------------------            -------------------------------
# Generated from Intellog Unique Number	CS_71_72/WELL/892
WELL.         MURPHY OIL COMPANY             : Well_name    - WELL
LOC .         00/11-09-071-11W4/0            : Location     - LOCATION
UWI .         00/11-09-071-11W4/0            : Uwi          - UNIQUE WELL ID
ENTR.         SP                             : Entered      - ENTERED BY
SRVC.         SCHLUMBERGER                   : Scn          - SERVICE COMPANY
STRT.M        270                            : top_depth    - START DEPTH
STOP.M        465                            : bot_depth    - STOP DEPTH
STEP.M        0.25                           : increment    - STEP LENGTH
 NULL. -999.2500:NULL Value
~CURVE INFORMATION BLOCK
#MNEM UNIT       ERCB CURVE CODE    CURVE DESCRIPTION
#-----------   ------------------   ----------------------------------
DEPT.M        00 001 00 00         : DEPTH        - DEPTH
ILD .OHMM     00 120 00 00         : RESD         - DEEP RESISTIVITY (DIL)
DPHI.V/V      00 890 00 00         : PHID         - DENSITY POROSITY (LIMESTONE)
NPHI.V/V      00 330 00 00         : PHIN         - NEUTRON POROSITY (LIMESTONE)
GR  .API      00 310 00 00         : GR           - GAMMA RAY
~PARAMETER INFORMATION
#MNEM.UNIT           DATA             DESCRIPTION OF MNEMONIC
#---------         -----------     ------------------------------
GL  .M        612.9                : gl           - GROUND LEVEL ELEVATION
EREF.M        616.6                : kb           - ELEVATION OF DEPTH REFERENCE
DATM.M        612.9                : datum        - DATUM ELEVATION
TDD .M        480                  : tdd          - TOTAL DEPTH DRILLER
RUN .         ONE                  : Run          - RUN NUMBER
ENG .         BILL                 : Engineer     - RECORDING ENGINEER
WIT .         JIM                  : Witness      - WITNESSED BY
MUD .         GEL                  : Mud_type     - MUD TYPE
MATR.         LIMESTONE            : Logunit      - NEUTRON MATRIX
TMAX.C        26                   : BHT          - MAXIMUM RECORDED TEMPERATURE
BHTD.M        480                  : BHTDEP       - MAXIMUM RECORDED TEMPERATURE
MATR.         1                    : LOGUNIT      - NEUTRON MATRIX
RMT .C        25                   : MDTP         - TEMPERATURE OF MUD
NEUT.         1                    : NEUTRON      - NEUTRON TYPE
RESI.         0                    : RESIST       - RESISTIVITY TYPE
RMC .OHMM     0.25                 : RMC          - RESISTIVITY OF MUD CAKE
RMF .OHMM     0.25                 : RMF          - RESISTIVITY OF MUD FILTRATE
SUFT.C        15                   : SUFT         - SURFACE TEMPERATURE
~A  DEPTH     RESD     PHID     PHIN       GR
# ...
  400.500    4.284    0.230    0.365   85.759
  400.750    4.318    0.242    0.377   86.868
  401.000    4.336    0.241    0.391   89.447
  401.250    4.330    0.233    0.388   90.922
  401.500    4.292    0.225    0.382   92.093
  401.750    4.190    0.220    0.378   92.348
  402.000    3.904    0.216    0.376   91.259
  402.250    3.535    0.213    0.383   90.904
  402.500    3.072    0.213    0.394   91.098
  402.750    2.625    0.230    0.410   92.148
  403.000    2.311    0.249    0.422   92.767
  403.250    2.145    0.268    0.435   92.472
  403.500    2.083    0.259    0.417   92.666
  403.750    2.168    0.246    0.408   93.226
  404.000    2.264    0.251    0.417   93.908
  404.250    2.447    0.261    0.413   92.577
  404.500    2.624    0.268    0.390   90.630
  404.750    2.825    0.267    0.374   87.464
  405.000    3.001    0.256    0.360   83.869
  405.250    3.147    0.248    0.348   82.291
  405.500    3.251    0.258    0.354   80.896
  405.750    3.277    0.271    0.363   78.646
  406.000    3.284    0.282    0.370   75.845
  406.250    3.280    0.287    0.375   75.307
  406.500    3.251    0.290    0.375   75.868
  406.750    3.271    0.290    0.377   76.307
  407.000    3.284    0.284    0.369   77.171
  407.250    3.354    0.275    0.362   81.152
  407.500    3.471    0.262    0.358   84.585
  407.750    3.586    0.251    0.364   86.794
  408.000    3.683    0.247    0.369   85.217
  408.250    3.748    0.245    0.373   82.173
  408.500    3.828    0.244    0.372   80.595
  408.750    3.895    0.237    0.365   79.383
  409.000    3.986    0.220    0.356   80.066
  409.250    4.094    0.203    0.353   81.420
  409.500    4.253    0.189    0.354   82.957
  409.750    4.343    0.186    0.358   84.436
  410.000    4.461    0.200    0.360   85.363
  410.250    4.430    0.215    0.348   86.167
  410.500    4.301    0.224    0.339   85.933
  410.750    4.254    0.230    0.335   85.576
  411.000    4.233    0.231    0.338   86.137
  411.250    4.235    0.227    0.344   87.981
  411.500    4.268    0.224    0.351   90.069
  411.750    4.279    0.224    0.359   88.490
  412.000    4.281    0.229    0.366   86.241
  412.250    4.227    0.226    0.360   85.335
  412.500    4.213    0.221    0.350   84.978
  412.750    4.199    0.220    0.340   86.944
  413.000    4.201    0.224    0.331   89.888
  413.250    4.203    0.228    0.332   91.852
  413.500    4.213    0.227    0.340   92.841
  413.750    4.215    0.227    0.339   93.158
  414.000    4.209    0.225    0.329   91.639
  414.250    4.164    0.224    0.323   89.755
  414.500    3.778    0.224    0.331   88.362
  414.750    3.780    0.222    0.335   87.638
  415.000    3.782    0.219    0.340   87.466
  415.250    3.813    0.217    0.345   87.842
  415.500    3.800    0.218    0.350   89.200
  415.750    3.830    0.225    0.356   89.942
  416.000    3.898    0.229    0.365   90.563
  416.250    3.943    0.228    0.372   90.878
  416.500    4.043    0.222    0.352   90.889
  416.750    4.137    0.214    0.327   89.984
  417.000    4.289    0.207    0.316   89.749
  417.250    4.447    0.203    0.323   93.181
  417.500    4.654    0.201    0.330   95.149
  417.750    4.835    0.199    0.330   95.768
  418.000    4.901    0.198    0.328   94.251
  418.250    4.922    0.200    0.332   94.689
  418.500    4.887    0.203    0.344   95.250
  418.750    4.360    0.210    0.353   95.077
  419.000    3.430    0.216    0.357   93.928
  419.250    2.729    0.231    0.367   91.738
  419.500    2.481    0.243    0.384   89.731
  419.750    2.272    0.251    0.396   87.971
  420.000    2.074    0.256    0.408   85.597
  420.250    1.961    0.257    0.404   84.997
  420.500    1.918    0.256    0.401   87.329
  420.750    2.004    0.254    0.412   90.150
  421.000    2.149    0.253    0.416   89.550
  421.250    2.371    0.253    0.392   87.178
  421.500    2.630    0.255    0.369   86.029
  421.750    2.895    0.256    0.352   85.794
  422.000    3.117    0.258    0.339   85.012
  422.250    3.299    0.259    0.336   84.471
  422.500    3.357    0.260    0.339   83.933
  422.750    3.277    0.260    0.351   84.796
  423.000    3.218    0.260    0.365   86.396
  423.250    3.196    0.252    0.380   86.650
  423.500    3.191    0.243    0.381   84.217
  423.750    3.216    0.235    0.369   83.433
  424.000    3.267    0.226    0.370   84.360
  424.250    3.445    0.236    0.374   84.921
  424.500    3.702    0.244    0.362   80.655
  424.750    3.925    0.239    0.335   78.344
  425.000    4.131    0.214    0.308   76.397
  425.250    4.316    0.187    0.286   77.203
  425.500    4.214    0.168    0.284   80.573
  425.750    4.022    0.166    0.298   84.800
  426.000    3.740    0.184    0.334   87.987
  426.250    3.312    0.200    0.354   90.381
  426.500    2.889    0.210    0.369   92.102
  426.750    2.651    0.215    0.402   93.274
  427.000    2.512    0.216    0.398   94.079
  427.250    2.402    0.212    0.393   94.823
  427.500    2.328    0.207    0.391   94.527
  427.750    2.298    0.201    0.390   91.911
  428.000    2.300    0.197    0.389   91.188
  428.250    2.314    0.197    0.388   90.954
  428.500    2.345    0.199    0.388   91.028
  428.750    2.369    0.202    0.388   91.464
  429.000    2.383    0.211    0.383   92.697
  429.250    2.375    0.220    0.376   93.684
  429.500    2.363    0.227    0.368   95.163
  429.750    2.360    0.229    0.363   96.273
  430.000    2.370    0.229    0.367   96.893
  430.250    2.389    0.228    0.376   97.823
  430.500    2.543    0.226    0.376   97.525
  430.750    2.656    0.223    0.359   95.396
  431.000    2.723    0.220    0.350   94.002
  431.250    2.724    0.218    0.349   93.707
  431.500    2.685    0.216    0.355   94.145
  431.750    2.515    0.220    0.375   98.921
  432.000    2.379    0.232    0.394  103.392
  432.250    2.258    0.223    0.408  105.236
  432.500    2.171    0.216    0.418  102.619
  432.750    2.112    0.213    0.425  100.980
  433.000    2.178    0.218    0.416  100.440
  433.250    2.331    0.223    0.405   99.228
  433.500    2.519    0.229    0.396   98.139
  433.750    2.768    0.233    0.388   96.317
  434.000    3.036    0.229    0.371   91.317
  434.250    3.325    0.222    0.342   83.567
  434.500    3.695    0.217    0.312   76.490
  434.750    3.911    0.246    0.292   74.730
  435.000    4.195    0.265    0.279   71.501
  435.250    4.473    0.270    0.274   65.341
  435.500    4.770    0.270    0.281   67.614
  435.750    5.002    0.266    0.291   69.089
  436.000    5.295    0.260    0.303   70.261
  436.250    5.721    0.250    0.311   70.271
  436.500    6.264    0.241    0.300   68.448
  436.750    6.693    0.215    0.283   65.221
  437.000    6.926    0.098    0.264   61.198
  437.250    6.851    0.113    0.259   61.271
  437.500    6.565    0.153    0.275   64.274
  437.750    6.255    0.191    0.293   63.735
  438.000    5.871    0.214    0.300   67.166
  438.250    5.470    0.201    0.290   72.372
  438.500    5.230    0.191    0.293   76.048
  438.750    4.946    0.209    0.299   78.319
  439.000    4.695    0.220    0.305   80.284
  439.250    4.440    0.227    0.305   82.927
  439.500    4.271    0.231    0.303   83.544
  439.750    4.177    0.234    0.310   84.655
  440.000    4.079    0.235    0.314   85.643
  440.250    3.967    0.227    0.318   86.447
  440.500    3.924    0.215    0.309   86.763
  440.750    3.853    0.207    0.303   87.995
  441.000    3.812    0.226    0.299   90.939
  441.250    3.821    0.234    0.298   93.821
  441.500    3.924    0.235    0.298   96.948
  441.750    4.008    0.239    0.300   96.713
  442.000    4.102    0.243    0.304   93.792
  442.250    4.205    0.247    0.309   91.663
  442.500    4.351    0.250    0.313   90.330
  442.750    4.495    0.249    0.315   91.257
  443.000    4.678    0.239    0.315   96.339
  443.250    4.850    0.230    0.310  101.970
  443.500    5.047    0.235    0.302  106.318
  443.750    5.323    0.243    0.297  106.512
