~VERSION INFORMATION
 VERS.                 2.0:   CWLS LOG ASCII STANDARD -VERSION 2.0
 WRAP.                  NO:   ONE LINE PER DEPTH STEP
~WELL INFORMATION BLOCK
#MNEM.UNIT           DATA                    DESCRIPTION OF MNEMONIC
#---------    -------------------            -------------------------------
# Generated from Intellog Unique Number	CN_91_93/WELL/3131
WELL.         PARAMOUNT RESOURCES LTD.       : Well_name    - WELL
LOC .         00/11-04-092-18W4/0            : Location     - LOCATION
UWI .         00/11-04-092-18W400            : Uwi          - UNIQUE WELL ID
ENTR.         JOETTE                         : Entered      - ENTERED BY
SRVC.         COMPUTALOG                     : Scn          - SERVICE COMPANY
DATE.         04/12/92                       : Date         - LOG DATE
STRT.M        70                             : top_depth    - START DEPTH
STOP.M        260                            : bot_depth    - STOP DEPTH
STEP.M        0.25                           : increment    - STEP LENGTH
 NULL. -999.2500:NULL Value
~CURVE INFORMATION BLOCK
#MNEM UNIT       ERCB CURVE CODE    CURVE DESCRIPTION
#-----------   ------------------   ----------------------------------
DEPT.M        00 001 00 00         : DEPTH        - DEPTH
CALI.MM       00 280 01 00         : CAL          - CALIPER
GR  .API      00 310 00 00         : GR           - GAMMA RAY
NPHI.V/V      00 330 00 00         : PHIN         - NEUTRON POROSITY (SANDSTONE)
DPHI.V/V      00 890 00 00         : PHID         - DENSITY POROSITY (SANDSTONE)
ILD .OHMM     00 120 00 00         : RESD         - DEEP RESISTIVITY (DIL)
~PARAMETER INFORMATION
#MNEM.UNIT           DATA             DESCRIPTION OF MNEMONIC
#---------         -----------     ------------------------------
GL  .M        520.6                : gl           - GROUND LEVEL ELEVATION
EREF.M        523.6                : kb           - ELEVATION OF DEPTH REFERENCE
DATM.M        523.6                : datum        - DATUM ELEVATION
TDD .M        262.4                : tdd          - TOTAL DEPTH DRILLER
RUN .         ONE                  : Run          - RUN NUMBER
ENG .         BILL                 : Engineer     - RECORDING ENGINEER
WIT .         JIM                  : Witness      - WITNESSED BY
MUD .         GEL                  : Mud_type     - MUD TYPE
MATR.         SANDSTONE            : Logunit      - NEUTRON MATRIX
TMAX.C        19                   : BHT          - MAXIMUM RECORDED TEMPERATURE
BHTD.M        262.4                : BHTDEP       - MAXIMUM RECORDED TEMPERATURE
RMT .C        11.1                 : MDTP         - TEMPERATURE OF MUD
MUDD.KG/M     1090                 : MWT          - MUD DENSITY
NEUT.         1                    : NEUTRON      - NEUTRON TYPE
RESI.         0                    : RESIST       - RESISTIVITY TYPE
RM  .OHMM     3.9                  : RM           - RESISTIVITY OF MUD
RMC .OHMM     3.9                  : RMC          - RESISTIVITY OF MUD CAKE
RMF .OHMM     4.9                  : RMF          - RESISTIVITY OF MUD FILTRATE
SUFT.C        4                    : SUFT         - SURFACE TEMPERATURE
~A  DEPTH      CAL       GR     PHIN     PHID     RESD
# ...
  106.500  165.112   39.035    0.364    0.305   33.634
  106.750  166.139   40.272    0.367    0.351   33.134
  107.000  166.130   39.638    0.367    0.348   32.673
  107.250  166.106   37.135    0.360    0.347   32.796
  107.500  165.055   37.125    0.351    0.351   32.339
  107.750  162.952   39.609    0.356    0.350   31.828
  108.000  162.944   41.469    0.370    0.357   31.919
  108.250  162.923   40.213    0.386    0.351   31.503
  108.500  162.907   38.956    0.395    0.345   31.622
  108.750  163.929   38.320    0.384    0.353   31.712
  109.000  163.917   38.934    0.366    0.365   31.861
  109.250  164.931   38.924    0.353    0.358   31.951
  109.500  164.919   38.914    0.355    0.352   32.102
  109.750  165.938   39.525    0.362    0.346   32.223
  110.000  166.964   42.011    0.371    0.343   32.344
  110.250  166.940   43.246    0.379    0.348   32.436
  110.500  166.928   42.615    0.377    0.352   31.954
  110.750  165.868   39.488    0.372    0.338   31.508
  111.000  165.860   41.972    0.365    0.289   31.011
  111.250  165.843   45.703    0.371    0.261   30.608
  111.500  165.815   49.434    0.385    0.224   30.125
  111.750  164.763   55.656    0.401    0.205   30.210
  112.000  164.747   54.399    0.411    0.262   29.789
  112.250  164.735   51.895    0.405    0.287   29.873
  112.500  166.796   48.768    0.381    0.300   29.457
  112.750  167.819   45.018    0.360    0.330   28.992
  113.000  167.803   41.889    0.350    0.344   29.156
  113.250  166.743   40.632    0.360    0.344   28.669
  113.500  163.609   36.258    0.351    0.344   28.777
  113.750  160.476   34.999    0.337    0.344   30.016
  114.000  159.412   37.485    0.348    0.345   30.699
  114.250  159.400   41.839    0.364    0.346   30.243
  114.500  159.379   42.450    0.366    0.346   29.794
  114.750  160.406   41.194    0.360    0.348   29.378
  115.000  163.503   40.560    0.359    0.353   28.915
  115.250  164.525   41.172    0.360    0.358   27.983
  115.500  164.513   41.162    0.365    0.348   28.062
  115.750  162.410   39.907    0.359    0.330   27.697
  116.000  162.402   39.274    0.350    0.326   27.260
  116.250  161.339   41.135    0.353    0.344   27.337
  116.500  161.322   42.369    0.357    0.362   27.440
  116.750  161.314   41.736    0.349    0.358   27.569
  117.000  161.289   40.479    0.345    0.352   27.673
  117.250  160.238   41.093    0.347    0.348   27.236
  117.500  160.222   44.824    0.354    0.337   24.456
  117.750  160.197   46.058    0.369    0.309   21.131
  118.000  160.180   47.295    0.394    0.208   18.587
  118.250  161.207   65.368    0.416    0.190   16.045
  118.500  162.234   87.178    0.433    0.219   13.106
  118.750  165.322  105.871    0.450    0.230   10.898
  119.000  168.427  115.213    0.462    0.221    8.902
  119.250  170.493  125.178    0.476    0.247    7.272
  119.500  173.590  130.156    0.459    0.260    6.396
  119.750  174.613  132.640    0.452    0.251    5.532
  120.000  173.557  133.872    0.473    0.254    4.958
  120.250  172.497  133.864    0.493    0.263    4.536
  120.500  171.446  136.972    0.485    0.264    4.385
  120.750  170.382  138.209    0.461    0.230    4.324
  121.000  170.370  134.458    0.445    0.190    4.332
  121.250  170.358  129.459    0.445    0.180    4.357
  121.500  170.337  129.451    0.453    0.202    4.452
  121.750  170.321  134.426    0.465    0.213    4.464
  122.000  170.305  136.287    0.484    0.228    4.575
  122.250  169.245  135.654    0.502    0.247    4.583
  122.500  169.224  131.903    0.494    0.254    4.609
  122.750  169.216  128.153    0.475    0.259    4.627
  123.000  168.157  126.272    0.462    0.262    4.640
  123.250  168.140  128.754    0.467    0.262    4.653
  123.500  168.124  130.617    0.472    0.263    4.683
  123.750  168.112  134.969    0.479    0.262    4.697
  124.000  168.095  132.465    0.473    0.260    4.710
  124.250  168.079  126.221    0.468    0.261    4.737
  124.500  169.089  123.717    0.469    0.266    4.746
  124.750  170.120  124.331    0.470    0.267    4.955
  125.000  170.104  124.939    0.462    0.268    5.058
  125.250  169.040  119.947    0.438    0.258    5.375
  125.500  167.993  113.077    0.433    0.228    5.708
  125.750  166.937  104.339    0.433    0.197    6.066
  126.000  162.760  107.444    0.419    0.187    6.321
  126.250  159.627  116.788    0.412    0.225    6.712
  126.500  161.684  109.920    0.407    0.207    7.133
  126.750  165.816  101.182    0.405    0.179    7.574
  127.000  167.886   89.946    0.418    0.174    7.747
  127.250  169.952   93.679    0.417    0.249    7.783
  127.500  173.048   99.280    0.422    0.182    7.248
  127.750  171.985  104.258    0.439    0.149    6.872
  128.000  171.973  107.986    0.458    0.118    6.644
  128.250  170.921  115.460    0.477    0.188    6.078
  128.500  167.783  129.789    0.480    0.257    5.866
  128.750  166.724  130.400    0.473    0.251    5.463
  129.000  166.716  129.769    0.476    0.228    4.901
  129.250  165.656  127.263    0.493    0.221    4.646
  129.500  165.636  124.760    0.509    0.236    4.327
  129.750  165.623  124.750    0.495    0.258    4.106
  130.000  165.603  130.974    0.480    0.280    4.052
  130.250  165.590  134.705    0.482    0.291    3.988
  130.500  165.570  130.331    0.472    0.296    3.929
  130.750  165.554  124.711    0.477    0.298    3.874
  131.000  166.576  122.830    0.481    0.293    3.885
  131.250  166.564  124.686    0.466    0.265    3.896
  131.500  166.548  124.055    0.477    0.259    3.838
  131.750  166.531  124.043    0.506    0.234    3.856
  132.000  166.502  126.529    0.530    0.242    3.871
  132.250  166.490  129.013    0.511    0.279    3.886
  132.500  166.474  130.250    0.479    0.289    3.978
  132.750  165.418  127.121    0.466    0.281    4.064
  133.000  165.406  127.111    0.450    0.258    4.157
  133.250  165.385  124.607    0.445    0.254    4.497
  133.500  164.334  118.986    0.449    0.255    5.353
  133.750  164.314  111.495    0.437    0.264    6.013
  134.000  163.254  105.251    0.415    0.274    6.499
  134.250  163.233   99.630    0.391    0.284    7.736
  134.500  163.225   92.758    0.377    0.250    8.535
  134.750  164.240   89.010    0.383    0.205    9.400
  135.000  164.231   84.636    0.386    0.140   10.362
  135.250  164.211   80.883    0.382    0.127   11.649
  135.500  164.195   85.863    0.368    0.187   12.603
  135.750  165.213   92.088    0.357    0.229   12.650
  136.000  165.193   97.689    0.356    0.252   12.231
  136.250  165.184   97.055    0.361    0.269   11.402
  136.500  165.168  100.158    0.377    0.264   10.618
  136.750  165.152  106.385    0.397    0.248   10.057
  137.000  165.131  111.986    0.402    0.242    9.543
  137.250  165.115  115.714    0.416    0.249    8.896
  137.500  164.051  112.590    0.421    0.267    8.442
  137.750  163.000  106.969    0.406    0.282    8.473
  138.000  160.897   98.231    0.379    0.288    9.340
  138.250  160.893   87.620    0.375    0.269   10.306
  138.500  160.876   90.728    0.377    0.267   11.150
  138.750  160.860   91.965    0.377    0.292   11.839
  139.000  161.879   90.084    0.390    0.312   11.906
  139.250  163.932   88.828    0.404    0.297   11.928
  139.500  164.959   88.818    0.406    0.285   11.973
  139.750  164.942   89.431    0.388    0.276   12.477
  140.000  165.969   85.678    0.368    0.238   13.248
  140.250  165.949   78.808    0.376    0.202   13.550
  140.500  164.897   81.918    0.381    0.223   13.858
  140.750  161.760   86.272    0.386    0.238   13.936
  141.000  160.708   89.380    0.394    0.254   13.976
  141.250  159.645   93.108    0.407    0.252   13.781
  141.500  159.632   94.971    0.423    0.227   13.563
  141.750  159.612  100.572    0.431    0.224   12.632
  142.000  160.639  110.537    0.417    0.231   11.986
  142.250  162.700  122.996    0.399    0.233   11.363
  142.500  165.793  124.231    0.414    0.224   10.386
  142.750  167.859  119.233    0.421    0.204    9.673
