~VERSION INFORMATION
 VERS.                 2.0:   CWLS LOG ASCII STANDARD -VERSION 2.0
 WRAP.                  NO:   ONE LINE PER DEPTH STEP
~WELL INFORMATION BLOCK
#MNEM.UNIT           DATA                    DESCRIPTION OF MNEMONIC
#---------    -------------------            -------------------------------
# Generated from Intellog Unique Number	CS_77_79/WELL/1009
WELL.         MESA PORTAGE                   : Well_name    - WELL
LOC .         00/11-34-079-18W4/0            : Location     - LOCATION
UWI .         00/11-34-079-18W4/0            : Uwi          - UNIQUE WELL ID
ENTR.         JHS                            : Entered      - ENTERED BY
SRVC.         SCHLUMBERGER                   : Scn          - SERVICE COMPANY
STRT.M        152.4                          : top_depth    - START DEPTH
STOP.M        374.65                         : bot_depth    - STOP DEPTH
STEP.M        0.25                           : increment    - STEP LENGTH
 NULL. -999.2500:NULL Value
~CURVE INFORMATION BLOCK
#MNEM UNIT       ERCB CURVE CODE    CURVE DESCRIPTION
#-----------   ------------------   ----------------------------------
DEPT.M        00 001 00 00         : DEPTH        - DEPTH
RHOB.KG/M3    00 350 00 00         : DENS         - BULK DENSITY
GR  .API      00 310 00 00         : GR           - GAMMA RAY
DPHI.V/V      00 890 00 00         : PHID         - DENSITY POROSITY (SANDSTONE)
NPHI.V/V      00 330 00 00         : PHIN         - NEUTRON POROSITY (SANDSTONE)
ILD .OHMM     00 120 00 00         : RESD         - DEEP RESISTIVITY (DIL)
~PARAMETER INFORMATION
#MNEM.UNIT           DATA             DESCRIPTION OF MNEMONIC
#---------         -----------     ------------------------------
GL  .M        554.462              : gl           - GROUND LEVEL ELEVATION
EREF.M        557.814              : kb           - ELEVATION OF DEPTH REFERENCE
DATM.M        557.814              : datum        - DATUM ELEVATION
TDD .M        374.904              : tdd          - TOTAL DEPTH DRILLER
RUN .         ONE                  : Run          - RUN NUMBER
ENG .         BILL                 : Engineer     - RECORDING ENGINEER
WIT .         JIM                  : Witness      - WITNESSED BY
MUD .         GEL                  : Mud_type     - MUD TYPE
MATR.         SANDSTONE            : Logunit      - NEUTRON MATRIX
TMAX.C        60                   : BHT          - MAXIMUM RECORDED TEMPERATURE
BHTD.M        374.904              : BHTDEP       - MAXIMUM RECORDED TEMPERATURE
MATR.         1                    : LOGUNIT      - NEUTRON MATRIX
RMT .C        25                   : MDTP         - TEMPERATURE OF MUD
NEUT.         1                    : NEUTRON      - NEUTRON TYPE
RESI.         0                    : RESIST       - RESISTIVITY TYPE
RMC .OHMM     0.25                 : RMC          - RESISTIVITY OF MUD CAKE
RMF .OHMM     0.25                 : RMF          - RESISTIVITY OF MUD FILTRATE
SUFT.C        15                   : SUFT         - SURFACE TEMPERATURE
~A  DEPTH     DENS       GR     PHID     PHIN     RESD
# ...
  188.900    0.000   55.872    0.270    0.494    9.058
  189.150    0.000   54.136    0.284    0.471   10.604
  189.400    0.000   50.946    0.270    0.457   12.017
  189.650    0.000   49.405    0.308    0.446   13.579
  189.900    0.000   49.544    0.283    0.440   14.716
  190.150    0.000   52.153    0.276    0.444   15.390
  190.400    0.000   53.681    0.264    0.464   15.888
  190.650    0.000   56.887    0.251    0.448   15.890
  190.900    0.000   56.498    0.262    0.445   16.059
  191.150    0.000   55.055    0.278    0.436   16.533
  191.400    0.000   51.063    0.285    0.431   16.830
  191.650    0.000   46.473    0.271    0.448   16.860
  191.900    0.000   40.936    0.287    0.444   16.883
  192.150    0.000   33.918    0.261    0.418   16.921
  192.400    0.000   28.957    0.262    0.393   16.429
  192.650    0.000   36.745    0.294    0.379   16.318
  192.900    0.000   39.085    0.284    0.447   16.355
  193.150    0.000   36.532    0.275    0.445   15.950
  193.400    0.000   35.653    0.300    0.439   15.173
  193.650    0.000   35.489    0.309    0.435   13.986
  193.900    0.000   39.053    0.283    0.411   13.093
  194.150    0.000   44.115    0.271    0.425   12.175
  194.400    0.000   46.554    0.228    0.412   11.239
  194.650    0.000   52.365    0.213    0.413   10.656
  194.900    0.000   53.576    0.190    0.425   10.713
  195.150    0.000   53.010    0.219    0.420   10.435
  195.400    0.000   55.628    0.186    0.423    9.675
  195.650    0.000   56.639    0.209    0.426    8.845
  195.900    0.000   56.403    0.220    0.426    7.761
  196.150    0.000   56.810    0.215    0.430    6.451
  196.400    0.000   62.887    0.199    0.438    5.846
  196.650    0.000   68.160    0.229    0.534    5.101
  196.900    0.000   68.945    0.179    0.569    4.733
  197.150    0.000   68.291    0.158    0.576    4.501
  197.400    0.000   68.417    0.209    0.552    4.350
  197.650    0.000   70.632    0.154    0.553    4.240
  197.900    0.000   73.086    0.193    0.573    4.152
  198.150    0.000   73.989    0.188    0.594    4.147
  198.400    0.000   73.412    0.169    0.563    3.948
  198.650    0.000   71.752    0.162    0.568    3.916
  198.900    0.000   67.633    0.097    0.581    3.883
  199.150    0.000   61.613    0.079    0.550    4.105
  199.400    0.000   56.860   -0.011    0.516    4.730
  199.650    0.000   68.781    0.180    0.536    5.571
  199.900    0.000   72.414    0.269    0.528    6.415
  200.150    0.000   72.507    0.286    0.475    7.500
  200.400    0.000   66.933    0.265    0.449    8.541
  200.650    0.000   62.729    0.256    0.426    8.829
  200.900    0.000   62.347    0.260    0.424    8.521
  201.150    0.000   62.278    0.293    0.436    7.997
  201.400    0.000   64.593    0.269    0.454    7.750
  201.650    0.000   62.951    0.226    0.463    7.718
  201.900    0.000   60.382    0.239    0.448    8.238
  202.150    0.000   60.661    0.275    0.460    8.887
  202.400    0.000   60.590    0.299    0.486   10.091
  202.650    0.000   58.535    0.269    0.456   11.306
  202.900    0.000   56.317    0.266    0.434   12.652
  203.150    0.000   55.867    0.272    0.412   13.303
  203.400    0.000   56.249    0.286    0.408   14.034
  203.650    0.000   57.320    0.291    0.434   14.048
  203.900    0.000   57.755    0.295    0.458   13.609
  204.150    0.000   57.484    0.300    0.472   13.621
  204.400    0.000   56.460    0.309    0.480   13.661
  204.650    0.000   54.969    0.307    0.484   14.095
  204.900    0.000   53.247    0.311    0.480   14.940
  205.150    0.000   50.734    0.321    0.470   16.223
  205.400    0.000   44.267    0.334    0.475   17.244
  205.650    0.000   36.721    0.340    0.475   18.166
  205.900    0.000   34.606    0.352    0.423   19.199
  206.150    0.000   37.247    0.348    0.410   19.586
  206.400    0.000   41.528    0.344    0.417   19.512
  206.650    0.000   45.033    0.337    0.438   18.890
  206.900    0.000   45.016    0.330    0.440   18.540
  207.150    0.000   44.833    0.327    0.415   17.415
  207.400    0.000   43.896    0.328    0.407   16.131
  207.650    0.000   43.225    0.311    0.416   14.402
  207.900    0.000   43.291    0.282    0.434   13.137
  208.150    0.000   43.795    0.218    0.432   11.961
  208.400    0.000   44.779    0.200    0.433   11.194
  208.650    0.000   46.512    0.218    0.437   10.436
  208.900    0.000   46.641    0.227    0.430   10.136
  209.150    0.000   45.541    0.233    0.439    9.852
  209.400    0.000   45.859    0.253    0.454    9.370
  209.650    0.000   46.184    0.251    0.468    9.488
  209.900    0.000   47.013    0.245    0.473    9.785
  210.150    0.000   45.979    0.264    0.471   10.298
  210.400    0.000   43.070    0.270    0.472   10.752
  210.650    0.000   39.338    0.269    0.475   12.623
  210.900    0.000   37.459    0.301    0.473   13.588
  211.150    0.000   36.964    0.320    0.461   14.423
  211.400    0.000   38.045    0.331    0.442   14.210
  211.650    0.000   38.048    0.313    0.434   12.796
  211.900    0.000   36.755    0.310    0.427   11.212
  212.150    0.000   34.371    0.307    0.426    9.600
  212.400    0.000   34.849    0.296    0.442    8.197
  212.650    0.000   36.197    0.327    0.459    7.186
  212.900    0.000   38.677    0.320    0.453    6.545
  213.150    0.000   41.304    0.313    0.455    6.274
  213.400    0.000   43.953    0.305    0.476    6.440
  213.650    0.000   44.269    0.293    0.503    6.895
  213.900    0.000   43.697    0.293    0.523    7.198
  214.150    0.000   42.380    0.308    0.533    7.485
  214.400    0.000   41.796    0.325    0.504    7.490
  214.650    0.000   44.022    0.333    0.484    7.548
  214.900    0.000   45.643    0.310    0.495    7.804
  215.150    0.000   45.896    0.282    0.542    8.448
  215.400    0.000   44.180    0.306    0.517    9.128
  215.650    0.000   41.932    0.280    0.473   10.157
  215.900    0.000   40.014    0.259    0.457   10.895
  216.150    0.000   41.254    0.290    0.448   11.144
  216.400    0.000   46.712    0.289    0.447   10.774
  216.650    0.000   49.706    0.274    0.482   10.741
  216.900    0.000   48.635    0.287    0.477   11.274
  217.150    0.000   48.466    0.307    0.454   11.419
  217.400    0.000   44.587    0.315    0.439   11.322
  217.650    0.000   44.715    0.322    0.433   11.214
  217.900    0.000   46.930    0.292    0.446   10.890
  218.150    0.000   47.841    0.279    0.443   10.351
  218.400    0.000   45.727    0.278    0.454    9.857
  218.650    0.000   42.550    0.272    0.467    9.029
  218.900    0.000   41.408    0.277    0.437    8.367
  219.150    0.000   48.814    0.253    0.432    7.914
  219.400    0.000   55.548    0.220    0.531    7.657
  219.650    0.000   56.400    0.249    0.546    7.810
  219.900    0.000   55.259    0.252    0.546    8.349
  220.150    0.000   52.659    0.259    0.523    9.384
  220.400    0.000   48.197    0.279    0.506   10.270
  220.650    0.000   40.513    0.334    0.504   11.881
  220.900    0.000   34.364    0.364    0.518   13.697
  221.150    0.000   30.555    0.389    0.525   15.111
  221.400    0.000   28.482    0.296    0.411   16.130
  221.650    0.000   28.523    0.269    0.400   16.711
  221.900    0.000   28.898    0.281    0.404   16.905
  222.150    0.000   29.527    0.304    0.418   16.929
  222.400    0.000   30.507    0.312    0.431   16.942
  222.650    0.000   31.981    0.323    0.448   16.958
  222.900    0.000   31.694    0.334    0.473   16.972
  223.150    0.000   30.707    0.341    0.457   16.968
  223.400    0.000   31.923    0.321    0.447   17.322
  223.650    0.000   32.116    0.338    0.449   17.139
  223.900    0.000   30.622    0.351    0.466   17.349
  224.150    0.000   29.642    0.345    0.480   17.375
  224.400    0.000   30.354    0.336    0.487   17.401
  224.650    0.000   32.125    0.342    0.489   17.419
  224.900    0.000   32.181    0.339    0.434   17.774
  225.150    0.000   31.294    0.340    0.421   17.782
