~VERSION INFORMATION
 VERS.                 2.0:   CWLS LOG ASCII STANDARD -VERSION 2.0
 WRAP.                  NO:   ONE LINE PER DEPTH STEP
~WELL INFORMATION BLOCK
#MNEM.UNIT           DATA                    DESCRIPTION OF MNEMONIC
#---------    -------------------            -------------------------------
# Generated from Intellog Unique Number	CW_73_75/WELL/1047
WELL.         ATCOR ET AL MARTEN H 11-33     : Well_name    - WELL
LOC .         00/11-33-074-23W4/0            : Location     - LOCATION
UWI .         00/11-33-074-23W4/0            : Uwi          - UNIQUE WELL ID
ENTR.         JAYE                           : Entered      - ENTERED BY
SRVC.         COMPUTALOG                     : Scn          - SERVICE COMPANY
DATE.         26 FEB 85                      : Date         - LOG DATE
STRT.M        450                            : top_depth    - START DEPTH
STOP.M        695                            : bot_depth    - STOP DEPTH
STEP.M        0.25                           : increment    - STEP LENGTH
 NULL. -999.2500:NULL Value
~CURVE INFORMATION BLOCK
#MNEM UNIT       ERCB CURVE CODE    CURVE DESCRIPTION
#-----------   ------------------   ----------------------------------
DEPT.M        00 001 00 00         : DEPTH        - DEPTH
ILD .OHMM     00 120 00 00         : RESD         - DEEP RESISTIVITY (DIL)
DPHI.V/V      00 890 00 00         : PHID         - DENSITY POROSITY (SANDSTONE)
NPHI.V/V      00 330 00 00         : PHIN         - NEUTRON POROSITY (SANDSTONE)
CALI.MM       00 280 01 00         : CAL          - CALIPER
GR  .API      00 310 00 00         : GR           - GAMMA RAY
~PARAMETER INFORMATION
#MNEM.UNIT           DATA             DESCRIPTION OF MNEMONIC
#---------         -----------     ------------------------------
GL  .M        708                  : gl           - GROUND LEVEL ELEVATION
EREF.M        711                  : kb           - ELEVATION OF DEPTH REFERENCE
DATM.M        708                  : datum        - DATUM ELEVATION
TDD .M        697                  : tdd          - TOTAL DEPTH DRILLER
RUN .         ONE                  : Run          - RUN NUMBER
ENG .         BERUDE               : Engineer     - RECORDING ENGINEER
WIT .         HICKS                : Witness      - WITNESSED BY
BASE.         EDM                  : Branch       - HOME BASE OF LOGGING UNIT
MUD .         GEL CHEM             : Mud_type     - MUD TYPE
MATR.         SANDSTONE            : Logunit      - NEUTRON MATRIX
TMAX.C        24                   : BHT          - MAXIMUM RECORDED TEMPERATURE
BHTD.M        695.6                : BHTDEP       - MAXIMUM RECORDED TEMPERATURE
RMT .C        24                   : MDTP         - TEMPERATURE OF MUD
MUDD.KG/M     1130                 : MWT          - MUD DENSITY
NEUT.         1                    : NEUTRON      - NEUTRON TYPE
RESI.         0                    : RESIST       - RESISTIVITY TYPE
RM  .OHMM     3.9                  : RM           - RESISTIVITY OF MUD
RMC .OHMM     0                    : RMC          - RESISTIVITY OF MUD CAKE
RMF .OHMM     4                    : RMF          - RESISTIVITY OF MUD FILTRATE
SUFT.C        0                    : SUFT         - SURFACE TEMPERATURE
~A  DEPTH     RESD     PHID     PHIN      CAL       GR
# ...
  632.500    7.980    0.158    0.354  221.975  106.152
  632.750    7.935    0.165    0.346  221.187  108.000
  633.000    8.084    0.157    0.334  221.552  108.532
  633.250    8.459    0.106    0.315  223.480  109.690
  633.500    9.120    0.054    0.302  224.365  105.643
  633.750    9.834    0.091    0.310  222.431   98.272
  634.000   10.408    0.120    0.330  220.704  101.313
  634.250   11.162    0.130    0.330  221.065  104.225
  634.500   11.502    0.074    0.304  223.200   93.784
  634.750   11.180    0.051    0.290  224.084   86.102
  635.000   10.304    0.095    0.303  224.452   88.639
  635.250    9.409    0.128    0.320  224.497   97.634
  635.500    8.707    0.140    0.339  224.649  102.865
  635.750    8.163    0.115    0.350  224.800  100.452
  636.000    7.727    0.106    0.354  224.751   97.346
  636.250    7.411    0.120    0.363  224.792   97.314
  636.500    7.174    0.129    0.369  224.638   97.655
  636.750    7.079    0.142    0.360  224.583   98.125
  637.000    7.013    0.141    0.359  224.316  104.676
  637.250    6.958    0.112    0.376  224.159  101.443
  637.500    6.943    0.109    0.381  223.893   98.088
  637.750    6.890    0.142    0.376  223.739   98.243
  638.000    6.786    0.159    0.366  223.465  106.297
  638.250    6.696    0.151    0.364  223.301  111.093
  638.500    6.670    0.146    0.367  223.148  109.742
  638.750    6.707    0.148    0.372  222.885  109.835
  639.000    6.706    0.149    0.378  222.513  109.611
  639.250    6.731    0.149    0.387  222.249  108.954
  639.500    6.794    0.148    0.395  222.198  107.665
  639.750    6.871    0.148    0.386  222.354  105.751
  640.000    6.909    0.153    0.375  222.713  106.470
  640.250    7.000    0.160    0.381  222.865  108.507
  640.500    7.200    0.158    0.384  223.021  112.173
  640.750    7.364    0.119    0.371  223.167  114.710
  641.000    7.633    0.074    0.356  223.114  105.208
  641.250    7.618    0.083    0.353  223.160   97.337
  641.500    7.445    0.117    0.353  223.322  103.450
  641.750    7.303    0.135    0.361  223.575  112.695
  642.000    7.206    0.152    0.366  223.631  117.303
  642.250    7.165    0.152    0.355  223.676  120.279
  642.500    7.314    0.144    0.341  223.519  120.184
  642.750    7.625    0.101    0.325  223.452  111.247
  643.000    8.379    0.060    0.307  223.513   97.106
  643.250    8.749   -0.048    0.299  223.353   83.403
  643.500    8.205    0.035    0.312  223.190   80.799
  643.750    7.520    0.120    0.338  223.241   96.064
  644.000    6.751    0.140    0.347  223.185  104.057
  644.250    5.577    0.143    0.351  223.445  107.030
  644.500    4.607    0.160    0.374  223.490  108.630
  644.750    4.097    0.196    0.401  223.439  111.670
  645.000    3.508    0.232    0.452  223.277  119.725
  645.250    3.079    0.236    0.478  222.806  125.205
  645.500    2.800    0.241    0.503  221.804  123.169
  645.750    2.671    0.247    0.502  221.334  118.434
  646.000    2.636    0.251    0.488  220.752  116.394
  646.250    2.685    0.240    0.486  220.174  119.056
  646.500    2.890    0.213    0.494  220.012  123.224
  646.750    3.134    0.192    0.456  219.965  126.264
  647.000    3.551    0.161    0.410  219.593  120.274
  647.250    3.946    0.134    0.349  219.430  109.770
  647.500    4.696    0.097    0.335  219.272  102.774
  647.750    5.472    0.060    0.362  219.210   98.228
  648.000    6.082    0.092    0.381  219.152   99.635
  648.250    6.399    0.136    0.396  219.001  104.181
  648.500    6.459    0.144    0.386  218.939  112.299
  648.750    6.266    0.098    0.357  218.892  110.636
  649.000    6.020    0.002    0.348  218.734  105.273
  649.250    6.147    0.020    0.341  218.468   95.207
  649.500    6.395    0.101    0.332  218.205   94.484
  649.750    6.884    0.153    0.320  218.045  111.443
  650.000    7.651    0.204    0.290  217.773  102.442
  650.250    9.930    0.299    0.204  217.510   91.499
  650.500   13.083    0.354    0.149  217.460   59.802
  650.750   15.865    0.385    0.141  217.193   45.285
  651.000   27.499    0.380    0.145  217.133   42.305
  651.250   35.959    0.369    0.150  217.083   42.833
  651.500   37.694    0.369    0.159  217.028   43.553
  651.750   35.679    0.373    0.169  217.178   40.450
  652.000   33.509    0.366    0.175  217.334   42.234
  652.250   32.020    0.360    0.179  217.594   44.080
  652.500   30.252    0.359    0.183  217.749   43.233
  652.750   28.261    0.356    0.185  217.996   42.134
  653.000   23.788    0.350    0.189  217.947   43.105
  653.250   20.642    0.337    0.189  218.095   44.826
  653.500   17.643    0.327    0.190  218.045   43.226
  653.750   14.492    0.315    0.198  218.092   44.822
  654.000   11.591    0.317    0.210  218.042   43.222
  654.250    8.979    0.319    0.219  218.088   41.432
  654.500    7.279    0.320    0.233  218.242   40.770
  654.750    6.268    0.314    0.255  218.290   40.615
  655.000    5.110    0.295    0.280  218.439   40.705
  655.250    4.294    0.282    0.300  218.493   41.300
  655.500    3.833    0.277    0.311  218.649   43.085
  655.750    3.573    0.275    0.314  218.591   44.868
  656.000    3.407    0.274    0.320  218.633   44.083
  656.250    3.312    0.274    0.330  218.690   43.423
  656.500    3.279    0.277    0.341  218.946   45.144
  656.750    3.292    0.283    0.342  218.885   46.555
  657.000    3.367    0.285    0.334  218.832   46.332
  657.250    3.457    0.279    0.328  218.883   47.490
  657.500    3.556    0.273    0.325  218.729   50.593
  657.750    3.679    0.280    0.332  218.765   53.507
  658.000    3.835    0.282    0.319  218.823   52.094
  658.250    4.027    0.264    0.304  218.975   49.991
  658.500    4.229    0.237    0.281  219.234   48.451
  658.750    4.375    0.189    0.276  219.179   47.543
  659.000    4.466    0.186    0.294  219.113   47.571
  659.250    4.474    0.215    0.300  219.067   48.353
  659.500    4.324    0.240    0.317  219.010   50.013
  659.750    4.171    0.265    0.332  219.058   52.926
  660.000    4.092    0.270    0.352  218.893   54.897
  660.250    3.999    0.266    0.356  218.850   55.995
  660.500    4.007    0.258    0.347  218.891   56.277
  660.750    4.074    0.251    0.334  218.948   55.930
  661.000    4.136    0.249    0.318  218.886   55.829
  661.250    4.262    0.250    0.311  218.837   56.362
  661.500    4.384    0.248    0.314  218.885   60.908
  661.750    4.501    0.241    0.330  219.145   63.319
  662.000    4.639    0.234    0.343  219.294   63.977
  662.250    4.771    0.228    0.336  219.555   68.331
  662.500    4.889    0.231    0.322  219.597   68.547
  662.750    4.982    0.237    0.310  219.545   67.261
  663.000    5.144    0.237    0.307  219.703   66.350
  663.250    5.321    0.227    0.307  219.954   67.506
  663.500    5.464    0.222    0.313  220.010   67.032
  663.750    5.803    0.222    0.311  219.953   66.190
  664.000    6.342    0.217    0.289  219.789   69.101
  664.250    7.293    0.202    0.264  219.631   70.638
  664.500    8.760    0.137    0.225  219.684   58.251
  664.750   11.499    0.039    0.177  219.626   53.640
  665.000   13.627    0.017    0.156  219.669   50.722
  665.250   13.679   -0.004    0.154  219.717   51.252
  665.500   11.493    0.040    0.169  219.879   54.105
  665.750   10.357    0.087    0.206  219.822   57.954
  666.000    9.475    0.131    0.259  219.966   61.124
  666.250    8.783    0.164    0.297  220.027   72.252
  666.500    8.538    0.173    0.305  220.072   81.562
  666.750    8.376    0.173    0.305  220.114   82.279
  667.000    8.422    0.170    0.308  220.164   82.746
  667.250    8.515    0.168    0.311  220.204   87.291
  667.500    8.563    0.178    0.306  219.950   86.943
  667.750    8.546    0.177    0.301  219.895   89.356
  668.000    8.480    0.163    0.309  219.840   94.905
  668.250    8.400    0.156    0.326  219.786  100.828
  668.500    8.258    0.153    0.328  219.632  102.800
  668.750    8.131    0.152    0.314  219.469  100.194
