~VERSION INFORMATION
 VERS.                 2.0:   CWLS LOG ASCII STANDARD -VERSION 2.0
 WRAP.                  NO:   ONE LINE PER DEPTH STEP
~WELL INFORMATION BLOCK
#MNEM.UNIT           DATA                    DESCRIPTION OF MNEMONIC
#---------    -------------------            -------------------------------
# Generated from Intellog Unique Number	CW_70_72/WELL/3027
NULL.         -999.25                        : NULL_VALUE
WELL.         MANNVILLE ET AL DECBENE        : Well_name    - WELL              
LOC .         11-07-070-01W5                 : Location     - LOCATION          
UWI .         00/11-07-070-01W5/0            : Uwi          - UNIQUE WELL ID    
ENTR.         JAYE                           : Entered      - ENTERED BY        
SRVC.         SCHLUMBERGER                   : Scn          - SERVICE COMPANY   
DATE.         11 JAN 85                      : Date         - LOG DATE          
STRT.M        425                            : top_depth    - START DEPTH       
STOP.M        630                            : bot_depth    - STOP DEPTH        
STEP.M        0.25                           : increment    - STEP LENGTH       
~CURVE INFORMATION BLOCK
#MNEM UNIT       ERCB CURVE CODE    CURVE DESCRIPTION
#-----------   ------------------   ----------------------------------
DEPT.M        00 001 00 00         : DEPTH        - DEPTH                       
ILD .OHMM     00 120 00 00         : RESD         - DEEP RESISTIVITY (DIL)      
CALI.MM       00 280 01 00         : CAL          - CALIPER                     
GR  .API      00 310 00 00         : GR           - GAMMA RAY                   
NPHI.V/V      00 330 00 00         : PHIN         - NEUTRON POROSITY (SANDSTONE)
DPHI.V/V      00 890 00 00         : PHID         - DENSITY POROSITY (SANDSTONE)
~PARAMETER INFORMATION       
#MNEM.UNIT           DATA             DESCRIPTION OF MNEMONIC
#---------         -----------     ------------------------------
GL  .M        583                  : gl           - GROUND LEVEL ELEVATION      
EREF.M        586                  : kb           - ELEVATION OF DEPTH REFERENCE
DATM.M        583                  : datum        - DATUM ELEVATION             
TDD .M        642                  : tdd          - TOTAL DEPTH DRILLER         
RUN .         ONE                  : Run          - RUN NUMBER                  
ENG .         HOWARD               : Engineer     - RECORDING ENGINEER          
WIT .         KRYWICKI             : Witness      - WITNESSED BY                
BASE.         EDM                  : Branch       - HOME BASE OF LOGGING UNIT   
MUD .         GEL CHEM             : Mud_type     - MUD TYPE                    
MATR.         SANDSTONE            : Logunit      - NEUTRON MATRIX              
TMAX.C        30                   : BHT          - MAXIMUM RECORDED TEMPERATURE
BHTD.M        642                  : BHTDEP       - MAXIMUM RECORDED TEMPERATURE
RMT .C        17                   : MDTP         - TEMPERATURE OF MUD          
MUDD.KG/M     1160                 : MWT          - MUD DENSITY                 
NEUT.         1                    : NEUTRON      - NEUTRON TYPE                
RESI.         0                    : RESIST       - RESISTIVITY TYPE            
RM  .OHMM     4.92                 : RM           - RESISTIVITY OF MUD          
RMC .OHMM     0.25                 : RMC          - RESISTIVITY OF MUD CAKE     
RMF .OHMM     5.72                 : RMF          - RESISTIVITY OF MUD FILTRATE 
SUFT.C        10                   : SUFT         - SURFACE TEMPERATURE         
~A  DEPTH     RESD      CAL       GR     PHIN     PHID
# ...
  461.500    2.437  154.224   66.601    0.375    0.279
  461.750    2.391  154.007   67.466    0.374    0.271
  462.000    2.360  154.722   72.365    0.391    0.263
  462.250    2.441  156.053   78.320    0.401    0.259
  462.500    2.548  157.076   83.408    0.379    0.253
  462.750    2.750  158.932   91.475    0.361    0.241
  463.000    2.898  163.166  101.716    0.381    0.228
  463.250    2.997  165.847  106.120    0.384    0.212
  463.500    3.122  166.972  105.926    0.386    0.204
  463.750    3.193  167.274   97.224    0.397    0.206
  464.000    3.174  159.809   84.424    0.420    0.248
  464.250    3.052  153.585   78.578    0.427    0.274
  464.500    2.879  151.506   85.341    0.393    0.270
  464.750    2.692  151.286   96.763    0.368    0.246
  465.000    2.742  153.450   96.880    0.389    0.225
  465.250    2.916  156.959   93.831    0.423    0.199
  465.500    3.172  159.329   88.172    0.433    0.200
  465.750    3.418  159.730   80.526    0.441    0.231
  466.000    3.622  158.994   73.314    0.457    0.259
  466.250    3.534  157.535   69.209    0.398    0.273
  466.500    3.159  154.314   65.413    0.378    0.282
  466.750    2.679  152.543   66.274    0.371    0.293
  467.000    2.499  151.807   67.574    0.391    0.287
  467.250    2.403  151.486   69.182    0.384    0.277
  467.500    2.349  151.268   70.293    0.363    0.268
  467.750    2.349  151.153   70.721    0.366    0.270
  468.000    2.415  151.557   70.093    0.388    0.270
  468.250    2.507  151.857   68.844    0.393    0.271
  468.500    2.707  153.086   66.912    0.382    0.268
  468.750    2.884  153.699   64.795    0.395    0.251
  469.000    3.114  154.825   61.496    0.388    0.220
  469.250    3.457  155.124   57.266    0.365    0.166
  469.500    3.690  155.526   53.098    0.288    0.117
  469.750    3.502  155.517   50.172    0.252    0.217
  470.000    3.118  155.092   48.054    0.341    0.278
  470.250    2.664  154.770   48.668    0.364    0.297
  470.500    2.281  154.137   51.518    0.377    0.310
  470.750    1.964  154.024   51.761    0.383    0.319
  471.000    1.752  154.114   49.083    0.393    0.306
  471.250    1.835  154.724   46.033    0.407    0.261
  471.500    2.068  155.022   45.716    0.349    0.207
  471.750    2.314  155.012   49.745    0.291    0.170
  472.000    2.569  154.898   53.094    0.280    0.248
  472.250    2.647  154.575   56.503    0.328    0.280
  472.500    2.646  154.047   58.856    0.367    0.297
  472.750    2.392  153.519   59.906    0.389    0.306
  473.000    2.150  153.198   58.905    0.400    0.298
  473.250    1.907  152.980   55.234    0.395    0.290
  473.500    1.809  152.968   55.041    0.408    0.277
  473.750    1.736  152.854   57.022    0.415    0.294
  474.000    1.739  152.738   60.742    0.404    0.306
  474.250    1.762  153.039   64.772    0.392    0.295
  474.500    1.846  153.133   64.640    0.384    0.268
  474.750    1.960  153.429   63.455    0.378    0.241
  475.000    2.072  153.213   63.199    0.375    0.272
  475.250    2.180  153.099   63.999    0.378    0.271
  475.500    2.237  153.084   64.925    0.411    0.261
  475.750    2.119  152.765   68.272    0.409    0.282
  476.000    2.079  152.858   70.750    0.399    0.297
  476.250    2.025  153.053   73.601    0.390    0.282
  476.500    2.021  153.355   79.681    0.400    0.264
  476.750    2.044  155.207   86.569    0.398    0.250
  477.000    2.113  162.751   96.561    0.405    0.253
  477.250    2.248  170.297   81.338    0.439    0.496
  477.500    2.669  170.390   42.078    0.463    0.504
  477.750    3.607  162.511   30.271    0.497    0.633
  478.000    4.695  157.636   44.052    0.590    0.757
  478.250    5.810  153.690   73.485    0.774    0.764
  478.500    6.511  152.229   88.012    0.670    0.646
  478.750    6.202  151.698   88.627    0.591    0.337
  479.000    5.105  151.483   84.893    0.397    0.302
  479.250    3.906  151.161   84.824    0.373    0.286
  479.500    3.023  150.838   81.961    0.374    0.298
  479.750    2.637  150.931   76.178    0.376    0.296
  480.000    2.405  151.231   77.476    0.373    0.288
  480.250    2.228  151.635   94.239    0.364    0.281
  480.500    2.278  153.073  104.977    0.345    0.279
  480.750    2.548  155.028   99.380    0.368    0.314
  481.000    3.009  157.915   89.871    0.455    0.361
  481.250    3.521  160.284   84.026    0.494    0.448
  481.500    4.020  162.964   90.540    0.513    0.469
  481.750    4.455  164.611   93.513    0.570    0.393
  482.000    4.590  162.322   93.633    0.474    0.256
  482.250    4.259  158.999   89.340    0.370    0.216
  482.500    3.856  156.813   84.490    0.362    0.232
  482.750    3.307  155.351   78.334    0.359    0.242
  483.000    2.869  154.201   77.581    0.365    0.249
  483.250    2.612  153.777   82.047    0.381    0.260
  483.500    2.470  153.452   80.115    0.393    0.270
  483.750    2.370  153.443   73.215    0.388    0.276
  484.000    2.330  153.434   62.028    0.381    0.281
  484.250    2.286  153.010   57.177    0.393    0.286
  484.500    2.244  152.685   58.039    0.384    0.287
  484.750    2.223  152.674   56.480    0.362    0.283
  485.000    2.181  152.869   54.921    0.340    0.279
  485.250    2.152  152.962   53.796    0.377    0.278
  485.500    2.128  153.262   53.914    0.362    0.283
  485.750    2.108  153.874   54.092    0.353    0.285
  486.000    2.065  154.277   53.963    0.360    0.290
  486.250    2.015  154.784   54.017    0.379    0.301
  486.500    1.974  154.981   54.695    0.384    0.308
  486.750    1.974  155.278   58.663    0.372    0.302
  487.000    2.011  155.265   67.662    0.364    0.293
  487.250    2.103  155.462   67.842    0.352    0.281
  487.500    2.224  155.453   60.444    0.382    0.266
  487.750    2.321  153.476   55.469    0.363    0.275
  488.000    2.343  152.324   51.549    0.353    0.290
  488.250    2.299  152.108   49.183    0.356    0.294
  488.500    2.194  152.511   49.673    0.356    0.291
  488.750    2.137  151.671   53.330    0.353    0.285
  489.000    2.085  152.281   55.497    0.357    0.284
  489.250    2.069  153.201   57.478    0.354    0.288
  489.500    2.096  154.120   62.565    0.347    0.293
  489.750    2.188  155.043   71.316    0.341    0.285
  490.000    2.340  157.412   93.420    0.336    0.258
  490.250    2.574  159.781   97.388    0.352    0.197
  490.500    2.858  162.049  100.735    0.373    0.180
  490.750    3.331  163.590  102.343    0.390    0.169
  491.000    3.734  164.304  103.144    0.405    0.164
  491.250    3.912  164.911  102.455    0.420    0.161
  491.500    3.941  164.901  103.566    0.436    0.160
  491.750    3.889  164.580  106.726    0.447    0.158
  492.000    3.838  164.466  108.334    0.446    0.161
  492.250    3.795  163.939  108.452    0.431    0.159
  492.500    3.902  163.410  107.514    0.425    0.155
  492.750    4.088  163.192  104.464    0.434    0.162
  493.000    4.119  163.178  104.272    0.436    0.175
  493.250    4.141  163.375  108.240    0.432    0.188
  493.500    4.141  163.154  106.246    0.435    0.200
  493.750    4.163  162.732  100.960    0.458    0.211
  494.000    4.218  161.788   92.631    0.459    0.222
  494.250    4.289  160.640   84.549    0.445    0.233
  494.500    4.321  158.661   76.779    0.429    0.245
  494.750    4.353  157.201   78.636    0.437    0.260
  495.000    4.311  156.465   77.944    0.439    0.272
  495.250    4.176  155.830   75.578    0.430    0.269
  495.500    4.007  155.303   72.094    0.433    0.263
  495.750    3.718  154.879   65.938    0.444    0.262
  496.000    3.417  154.345   61.087    0.441    0.268
  496.250    3.071  154.340   58.410    0.434    0.278
  496.500    2.797  154.227   56.851    0.418    0.288
  496.750    2.509  154.004   52.558    0.413    0.294
  497.000    2.272  154.004   51.310    0.429    0.301
  497.250    2.100  153.875   57.327    0.428    0.304
  497.500    1.956  153.975   58.998    0.409    0.309
  497.750    1.880  154.170   56.073    0.403    0.318
