~VERSION INFORMATION
 VERS.                 2.0:   CWLS LOG ASCII STANDARD -VERSION 2.0
 WRAP.                  NO:   ONE LINE PER DEPTH STEP
~WELL INFORMATION BLOCK
#MNEM.UNIT           DATA                    DESCRIPTION OF MNEMONIC
#---------    -------------------            -------------------------------
# Generated from Intellog Unique Number	CW_79_81/WELL/2464
WELL.         TEXEX WABASCA                  : Well_name    - WELL
LOC .         00/10-07-081-24W4/0            : Location     - LOCATION
UWI .         00/10-07-081-24W4/0            : Uwi          - UNIQUE WELL ID
ENTR.         MAX                            : Entered      - ENTERED BY
SRVC.         WESTERN ATLAS                  : Scn          - SERVICE COMPANY
STRT.M        243.84                         : top_depth    - START DEPTH
STOP.M        453.84                         : bot_depth    - STOP DEPTH
STEP.M        0.25                           : increment    - STEP LENGTH
 NULL. -999.2500:NULL Value
~CURVE INFORMATION BLOCK
#MNEM UNIT       ERCB CURVE CODE    CURVE DESCRIPTION
#-----------   ------------------   ----------------------------------
DEPT.M        00 001 00 00         : DEPTH        - DEPTH
ILD .OHMM     00 120 00 00         : RESD         - DEEP RESISTIVITY (DIL)
NPHI.V/V      00 330 00 00         : PHIN         - NEUTRON POROSITY (SANDSTONE)
DPHI.V/V      00 890 00 00         : PHID         - DENSITY POROSITY (SANDSTONE)
GR  .API      00 310 00 00         : GR           - GAMMA RAY
CALI.MM       00 280 01 00         : CAL          - CALIPER
~PARAMETER INFORMATION
#MNEM.UNIT           DATA             DESCRIPTION OF MNEMONIC
#---------         -----------     ------------------------------
GL  .M        600.761              : gl           - GROUND LEVEL ELEVATION
EREF.M        604.418              : kb           - ELEVATION OF DEPTH REFERENCE
DATM.M        600.761              : datum        - DATUM ELEVATION
TDD .M        457.2                : tdd          - TOTAL DEPTH DRILLER
RUN .         ONE                  : Run          - RUN NUMBER
ENG .         BILL                 : Engineer     - RECORDING ENGINEER
WIT .         JIM                  : Witness      - WITNESSED BY
MUD .         GEL                  : Mud_type     - MUD TYPE
MATR.         SANDSTONE            : Logunit      - NEUTRON MATRIX
TMAX.C        26.6667              : BHT          - MAXIMUM RECORDED TEMPERATURE
BHTD.M        457.2                : BHTDEP       - MAXIMUM RECORDED TEMPERATURE
MATR.         1                    : LOGUNIT      - NEUTRON MATRIX
RMT .C        18.3333              : MDTP         - TEMPERATURE OF MUD
NEUT.         1                    : NEUTRON      - NEUTRON TYPE
RESI.         0                    : RESIST       - RESISTIVITY TYPE
RMC .OHMM     11                   : RMC          - RESISTIVITY OF MUD CAKE
RMF .OHMM     11                   : RMF          - RESISTIVITY OF MUD FILTRATE
SUFT.C        -20.5556             : SUFT         - SURFACE TEMPERATURE
~A  DEPTH     RESD     PHIN     PHID       GR      CAL
# ...
  316.840   18.218    0.304    0.323   51.804  242.102
  317.090   15.536    0.299    0.331   48.706  242.540
  317.340   12.374    0.297    0.338   49.459  242.584
  317.590    8.762    0.299    0.345   49.720  242.219
  317.840    6.677    0.315    0.351   50.148  240.971
  318.090    5.975    0.335    0.336   50.754  239.625
  318.340    6.083    0.351    0.305   52.236  238.873
  318.590    6.496    0.359    0.275   56.338  239.645
  318.840    7.010    0.357    0.224   58.068  241.340
  319.090    7.748    0.355    0.208   57.152  241.371
  319.340    8.615    0.349    0.250   54.314  240.518
  319.590    9.411    0.344    0.287   50.834  239.172
  319.840    9.928    0.343    0.297   47.705  237.828
  320.090   10.014    0.344    0.301   45.877  237.170
  320.340    9.720    0.346    0.305   47.112  237.621
  320.590    9.375    0.361    0.301   48.537  237.264
  320.840    9.044    0.367    0.299   48.911  237.494
  321.090    8.789    0.363    0.297   49.284  238.321
  321.340    8.570    0.356    0.295   50.414  239.449
  321.590    8.219    0.364    0.291   53.017  240.450
  321.840    7.977    0.377    0.289   54.259  241.309
  322.090    7.807    0.377    0.292   54.048  242.138
  322.340    7.725    0.375    0.292   54.186  242.670
  322.590    7.671    0.371    0.288   54.559  243.305
  322.840    7.659    0.368    0.281   54.991  244.138
  323.090    7.796    0.366    0.279   55.252  244.968
  323.340    7.916    0.362    0.278   55.276  245.012
  323.590    8.033    0.366    0.284   55.062  245.042
  323.840    8.064    0.373    0.289   55.201  245.081
  324.090    8.066    0.377    0.292   55.223  245.120
  324.340    8.067    0.379    0.294   55.068  245.056
  324.590    8.057    0.384    0.291   54.998  244.625
  324.840    7.999    0.388    0.289   54.535  244.257
  325.090    7.942    0.386    0.284   53.624  244.292
  325.340    7.887    0.381    0.280   53.063  244.332
  325.590    7.803    0.376    0.279   52.970  244.370
  325.840    7.693    0.372    0.281   53.694  244.505
  326.090    7.550    0.368    0.286   55.869  244.951
  326.340    7.383    0.363    0.284   56.136  244.990
  326.590    7.226    0.363    0.279   55.694  244.633
  326.840    7.072    0.366    0.278   55.250  244.273
  327.090    6.922    0.365    0.282   54.336  243.916
  327.340    6.775    0.361    0.290   53.655  243.659
  327.590    6.611    0.368    0.294   55.716  243.698
  327.840    6.514    0.386    0.292   58.906  243.742
  328.090    6.375    0.386    0.294   57.992  243.780
  328.340    6.274    0.386    0.296   55.853  243.818
  328.590    6.185    0.390    0.296   54.475  243.857
  328.840    6.120    0.399    0.296   54.791  243.894
  329.090    6.121    0.408    0.294   56.880  243.937
  329.340    6.123    0.418    0.289   57.874  243.981
  329.590    6.124    0.419    0.289   57.429  243.624
  329.840    6.259    0.411    0.294   56.460  243.264
  330.090    6.444    0.408    0.294   56.017  242.711
  330.340    6.611    0.411    0.289   56.683  242.160
  330.590    6.709    0.405    0.286   58.385  242.198
  330.840    6.711    0.394    0.283   57.431  242.234
  331.090    6.712    0.385    0.278   56.985  242.272
  331.340    6.641    0.379    0.272   58.816  242.013
  331.590    6.523    0.375    0.269   59.656  241.856
  331.840    6.385    0.374    0.272   59.094  241.899
  332.090    6.192    0.378    0.282   59.686  241.951
  332.340    5.921    0.381    0.285   60.198  241.983
  332.590    5.795    0.394    0.277   60.921  242.021
  332.840    5.548    0.402    0.268   60.069  242.353
  333.090    5.314    0.406    0.255   59.391  242.785
  333.340    5.156    0.406    0.240   60.405  243.218
  333.590    5.106    0.411    0.225   65.079  243.661
  333.840    5.224    0.415    0.220   68.507  243.709
  334.090    5.339    0.415    0.220   67.129  244.135
  334.340    5.516    0.412    0.214   66.276  245.156
  334.590    5.720    0.404    0.209   66.065  245.983
  334.840    5.912    0.390    0.207   66.263  246.121
  335.090    6.053    0.376    0.200   66.533  245.215
  335.340    6.100    0.371    0.196   67.772  244.428
  335.590    6.101    0.364    0.208   69.198  244.074
  335.840    6.004    0.365    0.210   68.518  244.308
  336.090    5.833    0.368    0.208   66.905  244.544
  336.340    5.606    0.374    0.208   65.703  244.586
  336.590    5.291    0.396    0.210   66.332  244.801
  336.840    5.098    0.401    0.202   65.871  245.664
  337.090    5.025    0.401    0.208   67.061  245.695
  337.340    5.009    0.398    0.201   67.023  243.656
  337.590    5.100    0.389    0.192   66.228  240.336
  337.840    5.361    0.377    0.184   64.734  237.114
  338.090    6.049    0.370    0.187   62.000  235.884
  338.340    6.941    0.357    0.241   61.046  235.512
  338.590    8.170    0.344    0.247   60.835  239.503
  338.840    9.779    0.343    0.201   57.825  242.012
  339.090   11.844    0.354    0.166   55.746  243.040
  339.340   14.102    0.367    0.172   57.109  243.082
  339.590   15.185    0.362    0.231   62.574  243.213
  339.840   14.199    0.363    0.293   59.436  243.657
  340.090   12.914    0.377    0.265   58.994  244.489
  340.340   11.751    0.389    0.233   60.476  245.319
  340.590   10.615    0.394    0.203   62.249  246.543
  340.840    9.589    0.392    0.182   63.439  247.865
  341.090    8.680    0.386    0.190   63.496  248.137
  341.340    8.117    0.376    0.191   61.331  247.350
  341.590    8.060    0.390    0.193   62.520  246.601
  341.840    8.047    0.393    0.197   62.306  246.143
  342.090    8.078    0.394    0.204   62.210  245.982
  342.340    8.153    0.395    0.210   62.349  246.021
  342.590    8.274    0.393    0.213   61.880  246.071
  342.840    8.276    0.385    0.213   64.092  246.111
  343.090    8.278    0.369    0.214   62.950  246.149
  343.340    8.324    0.365    0.213   63.555  246.187
  343.590    8.446    0.364    0.215   64.044  246.026
  343.840    8.619    0.365    0.219   63.660  245.272
  344.090    8.733    0.376    0.223   63.531  243.098
  344.340    8.670    0.380    0.222   67.443  241.902
  344.590    8.485    0.382    0.209   67.466  242.332
  344.840    8.259    0.379    0.202   68.888  244.249
  345.090    8.144    0.377    0.203   69.147  246.065
  345.340    8.189    0.377    0.211   68.122  246.394
  345.590    8.397    0.377    0.220   67.855  243.986
  345.840    8.526    0.371    0.225   66.417  243.614
  346.090    8.590    0.366    0.216   65.973  245.632
  346.340    8.607    0.364    0.215   65.352  247.354
  346.590    8.515    0.363    0.217   66.190  247.984
  346.840    8.319    0.362    0.219   67.731  247.621
  347.090    8.073    0.365    0.219   66.537  247.190
  347.340    8.014    0.373    0.215   65.099  246.822
  347.590    8.191    0.372    0.216   67.454  247.252
  347.840    8.643    0.366    0.212   68.061  247.984
  348.090    9.321    0.358    0.203   65.516  248.415
  348.340   10.157    0.349    0.196   61.688  248.153
  348.590   11.247    0.338    0.205   61.714  246.856
  348.840   12.611    0.330    0.232   61.733  246.068
  349.090   13.940    0.321    0.227   58.020  246.106
  349.340   14.164    0.316    0.234   56.408  246.141
  349.590   13.707    0.322    0.260   55.733  245.980
  349.840   12.884    0.336    0.288   55.466  245.623
  350.090   11.486    0.348    0.281   55.722  245.274
  350.340   10.350    0.351    0.274   55.746  245.314
  350.590    9.766    0.349    0.276   55.773  245.356
  350.840    9.580    0.348    0.268   56.143  244.505
  351.090    9.787    0.356    0.233   56.516  243.753
  351.340   10.192    0.370    0.197   56.833  243.295
  351.590   10.268    0.372    0.228   57.373  241.967
  351.840   10.271    0.372    0.253   57.635  239.124
  352.090   10.273    0.382    0.243   59.761  238.767
  352.340   10.275    0.388    0.242   59.960  238.706
  352.590   10.277    0.390    0.241   60.449  239.142
  352.840   10.223    0.387    0.231   61.402  240.171
  353.090    9.868    0.380    0.205   60.865  242.046
