~VERSION INFORMATION
 VERS.                 2.0:   CWLS LOG ASCII STANDARD -VERSION 2.0
 WRAP.                  NO:   ONE LINE PER DEPTH STEP
~WELL INFORMATION BLOCK
#MNEM.UNIT           DATA                    DESCRIPTION OF MNEMONIC
#---------    -------------------            -------------------------------
# Generated from Intellog Unique Number	CW_70_72/WELL/1068
NULL.         -999.25                        : NULL_VALUE
WELL.         WESTMIN SMITH 14-35            : Well_name    - WELL              
LOC .         14-35-071-24W4                 : Location     - LOCATION          
UWI .         00/14-35-071-24W4/0            : Uwi          - UNIQUE WELL ID    
ENTR.         JAYE                           : Entered      - ENTERED BY        
SRVC.         WESTERN ATLAS                  : Scn          - SERVICE COMPANY   
DATE.         7 MAR 83                       : Date         - LOG DATE          
STRT.M        423                            : top_depth    - START DEPTH       
STOP.M        627                            : bot_depth    - STOP DEPTH        
STEP.M        0.25                           : increment    - STEP LENGTH       
~CURVE INFORMATION BLOCK
#MNEM UNIT       ERCB CURVE CODE    CURVE DESCRIPTION
#-----------   ------------------   ----------------------------------
DEPT.M        00 001 00 00         : DEPTH        - DEPTH                       
DPHI.V/V      00 890 00 00         : PHID         - DENSITY POROSITY (SANDSTONE)
NPHI.V/V      00 330 00 00         : PHIN         - NEUTRON POROSITY (SANDSTONE)
GR  .API      00 310 00 00         : GR           - GAMMA RAY                   
CALI.MM       00 280 01 00         : CAL          - CALIPER                     
ILD .OHMM     00 120 00 00         : RESD         - DEEP RESISTIVITY (DIL)      
~PARAMETER INFORMATION       
#MNEM.UNIT           DATA             DESCRIPTION OF MNEMONIC
#---------         -----------     ------------------------------
GL  .M        655.8                : gl           - GROUND LEVEL ELEVATION      
EREF.M        659                  : kb           - ELEVATION OF DEPTH REFERENCE
DATM.M        655.8                : datum        - DATUM ELEVATION             
TDD .M        651                  : tdd          - TOTAL DEPTH DRILLER         
RUN .         ONE                  : Run          - RUN NUMBER                  
ENG .         PETERSON             : Engineer     - RECORDING ENGINEER          
WIT .         OVERWATER            : Witness      - WITNESSED BY                
MUD .         GEL CHEM             : Mud_type     - MUD TYPE                    
MATR.         SANDSTONE            : Logunit      - NEUTRON MATRIX              
TMAX.C        22                   : BHT          - MAXIMUM RECORDED TEMPERATURE
BHTD.M        651.3                : BHTDEP       - MAXIMUM RECORDED TEMPERATURE
RMT .C        12                   : MDTP         - TEMPERATURE OF MUD          
MUDD.KG/M     1120                 : MWT          - MUD DENSITY                 
NEUT.         1                    : NEUTRON      - NEUTRON TYPE                
RESI.         0                    : RESIST       - RESISTIVITY TYPE            
RM  .OHMM     5                    : RM           - RESISTIVITY OF MUD          
RMC .OHMM     4.7                  : RMC          - RESISTIVITY OF MUD CAKE     
RMF .OHMM     4.5                  : RMF          - RESISTIVITY OF MUD FILTRATE 
SUFT.C        0                    : SUFT         - SURFACE TEMPERATURE         
~A  DEPTH     PHID     PHIN       GR      CAL     RESD
# ...
  569.000    0.152    0.351  102.511  160.211    6.131
  569.250    0.158    0.339   99.374  160.259    6.604
  569.500    0.137    0.322   95.796  159.040    6.737
  569.750    0.104    0.315   91.042  155.076    6.378
  570.000    0.068    0.328   91.755  156.499    5.992
  570.250    0.072    0.338   94.704  158.234    5.661
  570.500    0.081    0.352   97.773  155.224    5.490
  570.750    0.104    0.361   98.178  153.373    5.376
  571.000    0.111    0.363   98.950  154.686    5.352
  571.250    0.112    0.358  101.027  158.010    5.369
  571.500    0.130    0.352   99.254  159.114    5.437
  571.750    0.127    0.347  102.388  159.898    5.464
  572.000    0.126    0.348   98.317  160.479    5.502
  572.250    0.114    0.349   98.037  161.055    5.510
  572.500    0.109    0.353   99.803  161.420    5.526
  572.750    0.120    0.356  103.125  161.892    5.502
  573.000    0.105    0.362  106.696  162.043    5.479
  573.250    0.121    0.366  109.268  161.989    5.455
  573.500    0.146    0.371  109.421  161.822    5.442
  573.750    0.167    0.373  108.082  161.454    5.448
  574.000    0.165    0.376  109.663  160.976    5.477
  574.250    0.149    0.378  111.061  160.490    5.526
  574.500    0.140    0.377  111.459  160.440    5.553
  574.750    0.135    0.373  108.942  160.803    5.529
  575.000    0.151    0.368  107.666  161.376    5.481
  575.250    0.154    0.361  108.503  162.907    5.492
  575.500    0.142    0.361  109.093  164.849    5.536
  575.750    0.144    0.368  109.244  165.531    5.580
  576.000    0.137    0.366  111.508  165.157    5.613
  576.250    0.131    0.362  110.479  163.727    5.625
  576.500    0.141    0.355  104.980  162.939    5.680
  576.750    0.161    0.345  101.656  162.876    5.747
  577.000    0.179    0.335   97.398  163.457    5.825
  577.250    0.163    0.329   88.545  163.821    5.848
  577.500    0.164    0.331   91.557  164.289    5.839
  577.750    0.164    0.338   95.435  163.917    5.808
  578.000    0.157    0.347  100.371  163.121    5.810
  578.250    0.163    0.351  104.063  162.751    5.845
  578.500    0.155    0.352  106.887  162.476    5.858
  578.750    0.157    0.351  100.021  162.427    5.816
  579.000    0.159    0.350   99.182  162.471    5.785
  579.250    0.137    0.350   99.769  162.520    5.809
  579.500    0.149    0.351  101.286  162.566    5.822
  579.750    0.147    0.352  104.359  162.938    5.835
  580.000    0.138    0.354  106.436  163.089    5.826
  580.250    0.120    0.357  106.033  163.136    5.839
  580.500    0.138    0.359  108.046  163.288    5.852
  580.750    0.136    0.360  102.175  163.550    5.864
  581.000    0.142    0.361  103.819  163.811    5.834
  581.250    0.147    0.361  107.575  163.866    5.835
  581.500    0.150    0.359  111.081  163.797    5.926
  581.750    0.168    0.355  115.393  163.958    6.108
  582.000    0.173    0.347  121.447  163.896    6.550
  582.250    0.167    0.340  116.631  164.259    7.117
  582.500    0.160    0.332  110.388  164.420    8.043
  582.750    0.149    0.319  105.696  164.471    9.245
  583.000    0.142    0.300   98.209  164.623   10.910
  583.250    0.138    0.283   88.859  164.672   12.611
  583.500    0.130    0.254   80.688  164.823   14.333
  583.750    0.105    0.229   75.934  165.187   14.803
  584.000    0.033    0.215   75.406  165.231   13.456
  584.250    0.028    0.229   81.024  165.286   12.004
  584.500    0.057    0.255   87.387  165.225   10.993
  584.750    0.130    0.273   92.073  164.749   10.611
  585.000    0.142    0.273   96.820  164.792   10.796
  585.250    0.089    0.263   90.640  164.530   10.881
  585.500    0.062    0.254   82.967  164.682   10.523
  585.750    0.034    0.242   72.251  164.523    9.710
  586.000    0.022    0.238   63.706  164.565    8.843
  586.250    0.054    0.248   69.887  164.305    8.008
  586.500    0.089    0.277   79.851  164.134    7.265
  586.750    0.108    0.305   88.948  163.974    6.883
  587.000    0.114    0.336   98.232  163.601    6.644
  587.250    0.119    0.344   99.752  163.437    6.596
  587.500    0.122    0.341   98.847  163.489    6.826
  587.750    0.137    0.343   98.625  163.646    6.944
  588.000    0.129    0.345   97.537  163.896    6.933
  588.250    0.111    0.343   96.014  163.951    6.832
  588.500    0.094    0.334   94.240  164.205    6.745
  588.750    0.082    0.324   91.038  164.369    6.622
  589.000    0.076    0.320   90.201  164.524    6.489
  589.250    0.064    0.331   91.531  164.780    6.229
  589.500    0.082    0.338   94.850  164.933    6.035
  589.750    0.091    0.344   96.372  164.659    5.891
  590.000    0.104    0.346   96.212  163.229    5.904
  590.250    0.104    0.341   96.737  162.551    6.213
  590.500    0.115    0.340   97.822  162.483    6.489
  590.750    0.122    0.338   97.294  162.010    6.855
  591.000    0.129    0.336   97.071  161.530    7.187
  591.250    0.123    0.330   98.342  161.572    7.243
  591.500    0.087    0.322   93.712  161.523    7.192
  591.750    0.063    0.311   94.798  161.673    7.047
  592.000    0.052    0.313   94.763  162.047    6.854
  592.250    0.079    0.325   94.234  161.984    6.665
  592.500    0.107    0.335   96.001  161.295    6.507
  592.750    0.137    0.341   98.643  161.343    6.571
  593.000    0.162    0.337  100.158  161.805    6.786
  593.250    0.163    0.329  101.738  162.278    7.034
  593.500    0.149    0.324  105.121  162.535    7.417
  593.750    0.136    0.320  103.410  163.114    7.718
  594.000    0.123    0.315  101.327  163.701    7.692
  594.250    0.122    0.307  100.550  163.532    7.565
  594.500    0.122    0.301  100.329  163.584    7.113
  594.750    0.107    0.296  101.041  163.314    6.600
  595.000    0.105    0.304  102.186  163.155    6.159
  595.250    0.116    0.320  103.148  162.996    6.002
  595.500    0.138    0.324  104.666  162.827    6.094
  595.750    0.151    0.322  108.484  162.869    6.224
  596.000    0.151    0.318  110.685  162.821    6.416
  596.250    0.147    0.315  110.155  162.553    6.601
  596.500    0.134    0.314  108.880  162.068    6.766
  596.750    0.123    0.312  102.014  162.110    6.731
  597.000    0.094    0.307   96.080  162.063    6.448
  597.250    0.085    0.302   95.924  161.689    5.884
  597.500    0.097    0.302   99.180  161.521    5.122
  597.750    0.108    0.315  103.248  161.252    4.351
  598.000    0.132    0.329  103.650  161.303    3.594
  598.250    0.131    0.342  105.232  161.354    3.159
  598.500    0.126    0.355  108.365  161.395    2.823
  598.750    0.138    0.372  111.186  161.247    2.552
  599.000    0.159    0.391  114.383  161.076    2.413
  599.250    0.182    0.413  118.386  160.598    2.436
  599.500    0.193    0.433  116.242  160.851    2.598
  599.750    0.177    0.442  119.375  161.434    2.980
  600.000    0.171    0.427  122.943  162.004    3.387
  600.250    0.171    0.414  118.066  162.372    4.005
  600.500    0.157    0.394  114.742  162.839    4.753
  600.750    0.136    0.353  110.362  162.893    5.412
  601.000    0.113    0.338  105.729  162.838    5.902
  601.250    0.095    0.326  101.721  162.886    6.376
  601.500    0.094    0.317   99.889  162.612    6.902
  601.750    0.085    0.324  100.224  162.458    7.699
  602.000    0.102    0.333  104.913  162.292    6.467
  602.250    0.103    0.339  109.474  162.017    2.985
  602.500    0.121    0.338  113.228  161.434    1.043
  602.750    0.131    0.329  113.567  161.592    0.694
  603.000    0.126    0.313  113.535  161.634    0.594
  603.250    0.115    0.296  100.023  161.689    0.598
  603.500    0.065    0.277   86.762  161.630    0.808
  603.750    0.024    0.260   78.342  161.998    3.890
  604.000   -0.003    0.247   76.014  162.040   10.506
  604.250    0.044    0.264   82.623  162.096   41.543
  604.500    0.087    0.283   95.073  162.141   31.593
  604.750    0.110    0.326  105.600  161.461   10.341
  605.000    0.108    0.321  107.056  161.086    8.073
  605.250    0.097    0.310  101.496  160.391    7.749
