~VERSION INFORMATION
 VERS.                 2.0:   CWLS LOG ASCII STANDARD -VERSION 2.0
 WRAP.                  NO:   ONE LINE PER DEPTH STEP
~WELL INFORMATION BLOCK
#MNEM.UNIT           DATA                    DESCRIPTION OF MNEMONIC
#---------    -------------------            -------------------------------
# Generated from Intellog Unique Number	CS_67_68/WELL/811
WELL.         DOME PETROLEUM LIMITED         : Well_name    - WELL
LOC .         00/10-28-068-03W4/0            : Location     - LOCATION
UWI .         00/10-28-068-03W4/0            : Uwi          - UNIQUE WELL ID
ENTR.         SP                             : Entered      - ENTERED BY
SRVC.         SCHLUMBERGER                   : Scn          - SERVICE COMPANY
STRT.M        395                            : top_depth    - START DEPTH
STOP.M        615                            : bot_depth    - STOP DEPTH
STEP.M        0.25                           : increment    - STEP LENGTH
 NULL. -999.2500:NULL Value
~CURVE INFORMATION BLOCK
#MNEM UNIT       ERCB CURVE CODE    CURVE DESCRIPTION
#-----------   ------------------   ----------------------------------
DEPT.M        00 001 00 00         : DEPTH        - DEPTH
GR  .API      00 310 00 00         : GR           - GAMMA RAY
NPHI.V/V      00 330 00 00         : PHIN         - NEUTRON POROSITY (LIMESTONE)
DPHI.V/V      00 890 00 00         : PHID         - DENSITY POROSITY (LIMESTONE)
ILD .OHMM     00 120 00 00         : RESD         - DEEP RESISTIVITY (DIL)
~PARAMETER INFORMATION
#MNEM.UNIT           DATA             DESCRIPTION OF MNEMONIC
#---------         -----------     ------------------------------
GL  .M        748.86               : gl           - GROUND LEVEL ELEVATION
EREF.M        752.86               : kb           - ELEVATION OF DEPTH REFERENCE
DATM.M        748.86               : datum        - DATUM ELEVATION
TDD .M        621                  : tdd          - TOTAL DEPTH DRILLER
RUN .         ONE                  : Run          - RUN NUMBER
ENG .         BILL                 : Engineer     - RECORDING ENGINEER
WIT .         JIM                  : Witness      - WITNESSED BY
MUD .         GEL                  : Mud_type     - MUD TYPE
MATR.         LIMESTONE            : Logunit      - NEUTRON MATRIX
TMAX.C        23.3                 : BHT          - MAXIMUM RECORDED TEMPERATURE
BHTD.M        621                  : BHTDEP       - MAXIMUM RECORDED TEMPERATURE
MATR.         1                    : LOGUNIT      - NEUTRON MATRIX
RMT .C        25                   : MDTP         - TEMPERATURE OF MUD
NEUT.         1                    : NEUTRON      - NEUTRON TYPE
RESI.         0                    : RESIST       - RESISTIVITY TYPE
RMC .OHMM     0.25                 : RMC          - RESISTIVITY OF MUD CAKE
RMF .OHMM     0.25                 : RMF          - RESISTIVITY OF MUD FILTRATE
SUFT.C        15                   : SUFT         - SURFACE TEMPERATURE
~A  DEPTH       GR     PHIN     PHID     RESD
# ...
  482.000   50.829    0.392    0.317    6.891
  482.250   49.142    0.393    0.311    6.852
  482.500   50.520    0.384    0.317    6.799
  482.750   52.617    0.378    0.331    6.748
  483.000   53.994    0.392    0.336    6.671
  483.250   55.251    0.400    0.342    6.621
  483.500   58.490    0.403    0.338    6.534
  483.750   58.245    0.410    0.333    6.400
  484.000   61.785    0.400    0.328    6.061
  484.250   65.564    0.392    0.269    5.925
  484.500   67.543    0.396    0.236    6.025
  484.750   70.241    0.412    0.240    6.183
  485.000   70.356    0.419    0.261    6.323
  485.250   65.186    0.406    0.276    6.417
  485.500   59.955    0.407    0.288    6.488
  485.750   56.526    0.413    0.292    6.499
  486.000   55.561    0.402    0.296    5.918
  486.250   62.885    0.438    0.255    5.605
  486.500   71.471    0.470    0.225    5.038
  486.750   79.876    0.472    0.227    4.692
  487.000   85.578    0.465    0.242    4.536
  487.250   87.795    0.471    0.242    4.451
  487.500   87.791    0.486    0.241    4.484
  487.750   86.045    0.490    0.264    4.542
  488.000   68.258    0.460    0.291    4.636
  488.250   64.650    0.435    0.305    4.722
  488.500   63.684    0.448    0.309    4.784
  488.750   61.757    0.445    0.315    4.846
  489.000   56.406    0.423    0.331    4.918
  489.250   50.274    0.401    0.348    4.973
  489.500   45.224    0.412    0.334    5.075
  489.750   50.505    0.423    0.317    5.189
  490.000   56.027    0.422    0.305    5.356
  490.250   61.009    0.413    0.298    5.518
  490.500   61.545    0.403    0.285    5.716
  490.750   59.678    0.401    0.297    5.834
  491.000   65.861    0.420    0.264    5.588
  491.250   78.050    0.430    0.228    4.975
  491.500   90.901    0.421    0.209    4.590
  491.750   98.646    0.449    0.202    4.149
  492.000  102.305    0.451    0.202    3.857
  492.250  103.803    0.459    0.201    3.708
  492.500  103.377    0.477    0.214    3.652
  492.750  102.411    0.476    0.231    3.720
  493.000  101.206    0.454    0.235    3.854
  493.250   97.837    0.455    0.219    3.985
  493.500   95.789    0.472    0.213    4.160
  493.750   97.047    0.470    0.204    4.301
  494.000   96.381    0.456    0.209    4.374
  494.250   93.912    0.438    0.223    4.397
  494.500   92.167    0.439    0.217    4.323
  494.750   91.381    0.466    0.228    4.133
  495.000   94.140    0.486    0.241    3.929
  495.250   95.517    0.485    0.233    3.885
  495.500   90.587    0.474    0.224    3.928
  495.750   93.646    0.467    0.216    4.001
  496.000   96.344    0.488    0.215    4.045
  496.250   97.421    0.504    0.223    4.045
  496.500   97.056    0.492    0.227    3.991
  496.750   94.228    0.489    0.215    3.917
  497.000   93.262    0.493    0.208    3.844
  497.250   94.038    0.496    0.230    3.779
  497.500   94.153    0.489    0.261    3.821
  497.750   94.029    0.474    0.281    4.094
  498.000   91.922    0.459    0.299    4.452
  498.250   86.931    0.449    0.310    4.797
  498.500   79.658    0.467    0.299    4.998
  498.750   75.088    0.467    0.292    5.236
  499.000   78.447    0.457    0.300    5.384
  499.250   72.855    0.450    0.309    5.672
  499.500   68.225    0.445    0.317    5.920
  499.750   65.518    0.449    0.325    6.237
  500.000   62.149    0.457    0.334    6.426
  500.250   59.201    0.456    0.340    6.558
  500.500   61.840    0.444    0.346    6.631
  500.750   64.778    0.435    0.344    6.655
  501.000   64.594    0.452    0.339    6.654
  501.250   58.882    0.455    0.334    6.627
  501.500   56.655    0.451    0.331    6.676
  501.750   58.933    0.450    0.327    6.776
  502.000   61.931    0.452    0.326    6.851
  502.250   63.128    0.469    0.331    6.914
  502.500   63.244    0.466    0.338    6.978
  502.750   61.437    0.453    0.336    7.042
  503.000   58.069    0.438    0.334    7.133
  503.250   60.888    0.427    0.336    7.240
  503.500   63.346    0.425    0.335    7.320
  503.750   64.423    0.443    0.326    7.346
  504.000   63.457    0.450    0.317    7.331
  504.250   61.109    0.443    0.309    7.262
  504.500   63.267    0.437    0.311    7.207
  504.750   63.202    0.442    0.313    7.112
  505.000   60.975    0.430    0.326    7.084
  505.250   59.409    0.417    0.338    7.043
  505.500   61.026    0.403    0.342    6.964
  505.750   64.265    0.398    0.332    6.834
  506.000   66.664    0.421    0.325    6.693
  506.250   65.337    0.433    0.330    6.556
  506.500   63.831    0.429    0.331    6.386
  506.750   69.053    0.431    0.315    6.278
  507.000   74.995    0.443    0.301    6.150
  507.250   78.535    0.458    0.289    6.046
  507.500   77.329    0.463    0.279    6.090
  507.750   75.642    0.449    0.269    6.158
  508.000   78.400    0.448    0.268    6.180
  508.250   79.357    0.459    0.283    6.202
  508.500   77.250    0.467    0.293    6.271
  508.750   75.022    0.442    0.304    6.305
  509.000   73.396    0.420    0.313    6.351
  509.250   71.409    0.411    0.308    6.374
  509.500   69.783    0.425    0.297    6.255
  509.750   70.258    0.440    0.292    5.749
  510.000   72.116    0.435    0.282    4.932
  510.250   76.797    0.438    0.270    4.416
  510.500   82.499    0.460    0.258    3.991
  510.750   85.798    0.480    0.268    3.710
  511.000   87.356    0.492    0.275    3.580
  511.250   87.952    0.485    0.276    3.455
  511.500   86.926    0.478    0.286    3.409
  511.750   85.179    0.471    0.282    3.532
  512.000   83.252    0.467    0.271    3.742
  512.250   82.286    0.491    0.260    3.748
  512.500   81.561    0.512    0.260    3.144
  512.750   83.359    0.524    0.270    2.603
  513.000   89.001    0.542    0.279    2.406
  513.250   94.222    0.572    0.277    2.279
  513.500   93.495    0.537    0.262    2.334
  513.750   92.891    0.519    0.252    2.468
  514.000   91.204    0.505    0.246    2.615
  514.250   92.642    0.525    0.263    2.669
  514.500   94.078    0.544    0.275    2.838
  514.750   93.593    0.561    0.276    3.302
  515.000   88.062    0.545    0.279    4.062
  515.250   75.202    0.516    0.289    5.092
  515.500   69.791    0.487    0.303    6.347
  515.750   69.126    0.478    0.317    8.092
  516.000   64.376    0.473    0.326   10.011
  516.250   57.763    0.478    0.338   11.954
  516.500   52.592    0.464    0.348   14.818
  516.750   52.347    0.440    0.352   18.096
  517.000   55.946    0.443    0.343   22.683
  517.250   59.126    0.450    0.339   25.562
  517.500   61.044    0.439    0.342   26.880
  517.750   59.777    0.433    0.349   25.079
  518.000   58.572    0.430    0.352   23.444
  518.250   58.566    0.430    0.349   21.509
  518.500   58.502    0.439    0.347   20.107
  518.750   58.497    0.447    0.345   18.901
  519.000   58.432    0.454    0.343   17.147
  519.250   58.428    0.458    0.340   16.331
  519.500   58.002    0.471    0.339   15.525
  519.750   57.518    0.465    0.341   15.756
  520.000   56.791    0.452    0.344   16.569
  520.250   59.730    0.446    0.349   17.818
  520.500   60.928    0.458    0.353   18.738
  520.750   60.563    0.463    0.355   19.594
  521.000   59.718    0.452    0.359   19.812
  521.250   57.490    0.453    0.356   19.846
  521.500   57.065    0.466    0.351   19.658
  521.750   58.382    0.480    0.348   19.075
  522.000   60.300    0.462    0.353   18.789
  522.250   57.231    0.447    0.358   18.542
  522.500   56.686    0.449    0.361   18.435
  522.750   58.964    0.474    0.355   18.536
  523.000   62.023    0.489    0.348   18.567
  523.250   63.701    0.462    0.343   18.220
  523.500   64.357    0.452    0.339   17.846
  523.750   63.271    0.468    0.340   16.871
  524.000   61.224    0.481    0.340   16.188
  524.250   63.742    0.478    0.339   15.827
  524.500   65.299    0.466    0.341   15.648
  524.750   65.896    0.486    0.343   15.733
  525.000   65.650    0.488    0.334   15.760
  525.250   64.924    0.470    0.342   15.322
