~VERSION INFORMATION
 VERS.                 2.0:   CWLS LOG ASCII STANDARD -VERSION 2.0
 WRAP.                  NO:   ONE LINE PER DEPTH STEP
~WELL INFORMATION BLOCK
#MNEM.UNIT           DATA                    DESCRIPTION OF MNEMONIC
#---------    -------------------            -------------------------------
# Generated from Intellog Unique Number	CW_70_72/WELL/1060
NULL.         -999.25                        : NULL_VALUE
WELL.         HUSKY ET AL SMITH 11-21        : Well_name    - WELL              
LOC .         11-21-071-24W4                 : Location     - LOCATION          
UWI .         00/11-21-071-24W4/0            : Uwi          - UNIQUE WELL ID    
ENTR.         JAYE                           : Entered      - ENTERED BY        
SRVC.         SCHLUMBERGER                   : Scn          - SERVICE COMPANY   
DATE.         18 DEC 77                      : Date         - LOG DATE          
STRT.M        422.453                        : top_depth    - START DEPTH       
STOP.M        642.453                        : bot_depth    - STOP DEPTH        
STEP.M        0.25                           : increment    - STEP LENGTH       
~CURVE INFORMATION BLOCK
#MNEM UNIT       ERCB CURVE CODE    CURVE DESCRIPTION
#-----------   ------------------   ----------------------------------
DEPT.M        00 001 00 00         : DEPTH        - DEPTH                       
DPHI.V/V      00 890 00 00         : PHID         - DENSITY POROSITY (SANDSTONE)
NPHI.V/V      00 330 00 00         : PHIN         - NEUTRON POROSITY (SANDSTONE)
GR  .API      00 310 00 00         : GR           - GAMMA RAY                   
CALI.MM       00 280 01 00         : CAL          - CALIPER                     
ILD .OHMM     00 120 00 00         : RESD         - DEEP RESISTIVITY (DIL)      
~PARAMETER INFORMATION       
#MNEM.UNIT           DATA             DESCRIPTION OF MNEMONIC
#---------         -----------     ------------------------------
GL  .M        642.671              : gl           - GROUND LEVEL ELEVATION      
EREF.M        646.633              : kb           - ELEVATION OF DEPTH REFERENCE
DATM.M        642.671              : datum        - DATUM ELEVATION             
TDD .M        658.368              : tdd          - TOTAL DEPTH DRILLER         
RUN .         ONE                  : Run          - RUN NUMBER                  
ENG .         DALY                 : Engineer     - RECORDING ENGINEER          
WIT .         TODD/GEORGE          : Witness      - WITNESSED BY                
BASE.         EDM                  : Branch       - HOME BASE OF LOGGING UNIT   
MUD .         GEL                  : Mud_type     - MUD TYPE                    
MATR.         SANDSTONE            : Logunit      - NEUTRON MATRIX              
TMAX.C        26.1111              : BHT          - MAXIMUM RECORDED TEMPERATURE
BHTD.M        658.368              : BHTDEP       - MAXIMUM RECORDED TEMPERATURE
RMT .C        -17.7778             : MDTP         - TEMPERATURE OF MUD          
MUDD.KG/M     1092                 : MWT          - MUD DENSITY                 
NEUT.         1                    : NEUTRON      - NEUTRON TYPE                
RESI.         0                    : RESIST       - RESISTIVITY TYPE            
RM  .OHMM     0                    : RM           - RESISTIVITY OF MUD          
RMC .OHMM     0                    : RMC          - RESISTIVITY OF MUD CAKE     
RMF .OHMM     6.97                 : RMF          - RESISTIVITY OF MUD FILTRATE 
SUFT.C        -17.7778             : SUFT         - SURFACE TEMPERATURE         
~A  DEPTH     PHID     PHIN       GR      CAL     RESD
# ...
  495.453    0.213    0.406  104.883  176.962    5.013
  495.703    0.225    0.421  108.258  177.818    4.260
  495.953    0.225    0.420  112.070  178.250    3.814
  496.203    0.221    0.416  108.956  178.789    3.659
  496.453    0.217    0.402  103.407  179.008    3.684
  496.703    0.227    0.405  105.410  179.123    3.724
  496.953    0.212    0.404  109.534  180.084    3.842
  497.203    0.198    0.404  117.402  181.255    3.942
  497.453    0.202    0.424  122.399  182.109    4.022
  497.703    0.192    0.419  120.907  182.753    4.087
  497.953    0.174    0.420  116.232  183.079    4.085
  498.203    0.181    0.432  112.682  182.455    3.934
  498.453    0.200    0.441  110.753  180.139    3.830
  498.703    0.210    0.440  104.393  177.931    3.681
  498.953    0.225    0.430   95.413  176.354    3.512
  499.203    0.243    0.412   89.616  174.887    3.282
  499.453    0.256    0.405   83.756  174.260    3.061
  499.703    0.265    0.395   78.332  174.058    2.861
  499.953    0.272    0.395   75.094  173.645    2.709
  500.203    0.279    0.401   73.477  173.655    2.643
  500.453    0.286    0.410   75.978  173.558    2.588
  500.703    0.279    0.421   76.046  173.356    2.577
  500.953    0.262    0.412   72.994  173.050    2.561
  501.203    0.257    0.414   72.438  172.846    2.541
  501.453    0.265    0.420   73.379  172.749    2.564
  501.703    0.256    0.416   74.696  172.548    2.567
  501.953    0.246    0.409   75.824  172.662    2.595
  502.203    0.247    0.402   77.889  172.671    2.622
  502.453    0.265    0.396   82.325  172.892    2.660
  502.703    0.254    0.390   84.327  173.219    2.679
  502.953    0.250    0.393   85.830  173.652    2.708
  503.203    0.247    0.391   87.770  174.188    2.732
  503.453    0.245    0.386   89.585  174.306    2.782
  503.703    0.243    0.379   91.587  174.315    2.849
  503.953    0.236    0.372   94.463  174.641    2.944
  504.203    0.216    0.366   99.897  174.758    3.248
  504.453    0.194    0.345  100.839  174.659    3.611
  504.703    0.150    0.257   95.229  174.878    4.333
  504.953    0.057    0.241   88.557  175.522    5.113
  505.203    0.051    0.239   84.195  176.270    5.855
  505.453    0.101    0.319   85.885  177.020    6.694
  505.703    0.144    0.361   88.075  177.768    7.385
  505.953    0.194    0.386   89.141  178.306    7.793
  506.203    0.228    0.397   84.903  178.527    7.936
  506.453    0.162    0.386   79.230  178.536    7.813
  506.703    0.122    0.257   75.929  177.489    7.469
  506.953    0.102    0.239   81.489  177.075    7.177
  507.203    0.187    0.285   86.173  176.241    6.486
  507.453    0.215    0.348   94.852  176.144    5.764
  507.703    0.237    0.386   99.600  176.365    4.597
  507.953    0.201    0.421   99.543  177.114    3.973
  508.203    0.178    0.357   93.309  178.075    3.818
  508.453    0.123    0.242   82.894  178.611    4.044
  508.703    0.106    0.251   80.217  180.100    4.282
  508.953    0.144    0.300   85.838  179.580    4.585
  509.203    0.223    0.384   98.510  178.745    4.966
  509.453    0.204    0.407  105.192  180.022    4.339
  509.703    0.179    0.417  111.750  181.087    3.772
  509.953    0.187    0.412  115.187  182.259    3.584
  510.203    0.201    0.406  117.502  183.327    3.294
  510.453    0.198    0.408  119.067  184.709    3.286
  510.703    0.207    0.421  114.767  185.880    3.328
  510.953    0.221    0.425  114.336  187.159    3.414
  511.203    0.238    0.414  116.089  188.118    3.457
  511.453    0.228    0.408  115.969  188.656    3.553
  511.703    0.235    0.419  118.596  189.512    3.652
  511.953    0.224    0.409  120.348  190.682    3.796
  512.203    0.207    0.401  123.162  191.748    3.946
  512.453    0.193    0.433  125.289  193.133    4.003
  512.703    0.199    0.453  126.293  193.458    4.031
  512.953    0.193    0.464  127.297  194.101    4.037
  513.203    0.197    0.448  124.432  194.532    4.021
  513.453    0.198    0.426  124.999  195.176    4.026
  513.703    0.187    0.411  129.560  195.714    3.993
  513.953    0.183    0.422  132.685  195.828    3.939
  514.203    0.170    0.443  132.566  196.156    3.893
  514.453    0.180    0.484  131.635  195.847    3.855
  514.703    0.190    0.478  129.020  194.905    3.797
  514.953    0.205    0.453  126.904  193.541    3.766
  515.203    0.199    0.434  124.289  191.755    3.722
  515.453    0.186    0.446  121.549  190.074    3.734
  515.703    0.172    0.436  118.746  188.286    3.753
  515.953    0.159    0.423  119.501  186.077    3.745
  516.203    0.184    0.420  121.128  184.183    3.742
  516.453    0.198    0.439  109.403  182.291    3.658
  516.703    0.205    0.456  100.922  179.976    3.419
  516.953    0.211    0.451   94.625  177.450    3.207
  517.203    0.262    0.439   94.007  174.818    2.986
  517.453    0.254    0.426   93.763  171.868    2.817
  517.703    0.250    0.412   91.272  170.293    2.712
  517.953    0.267    0.394   90.529  169.456    2.656
  518.203    0.268    0.429   90.597  168.409    2.640
  518.453    0.260    0.424   91.851  166.201    2.590
  518.703    0.255    0.416   94.602  165.787    2.569
  518.953    0.261    0.413   98.476  166.219    2.539
  519.203    0.279    0.421   97.171  166.441    2.509
  519.453    0.298    0.444   97.613  166.554    2.489
  519.703    0.317    0.440   95.935  166.987    2.451
  519.953    0.328    0.457   94.005  167.946    2.432
  520.203    0.320    0.464   91.702  168.801    2.399
  520.453    0.314    0.458   88.463  169.339    2.371
  520.703    0.309    0.450   92.275  168.715    2.357
  520.953    0.301    0.437   98.520  168.196    2.312
  521.203    0.288    0.427   98.214  167.783    2.277
  521.453    0.254    0.426   91.855  167.475    2.263
  521.703    0.288    0.418   87.492  167.378    2.220
  521.953    0.309    0.413   90.056  167.494    2.198
  522.203    0.314    0.421   92.745  167.080    2.161
  522.453    0.317    0.422   91.315  166.878    2.112
  522.703    0.298    0.425   91.945  166.677    2.064
  522.953    0.311    0.432   89.516  166.368    2.021
  523.203    0.322    0.434   83.282  166.378    1.997
  523.453    0.313    0.418   83.101  166.281    2.004
  523.703    0.313    0.406   84.479  166.397    2.025
  523.953    0.321    0.415   86.793  166.724    2.058
  524.203    0.319    0.425   84.428  167.156    2.116
  524.453    0.324    0.431   85.681  167.800    2.200
  524.703    0.322    0.440   86.686  168.547    2.256
  524.953    0.317    0.443   86.878  170.986    2.289
  525.203    0.315    0.439   85.822  168.354    2.284
  525.453    0.291    0.423   83.707  166.039    2.266
  525.703    0.292    0.427   82.588  165.309    2.260
  525.953    0.300    0.435   81.222  165.212    2.225
  526.203    0.313    0.443   77.233  165.327    2.204
  526.453    0.315    0.448   77.364  165.548    2.158
  526.703    0.306    0.454   79.179  166.298    2.141
  526.953    0.310    0.457   78.436  166.729    2.159
  527.203    0.313    0.436   73.823  166.949    2.237
  527.453    0.290    0.423   71.208  167.065    2.329
  527.703    0.260    0.407   73.898  167.075    2.425
  527.953    0.204    0.395   76.710  167.085    2.433
  528.203    0.239    0.393   78.962  167.198    2.360
  528.453    0.280    0.426   79.717  167.419    2.281
  528.703    0.298    0.437   80.409  167.746    2.193
  528.953    0.315    0.449   80.664  169.657    2.119
  529.203    0.318    0.454   78.422  170.088    2.086
  529.453    0.315    0.458   75.433  169.147    2.039
  529.703    0.320    0.456   77.747  168.099    2.012
  529.953    0.328    0.445   80.186  167.370    1.981
  530.203    0.333    0.415   81.066  166.850    1.966
  530.453    0.335    0.427   80.385  165.064    1.950
  530.703    0.323    0.434   78.456  161.904    1.949
  530.953    0.312    0.435   73.470  159.377    1.951
  531.203    0.323    0.439   71.728  158.435    1.962
  531.453    0.315    0.443   72.732  161.192    1.968
  531.703    0.334    0.457   73.548  164.053    1.981
