~VERSION INFORMATION
 VERS.                 2.0:   CWLS LOG ASCII STANDARD -VERSION 2.0
 WRAP.                  NO:   ONE LINE PER DEPTH STEP
~WELL INFORMATION BLOCK
#MNEM.UNIT           DATA                    DESCRIPTION OF MNEMONIC
#---------    -------------------            -------------------------------
# Generated from Intellog Unique Number	CW_70_72/WELL/1058
NULL.         -999.25                        : NULL_VALUE
WELL.         WINCAN ET AL SMITH 11-16       : Well_name    - WELL              
LOC .         11-16-071-26W4                 : Location     - LOCATION          
UWI .         00/11-16-071-26W4/0            : Uwi          - UNIQUE WELL ID    
ENTR.         JAYE                           : Entered      - ENTERED BY        
SRVC.         COMPUTALOG                     : Scn          - SERVICE COMPANY   
DATE.         13 AUG 83                      : Date         - LOG DATE          
STRT.M        400                            : top_depth    - START DEPTH       
STOP.M        668.5                          : bot_depth    - STOP DEPTH        
STEP.M        0.25                           : increment    - STEP LENGTH       
~CURVE INFORMATION BLOCK
#MNEM UNIT       ERCB CURVE CODE    CURVE DESCRIPTION
#-----------   ------------------   ----------------------------------
DEPT.M        00 001 00 00         : DEPTH        - DEPTH                       
DPHI.V/V      00 890 00 00         : PHID         - DENSITY POROSITY (SANDSTONE)
NPHI.V/V      00 330 00 00         : PHIN         - NEUTRON POROSITY (SANDSTONE)
GR  .API      00 310 00 00         : GR           - GAMMA RAY                   
CALI.MM       00 280 01 00         : CAL          - CALIPER                     
ILD .OHMM     00 120 00 00         : RESD         - DEEP RESISTIVITY (DIL)      
~PARAMETER INFORMATION       
#MNEM.UNIT           DATA             DESCRIPTION OF MNEMONIC
#---------         -----------     ------------------------------
GL  .M        593.18               : gl           - GROUND LEVEL ELEVATION      
EREF.M        596.48               : kb           - ELEVATION OF DEPTH REFERENCE
DATM.M        593.18               : datum        - DATUM ELEVATION             
TDD .M        668                  : tdd          - TOTAL DEPTH DRILLER         
RUN .         ONE                  : Run          - RUN NUMBER                  
ENG .         WOOD                 : Engineer     - RECORDING ENGINEER          
WIT .         VAN FRAASEN          : Witness      - WITNESSED BY                
BASE.         LLOYD                : Branch       - HOME BASE OF LOGGING UNIT   
MUD .         GEL CHEM             : Mud_type     - MUD TYPE                    
MATR.         SANDSTONE            : Logunit      - NEUTRON MATRIX              
TMAX.C        31                   : BHT          - MAXIMUM RECORDED TEMPERATURE
BHTD.M        668.3                : BHTDEP       - MAXIMUM RECORDED TEMPERATURE
RMT .C        22                   : MDTP         - TEMPERATURE OF MUD          
MUDD.KG/M     1120                 : MWT          - MUD DENSITY                 
NEUT.         1                    : NEUTRON      - NEUTRON TYPE                
RESI.         0                    : RESIST       - RESISTIVITY TYPE            
RM  .OHMM     2.6                  : RM           - RESISTIVITY OF MUD          
RMC .OHMM     0                    : RMC          - RESISTIVITY OF MUD CAKE     
RMF .OHMM     3.2                  : RMF          - RESISTIVITY OF MUD FILTRATE 
SUFT.C        0                    : SUFT         - SURFACE TEMPERATURE         
~A  DEPTH     PHID     PHIN       GR      CAL     RESD
# ...
  436.500    0.146    0.259   54.334  165.416    8.609
  436.750    0.237    0.349   56.864  164.451    6.118
  437.000    0.275    0.386   60.141  163.074    4.600
  437.250    0.304    0.405   65.840  161.488    3.815
  437.500    0.315    0.423   63.024  159.791    3.354
  437.750    0.314    0.393   60.518  159.143    3.017
  438.000    0.300    0.369   65.037  160.251    2.865
  438.250    0.263    0.357   78.196  164.566    2.842
  438.500    0.236    0.348   90.547  169.402    3.011
  438.750    0.222    0.353  107.125  172.277    3.227
  439.000    0.240    0.360  109.778  175.145    3.412
  439.250    0.272    0.369  108.143  176.876    3.568
  439.500    0.269    0.383  105.017  177.051    3.606
  439.750    0.242    0.395   97.911  173.805    3.537
  440.000    0.231    0.393   91.737  168.285    3.521
  440.250    0.239    0.397   88.050  162.556    3.661
  440.500    0.249    0.405   83.494  156.618    3.864
  440.750    0.258    0.410   78.874  151.713    4.141
  441.000    0.269    0.409   74.442  149.713    4.346
  441.250    0.275    0.406   77.656  150.197    4.384
  441.500    0.259    0.399   83.605  153.589    4.134
  441.750    0.241    0.391   89.118  157.493    3.978
  442.000    0.235    0.379   91.088  158.496    3.822
  442.250    0.230    0.397   89.701  158.465    3.705
  442.500    0.226    0.406   83.776  158.436    3.587
  442.750    0.237    0.399   73.625  158.707    3.531
  443.000    0.254    0.398   67.886  159.093    3.476
  443.250    0.264    0.396   65.133  159.583    3.390
  443.500    0.272    0.391   63.373  159.547    3.306
  443.750    0.280    0.382   62.048  159.003    3.200
  444.000    0.287    0.371   60.227  158.451    3.085
  444.250    0.290    0.371   62.943  157.277    2.997
  444.500    0.286    0.380   66.279  156.316    2.940
  444.750    0.274    0.393   70.178  155.138    2.927
  445.000    0.279    0.403   70.034  154.904    2.909
  445.250    0.285    0.399   67.839  153.213    2.864
  445.500    0.278    0.393   65.831  150.795    2.830
  445.750    0.280    0.385   64.195  148.387    2.806
  446.000    0.284    0.372   62.249  147.730    2.758
  446.250    0.288    0.357   58.685  151.428    2.699
  446.500    0.292    0.345   55.685  156.261    2.657
  446.750    0.296    0.334   54.920  159.655    2.621
  447.000    0.303    0.336   59.624  163.457    2.679
  447.250    0.311    0.336   66.008  165.177    2.839
  447.500    0.266    0.342   74.941  165.673    2.979
  447.750    0.222    0.367   88.223  167.395    3.127
  448.000    0.188    0.386   98.772  168.921    3.370
  448.250    0.158    0.409   99.498  171.582    3.543
  448.500    0.167    0.415   97.428  174.245    3.678
  448.750    0.177    0.419   97.595  176.183    3.703
  449.000    0.169    0.406   97.700  177.498    3.750
  449.250    0.165    0.396   98.116  178.296    3.769
  449.500    0.173    0.415  100.771  178.471    3.767
  449.750    0.178    0.425   98.823  178.539    3.779
  450.000    0.179    0.434   98.804  178.510    3.783
  450.250    0.177    0.426   99.097  178.688    3.809
  450.500    0.175    0.413   99.140  179.575    3.850
  450.750    0.175    0.416   98.562  179.860    3.877
  451.000    0.180    0.423   97.734  180.555    3.957
  451.250    0.180    0.415   95.290  180.310    4.045
  451.500    0.174    0.399   91.480  180.493    4.118
  451.750    0.159    0.372   93.138  180.668    4.266
  452.000    0.234    0.405   96.166  180.847    4.460
  452.250    0.350    0.479   99.753  180.608    4.664
  452.500    0.388    0.490   96.811  180.576    4.777
  452.750    0.387    0.451   78.953  175.985    4.819
  453.000    0.324    0.426   76.258  167.044    4.798
  453.250    0.295    0.433   77.670  157.789    4.750
  453.500    0.293    0.442   79.890  154.030    4.676
  453.750    0.284    0.452   78.005  155.655    4.543
  454.000    0.273    0.448   68.786  158.519    4.356
  454.250    0.272    0.381   58.013  160.249    4.076
  454.500    0.292    0.353   49.852  160.946    3.827
  454.750    0.305    0.331   43.617  158.429    3.527
  455.000    0.309    0.324   40.552  154.979    3.190
  455.250    0.306    0.339   47.556  153.386    3.082
  455.500    0.296    0.373   58.541  155.015    3.104
  455.750    0.283    0.390   69.338  158.509    3.148
  456.000    0.277    0.384   82.745  161.788    3.274
  456.250    0.278    0.374   88.072  161.965    3.321
  456.500    0.270    0.375   99.303  161.105    3.326
  456.750    0.250    0.382  112.649  161.799    3.324
  457.000    0.241    0.375  105.295  163.940    3.315
  457.250    0.280    0.393   88.864  166.600    3.383
  457.500    0.306    0.403   81.200  167.296    3.537
  457.750    0.327    0.415   70.055  167.577    3.776
  458.000    0.343    0.432   61.706  167.029    3.994
  458.250    0.322    0.422   67.031  166.265    4.144
  458.500    0.287    0.377   72.173  165.616    3.951
  458.750    0.264    0.366   80.234  164.545    3.846
  459.000    0.282    0.392   80.649  164.205    3.736
  459.250    0.292    0.399   75.534  162.826    3.569
  459.500    0.292    0.394   74.770  161.241    3.526
  459.750    0.291    0.384   74.005  160.276    3.564
  460.000    0.289    0.373   69.323  159.519    3.651
  460.250    0.287    0.358   67.812  158.246    3.746
  460.500    0.287    0.344   70.839  157.592    3.894
  460.750    0.310    0.354   68.084  157.866    3.937
  461.000    0.320    0.385   65.700  158.565    3.796
  461.250    0.322    0.376   67.734  159.152    3.737
  461.500    0.305    0.398   71.321  160.366    3.672
  461.750    0.291    0.437   68.380  161.266    3.588
  462.000    0.306    0.450   65.004  161.437    3.499
  462.250    0.322    0.441   64.612  161.307    3.399
  462.500    0.324    0.428   66.023  160.862    3.290
  462.750    0.326    0.420   68.492  159.376    3.208
  463.000    0.329    0.416   68.471  157.586    3.146
  463.250    0.317    0.411   69.629  155.171    3.080
  463.500    0.305    0.407   70.298  153.892    3.016
  463.750    0.295    0.413   71.273  153.655    2.996
  464.000    0.291    0.412   72.125  153.830    2.972
  464.250    0.284    0.403   75.462  153.792    2.931
  464.500    0.280    0.399   78.180  153.975    2.902
  464.750    0.277    0.403   75.984  155.286    2.862
  465.000    0.278    0.406   74.098  155.880    2.812
  465.250    0.283    0.400   72.714  156.988    2.779
  465.500    0.291    0.390   66.914  158.197    2.746
  465.750    0.298    0.387   60.678  160.440    2.704
  466.000    0.296    0.390   65.693  162.070    2.676
  466.250    0.285    0.381   69.281  163.388    2.660
  466.500    0.274    0.372   72.120  164.496    2.668
  466.750    0.264    0.379   73.655  164.560    2.666
  467.000    0.265    0.381   74.880  164.224    2.695
  467.250    0.273    0.367   75.918  163.778    2.720
  467.500    0.267    0.363   76.706  163.229    2.743
  467.750    0.271    0.368   73.144  163.197    2.799
  468.000    0.266    0.364   70.452  162.956    2.861
  468.250    0.242    0.363   73.727  163.235    2.947
  468.500    0.220    0.400   85.830  164.345    2.956
  468.750    0.243    0.410   83.259  166.071    2.856
  469.000    0.264    0.369   76.094  167.595    2.698
  469.250    0.275    0.366   65.755  167.665    2.621
  469.500    0.282    0.362   60.080  166.806    2.551
  469.750    0.278    0.356   55.275  165.324    2.473
  470.000    0.281    0.342   53.330  164.463    2.463
  470.250    0.281    0.327   54.305  164.122    2.513
  470.500    0.276    0.324   58.762  162.949    2.583
  470.750    0.274    0.370   68.936  161.880    2.706
  471.000    0.277    0.382   70.595  159.880    2.846
  471.250    0.288    0.398   70.017  157.361    2.925
  471.500    0.297    0.403   70.869  154.425    3.030
  471.750    0.289    0.396   72.216  153.049    3.086
  472.000    0.276    0.371   74.185  153.642    3.125
  472.250    0.261    0.377   76.841  155.475    3.189
  472.500    0.247    0.378   77.691  158.960    3.229
  472.750    0.246    0.376   76.303  161.311    3.326
