~VERSION INFORMATION
 VERS.                 2.0:   CWLS LOG ASCII STANDARD -VERSION 2.0
 WRAP.                  NO:   ONE LINE PER DEPTH STEP
~WELL INFORMATION BLOCK
#MNEM.UNIT           DATA                    DESCRIPTION OF MNEMONIC
#---------    -------------------            -------------------------------
# Generated from Intellog Unique Number	CC_80_83/WELL/2435
NULL.         -999.25                        : NULL_VALUE
WELL.         NOVALTA NEWBY                  : Well_name    - WELL              
LOC .         13-19-083-04W4                 : Location     - LOCATION          
UWI .         00/13-19-083-04W4/0            : Uwi          - UNIQUE WELL ID    
ENTR.         DW                             : Entered      - ENTERED BY        
SRVC.         COMPUTALOG                     : Scn          - SERVICE COMPANY   
DATE.         08 JAN 84                      : Date         - LOG DATE
STRT.M        63                             : top_depth    - START DEPTH       
STOP.M        270.001                        : bot_depth    - STOP DEPTH        
STEP.M        0.3                            : increment    - STEP LENGTH       
~CURVE INFORMATION BLOCK
#MNEM UNIT       ERCB CURVE CODE    CURVE DESCRIPTION
#-----------   ------------------   ----------------------------------
DEPT.M        00 001 00 00         : DEPTH        - DEPTH                       
DPHI.V/V      00 890 00 00         : PHID         - DENSITY POROSITY (LIMESTONE)
NPHI.V/V      00 330 00 00         : PHIN         - NEUTRON POROSITY (LIMESTONE)
GR  .API      00 310 00 00         : GR           - GAMMA RAY                   
ILD .OHMM     00 120 00 00         : RESD         - DEEP RESISTIVITY (DIL)      
~PARAMETER INFORMATION       
#MNEM.UNIT           DATA             DESCRIPTION OF MNEMONIC
#---------         -----------     ------------------------------
GL  .M        464                  : gl           - GROUND LEVEL ELEVATION      
EREF.M        467                  : kb           - ELEVATION OF DEPTH REFERENCE
DATM.M        467                  : datum        - DATUM ELEVATION             
TDD .M        276                  : tdd          - TOTAL DEPTH DRILLER         
RUN .         ONE                  : Run          - RUN NUMBER                  
ENG .         BILL                 : Engineer     - RECORDING ENGINEER          
WIT .         JIM                  : Witness      - WITNESSED BY                
MUD .         GEL                  : Mud_type     - MUD TYPE                    
MATR.         LIMESTONE            : Logunit      - NEUTRON MATRIX              
TMAX.C        22                   : BHT          - MAXIMUM RECORDED TEMPERATURE
BHTD.M        275                  : BHTDEP       - MAXIMUM RECORDED TEMPERATURE
MATR.         1                    : LOGUNIT      - NEUTRON MATRIX              
RMT .C        25                   : MDTP         - TEMPERATURE OF MUD          
NEUT.         1                    : NEUTRON      - NEUTRON TYPE                
RESI.         0                    : RESIST       - RESISTIVITY TYPE            
RMC .OHMM     0.25                 : RMC          - RESISTIVITY OF MUD CAKE     
RMF .OHMM     0.25                 : RMF          - RESISTIVITY OF MUD FILTRATE 
SUFT.C        4                    : SUFT         - SURFACE TEMPERATURE         
~A  DEPTH     PHID     PHIN       GR     RESD
# ...
  219.602    0.347    0.346   33.429    1.411
  219.902    0.344    0.351   39.560    1.260
  220.202    0.327    0.320   83.009    1.166
  220.502    0.206    0.343  105.660    1.186
  220.802    0.211    0.373  108.120    1.325
  221.102    0.213    0.407  111.196    2.113
  221.402    0.194    0.381  112.440    3.125
  221.702    0.205    0.385  105.113    3.831
  222.002    0.320    0.371   54.358    3.550
  222.302    0.347    0.361   46.423    2.778
  222.602    0.346    0.388   50.109    2.056
  222.902    0.343    0.387   59.913    1.412
  223.202    0.320    0.349   71.552    1.259
  223.502    0.268    0.307   80.131    1.188
  223.802    0.225    0.304   87.489    1.232
  224.102    0.217    0.320   91.175    1.455
  224.402    0.225    0.310   72.840    2.113
  224.702    0.283    0.315   57.566    2.543
  225.002    0.297    0.326   53.914    2.399
  225.302    0.310    0.326   50.872    2.141
  225.602    0.328    0.339   44.157    1.874
  225.902    0.345    0.355   40.507    1.704
  226.202    0.350    0.372   41.743    1.550
  226.502    0.348    0.367   47.266    1.436
  226.802    0.355    0.376   51.563    1.355
  227.102    0.366    0.384   43.627    1.327
  227.402    0.365    0.385   38.753    1.276
  227.702    0.350    0.374   39.992    1.299
  228.002    0.307    0.343   42.454    1.371
  228.302    0.307    0.324   43.082    1.421
  228.602    0.323    0.323   38.208    1.418
  228.902    0.334    0.325   38.834    1.390
  229.202    0.351    0.346   37.626    1.337
  229.502    0.341    0.364   30.303    1.261
  229.802    0.318    0.356   33.989    1.213
  230.102    0.320    0.358   37.678    1.188
  230.402    0.323    0.341   34.634    1.209
  230.702    0.303    0.328   39.544    1.229
  231.002    0.283    0.336   45.679    1.274
  231.302    0.290    0.330   43.865    1.296
  231.602    0.312    0.326   39.596    1.393
  231.902    0.329    0.349   36.553    1.418
  232.202    0.331    0.362   37.185    1.470
  232.502    0.306    0.346   42.091    1.495
  232.802    0.300    0.348   43.335    1.493
  233.102    0.320    0.377   42.124    1.436
  233.402    0.348    0.381   39.084    1.380
  233.702    0.358    0.388   38.491    1.327
  234.002    0.361    0.389   37.280    1.325
  234.302    0.359    0.378   35.469    1.298
  234.602    0.355    0.369   33.648    1.225
  234.902    0.353    0.366   33.664    1.157
  235.202    0.350    0.362   34.900    1.031
  235.502    0.350    0.360   36.750    0.992
  235.802    0.353    0.359   37.383    0.971
  236.102    0.357    0.351   35.565    0.952
  236.402    0.361    0.346   34.354    0.950
  236.702    0.360    0.343   32.536    0.949
  237.002    0.359    0.343   30.720    0.948
  237.302    0.357    0.357   30.736    0.963
  237.602    0.357    0.369   31.977    0.980
  237.902    0.360    0.364   33.824    0.979
  238.202    0.358    0.362   38.125    0.995
  238.502    0.353    0.375   38.756    0.994
  238.802    0.347    0.369   35.098    1.011
  239.102    0.344    0.357   33.892    1.009
  239.402    0.346    0.350   36.356    1.026
  239.702    0.353    0.357   32.092    1.025
  240.002    0.372    0.355   29.660    1.023
  240.302    0.370    0.348   41.297    1.021
  240.602    0.356    0.388   54.772    1.019
  240.902    0.340    0.430   53.566    1.037
  241.202    0.353    0.413   37.677    1.035
  241.502    0.353    0.367   34.023    1.034
  241.802    0.339    0.381   41.994    1.051
  242.102    0.326    0.376   40.177    1.049
  242.402    0.357    0.358   40.803    1.068
  242.702    0.355    0.347   46.324    1.086
  243.002    0.319    0.358   53.683    1.124
  243.302    0.315    0.377   53.087    1.144
  243.602    0.312    0.376   50.659    1.185
  243.902    0.298    0.370   50.672    1.206
  244.202    0.301    0.369   51.300    1.249
  244.502    0.312    0.360   51.929    1.271
  244.802    0.299    0.353   53.779    1.317
  245.102    0.279    0.349   64.807    1.341
  245.402    0.280    0.348   62.989    1.416
  245.702    0.299    0.400   58.112    1.552
  246.002    0.321    0.390   50.176    1.639
  246.302    0.304    0.364   53.253    1.667
  246.602    0.287    0.338   63.054    1.602
  246.902    0.288    0.362   65.521    1.600
  247.202    0.311    0.390   56.359    1.568
  247.502    0.345    0.371   38.637    1.536
  247.802    0.373    0.385   32.536    1.320
  248.102    0.357    0.389   31.945    1.113
  248.402    0.351    0.384   30.735    1.051
  248.702    0.369    0.380   27.692    1.010
  249.002    0.372    0.374   29.543    1.009
  249.302    0.356    0.353   39.959    1.007
  249.602    0.294    0.359   63.220    1.064
  249.902    0.225    0.395   96.271    1.233
  250.202    0.233    0.379   91.394    1.541
  250.502    0.278    0.384   71.223    1.856
  250.802    0.310    0.381   60.227    2.034
  251.102    0.308    0.352   44.953    1.849
  251.402    0.323    0.325   35.181    1.531
  251.702    0.330    0.329   30.306    1.316
  252.002    0.339    0.324   27.265    1.174
  252.302    0.345    0.324   27.895    1.129
  252.602    0.337    0.336   29.132    1.126
  252.902    0.335    0.342   31.598    1.124
  253.202    0.347    0.352   34.059    1.123
  253.502    0.363    0.371   35.911    1.100
  253.802    0.367    0.391   35.316    1.058
  254.102    0.363    0.406   34.106    1.017
  254.402    0.356    0.411   31.677    1.016
  254.702    0.314    0.392   24.965    1.014
  255.002    0.206    0.319   20.698    1.051
  255.302    0.013    0.309   21.939    1.089
  255.602    0.036    0.322   24.402    1.129
  255.902    0.239    0.325   25.646    1.169
  256.202    0.287    0.308   26.882    1.212
  256.502    0.272    0.272   28.123    1.233
  256.802    0.277    0.278   33.034    1.278
  257.102    0.249    0.297   41.001    1.349
  257.402    0.191    0.308   69.767    1.425
  257.702    0.190    0.311   88.137    1.563
  258.002    0.196    0.314   91.825    1.989
  258.302    0.216    0.332   88.171    2.486
  258.602    0.220    0.379   77.174    2.577
  258.902    0.126    0.415   77.802    2.431
  259.202    0.043    0.408   88.220    2.428
  259.502    0.000    0.328   85.787    2.662
  259.802    0.022    0.284   72.960    3.203
  260.102    0.034    0.285   66.246    3.856
  260.402    0.035    0.274   65.655    4.820
  260.702    0.031    0.265   66.893    5.384
  261.002    0.028    0.259   67.522    5.684
  261.302    0.029    0.262   68.148    6.000
  261.602    0.042    0.283   68.166    5.994
  261.902    0.084    0.295   66.957    6.096
  262.202    0.124    0.281   60.245    6.314
  262.502    0.144    0.255   26.006    6.426
  262.802    0.120    0.246   22.354    6.296
  263.102    0.125    0.267   23.595    5.829
  263.402    0.136    0.270   25.445    5.821
  263.702    0.142    0.252   26.685    6.032
  264.002    0.136    0.222   23.644    6.253
  264.302    0.092    0.190   23.048    6.479
  264.602    0.100    0.216   27.346    6.470
  264.902    0.151    0.269   36.539    6.219
  265.202    0.151    0.292   35.943    6.329
  265.502    0.067    0.235   28.620    6.680
  265.802    0.059    0.231   31.083    7.324
  266.102    0.103    0.264   40.886    7.735
  266.402    0.175    0.263   39.069    8.015
  266.702    0.269    0.232   32.355    8.003
  267.001    0.264    0.208   33.597    7.842
  267.301    0.208    0.206   33.000    7.398
  267.601    0.167    0.231   29.347    7.522
  267.901    0.215    0.237   23.247    7.515
  268.201    0.219    0.230   21.427    7.497
  268.501    0.117    0.229   21.444    7.206
  268.801    0.129    0.221   22.073    7.066
  269.101    0.119    0.205   24.538    6.794
  269.401    0.044    0.180   24.553    6.534
  269.701    0.043    0.187   24.572    6.404
  270.001    0.061    0.211   25.197    6.275
