~VERSION INFORMATION
 VERS.                 2.0:   CWLS LOG ASCII STANDARD -VERSION 2.0
 WRAP.                  NO:   ONE LINE PER DEPTH STEP
~WELL INFORMATION BLOCK
#MNEM.UNIT           DATA                    DESCRIPTION OF MNEMONIC
#---------    -------------------            -------------------------------
# Generated from Intellog Unique Number	CW_73_75/WELL/3526
WELL.         G W ET AL SPUR                 : Well_name    - WELL
LOC .         00/11-06-073-01W5/0            : Location     - LOCATION
UWI .         00/11-06-073-01W5/0            : Uwi          - UNIQUE WELL ID
ENTR.         TIM                            : Entered      - ENTERED BY
SRVC.         SCHLUMBERGER                   : Scn          - SERVICE COMPANY
STRT.M        370                            : top_depth    - START DEPTH
STOP.M        615                            : bot_depth    - STOP DEPTH
STEP.M        0.25                           : increment    - STEP LENGTH
 NULL. -999.2500:NULL Value
~CURVE INFORMATION BLOCK
#MNEM UNIT       ERCB CURVE CODE    CURVE DESCRIPTION
#-----------   ------------------   ----------------------------------
DEPT.M        00 001 00 00         : DEPTH        - DEPTH
GR  .API      00 310 00 00         : GR           - GAMMA RAY
CALI.MM       00 280 01 00         : CAL          - CALIPER
NPHI.V/V      00 330 00 00         : PHIN         - NEUTRON POROSITY (SANDSTONE)
ILD .OHMM     00 120 00 00         : RESD         - DEEP RESISTIVITY (DIL)
~PARAMETER INFORMATION
#MNEM.UNIT           DATA             DESCRIPTION OF MNEMONIC
#---------         -----------     ------------------------------
GL  .M        612.1                : gl           - GROUND LEVEL ELEVATION
EREF.M        615.2                : kb           - ELEVATION OF DEPTH REFERENCE
DATM.M        615.2                : datum        - DATUM ELEVATION
TDD .M        624                  : tdd          - TOTAL DEPTH DRILLER
RUN .         ONE                  : Run          - RUN NUMBER
ENG .         BILL                 : Engineer     - RECORDING ENGINEER
WIT .         JIM                  : Witness      - WITNESSED BY
MUD .         GEL                  : Mud_type     - MUD TYPE
MATR.         SANDSTONE            : Logunit      - NEUTRON MATRIX
TMAX.C        28                   : BHT          - MAXIMUM RECORDED TEMPERATURE
BHTD.M        624                  : BHTDEP       - MAXIMUM RECORDED TEMPERATURE
MATR.         1                    : LOGUNIT      - NEUTRON MATRIX
RMT .C        23                   : MDTP         - TEMPERATURE OF MUD
NEUT.         1                    : NEUTRON      - NEUTRON TYPE
RESI.         0                    : RESIST       - RESISTIVITY TYPE
RMC .OHMM     3.417                : RMC          - RESISTIVITY OF MUD CAKE
RMF .OHMM     3.8                  : RMF          - RESISTIVITY OF MUD FILTRATE
SUFT.C        5                    : SUFT         - SURFACE TEMPERATURE
~A  DEPTH       GR      CAL     PHIN     RESD
# ...
  544.000   82.827  167.959    0.357    6.025
  544.250   83.988  167.950    0.357    5.601
  544.500   84.565  167.925    0.357    5.304
  544.750   83.374  168.891    0.355    5.210
  545.000   82.777  168.866    0.354    5.118
  545.250   83.353  168.852    0.354    5.027
  545.500   85.691  168.832    0.358    4.939
  545.750   85.091  168.808    0.362    4.851
  546.000   85.077  168.793    0.367    4.765
  546.250   85.071  166.803    0.378    4.681
  546.500   86.820  166.774    0.381    4.684
  546.750   87.982  166.759    0.380    4.685
  547.000   89.149  167.730    0.389    4.603
  547.250   90.314  167.705    0.391    4.604
  547.500   92.066  168.671    0.389    4.606
  547.750   93.230  168.671    0.390    4.524
  548.000   93.219  164.701    0.396    4.526
  548.250   93.207  162.731    0.400    4.446
  548.500   94.365  162.707    0.405    4.449
  548.750   94.945  162.687    0.401    4.370
  549.000   95.518  162.668    0.383    4.293
  549.250   95.512  162.639    0.377    4.294
  549.500   95.498  162.624    0.379    4.295
  549.750   95.489  162.609    0.384    4.298
  550.000   95.471  162.585    0.388    4.300
  550.250   94.874  162.560    0.393    4.301
  550.500   94.275  161.570    0.395    4.383
  550.750   92.499  161.551    0.397    4.466
  551.000   90.723  161.526    0.397    4.635
  551.250   83.654  161.512    0.393    4.990
  551.500   74.233  161.492    0.392    5.274
  551.750   69.514  161.468    0.388    5.677
  552.000   66.565  161.453    0.383    6.576
  552.250   62.434  161.424    0.370    7.478
  552.500   59.482  161.409    0.331    8.351
  552.750   61.234  161.385    0.301    9.674
  553.000   65.930  161.360    0.266   11.625
  553.250   72.975  161.351    0.287   12.513
  553.500   79.432  162.306    0.327   11.423
  553.750   82.949  162.287    0.356   10.238
  554.000   87.639  162.267    0.379    8.846
  554.250   92.329  163.233    0.397    7.785
  554.500   95.842  163.213    0.401    6.605
  554.750   98.774  163.194    0.398    5.707
  555.000  101.114  164.154    0.398    4.932
  555.250  104.043  164.135    0.402    4.585
  555.500  104.619  164.100    0.407    4.422
  555.750  104.023  164.091    0.410    4.425
  556.000  102.835  165.036    0.411    4.426
  556.250  101.056  165.032    0.411    4.428
  556.500  100.453  165.992    0.408    4.512
  556.750   99.859  165.973    0.405    4.597
  557.000   98.671  165.948    0.401    4.772
  557.250   98.072  166.909    0.399    4.862
  557.500   97.469  166.894    0.394    4.863
  557.750   94.514  167.855    0.403    4.955
  558.000   93.917  167.830    0.424    4.867
  558.250   93.317  166.831    0.426    4.870
  558.500   93.305  165.826    0.414    4.872
  558.750   91.529  165.811    0.400    4.875
  559.000   87.401  164.802    0.389    4.877
  559.250   73.861  164.792    0.380    4.790
  559.500   70.321  163.793    0.367    4.792
  559.750   74.426  163.773    0.355    4.795
  560.000   79.118  163.753    0.344    4.797
  560.250   85.573  163.734    0.350    4.799
  560.500   89.092  163.714    0.372    4.801
  560.750   92.606  163.695    0.379    4.802
  561.000   92.594  163.670    0.390    4.893
  561.250   91.992  164.631    0.387    4.896
  561.500   92.571  164.611    0.380    4.898
  561.750   93.150  165.572    0.373    4.900
  562.000   94.900  165.548    0.367    4.813
  562.250   95.476  165.548    0.375    4.643
  562.500   96.640  168.444    0.382    4.644
  562.750   97.220  168.444    0.392    4.562
  563.000   98.969  164.484    0.398    4.564
  563.250  100.134  151.728    0.402    4.566
  563.500  100.710  151.709    0.397    4.568
  563.750  100.110  151.684    0.394    4.570
  564.000  100.098  151.670    0.385    4.572
  564.250  101.257  151.650    0.379    4.574
  564.500  101.839  150.645    0.375    4.661
  564.750  103.589  150.631    0.368    4.663
  565.000  104.756  151.586    0.371    4.665
  565.250  106.508  151.567    0.379    4.754
  565.500  108.261  151.552    0.387    4.844
  565.750  105.306  152.508    0.388    4.845
  566.000  103.533  153.469    0.383    4.937
  566.250  100.578  153.449    0.368    5.031
  566.500   99.981  154.405    0.338    5.126
  566.750   99.381  155.375    0.364    5.418
  567.000   98.191  156.331    0.394    6.051
  567.250   95.236  157.291    0.391    6.279
  567.500   89.934  159.227    0.381    6.884
  567.750   75.809  160.197    0.372    7.548
  568.000   75.209  161.153    0.358    8.584
  568.250   76.373  162.114    0.344    9.413
  568.500   78.123  164.049    0.336    9.767
  568.750   79.872  165.015    0.340   10.324
  569.000   79.864  166.951    0.349   10.520
  569.250   81.613  167.906    0.355   10.333
  569.500   83.954  168.877    0.355    9.966
  569.750   83.351  169.837    0.351    9.613
  570.000   83.345  170.798    0.345    9.442
  570.250   85.683  170.773    0.339    9.275
  570.500   89.202  171.739    0.324    9.111
  570.750   96.247  171.719    0.312    9.114
  571.000  103.293  172.680    0.323    8.952
  571.250  100.929  172.655    0.333    8.793
  571.500   87.391  172.636    0.346    7.881
  571.750   72.675  170.656    0.329    6.687
  572.000   69.726  169.647    0.317    6.690
  572.250   70.887  168.657    0.307    7.203
  572.500   80.876  167.652    0.300    8.044
  572.750   86.153  167.638    0.304    8.659
  573.000   86.727  166.638    0.313    9.150
  573.250   87.888  165.638    0.338    9.672
  573.500   89.056  165.614    0.362    9.675
  573.750   89.635  164.614    0.370    8.673
  574.000   90.799  164.600    0.367    7.493
  574.250   89.612  164.575    0.367    6.242
  574.500   87.242  163.571    0.368    5.803
  574.750   87.236  163.551    0.375    5.598
  575.000   87.812  162.551    0.378    5.499
  575.250   88.388  161.557    0.377    5.501
  575.500   86.610  159.577    0.360    5.606
  575.750   85.425  157.587    0.343    5.712
  576.000   84.231  156.597    0.332    5.819
  576.250   85.398  155.593    0.341    5.822
  576.500   88.327  155.573    0.350    6.043
  576.750   86.551  155.554    0.343    6.044
  577.000   83.008  155.534    0.332    6.158
  577.250   86.528  156.495    0.325    6.162
  577.500   93.573  158.431    0.321    6.164
  577.750   95.913  161.351    0.330    6.282
  578.000   96.490  163.297    0.336    6.285
  578.250   97.060  166.213    0.340    6.404
  578.500   97.642  168.158    0.341    6.406
  578.750   97.630  169.119    0.353    6.527
  579.000   96.440  170.075    0.364    6.530
  579.250   95.249  170.045    0.357    6.653
  579.500   95.240  170.040    0.344    6.780
  579.750   94.637  170.021    0.329    6.782
  580.000   95.211  169.992    0.316    7.040
  580.250   95.790  169.977    0.306    7.172
  580.500   96.951  169.957    0.307    7.445
  580.750   97.531  169.933    0.321    7.447
  581.000   98.110  169.909    0.318    7.587
  581.250   99.275  169.899    0.316    7.591
  581.500  101.021  169.879    0.312    7.594
  581.750  102.191  170.830    0.309    7.598
  582.000  103.941  170.815    0.312    7.195
  582.250  105.693  170.801    0.327    5.884
  582.500  105.682  171.761    0.350    4.555
  582.750  105.082  171.732    0.371    3.526
  583.000  103.891  171.722    0.421    2.780
  583.250  103.876  172.673    0.480    2.359
  583.500  103.871  172.658    0.514    2.076
  583.750  106.208  173.614    0.530    1.794
  584.000  106.785  173.599    0.527    1.762
  584.250  106.182  173.580    0.503    1.763
  584.500  106.176  173.560    0.437    1.796
  584.750  106.749  174.516    0.432    1.830
  585.000  107.917  174.496    0.460    1.970
  585.250  109.669  174.477    0.485    2.121
  585.500  109.069  172.502    0.484    2.241
  585.750  107.293  169.532    0.418    2.457
  586.000  106.691  168.537    0.359    2.744
  586.250  107.261  168.537    0.354    3.548
  586.500  107.840  167.504    0.356    4.110
  586.750  108.420  167.504    0.356    4.761
  587.000  109.584  162.569    0.354    5.032
  587.250  111.337  158.634    0.353    5.127
