~VERSION INFORMATION
 VERS.                 2.0:   CWLS LOG ASCII STANDARD -VERSION 2.0
 WRAP.                  NO:   ONE LINE PER DEPTH STEP
~WELL INFORMATION BLOCK
#MNEM.UNIT           DATA                    DESCRIPTION OF MNEMONIC
#---------    -------------------            -------------------------------
# Generated from Intellog Unique Number	CW_76_78/WELL/877
WELL.         10-16-076-25W4                 : Well_name    - WELL
LOC .         00/10-16-076-25W4/0            : Location     - LOCATION
UWI .         00/10-16-076-25W4/0            : Uwi          - UNIQUE WELL ID
ENTR.         JAYE                           : Entered      - ENTERED BY
SRVC.         SCHLUMBERGER                   : Scn          - SERVICE COMPANY
DATE.         8 FEB 75                       : Date         - LOG DATE
STRT.M        472.44                         : top_depth    - START DEPTH
STOP.M        679.69                         : bot_depth    - STOP DEPTH
STEP.M        0.25                           : increment    - STEP LENGTH
 NULL. -999.2500:NULL Value
~CURVE INFORMATION BLOCK
#MNEM UNIT       ERCB CURVE CODE    CURVE DESCRIPTION
#-----------   ------------------   ----------------------------------
DEPT.M        00 001 00 00         : DEPTH        - DEPTH
ILD .OHMM     00 120 00 00         : RESD         - DEEP RESISTIVITY (DIL)
NPHI.V/V      00 330 00 00         : PHIN         - NEUTRON POROSITY (SANDSTONE)
DPHI.V/V      00 890 00 00         : PHID         - DENSITY POROSITY (SANDSTONE)
GR  .API      00 310 00 00         : GR           - GAMMA RAY
CALI.MM       00 280 01 00         : CAL          - CALIPER
~PARAMETER INFORMATION
#MNEM.UNIT           DATA             DESCRIPTION OF MNEMONIC
#---------         -----------     ------------------------------
GL  .M        763.829              : gl           - GROUND LEVEL ELEVATION
EREF.M        768.096              : kb           - ELEVATION OF DEPTH REFERENCE
DATM.M        763.829              : datum        - DATUM ELEVATION
TDD .M        673.608              : tdd          - TOTAL DEPTH DRILLER
RUN .         ONE                  : Run          - RUN NUMBER
ENG .         EARLEY               : Engineer     - RECORDING ENGINEER
WIT .         BRONK/AYERS          : Witness      - WITNESSED BY
BASE.         EDM                  : Branch       - HOME BASE OF LOGGING UNIT
MUD .         GEL CHEM             : Mud_type     - MUD TYPE
MATR.         SANDSTONE            : Logunit      - NEUTRON MATRIX
TMAX.C        35                   : BHT          - MAXIMUM RECORDED TEMPERATURE
BHTD.M        666.902              : BHTDEP       - MAXIMUM RECORDED TEMPERATURE
RMT .C        3.33333              : MDTP         - TEMPERATURE OF MUD
MUDD.KG/M     1080                 : MWT          - MUD DENSITY
NEUT.         1                    : NEUTRON      - NEUTRON TYPE
RESI.         0                    : RESIST       - RESISTIVITY TYPE
RM  .OHMM     2.32                 : RM           - RESISTIVITY OF MUD
RMC .OHMM     2.65                 : RMC          - RESISTIVITY OF MUD CAKE
RMF .OHMM     3.87                 : RMF          - RESISTIVITY OF MUD FILTRATE
SUFT.C        -17.7778             : SUFT         - SURFACE TEMPERATURE
~A  DEPTH     RESD     PHIN     PHID       GR      CAL
# ...
  508.940    5.287    1.223    0.377   98.734  247.643
  509.190    5.976    1.237    0.402   90.629  263.548
  509.440    6.670    1.245    0.516   82.951  357.360
  509.690    7.794    1.243    0.515   77.572  336.572
  509.940   10.807    1.224    0.492   77.762  280.516
  510.190   13.493    1.208    0.414   79.238  247.625
  510.440   14.730    1.184    0.297   79.600  228.789
  510.690   15.787    1.153    0.295   78.345  218.445
  510.940   16.460    1.141    0.287   77.144  216.001
  511.190   13.265    1.115    0.270   76.191  217.248
  511.440   10.810    1.047    0.252   75.826  220.149
  511.690    7.289    1.040    0.205   76.151  223.953
  511.940    5.580    1.088    0.200   77.543  229.710
  512.190    4.358    1.123    0.232   80.826  239.581
  512.440    3.788    1.184    0.292   84.587  248.395
  512.690    3.415    1.253    0.324   90.831  267.580
  512.940    3.438    1.267    0.310  100.643  300.191
  513.190    4.100    1.224    0.334   89.938  265.562
  513.440    5.370    1.197    0.296   80.990  249.400
  513.690    7.203    1.187    0.269   71.980  242.222
  513.940    8.325    1.180    0.278   62.428  232.706
  514.190    7.169    1.174    0.319   60.681  233.658
  514.440    6.185    1.220    0.326   65.593  238.378
  514.690    6.342    1.278    0.327   72.024  244.243
  514.940    7.397    1.248    0.359   75.542  240.579
  515.190    8.951    1.154    0.351   67.564  231.772
  515.440    9.808    1.122    0.313   60.548  228.421
  515.690    9.345    1.148    0.302   58.984  228.319
  515.940    8.151    1.179    0.283   60.460  229.786
  516.190    7.500    1.175    0.286   62.764  233.707
  516.440    7.093    1.158    0.305   66.099  237.290
  516.690    7.233    1.183    0.329   70.285  240.684
  516.940    7.487    1.236    0.354   69.629  237.732
  517.190    8.143    1.172    0.380   64.434  230.783
  517.440    8.939    1.148    0.315   62.749  231.222
  517.690    9.723    1.142    0.295   66.520  235.831
  517.940   10.194    1.130    0.287   73.062  247.124
  518.190   10.686    1.133    0.275   73.859  250.937
  518.440   12.059    1.130    0.280   68.113  239.985
  518.690   14.566    1.120    0.258   63.884  234.168
  518.940   17.724    1.079    0.230   61.112  230.800
  519.190   23.950    1.040    0.151   58.035  228.857
  519.440   31.366    0.969    0.091   54.124  227.438
  519.690   33.067    0.885    0.033   51.761  226.441
  519.940   26.455    0.841    0.024   47.959  226.040
  520.190   20.400    0.967    0.137   49.786  225.338
  520.440   16.532    1.036    0.263   53.913  224.540
  520.690   13.798    1.083    0.295   58.154  223.732
  520.940   12.192    1.097    0.281   61.500  222.937
  521.190   10.460    1.116    0.258   63.015  222.364
  521.440    9.175    1.128    0.240   64.298  222.147
  521.690    8.091    1.137    0.255   65.522  222.274
  521.940    7.431    1.151    0.272   66.510  222.710
  522.190    6.938    1.173    0.287   69.179  222.833
  522.440    6.708    1.227    0.270   72.998  222.936
  522.690    6.704    1.235    0.244   75.364  222.863
  522.940    6.825    1.170    0.216   74.105  223.180
  523.190    7.038    1.123    0.270   70.546  223.698
  523.440    7.406    1.107    0.287   66.619  223.818
  523.690    7.750    1.134    0.301   65.477  224.056
  523.940    8.245    1.104    0.302   66.153  224.279
  524.190    8.740    1.105    0.272   66.524  224.607
  524.440    9.214    1.118    0.263   65.272  224.701
  524.690    9.484    1.096    0.243   64.123  223.806
  524.940    9.513    1.041    0.217   63.356  223.107
  525.190    9.318    0.993    0.187   63.973  222.317
  525.440    8.911    1.000    0.171   65.183  221.700
  525.690    7.945    1.031    0.197   68.767  221.004
  525.940    7.243    1.087    0.218   72.597  220.524
  526.190    6.519    1.101    0.284   75.265  220.106
  526.440    5.634    1.118    0.294   77.756  219.612
  526.690    5.127    1.137    0.290   80.918  219.027
  526.940    4.778    1.145    0.271   84.615  218.723
  527.190    4.388    1.137    0.260   88.920  218.946
  527.440    3.993    1.178    0.256   94.386  219.180
  527.690    3.728    1.235    0.257   98.271  218.870
  527.940    3.437    1.226    0.265   98.576  218.485
  528.190    3.274    1.214    0.264   98.415  217.587
  528.440    3.688    1.225    0.258   98.595  217.008
  528.690    4.446    1.230    0.297   96.428  216.800
  528.940    4.899    1.178    0.283   92.806  217.222
  529.190    5.488    1.143    0.259   94.702  217.644
  529.440    6.424    1.141    0.214   97.189  217.468
  529.690    6.386    1.133    0.179   95.930  217.799
  529.940    6.061    1.121    0.197   93.329  218.315
  530.190    5.807    1.106    0.216   91.586  220.484
  530.440    5.553    1.128    0.229   91.420  230.334
  530.690    5.340    1.192    0.253   92.454  262.743
  530.940    5.163    1.224    0.281   93.430  283.362
  531.190    5.029    1.224    0.314   94.047  277.021
  531.440    4.990    1.190    0.367   85.219  257.974
  531.690    5.051    1.139    0.339   75.904  234.822
  531.940    5.086    1.097    0.294   66.773  220.287
  532.190    5.130    1.111    0.265   63.937  219.895
  532.440    5.126    1.124    0.273   65.102  223.914
  532.690    5.124    1.125    0.297   67.774  230.489
  532.940    5.140    1.128    0.303   67.000  243.114
  533.190    5.156    1.135    0.283   65.195  235.956
  533.440    5.220    1.153    0.285   66.239  230.019
  533.690    5.412    1.172    0.259   69.151  227.591
  533.940    5.664    1.167    0.241   72.422  226.377
  534.190    6.026    1.156    0.217   76.668  225.690
  534.440    6.157    1.170    0.233   83.217  225.105
  534.690    6.165    1.179    0.247   89.341  224.818
  534.940    6.161    1.171    0.255   90.439  224.696
  535.190    6.181    1.158    0.260   90.633  224.728
  535.440    6.234    1.164    0.263   88.825  225.153
  535.690    6.346    1.164    0.244   84.783  225.692
  535.940    6.520    1.170    0.225   79.831  226.397
  536.190    6.861    1.168    0.238   74.268  227.138
  536.440    7.220    1.104    0.232   67.983  227.463
  536.690    7.459    1.070    0.212   67.629  227.584
  536.940    7.607    1.025    0.197   69.458  227.610
  537.190    7.687    1.048    0.183   70.738  227.420
  537.440    7.796    1.118    0.199   70.322  227.122
  537.690    8.054    1.101    0.209   67.127  226.927
  537.940    8.491    1.064    0.199   65.133  226.447
  538.190    9.389    1.056    0.177   65.154  226.155
  538.440   10.249    1.048    0.167   65.643  225.854
  538.690   10.686    1.031    0.177   64.807  225.579
  538.940   10.818    1.020    0.163   63.300  225.179
  539.190   10.499    1.032    0.157   62.580  224.796
  539.440    9.519    1.045    0.170   63.862  224.787
  539.690    8.551    1.049    0.166   66.298  224.700
  539.940    7.459    1.054    0.171   69.154  224.615
  540.190    6.664    1.077    0.180   73.577  225.043
  540.440    5.866    1.107    0.202   79.460  225.377
  540.690    5.397    1.134    0.212   85.405  225.693
  540.940    5.152    1.158    0.192   91.588  227.455
  541.190    5.074    1.140    0.220   94.262  230.847
  541.440    5.108    1.143    0.237   92.403  247.472
  541.690    5.200    1.158    0.237   89.805  239.902
  541.940    5.451    1.162    0.266   85.518  240.332
  542.190    5.758    1.142    0.268   81.537  248.447
  542.440    6.217    1.154    0.333   78.392  261.280
  542.690    7.620    1.179    0.334   74.955  267.440
  542.940    9.020    1.111    0.300   72.656  247.778
  543.190    9.527    0.981    0.236   72.676  232.834
  543.440    9.733    0.929    0.113   72.736  226.698
  543.690    9.674    0.963    0.064   79.049  226.526
  543.940    9.235    0.993    0.112   84.142  227.580
  544.190    8.388    1.055    0.147   89.177  228.610
  544.440    7.689    1.071    0.166   93.969  229.471
  544.690    7.312    1.098    0.155   98.030  229.565
  544.940    6.992    1.144    0.165   96.959  229.799
  545.190    6.761    1.104    0.209   95.753  229.808
