~VERSION INFORMATION
 VERS.                 2.0:   CWLS LOG ASCII STANDARD -VERSION 2.0
 WRAP.                  NO:   ONE LINE PER DEPTH STEP
~WELL INFORMATION BLOCK
#MNEM.UNIT           DATA                    DESCRIPTION OF MNEMONIC
#---------    -------------------            -------------------------------
# Generated from Intellog Unique Number	CW_70_72/WELL/1030
WELL.         SUNDANCE ET AL CALL 10-01      : Well_name    - WELL              
NULL.         -999.25                        : NULL_VALUE
LOC .         10-01-072-23W4                 : Location     - LOCATION          
UWI .         00/10-01-072-23W4/0            : Uwi          - UNIQUE WELL ID    
ENTR.         JAYE                           : Entered      - ENTERED BY        
SRVC.         SCHLUMBERGER                   : Scn          - SERVICE COMPANY   
DATE.         15 FEB 77                      : Date         - LOG DATE          
STRT.M        399.288                        : top_depth    - START DEPTH       
STOP.M        624.788                        : bot_depth    - STOP DEPTH        
STEP.M        0.25                           : increment    - STEP LENGTH       
~CURVE INFORMATION BLOCK
#MNEM UNIT       ERCB CURVE CODE    CURVE DESCRIPTION
#-----------   ------------------   ----------------------------------
DEPT.M        00 001 00 00         : DEPTH        - DEPTH                       
DPHI.V/V      00 890 00 00         : PHID         - DENSITY POROSITY (SANDSTONE)
NPHI.V/V      00 330 00 00         : PHIN         - NEUTRON POROSITY (SANDSTONE)
GR  .API      00 310 00 00         : GR           - GAMMA RAY                   
CALI.MM       00 280 01 00         : CAL          - CALIPER                     
ILD .OHMM     00 120 00 00         : RESD         - DEEP RESISTIVITY (DIL)      
~PARAMETER INFORMATION       
#MNEM.UNIT           DATA             DESCRIPTION OF MNEMONIC
#---------         -----------     ------------------------------
GL  .M        641.452              : gl           - GROUND LEVEL ELEVATION      
EREF.M        645.262              : kb           - ELEVATION OF DEPTH REFERENCE
DATM.M        641.452              : datum        - DATUM ELEVATION             
TDD .M        640.08               : tdd          - TOTAL DEPTH DRILLER         
RUN .         ONE                  : Run          - RUN NUMBER                  
ENG .         PIMM                 : Engineer     - RECORDING ENGINEER          
WIT .         CHRISTERSEN          : Witness      - WITNESSED BY                
BASE.         EDM                  : Branch       - HOME BASE OF LOGGING UNIT   
MUD .         GEL                  : Mud_type     - MUD TYPE                    
MATR.         SANDSTONE            : Logunit      - NEUTRON MATRIX              
TMAX.C        31.6667              : BHT          - MAXIMUM RECORDED TEMPERATURE
BHTD.M        639.775              : BHTDEP       - MAXIMUM RECORDED TEMPERATURE
RMT .C        13.3333              : MDTP         - TEMPERATURE OF MUD          
MUDD.KG/M     1104                 : MWT          - MUD DENSITY                 
NEUT.         1                    : NEUTRON      - NEUTRON TYPE                
RESI.         0                    : RESIST       - RESISTIVITY TYPE            
RM  .OHMM     5.52                 : RM           - RESISTIVITY OF MUD          
RMC .OHMM     0                    : RMC          - RESISTIVITY OF MUD CAKE     
RMF .OHMM     5.54                 : RMF          - RESISTIVITY OF MUD FILTRATE 
SUFT.C        0                    : SUFT         - SURFACE TEMPERATURE         
~A  DEPTH     PHID     PHIN       GR      CAL     RESD
# ...
  508.788    0.206    0.404  101.236  169.100    5.817
  509.038    0.209    0.401  101.965  168.989    6.182
  509.288    0.196    0.391  102.512  169.190    6.607
  509.538    0.182    0.382  102.019  169.701    7.299
  509.788    0.172    0.371   99.999  170.729    7.857
  510.038    0.159    0.352   96.940  171.758    8.553
  510.288    0.150    0.357   92.904  172.268    9.208
  510.538    0.127    0.365   87.585  170.606    8.859
  510.788    0.097    0.318   80.249  168.738    8.109
  511.038    0.071    0.299   85.133  167.800    7.381
  511.288    0.119    0.314   95.638  167.794    6.657
  511.538    0.145    0.335  105.899  168.096    6.071
  511.788    0.167    0.368  113.594  168.506    5.691
  512.038    0.188    0.417  109.374  168.913    5.485
  512.288    0.186    0.400  109.860  169.320    5.496
  512.538    0.197    0.411  113.216  169.623    5.588
  512.788    0.202    0.421  112.968  169.927    5.692
  513.038    0.198    0.426  110.214  170.024    5.734
  513.288    0.191    0.427  109.722  170.122    5.713
  513.538    0.182    0.422  110.940  170.324    5.671
  513.788    0.171    0.419  112.464  170.731    5.672
  514.038    0.161    0.420  112.765  171.241    5.640
  514.288    0.174    0.425  112.212  171.546    5.568
  514.538    0.190    0.434  113.797  172.056    5.477
  514.788    0.199    0.441  115.993  172.256    5.377
  515.038    0.197    0.453  118.433  172.353    5.308
  515.288    0.193    0.462  116.168  172.141    5.259
  515.538    0.193    0.453  114.026  171.513    5.250
  515.788    0.187    0.437  112.922  171.093    5.308
  516.038    0.205    0.423  111.391  170.361    5.478
  516.288    0.221    0.415  108.943  169.838    5.621
  516.538    0.207    0.423  105.762  169.418    5.705
  516.788    0.198    0.409  102.643  169.102    5.673
  517.038    0.183    0.386  100.012  168.786    5.529
  517.288    0.178    0.395   97.747  168.158    5.222
  517.538    0.200    0.397   99.148  168.358    4.996
  517.788    0.206    0.387  101.772  168.662    4.878
  518.038    0.238    0.409  102.624  169.588    4.797
  518.288    0.228    0.407  102.864  170.306    4.780
  518.538    0.220    0.401  104.388  171.126    4.824
  518.788    0.231    0.409  107.073  171.327    4.932
  519.038    0.217    0.423  107.802  171.424    4.951
  519.288    0.221    0.433  108.715  171.417    4.978
  519.538    0.216    0.447  109.261  171.721    4.978
  519.788    0.202    0.441  109.746  172.128    4.997
  520.038    0.216    0.435  107.604  172.123    5.025
  520.288    0.207    0.421  110.655  171.910    5.025
  520.538    0.210    0.425  112.301  171.592    5.025
  520.788    0.207    0.446  111.075  170.862    5.034
  521.038    0.204    0.434  106.367  170.338    5.062
  521.288    0.199    0.433  104.408  170.022    5.109
  521.538    0.193    0.441  104.159  169.807    5.119
  521.788    0.180    0.442  105.255  169.491    5.138
  522.038    0.172    0.438  107.818  168.967    5.110
  522.288    0.190    0.425  111.113  168.858    5.044
  522.538    0.225    0.413  112.271  168.644    4.934
  522.788    0.224    0.401  107.623  168.328    4.817
  523.038    0.217    0.396  105.114  168.114    4.703
  523.288    0.226    0.405  103.644  168.729    4.626
  523.538    0.235    0.426  103.946  170.171    4.542
  523.788    0.228    0.426  105.408  172.027    4.475
  524.038    0.219    0.419  107.971  173.572    4.451
  524.288    0.207    0.421  109.800  175.221    4.451
  524.538    0.200    0.420  109.735  176.250    4.517
  524.788    0.197    0.417  108.571  176.967    4.593
  525.038    0.203    0.418  107.223  177.581    4.661
  525.288    0.220    0.429  104.592  177.886    4.687
  525.538    0.238    0.445   99.028  177.155    4.636
  525.788    0.268    0.454   94.747  174.872    4.509
  526.038    0.259    0.462   93.216  172.694    4.354
  526.288    0.253    0.471   92.968  170.514    4.173
  526.538    0.259    0.478   93.391  169.369    4.037
  526.788    0.267    0.474   93.938  169.260    4.143
  527.038    0.284    0.465   93.934  170.806    4.568
  527.288    0.278    0.453   92.708  172.144    5.545
  527.538    0.259    0.443   84.639  172.034    6.450
  527.788    0.228    0.419   76.937  168.613    7.643
  528.038    0.202    0.295   69.296  167.883    9.224
  528.288    0.136    0.218   61.471  168.807   11.362
  528.538    0.070    0.201   56.763  170.147   13.943
  528.788    0.053    0.200   56.637  172.209   16.100
  529.038    0.073    0.212   60.482  172.720   14.099
  529.288    0.099    0.228   65.550  172.713   12.437
  529.538    0.132    0.254   70.984  171.156   10.555
  529.788    0.167    0.291   75.807  169.079    8.958
  530.038    0.195    0.329   81.485  168.245    7.368
  530.288    0.220    0.354   87.775  167.515    6.276
  530.538    0.228    0.382   94.064  167.819    5.395
  530.788    0.214    0.401   98.949  168.951    4.911
  531.038    0.209    0.426   94.912  169.255    4.596
  531.288    0.217    0.438   93.748  168.110    4.429
  531.538    0.220    0.424   96.493  168.414    4.332
  531.788    0.236    0.419  102.844  170.062    4.285
  532.038    0.241    0.423  106.750  171.608    4.454
  532.288    0.238    0.421  110.351  171.913    4.579
  532.538    0.231    0.414  111.753  171.493    4.708
  532.788    0.212    0.418  112.666  172.210    4.867
  533.038    0.219    0.431  110.218  173.549    4.743
  533.288    0.199    0.446  112.352  175.611    4.605
  533.538    0.213    0.460  115.831  177.675    4.665
  533.788    0.220    0.453  111.429  180.876    4.778
  534.038    0.209    0.432  103.665  178.076    5.097
  534.288    0.187    0.414   96.024  173.620    5.417
  534.538    0.171    0.393   99.931  170.717    5.864
  534.788    0.148    0.391  104.998  171.746    6.073
  535.038    0.175    0.421  105.239  172.773    6.130
  535.288    0.182    0.409  105.479  173.388    5.963
  535.538    0.193    0.404  108.041  173.795    5.854
  535.788    0.203    0.403  109.443  173.996    5.758
  536.038    0.192    0.400  109.378  171.713    5.642
  536.288    0.182    0.398  108.091  169.742    5.550
  536.538    0.169    0.409  104.727  170.665    5.468
  536.788    0.174    0.434  103.074  171.694    5.438
  537.038    0.157    0.423  103.864  172.618    5.438
  537.288    0.148    0.413  105.204  173.336    5.449
  537.538    0.166    0.408  107.156  173.434    5.643
  537.788    0.149    0.415  108.863  173.635    5.780
  538.038    0.172    0.404  111.364  174.248    5.888
  538.288    0.189    0.394  115.210  174.242    5.998
  538.538    0.171    0.406  115.450  174.546    6.076
  538.788    0.166    0.402  114.041  174.540    6.143
  539.038    0.179    0.389  115.015  174.533    6.155
  539.288    0.185    0.385  117.333  174.631    6.155
  539.538    0.185    0.398  118.613  174.519    6.054
  539.788    0.183    0.389  110.849  174.618    5.965
  540.038    0.170    0.377  101.436  174.508    6.110
  540.288    0.141    0.364   96.422  174.398    6.363
  540.538    0.114    0.350  107.111  172.322    6.603
  540.788    0.120    0.407  111.139  174.177    6.664
  541.038    0.160    0.409  113.030  174.172    6.603
  541.288    0.151    0.401  117.609  173.441    6.341
  541.538    0.153    0.408  123.653  175.090    5.966
  541.788    0.183    0.406  122.977  176.532    5.858
  542.038    0.180    0.407  117.353  176.009    5.783
  542.288    0.177    0.414  116.737  174.448    5.761
  542.538    0.184    0.405  116.245  174.134    5.740
  542.788    0.188    0.403  114.470  173.817    5.762
  543.038    0.176    0.408  109.700  173.707    5.762
  543.288    0.163    0.410  106.641  173.390    5.805
  543.538    0.150    0.415  106.515  173.279    5.848
  543.788    0.170    0.438  107.245  173.171    5.880
  544.038    0.181    0.438  111.396  173.163    5.880
  544.288    0.165    0.421  113.714  173.054    5.805
  544.538    0.158    0.412  115.665  172.737    5.784
  544.788    0.177    0.419  116.700  172.937    5.763
  545.038    0.178    0.413  115.535  173.241    5.689
