~VERSION INFORMATION
 VERS.                 2.0:   CWLS LOG ASCII STANDARD -VERSION 2.0
 WRAP.                  NO:   ONE LINE PER DEPTH STEP
~WELL INFORMATION BLOCK
#MNEM.UNIT           DATA                    DESCRIPTION OF MNEMONIC
#---------    -------------------            -------------------------------
# Generated from Intellog Unique Number	CW_70_72/WELL/1054
NULL.         -999.25                        : NULL_VALUE
WELL.         AMOCO WINTERSHALL CALL 11-06   : Well_name    - WELL              
LOC .         11-06-072-19W4                 : Location     - LOCATION          
UWI .         00/11-06-072-19W4/0            : Uwi          - UNIQUE WELL ID    
ENTR.         JAYE                           : Entered      - ENTERED BY        
SRVC.         SCHLUMBERGER                   : Scn          - SERVICE COMPANY   
DATE.         11 MAR 78                      : Date         - LOG DATE          
STRT.M        310.896                        : top_depth    - START DEPTH       
STOP.M        487.646                        : bot_depth    - STOP DEPTH        
STEP.M        0.25                           : increment    - STEP LENGTH       
~CURVE INFORMATION BLOCK
#MNEM UNIT       ERCB CURVE CODE    CURVE DESCRIPTION
#-----------   ------------------   ----------------------------------
DEPT.M        00 001 00 00         : DEPTH        - DEPTH                       
DPHI.V/V      00 890 00 00         : PHID         - DENSITY POROSITY (SANDSTONE)
NPHI.V/V      00 330 00 00         : PHIN         - NEUTRON POROSITY (SANDSTONE)
GR  .API      00 310 00 00         : GR           - GAMMA RAY                   
CALI.MM       00 280 01 00         : CAL          - CALIPER                     
ILD .OHMM     00 120 00 00         : RESD         - DEEP RESISTIVITY (DIL)      
~PARAMETER INFORMATION       
#MNEM.UNIT           DATA             DESCRIPTION OF MNEMONIC
#---------         -----------     ------------------------------
GL  .M        592.684              : gl           - GROUND LEVEL ELEVATION      
EREF.M        595.884              : kb           - ELEVATION OF DEPTH REFERENCE
DATM.M        592.684              : datum        - DATUM ELEVATION             
TDD .M        502.92               : tdd          - TOTAL DEPTH DRILLER         
RUN .         ONE                  : Run          - RUN NUMBER                  
MATR.         SANDSTONE            : Logunit      - NEUTRON MATRIX              
TMAX.C        23.3333              : BHT          - MAXIMUM RECORDED TEMPERATURE
BHTD.M        503.834              : BHTDEP       - MAXIMUM RECORDED TEMPERATURE
RMT .C        23.3333              : MDTP         - TEMPERATURE OF MUD          
MUDD.KG/M     0                    : MWT          - MUD DENSITY                 
NEUT.         1                    : NEUTRON      - NEUTRON TYPE                
RESI.         0                    : RESIST       - RESISTIVITY TYPE            
RM  .OHMM     2.4                  : RM           - RESISTIVITY OF MUD          
RMC .OHMM     0                    : RMC          - RESISTIVITY OF MUD CAKE     
RMF .OHMM     2.45                 : RMF          - RESISTIVITY OF MUD FILTRATE 
SUFT.C        -17.7778             : SUFT         - SURFACE TEMPERATURE         
~A  DEPTH     PHID     PHIN       GR      CAL     RESD
# ...
  456.896    0.127    0.403  112.133  198.869    5.913
  457.146    0.128    0.416  109.228  199.104    5.868
  457.396    0.113    0.428  106.013  199.232    5.969
  457.646    0.097    0.410  105.778  199.366    6.174
  457.896    0.105    0.396  103.741  199.386    6.458
  458.146    0.070    0.374  105.309  199.832    6.780
  458.396    0.062    0.359  108.243  200.068    6.843
  458.646    0.095    0.370  110.989  200.086    6.677
  458.896    0.104    0.370  112.618  200.009    6.515
  459.146    0.114    0.368  113.252  199.927    6.347
  459.396    0.116    0.367  113.515  199.846    6.237
  459.646    0.119    0.362  114.150  199.553    6.332
  459.896    0.122    0.360  115.406  199.364    6.414
  460.146    0.115    0.374  115.359  199.390    6.166
  460.396    0.111    0.392  112.639  199.517    5.950
  460.646    0.095    0.407  108.181  199.018    5.938
  460.896    0.059    0.407  103.165  196.935    6.436
  461.146    0.032    0.401   98.332  193.278    6.964
  461.396    0.025    0.376   98.410  189.408    6.977
  461.646    0.026    0.361  101.717  182.280    6.470
  461.896    0.081    0.371  106.201  179.568    5.273
  462.146    0.112    0.378  110.687  182.222    4.015
  462.396    0.131    0.391  115.174  183.928    3.372
  462.646    0.149    0.432  120.344  172.489    2.928
  462.896    0.162    0.466  121.971  174.616    2.539
  463.146    0.173    0.483  118.756  187.470    2.363
  463.396    0.173    0.495  113.740  196.434    2.576
  463.646    0.110    0.504  110.026  199.615    3.395
  463.896    0.101    0.496  105.631  199.849    4.507
  464.146    0.079    0.475  102.103  199.871    5.604
  464.396    0.077    0.383   96.590  199.789    6.876
  464.646    0.089    0.396   93.870  196.763    7.274
  464.896    0.076    0.369   98.356  192.686    6.772
  465.146    0.076    0.353  107.501  193.550    6.072
  465.396    0.090    0.367  113.664  196.309    5.245
  465.646    0.070    0.380  111.255  198.857    4.855
  465.896    0.044    0.394  105.866  198.984    5.485
  466.146    0.040    0.404   99.731  199.223    6.279
  466.396    0.005    0.384   93.533  199.663    7.323
  466.646   -0.018    0.298   87.211  200.109    8.936
  466.896   -0.024    0.284   81.759  200.026   10.423
  467.146    0.055    0.301   90.097  199.841    9.102
  467.396    0.086    0.321   96.013  199.443    7.744
  467.646    0.105    0.349  102.487  199.255    6.527
  467.896    0.101    0.398  105.356  196.964    6.066
  468.146    0.073    0.412  106.798  185.523    6.042
  468.396    0.032    0.405  106.938  172.716    5.930
  468.646    0.043    0.391  108.380  161.380    5.636
  468.896    0.071    0.380  116.096  174.866    5.198
  469.146    0.097    0.372  114.991  185.934    4.592
  469.396    0.107    0.379  110.721  190.901    4.661
  469.646    0.058    0.418  107.007  192.609    4.885
  469.896    0.033    0.417  103.791  197.995    5.274
  470.146   -0.003    0.402  101.817  199.809    5.517
  470.396    0.026    0.392  104.751  200.148    5.578
  470.646    0.081    0.398  107.062  200.385    5.362
  470.896    0.144    0.416  110.928  200.408    4.947
  471.146    0.124    0.431  111.749  200.222    4.808
  471.396    0.122    0.438  110.460  199.925    4.666
  471.646    0.079    0.437  110.038  198.477    4.544
  471.896    0.058    0.434  111.792  197.554    4.492
  472.146    0.061    0.428  114.042  198.418    4.416
  472.396    0.108    0.419  114.988  198.760    4.861
  472.646    0.090    0.413  115.249  198.783    5.055
  472.896    0.077    0.407  121.537  198.704    4.715
  473.146    0.095    0.410  129.128  198.622    4.532
  473.396    0.120    0.440  136.720  198.538    4.541
  473.646    0.115    0.442  135.430  198.564    4.768
  473.896    0.105    0.435  132.089  198.692    5.129
  474.146    0.100    0.420  125.458  198.403    5.772
  474.396    0.126    0.387  117.831  198.527    6.952
  474.646    0.144    0.359  102.007  198.341    8.047
  474.896    0.136    0.269   88.915  198.470    8.806
  475.146    0.220    0.253   81.972  198.496    9.193
  475.396    0.261    0.246   80.123  198.733    9.331
  475.646    0.276    0.241   77.652  198.754    9.004
  475.896    0.282    0.235   72.511  199.093    8.590
  476.146    0.283    0.228   69.546  199.220    8.180
  476.396    0.280    0.228   69.060  199.558    7.950
  476.646    0.269    0.234   70.379  199.583    7.817
  476.896    0.260    0.239   71.759  200.133    7.758
  477.146    0.254    0.248   70.532  200.157    7.714
  477.396    0.290    0.246   66.880  200.282    7.757
  477.646    0.281    0.240   65.528  199.254    7.843
  477.896    0.267    0.229   68.213  195.912    8.219
  478.146    0.266    0.215   74.687  192.465    8.894
  478.396    0.321    0.195   70.353  191.436    9.916
  478.646    0.329    0.180   65.521  192.093   11.013
  478.896    0.308    0.162   62.057  194.639   13.114
  479.146    0.328    0.152   57.226  197.714   13.587
  479.396    0.349    0.146   67.427  198.368   11.757
  479.646    0.343    0.154   81.727  196.604    9.545
  479.896    0.300    0.221   94.349  195.365    7.835
  480.146    0.254    0.291   96.289  195.391    6.493
  480.396    0.244    0.314   89.223  195.834    6.678
  480.646    0.275    0.289   82.776  196.173    7.239
  480.896    0.297    0.264   82.790  196.407    8.163
  481.146    0.312    0.241   83.922  196.643    8.964
  481.396    0.325    0.221   84.184  196.666    9.846
  481.646    0.336    0.209   86.683  197.108   10.917
  481.896    0.333    0.210   82.846  196.820   11.968
  482.146    0.304    0.216   74.041  196.845   13.046
  482.396    0.273    0.244   68.028  196.764   14.302
  482.646    0.145    0.269   60.465  196.783   16.217
  482.896    0.116    0.241   66.876  197.124   13.927
  483.146    0.138    0.239   92.233  197.566   10.687
  483.396    0.138    0.285   97.464  197.695    8.139
  483.646    0.107    0.332   95.429  198.666    6.656
  483.896    0.081    0.366   87.867  198.902    6.244
  484.146    0.081    0.350   83.222  199.450    7.001
  484.396    0.094    0.312   73.793  199.577    8.478
  484.646    0.102    0.267   67.781  195.500   10.095
  484.896    0.078    0.251   78.853  196.785   11.708
  485.146    0.047    0.255   89.364  199.649   11.684
  485.396    0.025    0.264   99.005  202.932   10.838
  485.646    0.025    0.271  104.795  203.800    9.169
  485.896    0.025    0.281  111.455  203.505    7.570
  486.146    0.028    0.294  119.916  203.109    7.142
  486.396    0.051    0.305  129.061  202.398    7.035
  486.646    0.086    0.318  137.211  201.896    6.942
  486.896    0.099    0.346  120.393  201.078    7.166
  487.146    0.081    0.362  100.841  200.573    7.739
  487.396    0.031    0.306   92.843  199.860    8.515
  487.646    0.003    0.293   95.279  199.464    8.757
