~VERSION INFORMATION
 VERS.                 2.0:   CWLS LOG ASCII STANDARD -VERSION 2.0
 WRAP.                  NO:   ONE LINE PER DEPTH STEP
~WELL INFORMATION BLOCK
#MNEM.UNIT           DATA                    DESCRIPTION OF MNEMONIC
#---------    -------------------            -------------------------------
# Generated from Intellog Unique Number	CW_73_75/WELL/1036
WELL.         ICGR FRANCIS 11-10             : Well_name    - WELL
LOC .         00/11-10-074-22W4/0            : Location     - LOCATION
UWI .         00/11-10-074-22W4/0            : Uwi          - UNIQUE WELL ID
ENTR.         JAYE                           : Entered      - ENTERED BY
SRVC.         SCHLUMBERGER                   : Scn          - SERVICE COMPANY
DATE.         27 MAR 82                      : Date         - LOG DATE
STRT.M        350                            : top_depth    - START DEPTH
STOP.M        555                            : bot_depth    - STOP DEPTH
STEP.M        0.25                           : increment    - STEP LENGTH
 NULL. -999.2500:NULL Value
~CURVE INFORMATION BLOCK
#MNEM UNIT       ERCB CURVE CODE    CURVE DESCRIPTION
#-----------   ------------------   ----------------------------------
DEPT.M        00 001 00 00         : DEPTH        - DEPTH
NPHI.V/V      00 330 00 00         : PHIN         - NEUTRON POROSITY (SANDSTONE)
DPHI.V/V      00 890 00 00         : PHID         - DENSITY POROSITY (SANDSTONE)
GR  .API      00 310 00 00         : GR           - GAMMA RAY
CALI.MM       00 280 01 00         : CAL          - CALIPER
ILD .OHMM     00 120 00 00         : RESD         - DEEP RESISTIVITY (DLL)
~PARAMETER INFORMATION
#MNEM.UNIT           DATA             DESCRIPTION OF MNEMONIC
#---------         -----------     ------------------------------
GL  .M        646.2                : gl           - GROUND LEVEL ELEVATION
EREF.M        648.7                : kb           - ELEVATION OF DEPTH REFERENCE
DATM.M        646.2                : datum        - DATUM ELEVATION
TDD .M        600                  : tdd          - TOTAL DEPTH DRILLER
RUN .         ONE                  : Run          - RUN NUMBER
ENG .         HOLDE                : Engineer     - RECORDING ENGINEER
WIT .         COOK                 : Witness      - WITNESSED BY
BASE.         EDMONTON             : Branch       - HOME BASE OF LOGGING UNIT
MUD .         GEL CHEM             : Mud_type     - MUD TYPE
MATR.         SANDSTONE            : Logunit      - NEUTRON MATRIX
TMAX.C        25                   : BHT          - MAXIMUM RECORDED TEMPERATURE
BHTD.M        600.5                : BHTDEP       - MAXIMUM RECORDED TEMPERATURE
RMT .C        20                   : MDTP         - TEMPERATURE OF MUD
MUDD.KG/M     9.5                  : MWT          - MUD DENSITY
NEUT.         1                    : NEUTRON      - NEUTRON TYPE
RESI.         1                    : RESIST       - RESISTIVITY TYPE
RM  .OHMM     5.105                : RM           - RESISTIVITY OF MUD
RMC .OHMM     2.13                 : RMC          - RESISTIVITY OF MUD CAKE
RMF .OHMM     7.23                 : RMF          - RESISTIVITY OF MUD FILTRATE
SUFT.C        0                    : SUFT         - SURFACE TEMPERATURE
~A  DEPTH     PHIN     PHID       GR      CAL     RESD
# ...
  532.500    0.411    0.158   90.957  158.065    5.645
  532.750    0.389    0.141   90.410  158.863    5.622
  533.000    0.365    0.117   93.177  159.241    5.567
  533.250    0.377    0.157   97.271  159.326    5.534
  533.500    0.395    0.191   98.049  158.903    5.563
  533.750    0.402    0.192   94.836  158.392    5.602
  534.000    0.410    0.190   92.350  157.764    5.621
  534.250    0.401    0.189   90.770  157.452    5.629
  534.500    0.403    0.174   85.019  157.541    5.616
  534.750    0.403    0.153   84.650  157.634    5.552
  535.000    0.374    0.118   93.942  157.616    5.446
  535.250    0.376    0.146  103.725  157.397    5.215
  535.500    0.392    0.162  103.594  157.280    4.920
  535.750    0.400    0.169  105.457  156.958    4.659
  536.000    0.403    0.179  108.165  156.141    4.512
  536.250    0.405    0.181  106.465  155.319    4.509
  536.500    0.398    0.181  104.159  155.196    4.575
  536.750    0.390    0.183  100.042  155.480    4.739
  537.000    0.381    0.183   95.501  155.676    5.066
  537.250    0.371    0.178   90.295  155.757    5.685
  537.500    0.358    0.164   84.908  155.843    6.538
  537.750    0.339    0.134   80.124  156.125    7.337
  538.000    0.302    0.059   82.658  157.118    7.657
  538.250    0.318    0.061   91.407  159.421    7.639
  538.500    0.337    0.124  102.635  161.821    7.329
  538.750    0.359    0.140  105.769  163.516    6.849
  539.000    0.367    0.138  106.967  163.901    6.401
  539.250    0.362    0.148  111.550  163.889    5.994
  539.500    0.394    0.159  119.035  163.875    5.739
  539.750    0.414    0.178  119.145  163.761    5.424
  540.000    0.408    0.185  112.128  163.648    5.423
  540.250    0.389    0.182  111.337  164.035    5.668
  540.500    0.372    0.164  112.534  164.428    6.095
  540.750    0.360    0.145  112.583  164.911    6.230
  541.000    0.344    0.119  109.371  165.394    6.183
  541.250    0.334    0.112  102.352  165.485    6.121
  541.500    0.358    0.136  101.983  165.463    6.039
  541.750    0.375    0.149  105.053  165.445    6.083
  542.000    0.382    0.152  109.393  164.936    6.148
  542.250    0.374    0.150  125.517  164.006    6.249
  542.500    0.359    0.151  165.267  163.283    6.473
  542.750    0.369    0.138  162.660  161.958    6.805
  543.000    0.363    0.124  146.457  158.820    7.234
  543.250    0.322    0.126  122.401  155.599    7.736
  543.500    0.297    0.156   77.918  154.765    7.833
  543.750    0.268    0.155   78.153  152.533    7.586
  544.000    0.310    0.144   94.337  154.635    7.345
  544.250    0.347    0.168  233.300  158.543    6.994
  544.500    0.409    0.148  244.290  162.857    6.760
  544.750    0.394    0.128  252.013  160.025    6.583
  545.000    0.390    0.111  211.823  157.090    6.519
  545.250    0.419    0.093  189.337  160.395    6.603
  545.500    0.391    0.118  166.908  161.493    6.851
  545.750    0.369    0.134  147.203  160.263    7.095
  546.000    0.391    0.138  137.706  158.435    7.307
  546.250    0.376    0.122  126.941  157.528    7.443
  546.500    0.343    0.139  111.464  156.597    7.496
  546.750    0.315    0.158   99.431  154.662    7.562
  547.000    0.291    0.172   80.810  149.813    7.603
  547.250    0.285    0.191   97.781  150.908    7.570
  547.500    0.316    0.139  113.364  154.818    7.553
  547.750    0.342    0.110  119.696  157.421    7.522
  548.000    0.370    0.116  128.024  158.009    7.477
  548.250    0.351    0.128  241.918  159.201    7.488
  548.500    0.342    0.125  235.681  160.307    7.554
  548.750    0.350    0.117  197.967  160.390    7.680
  549.000    0.361    0.133  150.766  160.768    7.275
  549.250    0.352    0.148  145.138  159.855    8.146
  549.500    0.339    0.157  118.241  158.324    8.516
  549.750    0.369    0.162   96.478  153.577    8.688
  550.000    0.446    0.181   91.938  150.638    8.816
  550.250    0.488    0.221  104.921  151.526    8.880
  550.500    0.464    0.237  109.689  154.737    8.975
  550.750    0.444    0.216  104.538  157.741    8.988
  551.000    0.419    0.226  101.268  158.226    8.753
  551.250    0.394    0.232  108.396  158.317    8.428
  551.500    0.408    0.249  116.117  158.702    7.965
  551.750    0.411    0.270  112.719  159.598    7.585
  552.000    0.410    0.285  102.438  160.891    7.856
  552.250    0.423    0.297   87.384  161.475    8.883
  552.500    0.571    0.288   73.174  161.461   10.367
  552.750    0.554    0.243   52.925  161.048   11.592
  553.000    0.522    0.210   27.959  157.042   11.850
  553.250    0.481    0.207   14.838  155.472   11.890
  553.500    0.461    0.225   13.560  150.922   11.664
  553.750    0.412    0.223   14.215  150.002   11.405
  554.000    0.345    0.127   14.991  148.979   11.102
  554.250    0.308    0.066   10.573  148.665   10.672
  554.500    0.287    0.051   10.323  149.153   10.333
  554.750    0.275    0.049   11.641  151.559   10.007
  555.000    0.327    0.056   12.735  152.948    9.764
