~VERSION INFORMATION
 VERS.                 2.0:   CWLS LOG ASCII STANDARD -VERSION 2.0
 WRAP.                  NO:   ONE LINE PER DEPTH STEP
~WELL INFORMATION BLOCK
#MNEM.UNIT           DATA                    DESCRIPTION OF MNEMONIC
#---------    -------------------            -------------------------------
# Generated from Intellog Unique Number	CW_70_72/WELL/3026
NULL.         -999.25                        : NULL_VALUE
WELL.         SULPETRO OTAUWAU 11-05         : Well_name    - WELL              
LOC .         11-05-070-05W5                 : Location     - LOCATION          
UWI .         00/11-05-070-05W5/0            : Uwi          - UNIQUE WELL ID    
ENTR.         JAYE                           : Entered      - ENTERED BY        
SRVC.         SCHLUMBERGER                   : Scn          - SERVICE COMPANY   
DATE.         19 FEB 77                      : Date         - LOG DATE          
STRT.M        701.04                         : top_depth    - START DEPTH       
STOP.M        960.04                         : bot_depth    - STOP DEPTH        
STEP.M        0.25                           : increment    - STEP LENGTH       
~CURVE INFORMATION BLOCK
#MNEM UNIT       ERCB CURVE CODE    CURVE DESCRIPTION
#-----------   ------------------   ----------------------------------
DEPT.M        00 001 00 00         : DEPTH        - DEPTH                       
ILD .OHMM     00 120 00 00         : RESD         - DEEP RESISTIVITY (DIL)      
NPHI.V/V      00 330 00 00         : PHIN         - NEUTRON POROSITY (SANDSTONE)
DPHI.V/V      00 890 00 00         : PHID         - DENSITY POROSITY (SANDSTONE)
GR  .API      00 310 00 00         : GR           - GAMMA RAY                   
CALI.MM       00 280 01 00         : CAL          - CALIPER                     
~PARAMETER INFORMATION       
#MNEM.UNIT           DATA             DESCRIPTION OF MNEMONIC
#---------         -----------     ------------------------------
GL  .M        796.595              : gl           - GROUND LEVEL ELEVATION      
EREF.M        800.557              : kb           - ELEVATION OF DEPTH REFERENCE
DATM.M        796.595              : datum        - DATUM ELEVATION             
TDD .M        975.36               : tdd          - TOTAL DEPTH DRILLER         
RUN .         ONE                  : Run          - RUN NUMBER                  
ENG .         FIGGURES             : Engineer     - RECORDING ENGINEER          
WIT .         BROCK                : Witness      - WITNESSED BY                
MUD .         GEL                  : Mud_type     - MUD TYPE                    
MATR.         SANDSTONE            : Logunit      - NEUTRON MATRIX              
TMAX.C        -17.7778             : BHT          - MAXIMUM RECORDED TEMPERATURE
BHTD.M        975.665              : BHTDEP       - MAXIMUM RECORDED TEMPERATURE
RMT .C        15.5556              : MDTP         - TEMPERATURE OF MUD          
MUDD.KG/M     1152                 : MWT          - MUD DENSITY                 
NEUT.         1                    : NEUTRON      - NEUTRON TYPE                
RESI.         0                    : RESIST       - RESISTIVITY TYPE            
RM  .OHMM     4.25                 : RM           - RESISTIVITY OF MUD          
RMC .OHMM     0.25                 : RMC          - RESISTIVITY OF MUD CAKE     
RMF .OHMM     3.66                 : RMF          - RESISTIVITY OF MUD FILTRATE 
SUFT.C        -20                  : SUFT         - SURFACE TEMPERATURE         
~A  DEPTH     RESD     PHIN     PHID       GR      CAL
# ...
  920.040    6.946    0.313    0.114  113.363  164.358
  920.290    7.866    0.302    0.106  105.972  165.674
  920.540    8.743    0.292    0.106   98.587  166.484
  920.790    9.845    0.272    0.096   93.672  166.849
  921.040   10.943    0.259    0.093   89.745  167.441
  921.290   11.572    0.266    0.091   86.682  167.921
  921.540   10.539    0.288    0.091   85.668  168.202
  921.790    9.231    0.315    0.105   92.087  166.370
  922.040    7.836    0.328    0.095  101.897  163.290
  922.290    7.083    0.332    0.105  109.362  163.883
  922.540    6.655    0.344    0.119  110.268  167.715
  922.790    7.117    0.354    0.118  105.477  171.233
  923.040    7.927    0.349    0.113  101.925  172.241
  923.290    8.617    0.332    0.104   98.565  171.670
  923.540    9.334    0.276    0.086   94.573  170.167
  923.790    9.727    0.264    0.079   88.416  168.025
  924.040    8.856    0.289    0.063   85.981  165.490
  924.290    7.687    0.312    0.072   87.073  164.910
  924.540    6.635    0.325    0.085   91.311  164.854
  924.790    6.154    0.346    0.111  106.452  165.033
  925.040    5.967    0.368    0.134  113.979  165.610
  925.290    6.310    0.370    0.151  107.706  167.358
  925.540    7.455    0.319    0.130  100.440  169.094
  925.790    8.939    0.236    0.110   93.292  166.113
  926.040   10.659    0.236    0.109   89.987  164.403
  926.290   11.632    0.247    0.122   91.325  164.785
  926.540   12.393    0.253    0.119   90.995  165.251
  926.790   12.985    0.264    0.085   88.432  165.423
  927.040   13.910    0.275    0.090   81.844  166.128
  927.290   14.072    0.291    0.093   72.287  166.923
  927.540   12.147    0.290    0.082   64.336  167.189
  927.790   10.720    0.266    0.075   60.225  164.938
  928.040    9.869    0.280    0.106   75.183  163.955
  928.290    9.020    0.301    0.102   92.302  164.859
  928.540    8.539    0.327    0.089   90.549  165.858
  928.790    8.465    0.291    0.064   88.357  166.238
  929.040    8.659    0.286    0.074   86.039  165.683
  929.290    8.632    0.297    0.091   83.412  164.900
  929.540    7.978    0.279    0.096   87.970  162.760
  929.790    7.468    0.294    0.113  100.328  161.560
  930.040    6.689    0.312    0.105  107.731  161.832
  930.290    6.273    0.340    0.080  116.553  164.950
  930.540    5.765    0.343    0.098  101.982  166.258
  930.790    5.250    0.324    0.126   89.824  163.804
  931.040    4.745    0.300    0.146   81.320  159.681
  931.290    4.353    0.325    0.130   86.494  160.468
  931.540    3.792    0.274    0.161   76.875  163.680
  931.790    3.184    0.264    0.169   61.628  162.284
  932.040    2.899    0.269    0.180   50.085  160.770
  932.290    2.744    0.264    0.194   41.643  160.206
  932.540    2.700    0.266    0.203   46.323  160.056
  932.790    3.063    0.289    0.201   62.207  160.323
  933.040    3.481    0.290    0.192   73.448  161.017
  933.290    3.771    0.274    0.171   85.248  161.396
  933.540    3.677    0.258    0.144   88.503  161.768
  933.790    2.931    0.296    0.143   77.396  162.569
  934.040    2.398    0.335    0.215   43.819  162.420
  934.290    1.870    0.289    0.243   29.066  161.017
  934.540    1.590    0.289    0.265   22.786  160.035
  934.790    1.320    0.309    0.260   20.479  159.566
  935.040    1.165    0.307    0.273   20.512  158.794
  935.290    1.047    0.296    0.274   21.104  158.544
  935.540    1.001    0.292    0.281   22.389  157.769
  935.790    1.003    0.296    0.279   23.163  157.207
  936.040    1.034    0.288    0.262   24.686  157.261
  936.290    1.162    0.277    0.257   26.327  157.030
  936.540    1.299    0.289    0.234   30.081  156.863
  936.790    1.449    0.278    0.214   35.134  156.943
  937.040    1.677    0.251    0.207   40.923  156.790
  937.290    2.068    0.225    0.189   48.392  156.959
  937.540    2.811    0.206    0.148   57.406  158.065
  937.790    3.452    0.222    0.098   67.839  159.281
  938.040    4.303    0.239    0.086   85.764  160.279
  938.290    5.047    0.249    0.103   85.498  161.193
  938.540    5.040    0.258    0.103   85.898  161.990
  938.790    4.961    0.276    0.079   90.834  162.462
  939.040    4.926    0.293    0.040   97.370  162.941
  939.290    4.974    0.265    0.077  105.207  162.903
  939.540    5.193    0.251    0.119  110.563  162.542
  939.790    5.461    0.239    0.100  117.097  162.412
  940.040    5.315    0.262    0.090  116.642  162.253
  940.290    4.839    0.280    0.123  106.526  161.998
  940.540    4.185    0.296    0.156   90.907  161.439
  940.790    3.539    0.293    0.195   82.273  160.566
  941.040    3.021    0.289    0.180   73.087  159.680
  941.290    2.855    0.279    0.164   68.668  158.382
  941.540    2.991    0.270    0.154   75.890  157.594
  941.790    3.163    0.260    0.172   85.149  157.554
  942.040    3.370    0.249    0.123  101.274  160.770
  942.290    3.429    0.274    0.099  104.659  164.072
  942.540    3.475    0.285    0.143   94.789  169.284
  942.790    3.661    0.295    0.185   85.355  163.361
  943.040    3.872    0.275    0.142   97.835  159.858
  943.290    4.194    0.253    0.108  108.708  160.983
  943.540    4.936    0.266    0.050  115.177  162.604
  943.790    6.142    0.280    0.009  103.330  165.820
  944.040    7.190    0.270   -0.010   93.404  167.972
  944.290    7.589    0.254   -0.012   94.990  165.744
  944.540    7.386    0.249    0.005  106.350  163.803
  944.790    7.069    0.262    0.088  114.375  164.596
  945.040    6.239    0.275    0.103  121.156  167.498
  945.290    5.577    0.290    0.127  111.047  170.494
  945.540    4.831    0.309    0.161  100.254  169.920
  945.790    4.131    0.324    0.184   94.531  162.549
  946.040    4.021    0.289    0.175  106.640  160.629
  946.290    4.213    0.285    0.144  118.247  160.998
  946.540    4.522    0.297    0.123  128.189  162.730
  946.790    4.747    0.357    0.125  116.962  167.512
  947.040    4.928    0.315    0.173  105.113  167.573
  947.290    4.976    0.285    0.189   96.546  162.925
  947.540    5.044    0.245    0.147  102.156  166.027
  947.790    5.112    0.238    0.118  109.500  168.392
  948.040    5.446    0.235    0.124  114.797  167.310
  948.290    5.888    0.241    0.106  117.192  167.174
  948.540    6.379    0.244    0.093  116.849  167.336
  948.790    6.622    0.240    0.098  114.848  167.597
  949.040    6.724    0.232    0.089  112.841  167.979
  949.290    6.790    0.230    0.086  109.905  168.466
  949.540    6.756    0.244    0.060  104.492  168.725
  949.790    6.360    0.261    0.067  102.371  168.897
  950.040    5.654    0.280    0.054   98.751  168.018
  950.290    4.782    0.290    0.092   84.983  166.401
  950.540    4.283    0.306    0.121   82.422  163.325
  950.790    4.333    0.275    0.188   90.942  162.548
  951.040    4.574    0.254    0.117   96.916  163.127
  951.290    5.047    0.246    0.108   96.957  167.506
  951.540    5.347    0.243    0.123  100.896  169.125
  951.790    5.655    0.232    0.115  106.869  167.306
  952.040    5.784    0.247    0.081  128.757  171.661
  952.290    5.830    0.269    0.080  125.826  169.216
  952.540    5.823    0.298    0.081  113.170  168.960
  952.790    5.804    0.265    0.102   97.736  173.842
  953.040    5.765    0.242    0.120   89.355  167.090
  953.290    5.832    0.230    0.116   91.249  165.076
  953.540    5.707    0.250    0.087   98.100  164.922
  953.790    5.784    0.255    0.077  104.567  164.978
  954.040    6.027    0.258    0.102  107.330  168.498
  954.290    5.953    0.257    0.123   98.388  171.700
  954.540    5.740    0.257    0.138   90.505  168.633
  954.790    5.484    0.270    0.158   83.175  167.648
  955.040    5.288    0.271    0.165   82.231  165.936
  955.290    5.330    0.263    0.160   82.691  165.561
  955.540    5.554    0.248    0.154   82.667  165.936
  955.790    5.939    0.246    0.085   72.120  167.158
  956.040    6.410    0.247    0.100   61.886  167.639
  956.290    7.008    0.218    0.116   50.899  164.455
