~VERSION INFORMATION
 VERS.                 2.0:   CWLS LOG ASCII STANDARD -VERSION 2.0
 WRAP.                  NO:   ONE LINE PER DEPTH STEP
~WELL INFORMATION BLOCK
#MNEM.UNIT           DATA                    DESCRIPTION OF MNEMONIC
#---------    -------------------            -------------------------------
# Generated from Intellog Unique Number	CW_73_75/WELL/1048
WELL.         CDN SUP ET AL FRANCIS 11-35    : Well_name    - WELL
LOC .         00/11-35-074-20W4/0            : Location     - LOCATION
UWI .         00/11-35-074-20W4/0            : Uwi          - UNIQUE WELL ID
ENTR.         JAYE                           : Entered      - ENTERED BY
SRVC.         SCHLUMBERGER                   : Scn          - SERVICE COMPANY
DATE.         3 MAR 76                       : Date         - LOG DATE
STRT.M        323.088                        : top_depth    - START DEPTH
STOP.M        524.313                        : bot_depth    - STOP DEPTH
STEP.M        0.25                           : increment    - STEP LENGTH
 NULL. -999.2500:NULL Value
~CURVE INFORMATION BLOCK
#MNEM UNIT       ERCB CURVE CODE    CURVE DESCRIPTION
#-----------   ------------------   ----------------------------------
DEPT.M        00 001 00 00         : DEPTH        - DEPTH
GR  .API      00 310 00 00         : GR           - GAMMA RAY
CALI.IN       00 280 01 00         : CAL          - CALIPER
NPHI.V/V      00 330 00 00         : PHIN         - NEUTRON POROSITY (SANDSTONE)
DPHI.V/V      00 890 00 00         : PHID         - DENSITY POROSITY (SANDSTONE)
ILD .OHMM     00 120 00 00         : RESD         - DEEP RESISTIVITY (DLL)
~PARAMETER INFORMATION
#MNEM.UNIT           DATA             DESCRIPTION OF MNEMONIC
#---------         -----------     ------------------------------
GL  .M        640.69               : gl           - GROUND LEVEL ELEVATION
EREF.M        644.652              : kb           - ELEVATION OF DEPTH REFERENCE
DATM.M        640.69               : datum        - DATUM ELEVATION
TDD .M        585.216              : tdd          - TOTAL DEPTH DRILLER
RUN .         ONE                  : Run          - RUN NUMBER
BASE.         EDM                  : Branch       - HOME BASE OF LOGGING UNIT
MUD .         GEL CHEM             : Mud_type     - MUD TYPE
MATR.         SANDSTONE            : Logunit      - NEUTRON MATRIX
TMAX.C        23.8889              : BHT          - MAXIMUM RECORDED TEMPERATURE
BHTD.M        585.826              : BHTDEP       - MAXIMUM RECORDED TEMPERATURE
RMT .C        17.7778              : MDTP         - TEMPERATURE OF MUD
MUDD.KG/M     1164                 : MWT          - MUD DENSITY
NEUT.         1                    : NEUTRON      - NEUTRON TYPE
RESI.         1                    : RESIST       - RESISTIVITY TYPE
RM  .OHMM     1.96                 : RM           - RESISTIVITY OF MUD
RMC .OHMM     0                    : RMC          - RESISTIVITY OF MUD CAKE
RMF .OHMM     2.24                 : RMF          - RESISTIVITY OF MUD FILTRATE
SUFT.C        -17.7778             : SUFT         - SURFACE TEMPERATURE
~A  DEPTH       GR      CAL     PHIN     PHID     RESD
# ...
  469.088   83.920    8.203    0.485    0.218    5.029
  469.338   86.081    8.191    0.508    0.209    5.038
  469.588   85.841    8.175    0.532    0.227    5.121
  469.838   84.712    8.159    0.514    0.232    5.253
  470.088   83.331    8.156    0.530    0.242    5.360
  470.338   82.519    8.148    0.511    0.229    5.508
  470.588   82.089    8.132    0.481    0.212    5.619
  470.838   81.971    8.124    0.454    0.208    5.733
  471.088   81.730    8.112    0.455    0.203    5.838
  471.338   81.234    8.100    0.469    0.187    5.945
  471.588   80.043    8.088    0.459    0.184    6.065
  471.838   77.903    8.081    0.448    0.189    6.256
  472.088   76.522    8.081    0.439    0.188    6.418
  472.338   76.532    8.078    0.431    0.186    6.595
  472.588   76.798    8.070    0.432    0.190    6.753
  472.838   76.682    8.062    0.454    0.224    6.978
  473.088   76.124    8.050    0.455    0.209    7.119
  473.338   75.249    8.022    0.453    0.213    7.210
  473.588   74.563    8.005    0.451    0.207    7.302
  473.838   74.131    7.977    0.445    0.192    7.383
  474.088   74.523    7.948    0.453    0.184    7.423
  474.338   75.293    7.919    0.466    0.208    7.463
  474.588   76.631    7.920    0.458    0.208    7.463
  474.838   78.666    7.954    0.440    0.201    7.422
  475.088   80.132    8.014    0.443    0.176    7.354
  475.338   80.460    8.099    0.440    0.190    7.234
  475.588   80.534    8.172    0.454    0.183    7.129
  475.838   81.430    8.223    0.469    0.178    7.090
  476.088   83.403    8.240    0.451    0.169    7.090
  476.338   85.437    8.245    0.437    0.157    7.077
  476.588   86.650    8.276    0.419    0.143    6.974
  476.838   86.661    8.314    0.446    0.138    6.923
  477.088   84.964    8.345    0.449    0.162    6.860
  477.338   83.140    8.354    0.445    0.171    6.822
  477.588   82.518    8.380    0.440    0.208    6.797
  477.838   82.782    8.385    0.434    0.195    6.772
  478.088   82.288    8.394    0.432    0.183    6.872
  478.338   82.741    8.382    0.424    0.175    6.972
  478.588   82.816    8.328    0.400    0.204    7.218
  478.838   81.181    8.320    0.399    0.195    7.540
  479.088   80.496    8.405    0.408    0.162    7.777
  479.338   82.468    8.625    0.422    0.166    7.877
  479.588   88.679    8.736    0.444    0.193    7.905
  479.838   87.361    8.597    0.457    0.214    7.919
  480.088   84.335    8.130    0.442    0.204    7.876
  480.338   77.450    7.886    0.401    0.177    7.904
  480.588   78.853    7.802    0.401    0.163    7.962
  480.838   81.711    7.773    0.400    0.176    8.035
  481.088   75.206    7.774    0.395    0.195    8.257
  481.338   70.472    7.783    0.386    0.208    8.439
  481.588   67.193    7.797    0.404    0.185    8.673
  481.838   62.965    7.819    0.409    0.151    8.913
  482.088   55.321    7.849    0.381    0.162    9.413
  482.338   45.906    7.896    0.340    0.131   10.406
  482.588   48.637    7.930    0.236    0.073   12.554
  482.838   53.646    7.965    0.232   -0.005   16.591
  483.088   59.793    8.012    0.271    0.035   21.296
  483.338   69.103    8.055    0.294    0.059   21.926
  483.588   76.770    8.102    0.330    0.088   21.256
  483.838   79.184    8.141    0.385    0.124   16.082
  484.088   81.537    8.209    0.447    0.147   10.479
  484.338   82.496    8.260    0.440    0.141    8.893
  484.588   82.191    8.303    0.431    0.147    8.193
  484.838   81.759    8.338    0.424    0.135    7.799
  485.088   82.339    8.359    0.418    0.136    7.700
  485.338   83.489    8.369    0.412    0.123    7.700
  485.588   83.057    8.373    0.410    0.139    7.827
  485.838   81.359    8.383    0.411    0.146    8.014
  486.088   82.509    8.388    0.419    0.138    8.161
  486.338   84.291    8.388    0.440    0.137    8.326
  486.588   85.377    8.385    0.441    0.162    8.356
  486.838   85.200    8.381    0.436    0.171    8.280
  487.088   84.387    8.378    0.431    0.155    8.280
  487.338   82.500    8.379    0.438    0.162    8.295
  487.588   81.562    8.392    0.436    0.149    8.249
  487.838   83.217    8.410    0.428    0.128    8.100
  488.088   84.114    8.423    0.411    0.155    7.924
  488.338   83.555    8.441    0.390    0.145    7.724
  488.588   82.365    8.450    0.384    0.138    7.557
  488.838   81.301    8.459    0.400    0.155    7.488
  489.088   79.919    8.472    0.409    0.150    7.488
  489.338   78.602    8.490    0.400    0.132    7.501
  489.588   75.829    8.503    0.380    0.122    7.667
  489.838   74.321    8.517    0.365    0.079    7.779
  490.088   78.824    8.530    0.381    0.091    7.821
  490.338   84.276    8.539    0.394    0.128    7.652
  490.588   86.501    8.553    0.400    0.143    7.205
  490.838   77.338    8.578    0.404    0.169    6.541
  491.088   78.553    8.659    0.422    0.153    5.789
  491.338   80.144    8.833    0.454    0.194    5.105
  491.588   77.940    9.137    0.484    0.277    4.109
  491.838   74.409    9.589    0.555    0.325    2.982
  492.088   77.078    9.767    0.540    0.321    2.480
  492.338   80.378    8.962    0.538    0.239    2.289
  492.588   85.006    8.605    0.527    0.210    2.297
  492.838   88.812    8.399    0.504    0.202    2.365
  493.088   88.823    8.311    0.531    0.196    2.480
  493.338   84.216    8.286    0.512    0.192    2.614
  493.588   85.050    8.279    0.466    0.182    2.858
  493.838   86.959    8.292    0.445    0.172    3.069
  494.088   84.375    8.301    0.424    0.154    3.525
  494.338   79.262    8.323    0.401    0.112    4.229
  494.588   81.740    8.341    0.419    0.092    5.893
  494.838   83.522    8.367    0.404    0.137    6.609
  495.088   76.448    8.367    0.390    0.156    6.609
  495.338   72.727    8.368    0.379    0.149    6.431
  495.588   78.810    8.356    0.424    0.155    6.200
  495.838   79.265    8.340    0.429    0.156    6.055
  496.088   74.467    8.328    0.416    0.122    5.967
  496.338   74.414    8.299    0.408    0.073    5.859
  496.588   79.929    8.283    0.407    0.110    5.891
  496.838   78.929    8.263    0.415    0.147    6.076
  497.088   78.813    8.247    0.401    0.131    6.500
  497.338   79.582    8.239    0.403    0.127    7.029
  497.588   81.681    8.248    0.421    0.132    7.158
  497.838   82.072    8.266    0.424    0.123    7.132
  498.088   82.779    8.309    0.443    0.113    7.016
  498.338   86.142    8.322    0.415    0.117    6.901
  498.588   84.761    8.335    0.404    0.068    6.752
  498.838   85.974    8.353    0.428    0.135    6.534
  499.088   80.418    8.366    0.427    0.143    6.510
  499.338   76.570    8.375    0.410    0.114    6.838
  499.588   75.758    8.376    0.392    0.095    7.261
  499.838   77.730    8.381    0.377    0.077    7.408
  500.088   81.031    8.390    0.393    0.074    7.065
  500.338   83.951    8.399    0.418    0.117    6.344
  500.588   86.051    8.413    0.434    0.146    5.792
  500.838   86.505    8.430    0.435    0.147    5.306
  501.088   85.313    8.431    0.432    0.119    5.079
  501.338   83.742    8.411    0.372    0.148    4.969
  501.588   84.196    8.395    0.361    0.178    5.033
  501.838   87.180    8.374    0.374    0.188    5.162
  502.088   87.255    8.358    0.387    0.175    5.334
  502.338   86.696    8.334    0.373    0.181    5.512
  502.588   87.972    8.313    0.366    0.171    5.769
  502.838   91.905    8.306    0.365    0.170    6.137
  503.088   90.526    8.319    0.360    0.149    6.698
  503.338   87.562    8.349    0.342    0.150    7.100
  503.588   83.967    8.400    0.325    0.155    7.431
  503.838   82.585    8.469    0.306    0.132    7.390
  504.088   86.392    8.545    0.336    0.114    7.178
  504.338   90.516    8.622    0.380    0.183    6.833
  504.588   92.614    8.661    0.372    0.195    6.528
  504.838   93.448    8.674    0.374    0.178    6.398
  505.088   93.838    8.675    0.374    0.202    6.398
  505.338   93.406    8.654    0.371    0.211    6.456
