~VERSION INFORMATION
 VERS.                 2.0:   CWLS LOG ASCII STANDARD -VERSION 2.0
 WRAP.                  NO:   ONE LINE PER DEPTH STEP
~WELL INFORMATION BLOCK
#MNEM.UNIT           DATA                    DESCRIPTION OF MNEMONIC
#---------    -------------------            -------------------------------
# Generated from Intellog Unique Number	CN_94_101/WELL/3721
WELL.         14-09-096-15W4                 : Well_name    - WELL
LOC .         00/14-09-096-15W4/0            : Location     - LOCATION
UWI .         00/14-09-096-15W400            : Uwi          - UNIQUE WELL ID
ENTR.         JOETTE                         : Entered      - ENTERED BY
SRVC.         SCHLUMBERGER                   : Scn          - SERVICE COMPANY
DATE.         08/10/92                       : Date         - LOG DATE
STRT.M        125                            : top_depth    - START DEPTH
STOP.M        335                            : bot_depth    - STOP DEPTH
STEP.M        0.25                           : increment    - STEP LENGTH
 NULL. -999.2500:NULL Value
~CURVE INFORMATION BLOCK
#MNEM UNIT       ERCB CURVE CODE    CURVE DESCRIPTION
#-----------   ------------------   ----------------------------------
DEPT.M        00 001 00 00         : DEPTH        - DEPTH
ILD .OHMM     00 120 00 00         : RESD         - DEEP RESISTIVITY (DIL)
GR  .API      00 310 00 00         : GR           - GAMMA RAY
NPHI.V/V      00 330 00 00         : PHIN         - NEUTRON POROSITY (SANDSTONE)
DPHI.V/V      00 890 00 00         : PHID         - DENSITY POROSITY (SANDSTONE)
~PARAMETER INFORMATION
#MNEM.UNIT           DATA             DESCRIPTION OF MNEMONIC
#---------         -----------     ------------------------------
GL  .M        587.8                : gl           - GROUND LEVEL ELEVATION
EREF.M        591.15               : kb           - ELEVATION OF DEPTH REFERENCE
DATM.M        591.15               : datum        - DATUM ELEVATION
TDD .M        293                  : tdd          - TOTAL DEPTH DRILLER
RUN .         ONE                  : Run          - RUN NUMBER
ENG .         BILL                 : Engineer     - RECORDING ENGINEER
WIT .         JIM                  : Witness      - WITNESSED BY
MUD .         GEL                  : Mud_type     - MUD TYPE
MATR.         SANDSTONE            : Logunit      - NEUTRON MATRIX
TMAX.C        40                   : BHT          - MAXIMUM RECORDED TEMPERATURE
BHTD.M        293                  : BHTDEP       - MAXIMUM RECORDED TEMPERATURE
RMT .C        13                   : MDTP         - TEMPERATURE OF MUD
MUDD.KG/M     1110                 : MWT          - MUD DENSITY
NEUT.         1                    : NEUTRON      - NEUTRON TYPE
RESI.         0                    : RESIST       - RESISTIVITY TYPE
RM  .OHMM     0.304                : RM           - RESISTIVITY OF MUD
RMC .OHMM     0.304                : RMC          - RESISTIVITY OF MUD CAKE
RMF .OHMM     0.614                : RMF          - RESISTIVITY OF MUD FILTRATE
SUFT.C        4                    : SUFT         - SURFACE TEMPERATURE
~A  DEPTH     RESD       GR     PHIN     PHID
# ...
  255.500    6.132  100.427    0.419    0.162
  255.750    6.490  100.468    0.395    0.149
  256.000    7.533  103.618    0.389    0.183
  256.250    8.907  104.938    0.470    0.209
  256.500    9.430  102.515    0.443    0.231
  256.750    9.449  101.922    0.435    0.234
  257.000    9.294  101.357    0.444    0.222
  257.250    9.143  102.650    0.440    0.214
  257.500    9.169  103.943    0.427    0.215
  257.750    9.362  104.616    0.425    0.222
  258.000    9.371  103.445    0.444    0.233
  258.250    9.751  102.866    0.438    0.227
  258.500    9.760  105.397    0.423    0.208
  258.750    9.966  108.561    0.413    0.213
  259.000   10.165  105.506    0.414    0.225
  259.250   10.374   99.999    0.418    0.236
  259.500   10.399   96.338    0.415    0.235
  259.750   10.415   94.534    0.407    0.227
  260.000   10.255   94.588    0.402    0.220
  260.250   10.265   97.739    0.415    0.210
  260.500   10.102  100.876    0.433    0.203
  260.750    9.937  101.562    0.439    0.199
  261.000    9.956  100.405    0.438    0.208
  261.250    9.981   99.826    0.430    0.213
  261.500    9.995   99.261    0.420    0.217
  261.750   10.010  102.412    0.410    0.214
  262.000   10.039  104.943    0.395    0.206
  262.250   10.053  104.997    0.392    0.200
  262.500   10.073  103.193    0.397    0.202
  262.750   10.280  100.770    0.390    0.189
  263.000   10.884   97.728    0.376    0.137
  263.250   12.178   94.685    0.331    0.108
  263.500   14.938   89.771    0.377    0.093
  263.750   14.694   86.096    0.417    0.204
  264.000   12.249   89.274    0.428    0.240
  264.250   10.395   91.791    0.430    0.254
  264.500    9.327   96.813    0.433    0.249
  264.750    9.179   95.010    0.445    0.250
  265.000    9.197   91.967    0.437    0.244
  265.250    9.047   89.531    0.406    0.250
  265.500    9.065   87.740    0.401    0.256
  265.750    8.912   87.162    0.410    0.261
  266.000    8.934   87.862    0.406    0.261
  266.250    8.784   89.128    0.404    0.253
  266.500    8.641   91.659    0.405    0.239
  266.750    8.822   92.346    0.408    0.228
  267.000    9.004   91.781    0.413    0.218
  267.250    9.533   89.977    0.406    0.206
  267.500   10.286   87.540    0.376    0.176
  267.750   10.890   89.452    0.355    0.136
  268.000   11.320   89.520    0.370    0.126
  268.250   10.928   88.322    0.375    0.148
  268.500    9.278   84.041    0.341    0.041
  268.750    8.173   82.856    0.318    0.027
  269.000    7.333   87.245    0.273    0.032
  269.250    6.699  102.795    0.369    0.044
  269.500    6.236  108.423    0.415    0.063
  269.750    6.134  114.683    0.445    0.189
  270.000    6.040  115.357    0.464    0.211
  270.250    6.048  114.186    0.477    0.220
  270.500    6.060  113.001    0.469    0.226
  270.750    6.075  114.913    0.456    0.232
  271.000    6.084  116.839    0.447    0.232
  271.250    6.096  116.866    0.456    0.221
  271.500    6.107  115.062    0.461    0.207
  271.750    6.233  111.400    0.453    0.194
  272.000    6.361  105.881    0.440    0.142
  272.250    6.373  106.554    0.434    0.103
  272.500    7.267  109.704    0.420    0.158
  272.750    7.281  111.616    0.434    0.180
  273.000    7.158  111.051    0.444    0.203
  273.250    6.542  110.499    0.450    0.214
  273.500    5.870  109.934    0.451    0.221
  273.750    5.364  109.975    0.452    0.227
  274.000    4.994  111.887    0.454    0.232
  274.250    4.912  111.954    0.467    0.236
  274.500    4.922  109.531    0.488    0.234
  274.750    4.934  108.966    0.499    0.222
  275.000    4.946  110.259    0.492    0.208
  275.250    4.950  111.551    0.484    0.174
  275.500    4.962  111.605    0.479    0.189
  275.750    4.972  110.434    0.487    0.217
  276.000    4.979  107.378    0.480    0.221
  276.250    4.991  105.561    0.466    0.207
  276.500    5.094  106.234    0.477    0.207
  276.750    5.196  110.637    0.491    0.223
  277.000    5.404  113.168    0.491    0.228
  277.250    5.512  115.700    0.479    0.222
  277.500    5.836  112.657    0.473    0.209
  277.750    6.179  108.376    0.458    0.198
  278.000    6.306  105.334    0.429    0.186
  278.250    6.319  105.401    0.415    0.163
  278.500    6.331  107.960    0.400    0.172
  278.750    6.231  108.606    0.416    0.197
  279.000    6.249  111.137    0.446    0.205
  279.250    6.255  110.572    0.456    0.208
  279.500    6.267  110.007    0.444    0.211
  279.750    6.285  110.061    0.434    0.207
  280.000    6.291  108.876    0.425    0.208
  280.250    6.192  107.059    0.425    0.215
  280.500    6.204  108.352    0.423    0.208
  280.750    6.334  110.277    0.431    0.200
  281.000    6.461  110.937    0.445    0.190
  281.250    6.597  109.752    0.442    0.197
  281.500    6.726  108.568    0.441    0.212
  281.750    6.261  109.874    0.460    0.232
  282.000    5.620  111.786    0.487    0.243
  282.250    4.949  112.459    0.482    0.242
  282.500    4.278  111.275    0.486    0.233
  282.750    4.288  108.233    0.490    0.225
  283.000    4.457  104.557    0.493    0.222
  283.250    4.724  100.276    0.486    0.220
  283.500    4.729   95.995    0.478    0.218
  283.750    4.742   91.714    0.467    0.205
  284.000    4.665   82.479    0.461    0.189
  284.250    4.670   65.179    0.451    0.200
  284.500    4.679   49.751    0.422    0.218
  284.750    5.046   34.309    0.405    0.228
  285.000    5.648   15.771    0.418    0.229
  285.250    5.068   11.490    0.438    0.203
  285.500    4.629   48.110    0.450    0.200
  285.750    4.812   48.783    0.462    0.265
  286.000    5.189   48.231    0.468    0.289
  286.250    5.700   47.653    0.473    0.300
  286.500    6.496   47.087    0.479    0.315
  286.750    7.684   38.471    0.442    0.332
  287.000    9.601   29.222    0.416    0.346
  287.250   11.996   22.464    0.360    0.360
  287.500   11.590   21.307    0.356    0.372
  287.750   10.394   22.572    0.412    0.371
  288.000   11.215   25.736    0.434    0.354
  288.250   13.260   27.016    0.473    0.339
  288.500   15.400   32.670    0.461    0.344
  288.750   14.328   34.569    0.458    0.353
  289.000   11.944   38.958    0.462    0.351
  289.250   10.329   43.980    0.459    0.345
  289.500    9.095   45.259    0.459    0.337
  289.750    8.160   47.790    0.502    0.328
  290.000    7.596   47.844    0.543    0.327
  290.250    7.756   47.912    0.519    0.322
  290.500    8.520   45.475    0.513    0.309
  290.750    9.188   44.910    0.503    0.307
  291.000    8.549   48.088    0.489    0.319
  291.250    7.393   48.774    0.490    0.318
  291.500    6.757   48.801    0.498    0.314
  291.750    6.525   49.475    0.490    0.309
  292.000    6.786   48.910    0.477    0.302
  292.250    7.454   50.216    0.477    0.276
  292.500    8.035   49.018    0.535    0.271
  292.750   10.044   49.718    0.563    0.261
  293.000    7.923   49.759    0.563    0.287
  293.250    6.022   49.813    0.546    0.285
  293.500    5.208   47.376    0.528    0.285
  293.750    5.218   36.902    0.537    0.288
  294.000    5.838   32.635    0.654    0.349
  294.250    8.000   32.702    0.683    0.394
  294.500    8.475   32.729    0.687    0.423
  294.750    8.181   35.907    0.626    0.443
  295.000    9.496   37.792    0.595    0.436
  295.250   12.085   41.575    0.571    0.427
  295.500   15.672   43.474    0.534    0.423
  295.750   17.860   41.670    0.539    0.417
  296.000    8.729   38.008    0.544    0.414
  296.250    6.397   33.754    0.549    0.414
  296.500    5.530   32.543    0.564    0.414
  296.750    8.009   30.739    0.560    0.417
  297.000    9.469   31.412    0.514    0.417
  297.250   14.226   32.705    0.509    0.420
  297.500   19.487   32.759    0.490    0.423
  297.750   28.745   30.336    0.467    0.427
  298.000   25.791   27.307    0.455    0.433
  298.250   25.383   26.109    0.436    0.436
  298.500   24.968   25.544    0.434    0.443
  298.750   25.494   27.483    0.443    0.446
