~VERSION INFORMATION
 VERS.                 2.0:   CWLS LOG ASCII STANDARD -VERSION 2.0
 WRAP.                  NO:   ONE LINE PER DEPTH STEP
~WELL INFORMATION BLOCK
#MNEM.UNIT           DATA                    DESCRIPTION OF MNEMONIC
#---------    -------------------            -------------------------------
# Generated from Intellog Unique Number	CW_79_81/WELL/2490
WELL.         13-31-080-23W4                 : Well_name    - WELL
LOC .         00/13-31-080-23W4/0            : Location     - LOCATION
UWI .         00/13-31-080-23W4/0            : Uwi          - UNIQUE WELL ID
ENTR.         MAX                            : Entered      - ENTERED BY
SRVC.         SCHLUMBERGER                   : Scn          - SERVICE COMPANY
STRT.M        250                            : top_depth    - START DEPTH
STOP.M        479.75                         : bot_depth    - STOP DEPTH
STEP.M        0.25                           : increment    - STEP LENGTH
 NULL. -999.2500:NULL Value
~CURVE INFORMATION BLOCK
#MNEM UNIT       ERCB CURVE CODE    CURVE DESCRIPTION
#-----------   ------------------   ----------------------------------
DEPT.M        00 001 00 00         : DEPTH        - DEPTH
ILD .OHMM     00 120 00 00         : RESD         - DEEP RESISTIVITY (DIL)
NPHI.V/V      00 330 00 00         : PHIN         - NEUTRON POROSITY (SANDSTONE)
DPHI.V/V      00 890 00 00         : PHID         - DENSITY POROSITY (SANDSTONE)
GR  .API      00 310 00 00         : GR           - GAMMA RAY
CALI.MM       00 280 01 00         : CAL          - CALIPER
~PARAMETER INFORMATION
#MNEM.UNIT           DATA             DESCRIPTION OF MNEMONIC
#---------         -----------     ------------------------------
GL  .M        599.82               : gl           - GROUND LEVEL ELEVATION
EREF.M        604.05               : kb           - ELEVATION OF DEPTH REFERENCE
DATM.M        599.82               : datum        - DATUM ELEVATION
TDD .M        482                  : tdd          - TOTAL DEPTH DRILLER
RUN .         ONE                  : Run          - RUN NUMBER
ENG .         BILL                 : Engineer     - RECORDING ENGINEER
WIT .         JIM                  : Witness      - WITNESSED BY
MUD .         GEL                  : Mud_type     - MUD TYPE
MATR.         SANDSTONE            : Logunit      - NEUTRON MATRIX
TMAX.C        29                   : BHT          - MAXIMUM RECORDED TEMPERATURE
BHTD.M        482                  : BHTDEP       - MAXIMUM RECORDED TEMPERATURE
MATR.         1                    : LOGUNIT      - NEUTRON MATRIX
RMT .C        15                   : MDTP         - TEMPERATURE OF MUD
NEUT.         1                    : NEUTRON      - NEUTRON TYPE
RESI.         0                    : RESIST       - RESISTIVITY TYPE
RMC .OHMM     6.9                  : RMC          - RESISTIVITY OF MUD CAKE
RMF .OHMM     6.67                 : RMF          - RESISTIVITY OF MUD FILTRATE
SUFT.C        -20                  : SUFT         - SURFACE TEMPERATURE
~A  DEPTH     RESD     PHIN     PHID       GR      CAL
  250.000    3.249    0.554    0.257   99.000  247.633
  250.250    3.619    0.533    0.250   92.068  247.714
  250.500    4.126    0.520    0.240   84.969  247.480
  250.750    5.203    0.511    0.237   79.984  247.344
  251.000    7.554    0.515    0.245   78.529  247.510
  251.250   12.926    0.553    0.258   79.777  248.078
  251.500   21.504    0.589    0.268   79.821  248.567
  251.750   31.849    0.594    0.290   72.684  247.442
  252.000   34.439    0.538    0.311   64.829  244.518
  252.250   34.474    0.489    0.327   58.054  242.995
  252.500   37.992    0.476    0.338   53.914  245.364
  252.750   48.257    0.493    0.349   53.975  252.506
  253.000   57.896    0.472    0.355   55.261  247.998
  253.250   61.022    0.454    0.347   55.060  240.110
  253.500   64.329    0.441    0.348   53.789  236.088
  253.750   68.321    0.431    0.352   53.112  233.561
  254.000   72.770    0.429    0.355   53.567  231.841
  254.250   76.888    0.452    0.357   54.427  232.268
  254.500   80.640    0.459    0.356   53.729  233.974
  254.750   86.255    0.442    0.352   53.763  236.038
  255.000   90.326    0.448    0.352   54.704  238.412
  255.250   93.508    0.461    0.354   54.868  240.477
  255.500   97.108    0.469    0.355   54.492  242.134
  255.750  104.477    0.471    0.348   55.690  243.905
  256.000  111.314    0.469    0.341   55.485  244.394
  256.250  108.992    0.480    0.340   54.084  244.857
  256.500  108.500    0.489    0.338   52.514  245.026
  256.750  114.562    0.491    0.339   51.602  245.300
  257.000  125.213    0.488    0.346   51.643  245.658
  257.250  122.614    0.490    0.357   52.608  245.604
  257.500  106.988    0.482    0.369   53.649  245.337
  257.750   92.816    0.468    0.367   53.687  244.198
  258.000   88.911    0.468    0.360   53.732  243.065
  258.250   89.976    0.477    0.355   53.892  241.538
  258.500   93.317    0.493    0.354   54.407  239.518
  258.750   95.980    0.514    0.350   56.502  236.635
  259.000   94.609    0.511    0.337   60.782  233.787
  259.250   92.646    0.520    0.336   63.939  230.263
  259.500   91.206    0.525    0.339   62.248  227.941
  259.750   89.283    0.519    0.340   60.851  226.812
  260.000   87.106    0.509    0.332   61.068  226.481
  260.250   85.653    0.514    0.316   59.858  226.008
  260.500   84.430    0.523    0.306   57.157  225.244
  260.750   80.835    0.530    0.322   57.195  225.323
  261.000   76.517    0.532    0.340   57.596  225.695
  261.250   73.849    0.524    0.353   59.193  226.756
  261.500   73.106    0.510    0.357   60.312  228.313
  261.750   73.212    0.495    0.350   56.527  229.022
  262.000   73.289    0.492    0.355   55.325  226.197
  262.250   72.837    0.506    0.356   55.133  223.064
  262.500   72.369    0.529    0.356   55.111  219.938
  262.750   71.639    0.545    0.358   54.910  217.414
  263.000   70.398    0.547    0.361   54.115  215.889
  263.250   67.911    0.540    0.360   51.949  215.403
  263.500   65.422    0.529    0.357   50.499  214.646
  263.750   62.622    0.517    0.366   50.059  213.927
  264.000   57.246    0.515    0.375   50.164  213.497
  264.250   52.064    0.517    0.377   49.971  213.561
  264.500   48.917    0.517    0.373   49.238  214.025
  264.750   50.644    0.507    0.364   48.375  214.594
  265.000   58.375    0.491    0.359   48.673  215.091
  265.250   69.540    0.501    0.370   50.142  215.155
  265.500   78.863    0.510    0.369   51.445  214.926
  265.750   82.720    0.488    0.351   51.490  214.794
  266.000   79.189    0.430    0.301   50.092  214.860
  266.250   67.975    0.344    0.178   47.484  214.946
  266.500   59.326    0.239    0.107   45.037  215.020
  266.750   50.288    0.168    0.062   44.601  215.084
  267.000   42.686    0.194    0.025   43.266  215.159
  267.250   36.445    0.261    0.027   41.995  215.227
  267.500   32.243    0.332    0.083   41.863  215.287
  267.750   30.837    0.384    0.205   44.762  215.458
  268.000   30.635    0.355    0.257   48.299  215.955
  268.250   29.551    0.403    0.324   52.165  216.033
  268.500   28.337    0.436    0.349   54.060  216.090
  268.750   26.504    0.459    0.348   54.577  216.151
  269.000   24.236    0.477    0.342   54.375  216.321
  269.250   21.411    0.498    0.354   53.842  216.806
  269.500   18.689    0.516    0.366   52.133  216.880
  269.750   15.121    0.504    0.371   51.941  216.560
  270.000   11.743    0.483    0.368   52.101  217.131
  270.250    9.424    0.473    0.362   52.022  217.996
  270.500    8.096    0.473    0.352   51.468  219.158
  270.750    7.570    0.458    0.329   51.164  221.905
  271.000    7.238    0.421    0.305   54.194  225.316
  271.250    6.981    0.442    0.301   58.303  226.164
  271.500    6.657    0.457    0.282   57.927  226.423
  271.750    6.081    0.448    0.256   56.774  226.698
  272.000    5.405    0.423    0.236   58.131  227.075
  272.250    4.831    0.415    0.238   67.018  227.147
  272.500    4.584    0.426    0.257   77.777  227.221
  272.750    4.521    0.422    0.238   89.306  227.285
  273.000    4.385    0.442    0.223   97.243  226.762
  273.250    4.213    0.467    0.214   99.797  226.235
  273.500    4.002    0.493    0.217   97.447  225.900
  273.750    3.640    0.537    0.250   91.255  225.502
  274.000    3.274    0.551    0.269   82.823  225.183
  274.250    3.277    0.515    0.271   84.779  224.834
  274.500    3.614    0.502    0.254   93.735  224.203
  274.750    4.038    0.509    0.238  102.154  223.476
  275.000    4.271    0.525    0.236  104.829  222.848
  275.250    4.127    0.529    0.246   98.245  222.365
  275.500    4.005    0.526    0.247   95.050  221.624
  275.750    4.010    0.516    0.242   92.700  221.275
  276.000    4.194    0.523    0.246   91.786  220.649
  276.250    4.518    0.529    0.253   90.751  219.922
  276.500    4.939    0.525    0.261   89.237  219.189
  276.750    5.473    0.505    0.267   87.995  218.306
  277.000    6.065    0.508    0.271   87.532  217.557
  277.250    6.679    0.514    0.277   88.053  216.831
  277.500    7.360    0.522    0.276   87.677  216.399
  277.750    8.058    0.533    0.269   86.165  215.872
  278.000    8.756    0.538    0.264   84.055  215.148
  278.250    9.637    0.523    0.281   81.475  214.340
  278.500   10.269    0.513    0.299   75.535  214.007
  278.750   10.280    0.509    0.306   74.142  214.868
  279.000    9.611    0.512    0.308   74.358  215.436
  279.250    8.203    0.508    0.311   73.562  215.308
  279.500    6.609    0.494    0.311   71.215  214.879
  279.750    5.167    0.477    0.295   68.869  215.439
  280.000    4.613    0.464    0.281   68.909  215.929
  280.250    4.652    0.459    0.291   71.348  216.399
  280.500    5.007    0.454    0.301   73.960  216.863
  280.750    5.615    0.452    0.295   78.067  217.533
  281.000    6.976    0.456    0.267   84.510  218.309
  281.250   14.293    0.480    0.212   92.811  218.799
  281.500   22.068    0.514    0.184   88.611  218.866
  281.750   25.553    0.523    0.262   78.124  218.524
  282.000   27.970    0.517    0.315   66.383  218.198
  282.250   28.979    0.517    0.354   57.336  217.867
  282.500   28.958    0.523    0.370   52.418  217.531
  282.750   28.511    0.498    0.336   50.500  217.225
  283.000   27.253    0.469    0.318   50.286  217.300
  283.250   25.698    0.471    0.335   52.003  216.965
  283.500   25.358    0.464    0.341   51.568  216.929
  283.750   25.480    0.450    0.345   50.893  216.997
  284.000   25.699    0.436    0.349   51.176  216.970
  284.250   25.964    0.444    0.351   52.954  216.663
  284.500   26.191    0.446    0.347   53.239  216.730
  284.750   26.611    0.431    0.345   53.055  217.193
  285.000   27.191    0.427    0.348   52.314  217.367
  285.250   27.532    0.433    0.354   51.870  217.442
  285.500   27.305    0.443    0.360   52.030  217.512
  285.750   25.295    0.456    0.362   52.514  217.589
  286.000   21.112    0.466    0.357   52.304  217.656
  286.250   16.816    0.465    0.359   51.155  217.734
