~VERSION INFORMATION
 VERS.                 2.0:   CWLS LOG ASCII STANDARD -VERSION 2.0
 WRAP.                  NO:   ONE LINE PER DEPTH STEP
~WELL INFORMATION BLOCK
#MNEM.UNIT           DATA                    DESCRIPTION OF MNEMONIC
#---------    -------------------            -------------------------------
# Generated from Intellog Unique Number	CS_71_72/WELL/854
WELL.         BOW VALLEY INDUSTRIES          : Well_name    - WELL
LOC .         00/10-12-072-18W4/0            : Location     - LOCATION
UWI .         00/10-12-072-18W4/0            : Uwi          - UNIQUE WELL ID
ENTR.         SP                             : Entered      - ENTERED BY
SRVC.         SCHLUMBERGER                   : Scn          - SERVICE COMPANY
STRT.M        283.464                        : top_depth    - START DEPTH
STOP.M        462.964                        : bot_depth    - STOP DEPTH
STEP.M        0.25                           : increment    - STEP LENGTH
 NULL. -999.2500:NULL Value
~CURVE INFORMATION BLOCK
#MNEM UNIT       ERCB CURVE CODE    CURVE DESCRIPTION
#-----------   ------------------   ----------------------------------
DEPT.M        00 001 00 00         : DEPTH        - DEPTH
GR  .API      00 310 00 00         : GR           - GAMMA RAY
DPHI.V/V      00 890 00 00         : PHID         - DENSITY POROSITY (SANDSTONE)
NPHI.V/V      00 330 00 00         : PHIN         - NEUTRON POROSITY (SANDSTONE)
ILD .OHMM     00 120 00 00         : RESD         - DEEP RESISTIVITY (DIL)
~PARAMETER INFORMATION
#MNEM.UNIT           DATA             DESCRIPTION OF MNEMONIC
#---------         -----------     ------------------------------
GL  .M        593.507              : gl           - GROUND LEVEL ELEVATION
EREF.M        596.494              : kb           - ELEVATION OF DEPTH REFERENCE
DATM.M        593.507              : datum        - DATUM ELEVATION
TDD .M        505.968              : tdd          - TOTAL DEPTH DRILLER
RUN .         ONE                  : Run          - RUN NUMBER
ENG .         BILL                 : Engineer     - RECORDING ENGINEER
WIT .         JIM                  : Witness      - WITNESSED BY
MUD .         GEL                  : Mud_type     - MUD TYPE
MATR.         SANDSTONE            : Logunit      - NEUTRON MATRIX
TMAX.C        23.8889              : BHT          - MAXIMUM RECORDED TEMPERATURE
BHTD.M        502.92               : BHTDEP       - MAXIMUM RECORDED TEMPERATURE
MATR.         1                    : LOGUNIT      - NEUTRON MATRIX
RMT .C        25                   : MDTP         - TEMPERATURE OF MUD
NEUT.         1                    : NEUTRON      - NEUTRON TYPE
RESI.         0                    : RESIST       - RESISTIVITY TYPE
RMC .OHMM     0.25                 : RMC          - RESISTIVITY OF MUD CAKE
RMF .OHMM     0.25                 : RMF          - RESISTIVITY OF MUD FILTRATE
SUFT.C        15                   : SUFT         - SURFACE TEMPERATURE
~A  DEPTH       GR     PHID     PHIN     RESD
  283.464  106.629    0.259    0.549    3.879
  283.714  107.200    0.228    0.539    3.581
  283.964  108.042    0.198    0.551    3.367
  284.214  108.483    0.202    0.569    3.285
  284.464  105.949    0.210    0.559    3.287
  284.714  101.898    0.235    0.547    3.291
  284.964  102.090    0.259    0.549    3.236
  285.214  104.133    0.266    0.562    3.209
  285.464  106.002    0.271    0.574    3.112
  285.714  104.733    0.234    0.583    3.069
  285.964  105.703    0.234    0.588    3.061
  286.214  106.692    0.219    0.593    3.060
  286.464  105.478    0.239    0.603    3.019
  286.714  103.352    0.247    0.608    2.991
  286.964  100.684    0.253    0.604    2.951
  287.214  102.639    0.260    0.597    2.947
  287.464  105.487    0.251    0.600    3.019
  287.714  101.533    0.271    0.600    2.912
  287.964   99.265    0.296    0.597    2.827
  288.214   95.530    0.296    0.597    2.685
  288.464   92.106    0.273    0.598    2.560
  288.714   89.620    0.282    0.595    2.621
  288.964   90.398    0.316    0.589    2.761
  289.214   88.417    0.329    0.584    2.985
  289.464   84.562    0.336    0.581    3.259
  289.714   78.975    0.337    0.583    3.569
  289.964   72.229    0.343    0.557    3.826
  290.214   68.842    0.472    0.489    3.924
  290.464   70.339    0.402    0.470    3.919
  290.714   76.943    0.305    0.467    3.952
  290.964   84.203    0.317    0.469    4.187
  291.214   91.704    0.306    0.466    4.298
  291.464   99.634    0.288    0.459    4.522
  291.714  106.138    0.265    0.457    4.653
  291.964  112.680    0.235    0.464    4.788
  292.214  111.422    0.222    0.472    5.048
  292.464  106.023    0.241    0.473    5.195
  292.714  104.074    0.266    0.463    5.244
  292.964  104.076    0.272    0.447    5.538
  293.214  106.129    0.275    0.445    5.702
  293.464  108.546    0.263    0.455    5.876
  293.714  109.947    0.224    0.451    6.038
  293.964  109.901    0.221    0.459    6.140
  294.214  108.255    0.210    0.448    6.092
  294.464  105.567    0.229    0.455    6.060
  294.714  101.083    0.258    0.470    5.317
  294.964   97.683    0.251    0.463    5.189
  295.214   95.850    0.261    0.459    5.118
  295.464   94.977    0.268    0.455    5.180
  295.714   93.383    0.255    0.447    5.531
  295.964   94.157    0.222    0.437    5.947
  296.214   95.404    0.176    0.424    6.253
  296.464   97.778    0.200    0.435    6.431
  296.714   89.265    0.153    0.447    6.187
  296.964   77.773    0.098    0.398    5.947
  297.214   68.987    0.173    0.387    5.591
  297.464   62.356    0.237    0.386    5.168
  297.714   69.795    0.246    0.395    4.801
  297.964   82.016    0.230    0.413    4.679
  298.214   87.936    0.207    0.423    4.532
  298.464   96.359    0.187    0.433    4.430
  298.714  105.407    0.172    0.458    4.345
  298.964  119.293    0.170    0.478    4.218
  299.214  127.686    0.166    0.499    4.093
  299.464  130.326    0.191    0.528    3.971
  299.714  131.007    0.202    0.555    3.798
  299.964  130.015    0.212    0.548    3.732
  300.214  125.809    0.206    0.544    3.562
  300.464  123.736    0.219    0.552    3.351
  300.714  127.105    0.229    0.560    3.233
  300.964  130.578    0.187    0.562    3.132
  301.214  130.779    0.209    0.561    3.128
  301.464  129.102    0.221    0.561    3.129
  301.714  128.600    0.234    0.569    3.081
  301.964  128.079    0.228    0.575    3.032
  302.214  129.838    0.231    0.580    2.961
  302.464  133.547    0.211    0.572    2.868
  302.714  137.761    0.214    0.553    2.871
  302.964  135.974    0.224    0.529    3.237
  303.214  129.297    0.241    0.507    3.585
  303.464  123.812    0.238    0.491    4.042
  303.714  119.842    0.232    0.485    4.684
  303.964  115.142    0.227    0.490    5.421
  304.214  107.191    0.251    0.504    5.703
  304.464   99.318    0.302    0.522    5.809
  304.714   90.120    0.316    0.488    5.648
  304.964   92.077    0.271    0.458    5.485
  305.214   94.833    0.257    0.462    5.413
  305.464   98.333    0.284    0.492    5.359
  305.714  101.491    0.291    0.513    5.293
  305.964  100.936    0.334    0.518    5.178
  306.214   93.483    0.299    0.495    5.307
  306.464   86.703    0.290    0.488    5.294
  306.714   82.673    0.288    0.513    5.419
  306.964   79.418    0.294    0.532    5.294
  307.214   78.434    0.297    0.526    5.303
  307.464   80.419    0.300    0.517    5.260
  307.714   81.588    0.329    0.506    5.212
  307.964   79.529    0.334    0.494    5.214
  308.214   77.752    0.318    0.495    5.250
  308.464   80.530    0.304    0.506    5.313
  308.714   83.004    0.303    0.489    5.375
  308.964   83.654    0.299    0.469    5.521
  309.214   83.486    0.277    0.474    5.620
  309.464   86.185    0.263    0.460    5.796
  309.714   88.520    0.255    0.459    5.983
  309.964   91.592    0.263    0.464    6.059
  310.214   94.719    0.258    0.482    6.191
  310.464   96.284    0.255    0.500    6.178
  310.714   97.629    0.235    0.487    6.292
  310.964  100.124    0.242    0.488    6.180
  311.214  100.987    0.270    0.496    6.065
  311.464   99.086    0.241    0.478    5.885
  311.714   97.280    0.288    0.488    5.704
  311.964   97.974    0.315    0.503    5.647
  312.214  104.129    0.298    0.507    5.536
  312.464  110.414    0.297    0.532    5.548
  312.714  116.380    0.283    0.486    5.545
  312.964  124.560    0.252    0.472    5.665
  313.214  133.057    0.234    0.476    5.658
  313.464  130.762    0.253    0.481    5.659
  313.714  122.939    0.255    0.488    5.660
  313.964  117.509    0.265    0.509    5.660
  314.214  110.439    0.303    0.535    5.752
  314.464  106.112    0.283    0.511    5.805
  314.714  106.517    0.186    0.462    5.999
  314.964  108.716    0.198    0.451    6.185
  315.214  113.153    0.193    0.442    6.358
  315.464  116.616    0.185    0.435    6.232
  315.714  118.925    0.167    0.453    5.681
  315.964  119.785    0.198    0.477    5.136
  316.214  119.225    0.216    0.501    4.665
  316.464  117.532    0.240    0.531    4.349
  316.714  115.608    0.248    0.547    3.973
  316.964  110.090    0.295    0.560    3.872
  317.214  104.652    0.351    0.564    3.681
  317.464   96.989    0.304    0.541    3.942
  317.714   92.503    0.271    0.523    4.245
  317.964   88.599    0.259    0.509    4.503
  318.214   85.985    0.247    0.501    4.734
  318.464   82.760    0.238    0.510    5.173
  318.714   81.179    0.249    0.516    5.433
  318.964   82.939    0.277    0.497    5.804
  319.214   85.636    0.283    0.486    5.870
  319.464   87.172    0.301    0.483    5.902
  319.714   88.719    0.311    0.479    5.744
  319.964   91.194    0.336    0.472    5.460
  320.214   91.991    0.368    0.488    5.499
  320.464   87.169    0.425    0.523    5.489
  320.714   80.555    0.303    0.536    5.728
  320.964   76.853    0.294    0.498    6.541
  321.214   72.875    0.286    0.485    7.063
  321.464   70.987    0.269    0.476    8.284
  321.714   69.829    0.263    0.473    8.935
  321.964   68.183    0.261    0.467    8.948
  322.214   67.229    0.251    0.452    8.730
  322.464   66.258    0.244    0.436    8.632
  322.714   63.651    0.077    0.297    8.497
  322.964   61.121    0.015    0.172    9.200
  323.214   58.047    0.008    0.156   11.467
  323.464   56.035    0.007    0.152   15.142
  323.714   54.090    0.016    0.152   19.943
  323.964   54.949    0.033    0.155   26.199
  324.214   57.706    0.063    0.174   28.966
  324.464   59.617    0.097    0.208   23.951
  324.714   64.526    0.179    0.257   17.851
  324.964   68.298    0.292    0.332   14.435
  325.214   71.569    0.301    0.475   12.615
  325.464   73.970    0.290    0.492   11.036
  325.714   74.090    0.289    0.501   10.064
  325.964   73.507    0.300    0.501    9.366
  326.214   72.894    0.290    0.498    8.550
  326.464   71.467    0.269    0.507    8.165
  326.714   68.888    0.272    0.518    7.920
