~VERSION INFORMATION
 VERS.                 2.0:   CWLS LOG ASCII STANDARD -VERSION 2.0
 WRAP.                  NO:   ONE LINE PER DEPTH STEP
~WELL INFORMATION BLOCK
#MNEM.UNIT           DATA                    DESCRIPTION OF MNEMONIC
#---------    -------------------            -------------------------------
# Generated from Intellog Unique Number	CW_79_81/WELL/877
WELL.         10-32-079-21W4                 : Well_name    - WELL
LOC .         00/10-32-079-21W4/0            : Location     - LOCATION
UWI .         00/10-32-079-21W4/0            : Uwi          - UNIQUE WELL ID
ENTR.         MAX                            : Entered      - ENTERED BY
SRVC.         SCHLUMBERGER                   : Scn          - SERVICE COMPANY
STRT.M        195                            : top_depth    - START DEPTH
STOP.M        415                            : bot_depth    - STOP DEPTH
STEP.M        0.25                           : increment    - STEP LENGTH
 NULL. -999.2500:NULL Value
~CURVE INFORMATION BLOCK
#MNEM UNIT       ERCB CURVE CODE    CURVE DESCRIPTION
#-----------   ------------------   ----------------------------------
DEPT.M        00 001 00 00         : DEPTH        - DEPTH
ILD .OHMM     00 120 00 00         : RESD         - DEEP RESISTIVITY (DIL)
NPHI.V/V      00 330 00 00         : PHIN         - NEUTRON POROSITY (SANDSTONE)
DPHI.V/V      00 890 00 00         : PHID         - DENSITY POROSITY (SANDSTONE)
CALI.MM       00 280 01 00         : CAL          - CALIPER
GR  .API      00 310 00 00         : GR           - GAMMA RAY
~PARAMETER INFORMATION
#MNEM.UNIT           DATA             DESCRIPTION OF MNEMONIC
#---------         -----------     ------------------------------
GL  .M        576.83               : gl           - GROUND LEVEL ELEVATION
EREF.M        580.8                : kb           - ELEVATION OF DEPTH REFERENCE
DATM.M        576.83               : datum        - DATUM ELEVATION
TDD .M        446.75               : tdd          - TOTAL DEPTH DRILLER
RUN .         ONE                  : Run          - RUN NUMBER
ENG .         BILL                 : Engineer     - RECORDING ENGINEER
WIT .         JIM                  : Witness      - WITNESSED BY
MUD .         GEL                  : Mud_type     - MUD TYPE
MATR.         SANDSTONE            : Logunit      - NEUTRON MATRIX
TMAX.C        27.2                 : BHT          - MAXIMUM RECORDED TEMPERATURE
BHTD.M        446.75               : BHTDEP       - MAXIMUM RECORDED TEMPERATURE
RMT .C        12.2                 : MDTP         - TEMPERATURE OF MUD
MUDD.KG/M     1188                 : MWT          - MUD DENSITY
NEUT.         1                    : NEUTRON      - NEUTRON TYPE
RESI.         0                    : RESIST       - RESISTIVITY TYPE
RM  .OHMM     1.35                 : RM           - RESISTIVITY OF MUD
RMC .OHMM     0                    : RMC          - RESISTIVITY OF MUD CAKE
RMF .OHMM     4.93                 : RMF          - RESISTIVITY OF MUD FILTRATE
SUFT.C        -5                   : SUFT         - SURFACE TEMPERATURE
~A  DEPTH     RESD     PHIN     PHID      CAL       GR
# ...
  304.500   11.768    0.494    0.223  234.692   77.324
  304.750   11.668    0.494    0.232  230.803   72.929
  305.000   11.359    0.485    0.244  228.397   70.603
  305.250   10.660    0.474    0.263  226.490   70.635
  305.500    9.644    0.466    0.264  225.553   72.144
  305.750    9.651    0.454    0.246  224.629   70.401
  306.000   11.927    0.453    0.257  224.184   70.146
  306.250   12.154    0.449    0.256  223.746   73.721
  306.500   12.969    0.434    0.266  223.800   74.930
  306.750   13.713    0.447    0.241  223.861   74.675
  307.000   14.367    0.459    0.256  223.914   73.227
  307.250   14.378    0.468    0.259  223.975   67.942
  307.500   14.378    0.463    0.270  224.029   64.144
  307.750   13.759    0.463    0.284  224.029   63.283
  308.000   13.025    0.460    0.282  224.170   63.024
  308.250    9.809    0.440    0.269  224.682   68.370
  308.500    9.037    0.424    0.245  225.727   75.487
  308.750    8.638    0.409    0.182  226.273   79.657
  309.000    8.724    0.402    0.208  226.326   83.826
  309.250    8.896    0.461    0.242  226.380   84.740
  309.500    9.231    0.480    0.223  226.926   80.647
  309.750    9.671    0.473    0.239  227.472   78.900
  310.000    9.948    0.465    0.226  228.018   77.161
  310.250    9.954    0.472    0.224  229.062   75.430
  310.500    9.954    0.466    0.218  230.592   75.758
  310.750    9.700    0.464    0.215  232.129   77.861
  311.000    9.020    0.492    0.231  232.668   77.007
  311.250    8.620    0.456    0.231  234.211   76.445
  311.500    8.620    0.451    0.223  235.235   77.064
  311.750    8.553    0.473    0.219  236.779   77.695
  312.000    8.176    0.491    0.208  238.787   80.384
  312.250    7.887    0.497    0.220  242.784   80.117
  312.500    7.678    0.474    0.238  245.796   77.496
  312.750    7.475    0.468    0.221  246.335   78.418
  313.000    7.481    0.482    0.212  246.881   81.403
  313.250    7.556    0.472    0.175  246.443   83.497
  313.500    7.700    0.465    0.202  246.510   83.238
  313.750    8.141    0.469    0.195  246.557   83.271
  314.000    8.689    0.477    0.200  245.634   83.598
  314.250    9.019    0.482    0.210  244.205   83.331
  314.500    9.363    0.489    0.214  242.291   82.486
  314.750    9.369    0.496    0.214  239.885   80.743
  315.000    9.205    0.499    0.211  236.986   73.096
  315.250    8.879    0.500    0.187  234.587   72.546
  315.500    8.725    0.430    0.186  234.149   75.526
  315.750    8.651    0.443    0.205  234.209   79.691
  316.000    8.656    0.486    0.239  234.270   81.204
  316.250    8.663    0.495    0.216  234.310   80.055
  316.500    8.912    0.459    0.206  234.364   80.387
  316.750    9.005    0.449    0.209  233.926   80.710
  317.000    9.258    0.462    0.204  233.494   80.746
  317.250    9.180    0.467    0.211  233.070   80.487
  317.500    8.854    0.456    0.225  232.618   80.512
  317.750    8.387    0.471    0.236  231.688   78.478
  318.000    8.090    0.466    0.212  231.748   75.857
  318.250    8.023    0.456    0.208  232.779   82.978
  318.500    8.029    0.472    0.216  235.307   83.892
  318.750    8.108    0.479    0.224  237.820   81.858
  319.000    8.339    0.471    0.197  236.890   81.005
  319.250    8.900    0.497    0.189  235.461   79.565
  319.500    9.762    0.502    0.214  234.039   79.601
  319.750   10.511    0.465    0.228  232.125   77.858
  320.000   11.742    0.486    0.238  230.709   74.651
  320.250   13.238    0.474    0.245  229.773   74.085
  320.500   13.618    0.454    0.247  229.853   74.122
  320.750   13.137    0.452    0.256  230.386   77.692
  321.000   12.559    0.446    0.262  230.931   80.394
  321.250   13.157    0.436    0.259  231.471   80.422
  321.500   14.166    0.440    0.237  232.515   79.273
  321.750   15.971    0.440    0.250  233.546   76.940
  322.000   18.853    0.435    0.213  235.582   67.821
  322.250   21.848    0.435    0.223  236.613   63.130
  322.500   24.861    0.424    0.238  238.156   59.620
  322.750   27.019    0.386    0.214  239.679   56.405
  323.000   28.309    0.365    0.154  240.717   53.784
  323.250   27.306    0.347    0.161  241.269   53.222
  323.500   24.705    0.359    0.166  241.316   53.845
  323.750   21.346    0.359    0.146  241.862   56.239
  324.000   19.490    0.345    0.145  242.408   61.589
  324.250   16.385    0.337    0.151  242.462   65.754
  324.500   15.095    0.343    0.153  243.021   69.628
  324.750   15.095    0.331    0.136  243.068   72.612
  325.000   13.218    0.423    0.213  240.752   77.850
  325.250   12.517    0.450    0.227  240.368   77.597
  325.500   11.964    0.464    0.229  239.473   77.965
  325.750   11.648    0.448    0.230  239.077   78.034
  326.000   11.447    0.450    0.227  238.680   78.088
  326.250   11.353    0.453    0.223  238.795   78.456
  326.500   11.366    0.452    0.219  239.383   80.021
  326.750   11.377    0.466    0.211  240.521   80.665
  327.000   11.385    0.469    0.208  241.595   81.034
  327.250   11.403    0.466    0.199  242.196   81.992
  327.500   11.406    0.467    0.204  242.311   83.250
  327.750   11.420    0.463    0.193  242.400   85.122
  328.000   11.428    0.465    0.204  242.017   86.380
  328.250   11.546    0.459    0.202  240.623   86.441
  328.500   11.664    0.459    0.202  239.728   83.803
  328.750   11.783    0.456    0.222  238.820   81.778
  329.000   12.013    0.458    0.228  238.462   80.642
  329.250   12.025    0.471    0.224  238.539   80.404
  329.500   11.927    0.466    0.211  238.654   81.363
  329.750   11.719    0.468    0.219  239.741   82.330
  330.000   10.998    0.473    0.217  241.837   81.486
  330.250   10.226    0.460    0.209  246.465   82.437
  330.500    9.774    0.465    0.199  247.565   85.206
  330.750    9.430    0.473    0.224  248.664   83.772
  331.000    9.351    0.487    0.213  249.764   84.431
  331.250    9.536    0.491    0.220  250.352   87.783
  331.500    9.994    0.475    0.221  249.470   88.750
  331.750   12.141    0.471    0.209  246.069   85.206
  332.000   13.448    0.470    0.188  242.681   79.583
  332.250   17.750    0.426    0.173  241.786   73.961
  332.500   20.781    0.396    0.137  241.390   69.841
  332.750   21.384    0.395    0.157  241.492   68.108
  333.000   22.419    0.405    0.139  241.607   66.980
  333.250   23.493    0.372    0.113  241.210   65.829
  333.500   24.177    0.300    0.059  240.315   63.206
  333.750   22.480    0.226    0.040  240.418   60.867
  334.000   18.713    0.270    0.088  240.520   60.330
  334.250   16.461    0.341    0.124  240.111   61.887
  334.500   14.349    0.427    0.161  241.249   71.230
  334.750   12.624    0.427    0.196  242.322   80.273
  335.000   11.314    0.419    0.216  242.949   82.137
  335.250   10.616    0.422    0.216  243.025   79.506
  335.500   10.054    0.426    0.201  242.629   79.268
  335.750    9.613    0.431    0.179  240.750   80.519
  336.000    9.619    0.443    0.193  238.858   79.383
  336.250    9.992    0.445    0.211  237.950   77.052
  336.500   10.766    0.444    0.183  238.078   76.522
  336.750   11.708    0.419    0.179  238.666   76.875
  337.000   12.971    0.386    0.130  238.781   70.355
  337.250   13.849    0.334    0.098  239.880   66.228
  337.500   14.517    0.328    0.117  242.961   68.100
  337.750   14.266    0.385    0.164  246.566   73.239
  338.000   14.279    0.434    0.190  249.673   76.591
  338.250   14.967    0.438    0.171  249.775   75.770
  338.500   16.276    0.433    0.180  248.369   76.415
  338.750   18.366    0.457    0.237  245.492   82.168
  339.000   20.538    0.478    0.251  240.097   84.622
  339.250   21.129    0.465    0.250  237.706   82.597
  339.500   21.347    0.440    0.213  237.336   83.564
  339.750   19.851    0.407    0.187  237.425   82.428
  340.000   18.970    0.395    0.167  237.515   81.592
  340.250   17.970    0.398    0.180  237.630   81.945
  340.500   17.970    0.425    0.202  237.745   82.022
  340.750   17.677    0.441    0.208  237.834   81.776
