~VERSION INFORMATION
 VERS.                 2.0:   CWLS LOG ASCII STANDARD -VERSION 2.0
 WRAP.                  NO:   ONE LINE PER DEPTH STEP
~WELL INFORMATION BLOCK
#MNEM.UNIT           DATA                    DESCRIPTION OF MNEMONIC
#---------    -------------------            -------------------------------
# Generated from Intellog Unique Number	CS_67_68/WELL/855
WELL.         FISHER CREEK                   : Well_name    - WELL
LOC .         00/14-05-068-07W4/0            : Location     - LOCATION
UWI .         00/14-05-068-07W4/0            : Uwi          - UNIQUE WELL ID
ENTR.         S608.1                         : Entered      - ENTERED BY
SRVC.         SCHLUMBERGER                   : Scn          - SERVICE COMPANY
STRT.M        280                            : top_depth    - START DEPTH
STOP.M        510                            : bot_depth    - STOP DEPTH
STEP.M        0.25                           : increment    - STEP LENGTH
 NULL. -999.2500:NULL Value
~CURVE INFORMATION BLOCK
#MNEM UNIT       ERCB CURVE CODE    CURVE DESCRIPTION
#-----------   ------------------   ----------------------------------
DEPT.M        00 001 00 00         : DEPTH        - DEPTH
ILD .OHMM     00 120 00 00         : RESD         - DEEP RESISTIVITY (DIL)
DPHI.V/V      00 890 00 00         : PHID         - DENSITY POROSITY (LIMESTONE)
NPHI.V/V      00 330 00 00         : PHIN         - NEUTRON POROSITY (LIMESTONE)
GR  .API      00 310 00 00         : GR           - GAMMA RAY
~PARAMETER INFORMATION
#MNEM.UNIT           DATA             DESCRIPTION OF MNEMONIC
#---------         -----------     ------------------------------
GL  .M        608.1                : gl           - GROUND LEVEL ELEVATION
EREF.M        611.71               : kb           - ELEVATION OF DEPTH REFERENCE
DATM.M        608.1                : datum        - DATUM ELEVATION
TDD .M        519.5                : tdd          - TOTAL DEPTH DRILLER
RUN .         ONE                  : Run          - RUN NUMBER
ENG .         BILL                 : Engineer     - RECORDING ENGINEER
WIT .         JIM                  : Witness      - WITNESSED BY
MUD .         GEL                  : Mud_type     - MUD TYPE
MATR.         LIMESTONE            : Logunit      - NEUTRON MATRIX
TMAX.C        25                   : BHT          - MAXIMUM RECORDED TEMPERATURE
BHTD.M        519.5                : BHTDEP       - MAXIMUM RECORDED TEMPERATURE
MATR.         1                    : LOGUNIT      - NEUTRON MATRIX
RMT .C        25                   : MDTP         - TEMPERATURE OF MUD
NEUT.         1                    : NEUTRON      - NEUTRON TYPE
RESI.         0                    : RESIST       - RESISTIVITY TYPE
RMC .OHMM     0.25                 : RMC          - RESISTIVITY OF MUD CAKE
RMF .OHMM     0.25                 : RMF          - RESISTIVITY OF MUD FILTRATE
SUFT.C        15                   : SUFT         - SURFACE TEMPERATURE
~A  DEPTH     RESD     PHID     PHIN       GR
# ...
  410.500    4.358    0.268    0.383   91.541
  410.750    4.460    0.259    0.403   87.512
  411.000    4.634    0.255    0.430   84.460
  411.250    4.788    0.242    0.412   87.286
  411.500    5.041    0.215    0.398   89.743
  411.750    5.268    0.187    0.420   86.325
  412.000    5.473    0.156    0.400   86.273
  412.250    6.017    0.195    0.384   91.487
  412.500    5.169    0.242    0.395   94.433
  412.750    3.877    0.300    0.416   96.339
  413.000    2.951    0.298    0.420   98.065
  413.250    2.673    0.297    0.428   98.929
  413.500    2.989    0.297    0.421   99.856
  413.750    3.393    0.301    0.413   96.439
  414.000    3.911    0.301    0.420   93.695
  414.250    4.558    0.292    0.426   94.868
  414.500    5.244    0.286    0.402   95.734
  414.750    5.583    0.284    0.383   94.703
  415.000    5.401    0.300    0.394   91.713
  415.250    5.204    0.322    0.415   89.887
  415.500    5.034    0.341    0.404   94.364
  415.750    4.990    0.360    0.401   96.576
  416.000    4.993    0.322    0.405   95.791
  416.250    5.072    0.274    0.393   90.781
  416.500    5.191    0.180    0.383   87.058
  416.750    5.363    0.146    0.369   84.437
  417.000    5.520    0.185    0.359   82.487
  417.250    5.693    0.215    0.391   79.131
  417.500    5.816    0.204    0.415   76.142
  417.750    5.896    0.232    0.414   81.784
  418.000    5.900    0.260    0.409   86.688
  418.250    5.794    0.280    0.409   91.225
  418.500    5.678    0.278    0.410   89.584
  418.750    5.790    0.278    0.414   82.433
  419.000    6.271    0.282    0.424   77.851
  419.250    6.715    0.294    0.408   74.189
  419.500    7.509    0.310    0.391   72.975
  419.750    8.303    0.311    0.378   72.984
  420.000    8.941    0.305    0.387   72.811
  420.250    9.378    0.278    0.384   76.921
  420.500    9.366    0.222    0.392   80.663
  420.750    8.807    0.172    0.418   83.611
  421.000    8.393    0.168    0.422   83.681
  421.250    8.117    0.213    0.389   80.570
  421.500    7.589    0.241    0.435   85.538
  421.750    7.055    0.276    0.434   87.198
  422.000    6.306    0.296    0.415   88.739
  422.250    5.895    0.288    0.418   89.238
  422.500    5.575    0.280    0.426   91.022
  422.750    5.292    0.277    0.415   92.623
  423.000    5.051    0.290    0.407   93.427
  423.250    4.840    0.297    0.402   88.602
  423.500    4.664    0.303    0.409   83.716
  423.750    4.444    0.306    0.410   80.359
  424.000    4.249    0.310    0.406   78.043
  424.250    4.056    0.316    0.410   77.135
  424.500    3.673    0.321    0.431   81.430
  424.750    2.999    0.323    0.466   84.009
  425.000    2.547    0.326    0.472   84.446
  425.250    2.250    0.329    0.472   82.375
  425.500    1.973    0.331    0.483   83.303
  425.750    1.824    0.334    0.466   87.841
  426.000    1.761    0.335    0.458   88.157
  426.250    1.733    0.339    0.462   91.655
  426.500    1.734    0.337    0.465   92.460
  426.750    1.758    0.341    0.466   90.205
  427.000    1.792    0.339    0.467   88.562
  427.250    1.855    0.323    0.452   88.143
  427.500    1.976    0.315    0.438   88.765
  427.750    2.030    0.305    0.429   89.203
  428.000    2.149    0.289    0.422   88.418
  428.250    2.220    0.244    0.414   88.243
  428.500    2.286    0.239    0.420   88.252
  428.750    2.244    0.273    0.435   92.363
  429.000    2.130    0.296    0.436   98.064
  429.250    2.045    0.314    0.430  102.970
  429.500    2.031    0.319    0.428  103.102
  429.750    2.055    0.317    0.436   98.645
  430.000    2.104    0.311    0.448   97.429
  430.250    2.154    0.309    0.437   98.360
  430.500    2.196    0.311    0.433   99.653
  430.750    2.256    0.308    0.442  102.354
  431.000    2.322    0.298    0.442  106.649
  431.250    2.408    0.288    0.419  108.982
  431.500    2.493    0.280    0.401  101.893
  431.750    2.561    0.282    0.396   91.500
  432.000    2.661    0.293    0.405   91.141
  432.250    2.780    0.300    0.414   94.762
  432.500    2.829    0.305    0.426   96.240
  432.750    2.874    0.309    0.419   97.170
  433.000    2.909    0.310    0.428   98.768
  433.250    2.949    0.278    0.441  101.900
  433.500    2.979    0.235    0.449  102.337
  433.750    3.066    0.200    0.407   95.369
  434.000    3.358    0.203    0.379   86.260
  434.250    3.624    0.222    0.367   87.310
  434.500    3.786    0.244    0.389   96.867
  434.750    3.919    0.264    0.405  104.650
  435.000    3.820    0.274    0.418  110.167
  435.250    3.646    0.268    0.420  110.604
  435.500    3.481    0.264    0.422  106.820
  435.750    3.341    0.268    0.428  108.421
  436.000    3.275    0.270    0.421  110.512
  436.250    3.270    0.256    0.417  112.297
  436.500    3.260    0.246    0.420  113.406
  436.750    3.262    0.239    0.422  113.356
  437.000    3.371    0.234    0.423  111.039
  437.250    3.515    0.235    0.410  106.764
  437.500    3.786    0.227    0.389  103.041
  437.750    4.331    0.109    0.379   99.134
  438.000    4.963    0.044    0.359   92.350
  438.250    5.624    0.026    0.319   81.466
  438.500    6.457    0.066    0.314   72.785
  438.750    7.344    0.139    0.349   73.897
  439.000    7.747    0.199    0.366   84.249
  439.250    7.990    0.240    0.358   92.153
  439.500    8.115    0.279    0.355   92.775
  439.750    8.260    0.305    0.367   94.988
  440.000    8.311    0.294    0.374   97.384
  440.250    8.255    0.285    0.379   92.314
  440.500    8.228    0.280    0.386   86.755
  440.750    8.501    0.281    0.393   89.517
  441.000    8.816    0.287    0.378   94.609
  441.250    9.110    0.286    0.344   97.616
  441.500    9.306    0.304    0.318   99.155
  441.750    9.507    0.319    0.290   84.722
  442.000    9.658    0.333    0.264   67.166
  442.250    9.572    0.324    0.292   57.323
  442.500    9.137    0.318    0.324   57.026
  442.750    8.273    0.318    0.325   53.303
  443.000    7.535    0.317    0.324   45.601
  443.250    7.018    0.301    0.325   49.956
  443.500    6.866    0.293    0.328   53.943
  443.750    7.408    0.301    0.338   48.506
  444.000    8.347    0.311    0.338   44.966
  444.250    9.370    0.315    0.349   47.546
  444.500   10.303    0.291    0.365   58.084
  444.750   11.094    0.264    0.328   65.070
  445.000   12.084    0.250    0.308   69.485
  445.250   12.721    0.272    0.320   68.515
  445.500   13.727    0.300    0.338   58.367
  445.750   14.560    0.296    0.335   55.743
  446.000   15.651    0.301    0.325   61.016
  446.250   16.572    0.296    0.330   66.290
  446.500   17.153    0.279    0.339   70.950
  446.750   16.657    0.272    0.335   74.448
  447.000   16.140    0.274    0.338   76.233
  447.250   15.699    0.280    0.334   76.610
  447.500   15.590    0.279    0.330   74.477
  447.750   15.957    0.273    0.331   66.531
  448.000   14.891    0.275    0.354   58.218
  448.250   17.098    0.290    0.373   52.963
  448.500   18.310    0.309    0.354   48.750
  448.750   19.610    0.314    0.326   52.554
  449.000   20.527    0.292    0.313   62.477
  449.250   22.151    0.280    0.327   68.852
  449.500   23.451    0.282    0.334   66.413
  449.750   25.113    0.286    0.338   58.835
  450.000   24.154    0.290    0.340   53.031
  450.250   23.013    0.283    0.326   50.102
  450.500   24.229    0.272    0.329   61.067
  450.750   26.994    0.271    0.349   69.154
  451.000   29.346    0.288    0.362   69.777
  451.250   31.542    0.302    0.348   59.994
  451.500   34.224    0.320    0.331   52.904
  451.750   37.489    0.319    0.318   55.117
  452.000   40.601    0.308    0.334   66.756
  452.250   43.888    0.312    0.347   70.558
  452.500   49.174    0.319    0.345   62.367
  452.750   56.888    0.325    0.342   56.991
  453.000   65.200    0.328    0.341   55.532
  453.250   70.340    0.327    0.337   47.707
  453.500   75.182    0.321    0.328   41.659
  453.750   57.786    0.314    0.320   44.668
