~VERSION INFORMATION
 VERS.                 2.0:   CWLS LOG ASCII STANDARD -VERSION 2.0
 WRAP.                  NO:   ONE LINE PER DEPTH STEP
~WELL INFORMATION BLOCK
#MNEM.UNIT           DATA                    DESCRIPTION OF MNEMONIC
#---------    -------------------            -------------------------------
# Generated from Intellog Unique Number	CS_73_76/WELL/811
WELL.         FOREST OIL CORPORATION         : Well_name    - WELL
LOC .         00/10-05-073-18W4/0            : Location     - LOCATION
UWI .         00/10-05-073-18W4/0            : Uwi          - UNIQUE WELL ID
ENTR.         SP                             : Entered      - ENTERED BY
SRVC.         SCHLUMBERGER                   : Scn          - SERVICE COMPANY
STRT.M        274.32                         : top_depth    - START DEPTH
STOP.M        496.57                         : bot_depth    - STOP DEPTH
STEP.M        0.25                           : increment    - STEP LENGTH
 NULL. -999.2500:NULL Value
~CURVE INFORMATION BLOCK
#MNEM UNIT       ERCB CURVE CODE    CURVE DESCRIPTION
#-----------   ------------------   ----------------------------------
DEPT.M        00 001 00 00         : DEPTH        - DEPTH
GR  .API      00 310 00 00         : GR           - GAMMA RAY
DPHI.V/V      00 890 00 00         : PHID         - DENSITY POROSITY (SANDSTONE)
NPHI.V/V      00 330 00 00         : PHIN         - NEUTRON POROSITY (SANDSTONE)
ILD .OHMM     00 120 00 00         : RESD         - DEEP RESISTIVITY (DIL)
~PARAMETER INFORMATION
#MNEM.UNIT           DATA             DESCRIPTION OF MNEMONIC
#---------         -----------     ------------------------------
GL  .M        594.543              : gl           - GROUND LEVEL ELEVATION
EREF.M        598.201              : kb           - ELEVATION OF DEPTH REFERENCE
DATM.M        594.543              : datum        - DATUM ELEVATION
TDD .M        520.903              : tdd          - TOTAL DEPTH DRILLER
RUN .         ONE                  : Run          - RUN NUMBER
ENG .         BILL                 : Engineer     - RECORDING ENGINEER
WIT .         JIM                  : Witness      - WITNESSED BY
MUD .         GEL                  : Mud_type     - MUD TYPE
MATR.         SANDSTONE            : Logunit      - NEUTRON MATRIX
TMAX.C        81.1111              : BHT          - MAXIMUM RECORDED TEMPERATURE
BHTD.M        520.903              : BHTDEP       - MAXIMUM RECORDED TEMPERATURE
MATR.         1                    : LOGUNIT      - NEUTRON MATRIX
RMT .C        25                   : MDTP         - TEMPERATURE OF MUD
NEUT.         1                    : NEUTRON      - NEUTRON TYPE
RESI.         0                    : RESIST       - RESISTIVITY TYPE
RMC .OHMM     0.25                 : RMC          - RESISTIVITY OF MUD CAKE
RMF .OHMM     0.25                 : RMF          - RESISTIVITY OF MUD FILTRATE
SUFT.C        15                   : SUFT         - SURFACE TEMPERATURE
~A  DEPTH       GR     PHID     PHIN     RESD
  274.320   88.450    0.248    0.558    2.826
  274.570   89.708    0.239    0.543    2.872
  274.820   89.711    0.245    0.535    2.933
  275.070   89.127    0.269    0.525    2.927
  275.320   89.161    0.260    0.534    2.956
  275.570   88.362    0.250    0.551    2.977
  275.820   87.955    0.231    0.563    2.978
  276.070   87.042    0.224    0.548    3.002
  276.320   86.081    0.220    0.536    3.028
  276.570   85.624    0.265    0.517    3.027
  276.820   84.946    0.256    0.506    3.010
  277.070   85.029    0.259    0.542    2.916
  277.320   86.111    0.295    0.571    2.910
  277.570   86.372    0.297    0.578    2.971
  277.820   87.429    0.271    0.563    3.019
  278.070   88.038    0.252    0.571    3.080
  278.320   88.732    0.230    0.567    3.088
  278.570   88.693    0.224    0.552    3.125
  278.820   89.027    0.238    0.540    3.287
  279.070   89.345    0.214    0.550    3.302
  279.320   90.881    0.214    0.557    3.307
  279.570   92.857    0.221    0.556    3.240
  279.820   94.826    0.229    0.537    3.178
  280.070   94.598    0.233    0.539    3.135
  280.320   91.814    0.207    0.566    3.107
  280.570   90.582    0.232    0.559    3.007
  280.820   88.370    0.222    0.547    2.969
  281.070   86.546    0.212    0.545    2.942
  281.320   83.577    0.264    0.557    2.845
  281.570   82.117    0.272    0.557    2.841
  281.820   80.684    0.275    0.557    2.918
  282.070   70.420    0.308    0.565    3.294
  282.320   63.192    0.344    0.646    3.904
  282.570   56.796    0.499    0.637    4.511
  282.820   53.809    0.458    0.615    5.071
  283.070   59.752    0.362    0.598    5.782
  283.320   62.102    0.323    0.567    6.450
  283.570   58.477    0.342    0.460    6.707
  283.820   55.576    0.363    0.434    6.392
  284.070   53.749    0.344    0.437    5.982
  284.320   53.408    0.317    0.473    5.863
  284.570   54.311    0.285    0.485    5.862
  284.820   52.747    0.258    0.454    5.860
  285.070   50.348    0.097    0.417    5.857
  285.320   55.039    0.071    0.390    5.854
  285.570   59.349    0.144    0.418    5.859
  285.820   63.057    0.205    0.421    5.685
  286.070   65.944    0.300    0.428    5.637
  286.320   67.901    0.289    0.431    5.715
  286.570   70.118    0.293    0.434    5.734
  286.820   72.458    0.287    0.430    5.734
  287.070   76.879    0.269    0.429    5.667
  287.320   81.806    0.253    0.440    5.467
  287.570   80.284    0.248    0.451    5.235
  287.820   79.585    0.263    0.463    4.923
  288.070   80.541    0.259    0.482    4.747
  288.320   84.170    0.245    0.498    5.087
  288.570   85.999    0.265    0.513    5.350
  288.820   86.143    0.286    0.481    5.745
  289.070   84.594    0.283    0.452    6.006
  289.320   83.679    0.310    0.430    6.363
  289.570   82.738    0.288    0.415    6.610
  289.820   85.685    0.265    0.415    6.815
  290.070   87.925    0.245    0.426    6.801
  290.320   89.348    0.225    0.438    6.715
  290.570   86.961    0.228    0.429    6.637
  290.820   84.538    0.243    0.435    6.384
  291.070   79.575    0.248    0.430    6.031
  291.320   73.188    0.265    0.423    5.633
  291.570   65.170    0.266    0.421    5.253
  291.820   56.939    0.294    0.418    5.109
  292.070   48.196    0.303    0.404    5.093
  292.320   40.986    0.295    0.393    5.207
  292.570   43.803    0.289    0.387    5.376
  292.820   54.446    0.276    0.409    5.483
  293.070   62.711    0.265    0.443    5.469
  293.320   68.368    0.258    0.444    5.290
  293.570   70.734    0.263    0.446    5.229
  293.820   72.750    0.293    0.448    4.906
  294.070   75.098    0.278    0.449    4.572
  294.320   77.379    0.279    0.445    4.291
  294.570   80.354    0.259    0.445    4.037
  294.820   84.238    0.137    0.468    3.741
  295.070   89.003    0.104    0.507    3.634
  295.320   90.061    0.161    0.526    3.421
  295.570   90.108    0.219    0.528    3.269
  295.820   92.833    0.264    0.534    3.144
  296.070   99.418    0.242    0.538    3.054
  296.320  102.917    0.231    0.523    2.959
  296.570  103.454    0.267    0.547    2.926
  296.820  100.594    0.327    0.566    2.915
  297.070   98.799    0.302    0.579    3.062
  297.320   96.374    0.273    0.596    3.305
  297.570   95.027    0.233    0.554    3.647
  297.820   94.616    0.258    0.531    4.128
  298.070   96.214    0.294    0.526    4.645
  298.320   99.714    0.310    0.539    5.216
  298.570  100.367    0.293    0.503    5.865
  298.820   97.921    0.279    0.482    6.146
  299.070   97.438    0.267    0.457    5.994
  299.320   97.042    0.282    0.446    5.820
  299.570   97.619    0.300    0.440    5.824
  299.820   98.420    0.246    0.453    5.852
  300.070   99.462    0.244    0.461    5.917
  300.320   97.704    0.277    0.471    6.141
  300.570   92.483    0.290    0.495    6.442
  300.820   89.367    0.298    0.478    7.060
  301.070   87.100    0.272    0.467    7.617
  301.320   86.417    0.253    0.476    8.601
  301.570   85.620    0.228    0.481    9.731
  301.820   79.961    0.251    0.493   10.521
  302.070   74.102    0.285    0.491   11.393
  302.320   67.784    0.312    0.487   12.468
  302.570   66.238    0.323    0.482   12.980
  302.820   66.739    0.293    0.492   13.141
  303.070   66.755    0.271    0.505   11.744
  303.320   66.777    0.267    0.496   10.443
  303.570   66.755    0.294    0.494    9.355
  303.820   67.451    0.315    0.497    8.438
  304.070   67.437    0.314    0.487    7.970
  304.320   66.883    0.294    0.479    7.869
  304.570   68.391    0.270    0.468    7.935
  304.820   73.077    0.238    0.453    8.007
  305.070   74.823    0.240    0.459    7.894
  305.320   76.825    0.283    0.482    7.599
  305.570   73.933    0.295    0.499    7.288
  305.820   70.618    0.311    0.514    6.742
  306.070   69.299    0.294    0.503    6.248
  306.320   71.068    0.281    0.509    5.974
  306.570   73.970    0.300    0.514    5.674
  306.820   77.731    0.272    0.501    5.662
  307.070   84.433    0.249    0.489    5.844
  307.320   89.816    0.240    0.482    5.847
  307.570   93.362    0.263    0.472    5.845
  307.820   93.722    0.278    0.456    5.841
  308.070   97.267    0.286    0.464    5.802
  308.320  102.617    0.269    0.469    5.620
  308.570  107.745    0.241    0.470    5.509
  308.820  110.493    0.236    0.481    5.619
  309.070  105.862    0.240    0.494    5.833
  309.320   99.752    0.256    0.506    6.092
  309.570   96.342    0.289    0.483    6.177
  309.820   89.530    0.250    0.465    6.266
  310.070   84.456    0.227    0.447    5.927
  310.320   89.732    0.218    0.412    5.108
  310.570   93.652    0.210    0.412    4.554
  310.820   96.478    0.192    0.417    3.911
  311.070   98.452    0.180    0.437    3.519
  311.320   99.857    0.164    0.459    3.309
  311.570  102.217    0.188    0.482    3.340
  311.820  103.746    0.209    0.528    3.629
  312.070  102.178    0.237    0.555    4.170
  312.320   97.178    0.279    0.547    4.710
  312.570   91.289    0.290    0.535    5.476
  312.820   84.755    0.288    0.539    6.113
  313.070   78.981    0.269    0.531    6.470
  313.320   72.490    0.245    0.508    6.565
  313.570   69.014    0.193    0.481    6.518
  313.820   68.012    0.280    0.479    6.330
  314.070   68.528    0.305    0.455    6.256
  314.320   69.072    0.324    0.444    5.678
  314.570   71.868    0.295    0.440    5.248
  314.820   74.876    0.296    0.451    4.932
  315.070   77.818    0.286    0.437    4.813
  315.320   82.432    0.266    0.428    5.472
  315.570   86.452    0.249    0.454    6.540
  315.820   84.890    0.242    0.504    7.731
  316.070   76.607    0.254    0.535    8.558
  316.320   71.840    0.285    0.519    9.746
  316.570   65.478    0.341    0.474   10.610
  316.820   62.233    0.341    0.463   11.087
  317.070   60.901    0.327    0.470   10.784
  317.320   60.339    0.319    0.468   10.208
  317.570   59.668    0.329    0.456    9.166
