~VERSION INFORMATION
 VERS.                 2.0:   CWLS LOG ASCII STANDARD -VERSION 2.0
 WRAP.                  NO:   ONE LINE PER DEPTH STEP
~WELL INFORMATION BLOCK
#MNEM.UNIT           DATA                    DESCRIPTION OF MNEMONIC
#---------    -------------------            -------------------------------
# Generated from Intellog Unique Number	CS_71_72/WELL/899
WELL.         PEX PHILLIPS AEC GRIST         : Well_name    - WELL
LOC .         00/11-17-071-07W4/0            : Location     - LOCATION
UWI .         00/11-17-071-07W4/0            : Uwi          - UNIQUE WELL ID
ENTR.         SP                             : Entered      - ENTERED BY
SRVC.         SCHLUMBERGER                   : Scn          - SERVICE COMPANY
STRT.M        300                            : top_depth    - START DEPTH
STOP.M        520                            : bot_depth    - STOP DEPTH
STEP.M        0.25                           : increment    - STEP LENGTH
 NULL. -999.2500:NULL Value
~CURVE INFORMATION BLOCK
#MNEM UNIT       ERCB CURVE CODE    CURVE DESCRIPTION
#-----------   ------------------   ----------------------------------
DEPT.M        00 001 00 00         : DEPTH        - DEPTH
ILD .OHMM     00 120 00 00         : RESD         - DEEP RESISTIVITY (DIL)
DPHI.V/V      00 890 00 00         : PHID         - DENSITY POROSITY (LIMESTONE)
NPHI.V/V      00 330 00 00         : PHIN         - NEUTRON POROSITY (LIMESTONE)
GR  .API      00 310 00 00         : GR           - GAMMA RAY
~PARAMETER INFORMATION
#MNEM.UNIT           DATA             DESCRIPTION OF MNEMONIC
#---------         -----------     ------------------------------
GL  .M        659.5                : gl           - GROUND LEVEL ELEVATION
EREF.M        663.5                : kb           - ELEVATION OF DEPTH REFERENCE
DATM.M        659.5                : datum        - DATUM ELEVATION
TDD .M        526                  : tdd          - TOTAL DEPTH DRILLER
RUN .         ONE                  : Run          - RUN NUMBER
ENG .         BILL                 : Engineer     - RECORDING ENGINEER
WIT .         JIM                  : Witness      - WITNESSED BY
MUD .         GEL                  : Mud_type     - MUD TYPE
MATR.         LIMESTONE            : Logunit      - NEUTRON MATRIX
TMAX.C        23                   : BHT          - MAXIMUM RECORDED TEMPERATURE
BHTD.M        526                  : BHTDEP       - MAXIMUM RECORDED TEMPERATURE
MATR.         1                    : LOGUNIT      - NEUTRON MATRIX
RMT .C        25                   : MDTP         - TEMPERATURE OF MUD
NEUT.         1                    : NEUTRON      - NEUTRON TYPE
RESI.         0                    : RESIST       - RESISTIVITY TYPE
RMC .OHMM     0.25                 : RMC          - RESISTIVITY OF MUD CAKE
RMF .OHMM     0.25                 : RMF          - RESISTIVITY OF MUD FILTRATE
SUFT.C        15                   : SUFT         - SURFACE TEMPERATURE
~A  DEPTH     RESD     PHID     PHIN       GR
# ...
  474.000    9.363    0.243    0.374   86.525
  474.250    8.290    0.226    0.356   94.639
  474.500    7.694    0.214    0.336   99.398
  474.750    7.555    0.208    0.327  100.803
  475.000    7.504    0.205    0.342  101.719
  475.250    7.509    0.194    0.355  102.818
  475.500    7.880    0.181    0.355  102.880
  475.750    8.080    0.190    0.366   95.744
  476.000    8.509    0.201    0.370   90.438
  476.250    8.790    0.207    0.357   89.219
  476.500    9.255    0.215    0.378   90.319
  476.750    9.857    0.251    0.417   73.300
  477.000   10.089    0.280    0.446   61.590
  477.250    9.559    0.258    0.369   62.323
  477.500    9.127    0.223    0.350   76.476
  477.750    9.395    0.221    0.364   81.357
  478.000   10.234    0.233    0.397   73.001
  478.250   12.020    0.245    0.421   62.084
  478.500   17.669    0.255    0.410   49.763
  478.750   27.432    0.270    0.370   41.956
  479.000   33.840    0.284    0.356   39.395
  479.250   37.494    0.287    0.369   36.529
  479.500   34.342    0.298    0.357   42.569
  479.750   28.896    0.305    0.350   49.402
  480.000   23.457    0.288    0.347   57.639
  480.250   16.910    0.267    0.333   68.681
  480.500   12.997    0.240    0.317   76.185
  480.750   11.770    0.209    0.310   77.345
  481.000   13.214    0.202    0.331   67.465
  481.250   15.727    0.210    0.355   55.937
  481.500   22.222    0.229    0.373   49.960
  481.750   32.114    0.252    0.385   46.606
  482.000   37.514    0.287    0.380   45.387
  482.250   39.054    0.297    0.373   45.388
  482.500   33.295    0.295    0.362   46.914
  482.750   26.277    0.296    0.355   50.271
  483.000   23.263    0.266    0.359   57.470
  483.250   25.437    0.250    0.377   63.754
  483.500   30.561    0.261    0.389   63.145
  483.750   42.057    0.284    0.392   60.645
  484.000   51.104    0.294    0.392   57.474
  484.250   58.579    0.301    0.396   52.474
  484.500   59.284    0.299    0.384   48.815
  484.750   52.391    0.299    0.376   47.169
  485.000   45.088    0.303    0.373   46.987
  485.250   38.296    0.306    0.371   46.988
  485.500   32.102    0.306    0.365   48.880
  485.750   27.577    0.302    0.370   52.176
  486.000   24.005    0.298    0.379   55.166
  486.250   21.615    0.293    0.371   58.034
  486.500   20.250    0.288    0.371   60.903
  486.750   19.295    0.286    0.384   63.954
  487.000   18.042    0.287    0.393   67.127
  487.250   16.095    0.299    0.387   69.873
  487.500   14.412    0.295    0.382   71.887
  487.750   12.830    0.279    0.377   73.901
  488.000   11.553    0.265    0.387   77.075
  488.250   10.463    0.251    0.393   82.322
  488.500    9.439    0.252    0.389   83.848
  488.750    8.694    0.248    0.376   80.128
  489.000    8.054    0.226    0.366   87.083
  489.250    7.545    0.209    0.370  106.483
  489.500    7.176    0.198    0.398  116.122
  489.750    7.208    0.192    0.388  120.942
  490.000    7.476    0.183    0.379  114.843
  490.250    7.756    0.194    0.385   98.679
  490.500    7.954    0.237    0.394   88.188
  490.750    8.095    0.251    0.367   74.952
  491.000    8.193    0.239    0.324   72.758
  491.250    8.229    0.206    0.314   74.955
  491.500    8.174    0.172    0.323   77.579
  491.750    8.118    0.147    0.338   77.763
  492.000    8.201    0.106    0.334   74.104
  492.250    8.653   -0.004    0.316   75.630
  492.500    9.267    0.061    0.304   82.830
  492.750    9.905    0.110    0.337   90.090
  493.000   10.790    0.161    0.377   88.017
  493.250   12.182    0.216    0.371   78.929
  493.500   13.884    0.207    0.351   72.891
  493.750   15.324    0.201    0.360   67.098
  494.000   16.199    0.210    0.343   62.646
  494.250   16.209    0.232    0.328   65.758
  494.500   15.798    0.251    0.346   69.297
  494.750   14.885    0.272    0.377   71.616
  495.000   13.530    0.292    0.402   70.519
  495.250   11.866    0.306    0.405   65.945
  495.500   10.585    0.290    0.378   64.300
  495.750    9.586    0.258    0.370   85.529
  496.000    9.049    0.201    0.351   93.277
  496.250    8.786    0.164    0.323   97.609
  496.500    8.563    0.198    0.322   85.411
  496.750    8.378    0.215    0.313   80.593
  497.000    8.196    0.186    0.296   82.485
  497.250    8.080    0.168    0.301   87.122
  497.500    7.994    0.153    0.298   86.818
  497.750    7.867    0.123    0.292   88.223
  498.000    7.812    0.120    0.303   91.945
  498.250    7.702    0.136    0.323   94.325
  498.500    7.620    0.168    0.333   91.093
  498.750    7.554    0.133    0.326   92.436
  499.000    7.421    0.138    0.322   93.963
  499.250    7.382    0.148    0.326   94.147
  499.500    7.294    0.150    0.339   95.673
  499.750    7.242    0.143    0.355   95.064
  500.000    7.206    0.157    0.369   90.551
  500.250    7.116    0.169    0.372   90.492
  500.500    7.042    0.167    0.357   90.981
  500.750    6.993    0.171    0.346   94.154
  501.000    6.894    0.168    0.364   99.462
  501.250    6.823    0.163    0.383  102.879
  501.500    6.787    0.158    0.391   97.573
  501.750    6.806    0.097    0.381   93.792
  502.000    6.874    0.067    0.363   91.781
  502.250    6.944    0.129    0.352   94.588
  502.500    6.884    0.147    0.366   97.883
  502.750    6.786    0.144    0.386  101.727
  503.000    7.213    0.140    0.410  108.804
  503.250    8.378    0.148    0.432   98.680
  503.500   11.123    0.134    0.386   88.067
  503.750   12.558    0.150    0.378   65.864
  504.000   13.002    0.193    0.390   54.580
  504.250   13.013    0.268    0.397   47.627
  504.500   13.020    0.302    0.378   54.094
  504.750   12.666    0.220    0.363   64.709
  505.000   11.913    0.197    0.381   69.957
  505.250   11.435    0.234    0.386   58.550
  505.500   11.188    0.206    0.373   55.868
  505.750   11.008    0.151    0.353   57.760
  506.000   10.509    0.114    0.323   49.953
  506.250    9.339    0.115    0.303   55.017
  506.500    7.948    0.160    0.328   66.303
  506.750    7.211    0.182    0.352   82.348
  507.000    6.641    0.191    0.369   91.072
  507.250    6.280    0.184    0.379   96.990
  507.500    6.381    0.184    0.395  100.530
  507.750    6.744    0.201    0.411   89.063
  508.000    6.903    0.211    0.396   84.367
  508.250    6.961    0.200    0.382   86.137
  508.500    6.657    0.191    0.379   85.101
  508.750    6.237    0.189    0.382   83.882
  509.000    5.843    0.184    0.395   86.140
  509.250    5.423    0.212    0.409   74.002
  509.500    4.976    0.244    0.430   64.610
  509.750    4.942    0.242    0.364   66.990
  510.000    5.097    0.188    0.355   73.762
  510.250    5.297    0.182    0.367   78.155
  510.500    5.557    0.188    0.374   85.843
  510.750    5.613    0.192    0.379   92.188
  511.000    5.045    0.183    0.396   81.575
  511.250    4.744    0.203    0.405   73.036
  511.500    4.650    0.247    0.349   65.351
  511.750    4.742    0.239    0.350   70.354
  512.000    4.891    0.227    0.359   70.904
  512.250    4.997    0.212    0.350   76.091
  512.500    5.086    0.187    0.356   84.266
  512.750    5.061    0.176    0.377   95.735
  513.000    5.084    0.184    0.414   87.867
  513.250    5.175    0.199    0.411   82.439
  513.500    5.277    0.212    0.397   81.709
  513.750    5.361    0.190    0.375   91.836
  514.000    5.477    0.158    0.373  106.172
  514.250    5.638    0.146    0.396  111.968
  514.500    5.904    0.139    0.418  115.752
  514.750    6.135    0.135    0.421  118.376
  515.000    5.946    0.135    0.422  120.268
  515.250    5.304    0.133    0.418  122.831
  515.500    4.858    0.108    0.414  103.068
  515.750    4.534   -0.005    0.418   89.954
  516.000    4.667   -0.008    0.431   73.546
  516.250    5.420   -0.008    0.357   61.103
  516.500    7.459   -0.007    0.225   38.961
  516.750   10.284   -0.006    0.201   34.753
  517.000   14.205   -0.003    0.222   50.920
  517.250   18.543    0.043    0.239   37.501
