~VERSION INFORMATION
 VERS.                 2.0:   CWLS LOG ASCII STANDARD -VERSION 2.0
 WRAP.                  NO:   ONE LINE PER DEPTH STEP
~WELL INFORMATION BLOCK
#MNEM.UNIT           DATA                    DESCRIPTION OF MNEMONIC
#---------    -------------------            -------------------------------
# Generated from Intellog Unique Number	CS_73_76/WELL/3237
WELL.         10-16-076-05W4                 : Well_name    - WELL
LOC .         00/10-16-076-05W4/0            : Location     - LOCATION
UWI .         00/10-16-076-05W4/0            : Uwi          - UNIQUE WELL ID
ENTR.         SP                             : Entered      - ENTERED BY
SRVC.         SCHLUMBERGER                   : Scn          - SERVICE COMPANY
STRT.M        210.312                        : top_depth    - START DEPTH
STOP.M        447.812                        : bot_depth    - STOP DEPTH
STEP.M        0.25                           : increment    - STEP LENGTH
 NULL. -999.2500:NULL Value
~CURVE INFORMATION BLOCK
#MNEM UNIT       ERCB CURVE CODE    CURVE DESCRIPTION
#-----------   ------------------   ----------------------------------
DEPT.M        00 001 00 00         : DEPTH        - DEPTH
GR  .API      00 310 00 00         : GR           - GAMMA RAY
DPHI.V/V      00 890 00 00         : PHID         - DENSITY POROSITY (SANDSTONE)
NPHI.V/V      00 330 00 00         : PHIN         - NEUTRON POROSITY (SANDSTONE)
ILD .OHMM     00 120 00 00         : RESD         - DEEP RESISTIVITY (DIL)
~PARAMETER INFORMATION
#MNEM.UNIT           DATA             DESCRIPTION OF MNEMONIC
#---------         -----------     ------------------------------
GL  .M        580.949              : gl           - GROUND LEVEL ELEVATION
EREF.M        584.302              : kb           - ELEVATION OF DEPTH REFERENCE
DATM.M        580.949              : datum        - DATUM ELEVATION
TDD .M        451.104              : tdd          - TOTAL DEPTH DRILLER
RUN .         ONE                  : Run          - RUN NUMBER
ENG .         BILL                 : Engineer     - RECORDING ENGINEER
WIT .         JIM                  : Witness      - WITNESSED BY
MUD .         GEL                  : Mud_type     - MUD TYPE
MATR.         SANDSTONE            : Logunit      - NEUTRON MATRIX
TMAX.C        17.2222              : BHT          - MAXIMUM RECORDED TEMPERATURE
BHTD.M        451.104              : BHTDEP       - MAXIMUM RECORDED TEMPERATURE
MATR.         1                    : LOGUNIT      - NEUTRON MATRIX
RMT .C        25                   : MDTP         - TEMPERATURE OF MUD
NEUT.         1                    : NEUTRON      - NEUTRON TYPE
RESI.         0                    : RESIST       - RESISTIVITY TYPE
RMC .OHMM     0.25                 : RMC          - RESISTIVITY OF MUD CAKE
RMF .OHMM     0.25                 : RMF          - RESISTIVITY OF MUD FILTRATE
SUFT.C        15                   : SUFT         - SURFACE TEMPERATURE
~A  DEPTH       GR     PHID     PHIN     RESD
# ...
  384.312   55.056    0.299    0.383   25.910
  384.562   52.674    0.310    0.365   27.317
  384.812   50.716    0.289    0.382   29.189
  385.062   46.381    0.296    0.391   32.605
  385.312   46.299    0.304    0.390   35.690
  385.562   48.736    0.305    0.381   38.357
  385.812   50.600    0.310    0.374   41.267
  386.062   47.752    0.320    0.368   42.439
  386.312   42.178    0.312    0.371   43.096
  386.562   39.173    0.315    0.376   43.075
  386.812   36.272    0.331    0.381   43.044
  387.062   35.680    0.343    0.388   39.489
  387.312   38.923    0.341    0.377   33.990
  387.562   42.949    0.325    0.367   30.459
  387.812   45.387    0.310    0.381   28.663
  388.062   45.601    0.298    0.367   27.716
  388.312   43.583    0.299    0.379   26.440
  388.562   43.365    0.314    0.367   24.237
  388.812   47.889    0.328    0.353   21.074
  389.062   56.787    0.307    0.343   18.854
  389.312   69.028    0.271    0.356   15.867
  389.562   68.813    0.237    0.384   13.979
  389.812   72.675    0.237    0.364   12.833
  390.062   80.155    0.240    0.337   11.584
  390.312   85.269    0.204    0.353   10.964
  390.562   68.016    0.203    0.395   10.594
  390.812   60.414    0.237    0.395   11.030
  391.062   52.492    0.262    0.388   12.706
  391.312   47.395    0.258    0.396   16.121
  391.562   41.851    0.265    0.404   19.766
  391.812   37.676    0.292    0.397   24.001
  392.062   35.700    0.315    0.407   28.168
  392.312   34.668    0.323    0.418   32.818
  392.562   39.979    0.332    0.420   34.476
  392.812   46.182    0.345    0.420   29.922
  393.062   57.251    0.371    0.438   22.968
  393.312   66.067    0.370    0.443   17.616
  393.562   73.703    0.336    0.383   14.867
  393.812   78.665    0.287    0.386   13.505
  394.062   72.455    0.247    0.378   12.995
  394.312   68.997    0.249    0.357   12.254
  394.562   65.728    0.268    0.368   12.139
  394.812   58.845    0.296    0.386   12.542
  395.062   50.497    0.322    0.389   13.138
  395.312   47.391    0.311    0.377   14.248
  395.562   44.959    0.303    0.371   15.239
  395.812   47.960    0.314    0.366   17.069
  396.062   52.481    0.320    0.364   18.755
  396.312   60.762    0.313    0.371   18.010
  396.562   66.370    0.315    0.386   16.273
  396.812   70.111    0.291    0.384   14.696
  397.062   74.733    0.268    0.381   13.163
  397.312   78.603    0.267    0.398   12.204
  397.562   81.226    0.279    0.398   11.251
  397.812   83.961    0.288    0.389   10.838
  398.062   82.852    0.269    0.415   10.379
  398.312   77.295    0.251    0.442    9.775
  398.562   68.395    0.275    0.440    9.467
  398.812   62.382    0.290    0.423    9.172
  399.062   50.272    0.299    0.403    9.152
  399.312   45.789    0.314    0.388    8.947
  399.562   44.781    0.319    0.379    8.694
  399.812   44.706    0.316    0.371    8.494
  400.062   44.693    0.308    0.362    8.339
  400.312   45.293    0.309    0.356    8.187
  400.562   45.074    0.296    0.355    8.159
  400.812   44.705    0.301    0.362    8.056
  401.062   42.035    0.307    0.366    8.073
  401.312   39.770    0.308    0.370    7.870
  401.562   34.795    0.306    0.379    7.799
  401.812   32.582    0.313    0.367    7.220
  402.062   33.462    0.319    0.357    6.671
  402.312   34.424    0.323    0.353    6.330
  402.562   35.221    0.329    0.354    5.343
  402.812   34.450    0.327    0.362    4.810
  403.062   33.313    0.316    0.364    4.292
  403.312   32.124    0.320    0.357    4.075
  403.562   30.380    0.323    0.351    3.964
  403.812   30.388    0.320    0.345    3.843
  404.062   30.414    0.320    0.343    3.827
  404.312   29.821    0.314    0.340    3.827
  404.562   30.153    0.305    0.347    3.830
  404.812   30.439    0.304    0.359    3.834
  405.062   31.524    0.321    0.354    3.770
  405.312   31.784    0.320    0.347    3.740
  405.562   32.781    0.323    0.347    3.631
  405.812   32.766    0.338    0.369    3.579
  406.062   33.001    0.338    0.380    3.545
  406.312   33.364    0.326    0.370    3.506
  406.562   33.939    0.332    0.356    3.509
  406.812   34.764    0.337    0.357    3.526
  407.062   35.695    0.333    0.351    3.638
  407.312   39.324    0.323    0.343    3.829
  407.562   43.413    0.305    0.335    3.954
  407.812   47.919    0.290    0.324    4.204
  408.062   50.257    0.279    0.319    4.421
  408.312   52.525    0.272    0.310    4.644
  408.562   52.364    0.287    0.345    4.634
  408.812   52.214    0.318    0.376    4.672
  409.062   50.504    0.328    0.371    4.718
  409.312   47.742    0.307    0.363    4.641
  409.562   43.980    0.286    0.357    4.497
  409.812   40.452    0.306    0.355    4.316
  410.062   37.872    0.322    0.353    4.138
  410.312   37.012    0.337    0.366    3.996
  410.562   38.033    0.344    0.377    3.878
  410.812   41.286    0.350    0.390    3.754
  411.062   45.475    0.350    0.395    3.832
  411.312   49.622    0.347    0.385    3.900
  411.562   88.992    0.290    0.354    4.971
  411.812  109.200    0.258    0.345    5.908
  412.062  121.900    0.207    0.334    6.988
  412.312  132.274    0.183    0.404    7.724
  412.562  138.951    0.174    0.427    8.114
  412.812  144.343    0.166    0.444    8.012
  413.062  149.012    0.169    0.459    7.758
  413.312  146.469    0.193    0.471    7.670
  413.562  145.673    0.211    0.479    7.758
  413.812  144.267    0.214    0.491    7.798
  414.062  142.379    0.202    0.500    7.936
  414.312  138.955    0.199    0.486    8.177
  414.562  133.072    0.209    0.474    8.424
  414.812  127.171    0.195    0.462    8.699
  415.062  125.211    0.189    0.453    8.413
  415.312  128.720    0.198    0.446    7.915
  415.562  130.135    0.180    0.460    7.328
  415.812  129.227    0.172    0.471    7.012
  416.062  124.946    0.167    0.459    6.852
  416.312  121.613    0.176    0.452    6.920
  416.562  118.905    0.193    0.457    7.098
  416.812  121.442    0.198    0.461    7.354
  417.062  122.045    0.208    0.478    7.584
  417.312  122.753    0.210    0.485    7.841
  417.562  124.264    0.213    0.492    8.204
  417.812  125.212    0.205    0.503    8.416
  418.062  126.863    0.200    0.491    8.054
  418.312  125.949    0.203    0.510    7.840
  418.562  122.132    0.221    0.467    7.576
  418.812  118.234    0.231    0.448    7.345
  419.062  116.512    0.244    0.426    7.114
  419.312  118.387    0.225    0.414    7.088
  419.562  113.161    0.211    0.412    7.082
  419.812  108.272    0.202    0.411    7.067
  420.062  103.088    0.216    0.409    7.223
  420.312   98.362    0.223    0.403    7.208
  420.562   97.665    0.223    0.391    7.207
  420.812   96.799    0.226    0.385    7.208
  421.062   94.214    0.225    0.388    7.101
  421.312   92.324    0.221    0.398    6.945
  421.562   88.071    0.229    0.404    6.808
  421.812   88.651    0.242    0.394    6.722
  422.062   88.580    0.236    0.387    6.457
  422.312   84.954    0.241    0.380    5.645
  422.562   72.446    0.240    0.380    4.925
  422.812   61.082    0.257    0.423    4.645
  423.062   52.786    0.311    0.425    4.085
  423.312   44.318    0.347    0.412    3.732
  423.562   44.236    0.364    0.404    3.550
  423.812   50.516    0.341    0.395    3.505
  424.062   54.715    0.319    0.404    3.629
  424.312   59.067    0.297    0.392    3.939
  424.562   69.395    0.282    0.382    4.305
  424.812   82.483    0.258    0.370    4.701
  425.062   96.811    0.221    0.364    4.994
  425.312  104.480    0.178    0.398    5.487
  425.562  109.642    0.159    0.406    5.917
  425.812  110.044    0.136    0.417    6.077
  426.062  110.803    0.116    0.408    5.996
  426.312  116.629    0.086    0.414    5.938
  426.562  120.206    0.183    0.432    5.856
  426.812  113.075    0.182    0.441    5.735
  427.062  109.031    0.195    0.435    5.747
  427.312  106.984    0.180    0.429    5.650
  427.562  109.718    0.165    0.434    5.639
