~VERSION INFORMATION
 VERS.                 2.0:   CWLS LOG ASCII STANDARD -VERSION 2.0
 WRAP.                  NO:   ONE LINE PER DEPTH STEP
~WELL INFORMATION BLOCK
#MNEM.UNIT           DATA                    DESCRIPTION OF MNEMONIC
#---------    -------------------            -------------------------------
# Generated from Intellog Unique Number	CW_76_78/WELL/901
WELL.         PCP MARTEN HILLS 10-22         : Well_name    - WELL
LOC .         00/10-22-076-04W5/0            : Location     - LOCATION
UWI .         00/10-22-076-04W5/0            : Uwi          - UNIQUE WELL ID
ENTR.         JAYE                           : Entered      - ENTERED BY
SRVC.         SCHLUMBERGER                   : Scn          - SERVICE COMPANY
DATE.         24 MAR 74                      : Date         - LOG DATE
STRT.M        524.256                        : top_depth    - START DEPTH
STOP.M        777.256                        : bot_depth    - STOP DEPTH
STEP.M        0.25                           : increment    - STEP LENGTH
 NULL. -999.2500:NULL Value
~CURVE INFORMATION BLOCK
#MNEM UNIT       ERCB CURVE CODE    CURVE DESCRIPTION
#-----------   ------------------   ----------------------------------
DEPT.M        00 001 00 00         : DEPTH        - DEPTH
ILD .OHMM     00 120 00 00         : RESD         - DEEP RESISTIVITY (DIL)
NPHI.V/V      00 330 00 00         : PHIN         - NEUTRON POROSITY (SANDSTONE)
DPHI.V/V      00 890 00 00         : PHID         - DENSITY POROSITY (SANDSTONE)
GR  .API      00 310 00 00         : GR           - GAMMA RAY
CALI.MM       00 280 01 00         : CAL          - CALIPER
~PARAMETER INFORMATION
#MNEM.UNIT           DATA             DESCRIPTION OF MNEMONIC
#---------         -----------     ------------------------------
GL  .M        833.476              : gl           - GROUND LEVEL ELEVATION
EREF.M        837.133              : kb           - ELEVATION OF DEPTH REFERENCE
DATM.M        833.476              : datum        - DATUM ELEVATION
TDD .M        790.346              : tdd          - TOTAL DEPTH DRILLER
RUN .         ONE                  : Run          - RUN NUMBER
ENG .         WILLIGER             : Engineer     - RECORDING ENGINEER
WIT .         BOND                 : Witness      - WITNESSED BY
BASE.         RD                   : Branch       - HOME BASE OF LOGGING UNIT
MUD .         CHEM GEL             : Mud_type     - MUD TYPE
MATR.         SANDSTONE            : Logunit      - NEUTRON MATRIX
TMAX.C        27.7778              : BHT          - MAXIMUM RECORDED TEMPERATURE
BHTD.M        790.651              : BHTDEP       - MAXIMUM RECORDED TEMPERATURE
RMT .C        9.44444              : MDTP         - TEMPERATURE OF MUD
MUDD.KG/M     1164                 : MWT          - MUD DENSITY
NEUT.         1                    : NEUTRON      - NEUTRON TYPE
RESI.         0                    : RESIST       - RESISTIVITY TYPE
RM  .OHMM     4.84                 : RM           - RESISTIVITY OF MUD
RMC .OHMM     0                    : RMC          - RESISTIVITY OF MUD CAKE
RMF .OHMM     5.54                 : RMF          - RESISTIVITY OF MUD FILTRATE
SUFT.C        -17.7778             : SUFT         - SURFACE TEMPERATURE
~A  DEPTH     RESD     PHIN     PHID       GR      CAL
# ...
  670.256    3.655    0.394    0.231   72.135  198.639
  670.506    3.594    0.412    0.223   73.545  199.582
  670.756    3.613    0.420    0.236   72.214  200.629
  671.006    3.680    0.418    0.216   70.703  201.778
  671.256    3.804    0.418    0.193   72.233  202.929
  671.506    4.050    0.408    0.200   75.591  203.252
  671.756    4.507    0.394    0.186   72.921  203.474
  672.006    5.110    0.362    0.168   68.913  203.285
  672.256    5.923    0.312    0.130   66.853  204.641
  672.506    6.190    0.323    0.129   68.628  206.203
  672.756    5.920    0.359    0.176   69.915  197.869
  673.006    5.347    0.392    0.212   73.273  200.669
  673.256    4.594    0.416    0.200   77.726  202.540
  673.506    4.219    0.431    0.227   79.318  197.814
  673.756    3.983    0.445    0.248   75.675  196.695
  674.006    3.774    0.433    0.249   71.666  201.144
  674.256    3.637    0.416    0.223   73.564  203.840
  674.506    3.530    0.439    0.202   75.704  203.135
  674.756    3.510    0.447    0.197   76.747  203.769
  675.006    3.542    0.432    0.210   77.913  204.094
  675.256    3.647    0.443    0.212   80.541  204.110
  675.506    3.735    0.451    0.200   83.654  204.436
  675.756    3.825    0.447    0.208   80.498  204.556
  676.006    3.932    0.438    0.222   81.179  204.777
  676.256    4.035    0.418    0.224   81.796  205.205
  676.506    4.117    0.416    0.210   80.710  205.427
  676.756    4.169    0.424    0.191   78.770  205.750
  677.006    4.184    0.414    0.192   76.650  206.385
  677.256    4.168    0.403    0.197   76.050  207.742
  677.506    4.129    0.396    0.192   77.155  208.273
  677.756    4.067    0.391    0.180   77.591  208.701
  678.006    4.044    0.379    0.191   76.930  208.511
  678.256    4.036    0.373    0.195   71.948  207.290
  678.506    4.133    0.378    0.186   67.939  203.800
  678.756    4.524    0.360    0.164   62.957  196.291
  679.006    5.263    0.325    0.134   61.628  196.616
  679.256    6.261    0.313    0.156   66.811  201.065
  679.506    6.715    0.364    0.182   70.047  202.317
  679.756    6.567    0.397    0.206   72.247  195.632
  680.006    6.064    0.394    0.195   72.683  198.328
  680.256    5.366    0.395    0.205   73.545  200.406
  680.506    4.856    0.422    0.201   76.233  200.835
  680.756    4.576    0.420    0.194   79.407  200.851
  681.006    4.409    0.422    0.188   81.427  201.382
  681.256    4.351    0.429    0.191   80.766  202.532
  681.506    4.231    0.425    0.180   80.045  204.508
  681.756    4.223    0.412    0.178   79.871  206.171
  682.006    4.245    0.399    0.184   80.124  207.836
  682.256    4.284    0.386    0.179   80.988  208.059
  682.506    4.347    0.393    0.172   81.664  207.972
  682.756    4.419    0.397    0.166   82.587  208.092
  683.006    4.435    0.401    0.150   83.693  208.108
  683.256    4.450    0.406    0.162   84.311  208.225
  683.506    4.449    0.407    0.159   83.894  208.447
  683.756    4.448    0.411    0.161   84.816  209.700
  684.006    4.415    0.416    0.170   85.495  209.098
  684.256    4.373    0.419    0.177   82.400  209.114
  684.506    4.340    0.423    0.170   79.670  209.955
  684.756    4.323    0.429    0.161   81.019  211.002
  685.006    4.291    0.439    0.150   83.768  212.358
  685.256    4.250    0.451    0.190   85.482  213.713
  685.506    4.172    0.446    0.207   85.612  213.934
  685.756    4.095    0.429    0.220   84.587  211.375
  686.006    3.909    0.406    0.206   84.109  206.751
  686.256    3.773    0.428    0.224   81.075  203.776
  686.506    3.622    0.448    0.225   81.084  201.938
  686.756    3.496    0.471    0.215   82.311  201.026
  687.006    3.432    0.485    0.207   80.007  200.732
  687.256    3.406    0.469    0.199   77.277  200.644
  687.506    3.430    0.458    0.203   75.704  200.351
  687.756    3.526    0.447    0.208   76.322  198.512
  688.006    3.672    0.442    0.201   78.096  196.470
  688.256    3.753    0.455    0.205   79.810  198.751
  688.506    3.780    0.450    0.201   76.532  199.798
  688.756    3.752    0.445    0.229   73.255  198.473
  689.006    3.510    0.436    0.221   75.030  198.075
  689.256    3.382    0.433    0.209   78.266  198.815
  689.506    3.419    0.436    0.203   79.371  199.861
  689.756    3.540    0.444    0.215   77.310  201.526
  690.006    3.680    0.461    0.246   73.911  200.304
  690.256    3.954    0.461    0.270   71.120  197.744
  690.506    4.312    0.441    0.268   66.502  195.492
  690.756    4.642    0.425    0.260   63.955  194.169
  691.006    4.851    0.411    0.276   65.729  193.362
  691.256    4.877    0.409    0.275   68.052  192.964
  691.506    4.904    0.418    0.270   68.488  192.466
  691.756    4.885    0.424    0.270   66.671  192.168
  692.006    4.848    0.429    0.273   64.002  191.876
  692.256    4.838    0.441    0.281   62.611  191.891
  692.506    4.900    0.449    0.279   60.794  192.218
  692.756    5.027    0.442    0.298   59.099  192.645
  693.006    5.168    0.433    0.288   57.525  193.073
  693.256    5.381    0.422    0.285   56.683  193.913
  693.506    5.420    0.413    0.274   57.727  194.960
  693.756    5.070    0.403    0.250   60.780  197.039
  694.006    4.804    0.385    0.233   61.277  198.393
  694.256    4.975    0.356    0.182   58.972  199.543
  694.506    5.842    0.300    0.139   56.181  200.900
  694.756    7.238    0.226    0.087   52.173  202.771
  695.006    8.722    0.177    0.059   49.565  205.260
  695.256   10.375    0.237    0.091   53.653  204.864
  695.506   10.126    0.293    0.145   59.263  202.818
  695.756    8.246    0.343    0.262   63.473  198.402
  696.006    6.111    0.401    0.268   63.969  193.677
  696.256    4.931    0.436    0.256   63.918  192.765
  696.506    4.268    0.456    0.252   63.988  192.264
  696.756    3.805    0.444    0.253   64.363  191.974
  697.006    3.680    0.432    0.257   66.137  192.091
  697.256    3.686    0.421    0.259   67.912  192.211
  697.506    3.706    0.449    0.247   67.739  192.226
  697.756    3.753    0.435    0.258   67.261  192.344
  698.006    3.815    0.418    0.261   69.888  192.671
  698.256    3.879    0.405    0.272   71.176  192.685
  698.506    3.957    0.406    0.271   70.028  192.906
  698.756    3.979    0.413    0.261   69.308  193.029
  699.006    4.008    0.426    0.255   69.257  192.939
  699.256    4.044    0.421    0.253   69.085  193.060
  699.506    4.043    0.416    0.248   68.849  192.970
  699.756    4.013    0.413    0.242   67.884  193.088
  700.006    4.004    0.408    0.242   68.016  193.003
  700.256    4.033    0.402    0.235   68.877  193.019
  700.506    4.108    0.394    0.225   69.860  193.034
  700.756    4.207    0.386    0.221   71.088  192.844
  701.006    4.752    0.379    0.212   72.192  192.859
  701.256    5.415    0.370    0.204   73.351  199.765
  701.506    5.255    0.373    0.215   74.701  198.326
  701.756    4.962    0.397    0.238   76.418  197.610
  702.006    4.684    0.400    0.226   79.357  197.309
  702.256    4.496    0.406    0.200   76.795  197.111
  702.506    4.237    0.418    0.182   79.368  197.637
  702.756    4.052    0.433    0.201   81.880  197.855
  703.006    3.890    0.449    0.194   81.885  197.553
  703.256    3.838    0.428    0.181   78.835  198.390
  703.506    3.872    0.415    0.177   76.639  199.848
  703.756    4.023    0.404    0.198   80.007  200.995
  704.006    4.173    0.411    0.193   82.579  201.315
  704.256    4.319    0.414    0.203   83.746  201.118
  704.506    4.479    0.404    0.196   81.307  200.920
  704.756    4.578    0.413    0.203   77.339  200.102
  705.006    4.730    0.421    0.199   76.183  198.350
  705.256    4.879    0.417    0.211   75.760  195.875
  705.506    5.023    0.398    0.219   74.849  193.090
  705.756    5.104    0.387    0.208   75.894  191.857
  706.006    5.159    0.383    0.196   80.973  191.762
  706.256    5.176    0.393    0.187   83.728  192.600
  706.506    5.098    0.413    0.183   82.633  193.230
