~VERSION INFORMATION
 VERS.                 2.0:   CWLS LOG ASCII STANDARD -VERSION 2.0
 WRAP.                  NO:   ONE LINE PER DEPTH STEP
~WELL INFORMATION BLOCK
#MNEM.UNIT           DATA                    DESCRIPTION OF MNEMONIC
#---------    -------------------            -------------------------------
# Generated from Intellog Unique Number	CS_73_76/WELL/842
WELL.         HOUSTON OILS LIMITED           : Well_name    - WELL
LOC .         00/10-36-073-16W4/0            : Location     - LOCATION
UWI .         00/10-36-073-16W4/0            : Uwi          - UNIQUE WELL ID
ENTR.         SP                             : Entered      - ENTERED BY
SRVC.         SCHLUMBERGER                   : Scn          - SERVICE COMPANY
STRT.M        265.176                        : top_depth    - START DEPTH
STOP.M        481.426                        : bot_depth    - STOP DEPTH
STEP.M        0.25                           : increment    - STEP LENGTH
 NULL. -999.2500:NULL Value
~CURVE INFORMATION BLOCK
#MNEM UNIT       ERCB CURVE CODE    CURVE DESCRIPTION
#-----------   ------------------   ----------------------------------
DEPT.M        00 001 00 00         : DEPTH        - DEPTH
GR  .API      00 310 00 00         : GR           - GAMMA RAY
DPHI.V/V      00 890 00 00         : PHID         - DENSITY POROSITY (SANDSTONE)
NPHI.V/V      00 330 00 00         : PHIN         - NEUTRON POROSITY (SANDSTONE)
ILD .OHMM     00 120 00 00         : RESD         - DEEP RESISTIVITY (DIL)
~PARAMETER INFORMATION
#MNEM.UNIT           DATA             DESCRIPTION OF MNEMONIC
#---------         -----------     ------------------------------
GL  .M        609.295              : gl           - GROUND LEVEL ELEVATION
EREF.M        612.038              : kb           - ELEVATION OF DEPTH REFERENCE
DATM.M        609.295              : datum        - DATUM ELEVATION
TDD .M        485.546              : tdd          - TOTAL DEPTH DRILLER
RUN .         ONE                  : Run          - RUN NUMBER
ENG .         BILL                 : Engineer     - RECORDING ENGINEER
WIT .         JIM                  : Witness      - WITNESSED BY
MUD .         GEL                  : Mud_type     - MUD TYPE
MATR.         SANDSTONE            : Logunit      - NEUTRON MATRIX
TMAX.C        25.5556              : BHT          - MAXIMUM RECORDED TEMPERATURE
BHTD.M        485.546              : BHTDEP       - MAXIMUM RECORDED TEMPERATURE
MATR.         1                    : LOGUNIT      - NEUTRON MATRIX
RMT .C        25                   : MDTP         - TEMPERATURE OF MUD
NEUT.         1                    : NEUTRON      - NEUTRON TYPE
RESI.         0                    : RESIST       - RESISTIVITY TYPE
RMC .OHMM     0.25                 : RMC          - RESISTIVITY OF MUD CAKE
RMF .OHMM     0.25                 : RMF          - RESISTIVITY OF MUD FILTRATE
SUFT.C        15                   : SUFT         - SURFACE TEMPERATURE
~A  DEPTH       GR     PHID     PHIN     RESD
# ...
  395.676   56.113    0.242    0.346    6.066
  395.926   59.443    0.340    0.398    6.162
  396.176   61.523    0.347    0.458    5.939
  396.426   62.100    0.335    0.488    5.604
  396.676   62.628    0.338    0.514    5.353
  396.926   62.531    0.327    0.497    5.145
  397.176   62.504    0.332    0.486    4.949
  397.426   62.501    0.346    0.474    4.877
  397.676   62.512    0.341    0.482    4.829
  397.926   62.510    0.329    0.503    4.772
  398.176   63.131    0.336    0.511    4.781
  398.426   63.047    0.347    0.496    4.677
  398.676   63.684    0.358    0.523    4.687
  398.926   62.670    0.338    0.547    4.688
  399.176   61.502    0.336    0.522    4.692
  399.426   59.523    0.343    0.564    4.611
  399.676   60.270    0.352    0.501    4.606
  399.926   63.294    0.356    0.484    4.604
  400.176   65.253    0.332    0.489    4.604
  400.426   65.950    0.322    0.506    4.605
  400.676   64.198    0.333    0.549    4.606
  400.926   63.598    0.353    0.559    4.543
  401.176   64.449    0.355    0.520    4.523
  401.426   66.068    0.367    0.501    4.523
  401.676   67.219    0.367    0.521    4.435
  401.926   64.702    0.356    0.517    4.441
  402.176   61.995    0.346    0.504    4.441
  402.426   58.810    0.348    0.490    4.394
  402.676   60.332    0.353    0.480    4.351
  402.926   61.845    0.361    0.483    4.280
  403.176   61.037    0.353    0.502    4.283
  403.426   63.287    0.354    0.530    4.284
  403.676   66.607    0.367    0.592    4.284
  403.926   69.933    0.355    0.554    4.285
  404.176   72.105    0.351    0.535    4.285
  404.426   73.130    0.348    0.525    4.286
  404.676   72.421    0.354    0.546    4.286
  404.926   71.452    0.361    0.572    4.287
  405.176   71.808    0.353    0.590    4.287
  405.426   71.916    0.343    0.624    4.289
  405.676   70.898    0.355    0.593    4.284
  405.926   69.937    0.370    0.580    4.376
  406.176   69.040    0.356    0.564    4.369
  406.426   70.569    0.346    0.543    4.369
  406.676   73.850    0.336    0.524    4.369
  406.926   78.822    0.325    0.510    4.370
  407.176   82.124    0.313    0.504    4.373
  407.426   84.542    0.304    0.496    4.399
  407.676   84.017    0.293    0.487    4.452
  407.926   83.971    0.284    0.531    4.445
  408.176   84.914    0.276    0.575    4.546
  408.426   86.951    0.298    0.542    4.533
  408.676   88.008    0.317    0.598    4.622
  408.926   87.265    0.311    0.526    4.730
  409.176   84.769    0.291    0.483    4.799
  409.426   82.971    0.284    0.497    4.848
  409.676   83.537    0.292    0.520    4.788
  409.926   83.034    0.287    0.540    4.804
  410.176   82.585    0.297    0.507    4.664
  410.426   82.886    0.304    0.488    4.622
  410.676   86.839    0.307    0.491    4.534
  410.926   90.425    0.299    0.508    4.538
  411.176   92.965    0.288    0.490    4.543
  411.426   91.721    0.281    0.465    4.505
  411.676   89.145    0.276    0.474    4.539
  411.926   90.996    0.267    0.485    4.548
  412.176   92.888    0.265    0.497    4.453
  412.426   91.593    0.277    0.493    4.461
  412.676   91.089    0.285    0.500    4.460
  412.926   92.990    0.277    0.516    4.424
  413.176   94.222    0.281    0.526    4.377
  413.426   95.232    0.279    0.514    4.258
  413.676   96.487    0.261    0.489    3.955
  413.926  100.199    0.278    0.499    3.853
  414.176   99.646    0.260    0.506    3.850
  414.426   96.259    0.259    0.530    3.955
  414.676   89.623    0.277    0.544    3.996
  414.926   81.760    0.282    0.553    4.278
  415.176   76.091    0.255    0.533    4.660
  415.426   78.414    0.243    0.514    4.874
  415.676   80.391    0.267    0.514    5.039
  415.926   81.574    0.309    0.507    5.079
  416.176   78.965    0.318    0.498    5.088
  416.426   77.316    0.316    0.490    4.943
  416.676   78.663    0.308    0.494    4.900
  416.926   80.557    0.322    0.510    4.900
  417.176   82.460    0.335    0.521    4.900
  417.426   82.144    0.319    0.511    4.901
  417.676   81.144    0.302    0.488    4.955
  417.926   80.019    0.268    0.463    5.318
  418.176   75.772    0.234    0.507    6.829
  418.426   70.936    0.152    0.478    8.758
  418.676   65.685    0.131    0.340    9.802
  418.926   64.880    0.111    0.316   10.390
  419.176   63.149    0.115    0.310   10.120
  419.426   67.553    0.160    0.285    8.909
  419.676   77.497    0.195    0.306    7.392
  419.926   84.036    0.232    0.365    6.514
  420.176   88.726    0.244    0.435    5.888
  420.426   88.049    0.205    0.484    5.429
  420.676   88.225    0.180    0.487    5.249
  420.926   89.293    0.206    0.508    5.185
  421.176   89.595    0.228    0.514    5.176
  421.426   90.549    0.246    0.503    5.292
  421.676   90.456    0.225    0.492    5.283
  421.926   91.140    0.227    0.491    5.274
  422.176   91.031    0.236    0.502    5.388
  422.426   90.426    0.235    0.511    5.457
  422.676   91.397    0.225    0.496    5.622
  422.926   91.674    0.223    0.508    5.920
  423.176   89.804    0.232    0.502    6.284
  423.426   87.604    0.230    0.455    6.642
  423.676   83.301    0.199    0.459    6.840
  423.926   83.777    0.184    0.443    6.577
  424.176   90.289    0.165    0.397    6.055
  424.426   96.946    0.151    0.373    5.709
  424.676   97.785    0.169    0.449    5.585
  424.926   96.676    0.230    0.475    5.592
  425.176   99.496    0.248    0.470    5.586
  425.426   97.082    0.229    0.483    5.759
  425.676   98.418    0.249    0.505    5.808
  425.926  100.716    0.209    0.518    6.003
  426.176  104.087    0.202    0.506    6.018
  426.426  104.238    0.243    0.527    6.022
  426.676  104.298    0.235    0.478    6.019
  426.926  107.080    0.254    0.483    5.989
  427.176  109.020    0.291    0.497    5.915
  427.426  108.202    0.287    0.451    5.739
  427.676  103.707    0.239    0.420    5.557
  427.926  100.859    0.225    0.413    5.220
  428.176   99.479    0.226    0.424    5.063
  428.426   97.176    0.246    0.423    4.921
  428.676   93.481    0.234    0.441    4.852
  428.926   94.061    0.207    0.467    4.875
  429.176   90.901    0.173    0.440    4.920
  429.426   91.080    0.174    0.444    4.773
  429.676   93.970    0.191    0.450    4.451
  429.926   91.631    0.203    0.482    3.810
  430.176   92.298    0.212    0.503    3.367
  430.426   90.684    0.218    0.485    2.864
  430.676   93.501    0.249    0.543    2.382
  430.926   91.323    0.273    0.599    2.133
  431.176   95.356    0.292    0.614    1.919
  431.426   99.631    0.294    0.608    1.810
  431.676  105.814    0.254    0.643    1.762
  431.926  105.865    0.246    0.631    1.762
  432.176  103.862    0.254    0.623    1.787
  432.426  102.934    0.263    0.625    1.858
  432.676   99.249    0.252    0.623    1.977
  432.926   95.103    0.266    0.598    2.370
  433.176   92.078    0.289    0.595    2.625
  433.426   88.058    0.282    0.538    3.221
  433.676   85.713    0.249    0.500    3.638
  433.926   84.659    0.231    0.459    4.336
  434.176   88.789    0.210    0.416    4.901
  434.426   93.515    0.177    0.402    5.158
  434.676   96.786    0.222    0.462    5.363
  434.926   96.204    0.219    0.495    4.999
  435.176   91.332    0.229    0.515    5.268
  435.426   84.664    0.184    0.472    5.548
  435.676   79.424    0.127    0.413    6.161
  435.926   81.062    0.063    0.369    7.046
  436.176   85.601    0.207    0.357    7.538
  436.426   89.500    0.229    0.381    6.824
  436.676   94.174    0.228    0.397    6.266
  436.926   97.462    0.208    0.423    5.178
  437.176  102.532    0.228    0.461    4.104
  437.426  105.704    0.216    0.466    3.479
  437.676  110.373    0.239    0.482    3.148
  437.926  110.945    0.237    0.531    2.903
  438.176  108.275    0.223    0.601    2.680
  438.426  107.031    0.214    0.639    2.722
  438.676  103.081    0.218    0.619    2.935
  438.926   98.592    0.233    0.550    3.576
