~VERSION INFORMATION
 VERS.                 2.0:   CWLS LOG ASCII STANDARD -VERSION 2.0
 WRAP.                  NO:   ONE LINE PER DEPTH STEP
~WELL INFORMATION BLOCK
#MNEM.UNIT           DATA                    DESCRIPTION OF MNEMONIC
#---------    -------------------            -------------------------------
# Generated from Intellog Unique Number	CW_70_72/WELL/1052
NULL.         -999.25                        : NULL_VALUE
WELL.         G.P.D. SMITH 11-03             : Well_name    - WELL              
LOC .         11-03-072-01W5                 : Location     - LOCATION          
UWI .         00/11-03-072-01W5/0            : Uwi          - UNIQUE WELL ID    
ENTR.         JAYE                           : Entered      - ENTERED BY        
SRVC.         SCHLUMBERGER                   : Scn          - SERVICE COMPANY   
DATE.         30 JULY 76                     : Date         - LOG DATE          
STRT.M        435.864                        : top_depth    - START DEPTH       
STOP.M        694.864                        : bot_depth    - STOP DEPTH        
STEP.M        0.25                           : increment    - STEP LENGTH       
~CURVE INFORMATION BLOCK
#MNEM UNIT       ERCB CURVE CODE    CURVE DESCRIPTION
#-----------   ------------------   ----------------------------------
DEPT.M        00 001 00 00         : DEPTH        - DEPTH                       
DPHI.V/V      00 890 00 00         : PHID         - DENSITY POROSITY (SANDSTONE)
NPHI.V/V      00 330 00 00         : PHIN         - NEUTRON POROSITY (SANDSTONE)
GR  .API      00 310 00 00         : GR           - GAMMA RAY                   
CALI.MM       00 280 01 00         : CAL          - CALIPER                     
ILD .OHMM     00 120 00 00         : RESD         - DEEP RESISTIVITY (DIL)      
~PARAMETER INFORMATION       
#MNEM.UNIT           DATA             DESCRIPTION OF MNEMONIC
#---------         -----------     ------------------------------
GL  .M        635.203              : gl           - GROUND LEVEL ELEVATION      
EREF.M        638.861              : kb           - ELEVATION OF DEPTH REFERENCE
DATM.M        635.203              : datum        - DATUM ELEVATION             
TDD .M        719.328              : tdd          - TOTAL DEPTH DRILLER         
RUN .         ONE                  : Run          - RUN NUMBER                  
BASE.         EDM                  : Branch       - HOME BASE OF LOGGING UNIT   
MUD .         GEL                  : Mud_type     - MUD TYPE                    
MATR.         SANDSTONE            : Logunit      - NEUTRON MATRIX              
TMAX.C        36.1111              : BHT          - MAXIMUM RECORDED TEMPERATURE
BHTD.M        719.938              : BHTDEP       - MAXIMUM RECORDED TEMPERATURE
RMT .C        15.5556              : MDTP         - TEMPERATURE OF MUD          
MUDD.KG/M     1164                 : MWT          - MUD DENSITY                 
NEUT.         1                    : NEUTRON      - NEUTRON TYPE                
RESI.         0                    : RESIST       - RESISTIVITY TYPE            
RM  .OHMM     5.56                 : RM           - RESISTIVITY OF MUD          
RMC .OHMM     0                    : RMC          - RESISTIVITY OF MUD CAKE     
RMF .OHMM     5.16                 : RMF          - RESISTIVITY OF MUD FILTRATE 
SUFT.C        0                    : SUFT         - SURFACE TEMPERATURE         
~A  DEPTH     PHID     PHIN       GR      CAL     RESD
# ...
  581.864    0.179    0.433   82.254  179.816    5.000
  582.114    0.162    0.425   79.872  180.172    5.037
  582.364    0.187    0.415   77.133  180.432    5.130
  582.614    0.176    0.408   76.898  180.584    5.215
  582.864    0.167    0.403   78.401  180.414    5.263
  583.114    0.154    0.399   79.391  180.030    5.293
  583.364    0.151    0.411   81.714  179.848    5.303
  583.614    0.148    0.422   83.472  180.001    5.293
  583.864    0.140    0.415   81.702  180.482    5.246
  584.114    0.146    0.408   79.575  180.735    5.208
  584.364    0.161    0.413   79.698  181.112    5.237
  584.614    0.168    0.413   79.411  181.379    5.266
  584.864    0.177    0.408   79.023  181.306    5.305
  585.114    0.167    0.401   78.894  181.141    5.344
  585.364    0.150    0.404   79.013  181.062    5.354
  585.614    0.135    0.408   79.751  181.002    5.335
  585.864    0.107    0.413   81.815  180.939    5.306
  586.114    0.121    0.420   84.751  180.656    5.192
  586.364    0.137    0.433   88.041  180.381    4.853
  586.614    0.155    0.447   91.281  180.086    4.544
  586.864    0.167    0.450   91.405  181.429    4.374
  587.114    0.185    0.446   89.328  184.825    4.414
  587.364    0.190    0.432   87.764  185.840    4.520
  587.614    0.175    0.414   86.712  183.830    4.715
  587.864    0.166    0.402   85.761  183.329    4.881
  588.114    0.165    0.410   84.146  183.702    5.045
  588.364    0.151    0.408   82.174  184.073    5.281
  588.614    0.154    0.403   79.739  184.009    5.468
  588.864    0.160    0.391   76.384  183.615    5.640
  589.114    0.149    0.387   74.055  182.793    5.787
  589.364    0.160    0.379   73.718  182.190    5.883
  589.614    0.166    0.381   73.686  181.477    6.003
  589.864    0.155    0.377   73.297  181.295    6.025
  590.114    0.137    0.366   73.420  181.125    5.863
  590.364    0.130    0.375   75.637  181.176    5.674
  590.614    0.140    0.384   81.178  181.215    5.421
  590.864    0.152    0.396   82.938  181.578    5.217
  591.114    0.155    0.406   81.578  181.842    5.151
  591.364    0.165    0.413   83.387  182.105    5.180
  591.614    0.172    0.416   82.540  182.155    5.295
  591.864    0.180    0.414   81.282  182.185    5.373
  592.114    0.174    0.402   79.409  181.920    5.483
  592.364    0.163    0.386   77.743  181.842    5.554
  592.614    0.154    0.373   77.152  181.556    5.615
  592.864    0.138    0.386   78.194  181.176    5.688
  593.114    0.129    0.401   81.231  180.888    5.793
  593.364    0.148    0.408   83.656  180.396    5.847
  593.614    0.138    0.404   85.004  180.013    5.752
  593.864    0.134    0.405   85.329  179.714    5.505
  594.114    0.152    0.414   83.050  179.983    5.328
  594.364    0.151    0.414   79.135  180.343    5.251
  594.614    0.146    0.412   76.189  180.278    5.338
  594.864    0.156    0.402   72.480  179.238    5.578
  595.114    0.159    0.379   70.197  175.278    5.979
  595.364    0.151    0.358   66.895  171.866    6.421
  595.614    0.148    0.351   62.263  171.038    6.971
  595.864    0.146    0.375   59.421  170.971    7.555
  596.114    0.188    0.396   58.471  171.883    7.850
  596.364    0.196    0.396   58.236  172.900    8.354
  596.614    0.196    0.388   58.050  173.593    8.906
  596.864    0.173    0.373   57.866  174.403    9.340
  597.114    0.138    0.364   60.189  174.882    9.652
  597.364    0.165    0.380   61.898  175.016    9.688
  597.614    0.185    0.392   61.609  175.176    9.461
  597.864    0.191    0.387   61.425  175.210    8.652
  598.114    0.197    0.380   62.572  175.582    7.869
  598.364    0.196    0.383   62.898  176.168    7.118
  598.614    0.181    0.380   61.385  177.070    6.788
  598.864    0.196    0.382   60.894  178.306    6.629
  599.114    0.188    0.381   61.475  175.750    6.451
  599.364    0.186    0.368   63.492  173.089    6.323
  599.614    0.200    0.355   65.045  174.214    6.175
  599.864    0.202    0.356   66.702  173.829    6.052
  600.114    0.185    0.352   68.509  172.361    6.020
  600.364    0.176    0.342   70.932  171.641    5.944
  600.614    0.170    0.335   72.998  171.466    5.805
  600.864    0.161    0.333   74.860  171.724    5.617
  601.114    0.170    0.342   76.004  171.772    5.536
  601.364    0.162    0.354   76.485  171.599    5.649
  601.614    0.135    0.337   66.792  171.861    6.122
  601.864    0.084    0.311   60.013  171.142    6.782
  602.114    0.031    0.251   53.387  168.477    7.444
  602.364   -0.002    0.256   51.977  163.435    8.322
  602.614    0.045    0.290   59.563  166.617    9.440
  602.864    0.060    0.320   66.025  172.938   10.137
  603.114    0.099    0.380   69.879  175.683    9.580
  603.364    0.130    0.375   70.871  176.051    8.099
  603.614    0.145    0.370   70.892  174.916    6.847
  603.864    0.140    0.373   72.191  174.627    6.205
  604.114    0.139    0.374   71.291  174.783    6.160
  604.364    0.132    0.374   70.903  175.036    6.285
  604.614    0.122    0.374   71.025  175.189    6.448
  604.864    0.111    0.372   71.148  175.236    6.604
  605.114    0.094    0.367   71.731  175.175    6.726
  605.364    0.087    0.362   72.416  175.110    6.788
  605.614    0.105    0.352   73.049  174.826    6.641
  605.864    0.114    0.352   73.477  174.756    6.439
  606.114    0.130    0.364   74.827  175.020    6.288
  606.364    0.137    0.378   74.848  175.385    6.220
  606.614    0.130    0.381   72.567  175.964    6.175
  606.864    0.131    0.374   71.465  176.451    6.176
  607.114    0.125    0.361   73.324  176.922    6.244
  607.364    0.141    0.370   76.308  177.181    6.371
  607.614    0.132    0.369   73.876  177.327    6.549
  607.864    0.124    0.365   74.306  177.697    6.768
  608.114    0.137    0.374   75.656  177.738    6.944
  608.364    0.124    0.380   76.188  176.270    7.085
  608.614    0.110    0.368   75.849  173.929    7.163
  608.864    0.111    0.352   74.693  172.680    7.309
  609.114    0.111    0.344   71.596  172.615    7.554
  609.364    0.107    0.344   72.435  172.867    7.736
  609.614    0.095    0.346   73.375  173.673    7.995
  609.864    0.115    0.341   73.956  174.253    8.278
  610.114    0.108    0.334   74.286  174.946    8.446
  610.364    0.081    0.327   74.714  176.072    8.634
  610.614    0.103    0.341   75.710  177.308    8.730
  610.864    0.129    0.353   76.340  178.326    8.635
  611.114    0.136    0.357   77.587  178.917    8.464
  611.364    0.119    0.339   79.499  179.272    8.251
  611.614    0.106    0.333   78.753  179.865    8.058
  611.864    0.085    0.324   75.655  180.337    7.898
  612.114    0.057    0.314   74.141  180.705    7.870
  612.364    0.038    0.315   77.741  181.182    7.842
  612.614    0.067    0.326   83.178  181.549    7.729
  612.864    0.098    0.340   88.567  181.588    7.479
  613.114    0.138    0.355   85.928  181.635    7.120
  613.364    0.136    0.366   80.688  181.891    6.815
  613.614    0.124    0.388   78.046  183.236    6.429
  613.864    0.121    0.428   77.865  185.441    6.131
  614.114    0.154    0.486   79.522  188.515    5.637
  614.364    0.158    0.558   81.023  194.401    4.688
  614.614    0.235    0.535   82.221  203.863    3.507
  614.864    0.255    0.526   83.004  210.827    2.807
  615.114    0.232    0.519   83.536  218.444    2.284
  615.364    0.214    0.502   84.067  210.157    1.931
  615.614    0.198    0.474   84.599  201.867    1.949
  615.864    0.192    0.454   84.263  196.066    2.066
  616.114    0.177    0.442   84.030  191.026    2.223
  616.364    0.161    0.431   82.771  187.710    2.531
  616.614    0.150    0.417   81.461  183.756    2.778
  616.864    0.109    0.384   80.256  180.444    3.238
  617.114    0.075    0.364   79.407  178.429    3.769
  617.364    0.057    0.348   78.302  177.822    4.322
  617.614    0.048    0.337   77.353  178.189    4.876
  617.864    0.053    0.349   78.700  179.856    5.531
  618.114    0.118    0.363   81.280  180.551    6.016
