~VERSION INFORMATION
 VERS.                 2.0:   CWLS LOG ASCII STANDARD -VERSION 2.0
 WRAP.                  NO:   ONE LINE PER DEPTH STEP
~WELL INFORMATION BLOCK
#MNEM.UNIT           DATA                    DESCRIPTION OF MNEMONIC
#---------    -------------------            -------------------------------
# Generated from Intellog Unique Number	CN_94_101/WELL/3801
WELL.         16-23-096-16W4                 : Well_name    - WELL
LOC .         00/16-23-096-16W4/0            : Location     - LOCATION
UWI .         00/16-23-096-16W400            : Uwi          - UNIQUE WELL ID
ENTR.         T                              : Entered      - ENTERED BY
SRVC.         SCHLUMBERGER                   : Scn          - SERVICE COMPANY
DATE.         07/20/92                       : Date         - LOG DATE
STRT.M        210                            : top_depth    - START DEPTH
STOP.M        399.75                         : bot_depth    - STOP DEPTH
STEP.M        0.25                           : increment    - STEP LENGTH
 NULL. -999.2500:NULL Value
~CURVE INFORMATION BLOCK
#MNEM UNIT       ERCB CURVE CODE    CURVE DESCRIPTION
#-----------   ------------------   ----------------------------------
DEPT.M        00 001 00 00         : DEPTH        - DEPTH
GR  .API      00 310 00 00         : GR           - GAMMA RAY
CALI.MM       00 280 01 00         : CAL          - CALIPER
NPHI.V/V      00 330 00 00         : PHIN         - NEUTRON POROSITY (SANDSTONE)
DPHI.V/V      00 890 00 00         : PHID         - DENSITY POROSITY (SANDSTONE)
ILD .OHMM     00 120 00 00         : RESD         - DEEP RESISTIVITY (DIL)
~PARAMETER INFORMATION
#MNEM.UNIT           DATA             DESCRIPTION OF MNEMONIC
#---------         -----------     ------------------------------
GL  .M        658                  : gl           - GROUND LEVEL ELEVATION
EREF.M        661.2                : kb           - ELEVATION OF DEPTH REFERENCE
DATM.M        661.2                : datum        - DATUM ELEVATION
TDD .M        400                  : tdd          - TOTAL DEPTH DRILLER
RUN .         0.000000             : Run          - RUN NUMBER
MUD .         GEL                  : Mud_type     - MUD TYPE
MATR.         SANDSTONE            : Logunit      - NEUTRON MATRIX
TMAX.C        0                    : BHT          - MAXIMUM RECORDED TEMPERATURE
BHTD.M        45                   : BHTDEP       - MAXIMUM RECORDED TEMPERATURE
RMT .C        5                    : MDTP         - TEMPERATURE OF MUD
MUDD.KG/M     1                    : MWT          - MUD DENSITY
NEUT.         1                    : NEUTRON      - NEUTRON TYPE
RESI.         0                    : RESIST       - RESISTIVITY TYPE
RM  .OHMM     7.8                  : RM           - RESISTIVITY OF MUD
RMC .OHMM     7.8                  : RMC          - RESISTIVITY OF MUD CAKE
RMF .OHMM     0                    : RMF          - RESISTIVITY OF MUD FILTRATE
SUFT.C        4                    : SUFT         - SURFACE TEMPERATURE
BTZC.MM       0                    : BITZC        - BIT SIZE CONSTANT
MDW .KG/M     0                    : MDW          - MUD WEIGHT
~A  DEPTH       GR      CAL     PHIN     PHID     RESD
  210.000   76.815  152.218    0.501    0.283 1954.810
  210.250   84.677  152.218    0.467    0.284 1478.470
  210.500   83.468  151.210    0.392    0.273 1653.210
  210.750   85.282  150.202    0.404    0.233 1848.610
  211.000   90.726  152.218    0.422    0.230   48.077
  211.250  101.008  155.242    0.462    0.236   19.670
  211.500  102.218  158.266    0.467    0.244   17.591
  211.750   97.379  158.266    0.459    0.243    7.332
  212.000   95.565  163.306    0.501    0.246    5.443
  212.250   99.798  163.306    0.533    0.256    6.557
  212.500  104.637  164.315    0.544    0.273    5.052
  212.750  101.613  166.331    0.519    0.274    5.244
  213.000   99.798  167.339    0.503    0.276    4.690
  213.250  104.637  170.363    0.518    0.278    5.650
  213.500  105.242  168.347    0.523    0.279    5.147
  213.750  104.032  168.347    0.504    0.278    4.194
  214.000   98.589  168.347    0.493    0.278    4.273
  214.250   91.331  168.347    0.491    0.279    4.518
  214.500   88.911  167.339    0.478    0.276    5.864
  214.750   85.887  165.323    0.458    0.268    6.680
  215.000   81.653  163.306    0.445    0.273    7.753
  215.250   83.468  159.274    0.421    0.292    9.340
  215.500   81.653  158.266    0.433    0.319   10.062
  215.750   75.605  155.242    0.434    0.319   10.444
  216.000   71.976  155.242    0.426    0.322   11.678
  216.250   73.790  158.266    0.429    0.317   10.251
  216.500   76.210  158.266    0.423    0.304    9.694
  216.750   85.282  157.258    0.425    0.283    6.680
  217.000   96.774  160.282    0.466    0.252    4.959
  217.250  102.823  164.315    0.501    0.171    4.518
  217.500   99.194  165.323    0.523    0.145    4.603
  217.750   94.355  165.323    0.506    0.143    5.244
  218.000   84.677  166.331    0.449    0.165    5.650
  218.250   84.677  169.355    0.404    0.241    6.086
  218.500   94.960  171.371    0.471    0.246    6.680
  218.750  103.427  171.371    0.486    0.259    5.864
  219.000  101.613  171.371    0.480    0.268    5.545
  219.250   97.379  171.371    0.473    0.272    5.650
  219.500   88.911  171.371    0.467    0.282    6.086
  219.750   88.911  171.371    0.462    0.287    6.086
  220.000   90.726  171.371    0.458    0.284    6.201
  220.250   90.121  167.339    0.455    0.289    6.806
  220.500   90.121  167.339    0.484    0.292    6.806
  220.750   93.750  168.347    0.487    0.294    7.470
  221.000   97.984  171.371    0.448    0.288    6.201
  221.250   97.379  169.355    0.447    0.277    6.317
  221.500   98.589  172.379    0.486    0.278    5.343
  221.750   95.565  172.379    0.489    0.277    4.959
  222.000   93.145  173.387    0.537    0.273    4.435
  222.250   94.355  174.395    0.569    0.271    3.966
  222.500   95.565  175.403    0.555    0.271    3.682
  222.750   96.774  173.387    0.539    0.268    4.041
  223.000   90.121  173.387    0.505    0.267    5.650
  223.250   87.702  170.363    0.484    0.272    6.086
  223.500   93.145  168.347    0.505    0.278    4.690
  223.750   90.726  168.347    0.530    0.287    5.052
  224.000   81.048  168.347    0.466    0.289    6.436
  224.250   81.048  158.266    0.470    0.288    6.317
  224.500   88.911  169.355    0.502    0.281    6.086
  224.750   93.750  167.339    0.494    0.274    5.974
  225.000   94.355  167.339    0.484    0.274    5.676
  225.250   92.540  159.274    0.477    0.277    4.889
  225.500   93.750  160.282    0.536    0.274    4.981
  225.750   96.774  160.282    0.552    0.267    4.798
  226.000   91.331  161.290    0.539    0.264    5.170
  226.250   86.492  163.306    0.517    0.264    6.003
  226.500   75.605  163.306    0.507    0.264    7.796
  226.750   73.790  161.290    0.445    0.266    7.652
  227.000   69.556  159.274    0.348    0.232    7.511
  227.250   75.000  157.258    0.386    0.071    7.372
  227.500   81.653  156.250    0.428    0.072    7.235
  227.750   85.282  159.274    0.452    0.085    7.102
  228.000   81.653  158.266    0.472    0.145    7.235
  228.250   66.532  158.266    0.448    0.203    8.401
  228.500   57.460  157.258    0.407    0.272    8.401
  228.750   58.065  156.250    0.406    0.271    9.574
  229.000   59.879  154.234    0.415    0.272   10.910
  229.250   59.274  158.266    0.417    0.272   10.910
  229.500   58.065  158.266    0.412    0.269   11.756
  229.750   52.621  159.274    0.407    0.267   12.434
  230.000   49.597  160.282    0.406    0.262   11.978
  230.250   56.250  165.323    0.397    0.264   11.756
  230.500   64.718  168.347    0.418    0.267    9.574
  230.750   74.395  172.379    0.422    0.269    9.397
  231.000   76.210  173.387    0.417    0.274    9.397
  231.250   70.766  171.371    0.422    0.278    9.223
  231.500   58.669  169.355    0.428    0.283   10.510
  231.750   59.274  166.331    0.432    0.287   11.978
  232.000   67.742  164.315    0.402    0.292   10.510
  232.250   67.742  161.290    0.397    0.289   10.316
  232.500   64.718  159.274    0.411    0.281    9.754
  232.750   61.694  156.250    0.431    0.279    9.938
  233.000   59.879  158.266    0.430    0.288    9.574
  233.250   61.694  156.250    0.398    0.291    9.574
  233.500   72.581  154.234    0.439    0.283    8.245
  233.750   76.815  152.218    0.475    0.241    8.559
  234.000   82.258  151.210    0.466    0.191    6.841
  234.250   86.492  150.202    0.439    0.178    6.469
  234.500   88.306  148.185    0.410    0.238    6.469
  234.750   95.565  151.210    0.433    0.249    7.235
  235.000   93.145  147.177    0.506    0.278    6.116
  235.250   86.492  149.194    0.501    0.282    4.798
  235.500   81.653  155.242    0.479    0.287    5.783
  235.750   75.000  159.274    0.449    0.289    7.652
  236.000   72.581  162.298    0.436    0.291    9.754
  236.250   63.508  165.323    0.413    0.281   12.668
  236.500   59.879  165.323    0.400    0.271   14.169
  236.750   59.274  166.331    0.398    0.258   14.169
  237.000   57.460  168.347    0.408    0.253   14.169
  237.250   62.298  169.355    0.406    0.255   14.986
  237.500   63.508  173.387    0.403    0.253   15.849
  237.750   60.484  177.419    0.419    0.253   15.556
  238.000   60.484  181.452    0.433    0.248   15.268
  238.250   62.903  186.492    0.430    0.242   15.268
  238.500   61.089  187.500    0.423    0.237   14.708
  238.750   60.484  189.516    0.448    0.234   13.907
  239.000   71.976  190.524    0.430    0.234   12.668
  239.250   83.468  188.508    0.448    0.240   10.910
  239.500   90.121  181.452    0.465    0.246    8.559
  239.750   87.702  170.363    0.458    0.251    9.754
  240.000   73.790  170.363    0.421    0.247   10.316
  240.250   63.508  170.363    0.404    0.232   12.668
  240.500   64.113  170.363    0.413    0.201   14.708
  240.750   64.113  170.363    0.403    0.170   14.986
  241.000   64.718  170.363    0.406    0.139   14.986
  241.250   65.927  170.363    0.416    0.103   14.986
  241.500   65.927  170.363    0.420    0.136   19.829
  241.750   70.161  173.387    0.400    0.175   14.169
  242.000   73.185  176.411    0.378    0.228   12.434
  242.250   75.605  174.395    0.392    0.238   11.116
  242.500   79.839  177.419    0.413    0.254    9.574
  242.750   82.863  181.452    0.425    0.258    8.720
  243.000   81.653  182.460    0.442    0.253    8.245
  243.250   83.468  186.492    0.425    0.245    7.796
  243.500   86.492  185.484    0.434    0.245    7.796
  243.750   81.653  184.476    0.449    0.248    8.093
  244.000   77.419  182.460    0.445    0.263    8.245
  244.250   78.024  180.444    0.460    0.285    8.720
  244.500   86.492  176.411    0.490    0.288    7.235
  244.750   89.516  169.355    0.484    0.276    6.970
  245.000   88.911  162.298    0.462    0.262    6.591
  245.250   91.935  159.274    0.470    0.258    6.591
  245.500   94.355  159.274    0.506    0.247    6.232
  245.750   90.726  159.274    0.506    0.239    6.349
  246.000   89.516  158.266    0.478    0.232    6.591
  246.250   91.331  156.250    0.475    0.242    6.591
