~VERSION INFORMATION
 VERS.                 2.0:   CWLS LOG ASCII STANDARD -VERSION 2.0
 WRAP.                  NO:   ONE LINE PER DEPTH STEP
~WELL INFORMATION BLOCK
#MNEM.UNIT           DATA                    DESCRIPTION OF MNEMONIC
#---------    -------------------            -------------------------------
# Generated from Intellog Unique Number	CW_73_75/WELL/2752
WELL.         BRENDA ET AL MARTEN H 16-12    : Well_name    - WELL
LOC .         00/16-12-073-25W4/0            : Location     - LOCATION
UWI .         00/16-12-073-25W4/0            : Uwi          - UNIQUE WELL ID
ENTR.         JAYE                           : Entered      - ENTERED BY
SRVC.         SCHLUMBERGER                   : Scn          - SERVICE COMPANY
DATE.         3 MAR 81                       : Date         - LOG DATE
STRT.M        385                            : top_depth    - START DEPTH
STOP.M        615                            : bot_depth    - STOP DEPTH
STEP.M        0.25                           : increment    - STEP LENGTH
 NULL. -999.2500:NULL Value
~CURVE INFORMATION BLOCK
#MNEM UNIT       ERCB CURVE CODE    CURVE DESCRIPTION
#-----------   ------------------   ----------------------------------
DEPT.M        00 001 00 00         : DEPTH        - DEPTH
DPHI.V/V      00 890 00 00         : PHID         - DENSITY POROSITY (SANDSTONE)
NPHI.V/V      00 330 00 00         : PHIN         - NEUTRON POROSITY (SANDSTONE)
GR  .API      00 310 00 00         : GR           - GAMMA RAY
CALI.MM       00 280 01 00         : CAL          - CALIPER
ILD .OHMM     00 120 00 00         : RESD         - DEEP RESISTIVITY (DIL)
~PARAMETER INFORMATION
#MNEM.UNIT           DATA             DESCRIPTION OF MNEMONIC
#---------         -----------     ------------------------------
GL  .M        636.55               : gl           - GROUND LEVEL ELEVATION
EREF.M        640.15               : kb           - ELEVATION OF DEPTH REFERENCE
DATM.M        636.55               : datum        - DATUM ELEVATION
TDD .M        620                  : tdd          - TOTAL DEPTH DRILLER
RUN .         ONE                  : Run          - RUN NUMBER
ENG .         BRANDSTROM           : Engineer     - RECORDING ENGINEER
WIT .         CHRISTENSEN          : Witness      - WITNESSED BY
BASE.         EDM                  : Branch       - HOME BASE OF LOGGING UNIT
MUD .         GEL CHEN             : Mud_type     - MUD TYPE
MATR.         SANDSTONE            : Logunit      - NEUTRON MATRIX
TMAX.C        27.4                 : BHT          - MAXIMUM RECORDED TEMPERATURE
BHTD.M        621                  : BHTDEP       - MAXIMUM RECORDED TEMPERATURE
RMT .C        13.4                 : MDTP         - TEMPERATURE OF MUD
MUDD.KG/M     0                    : MWT          - MUD DENSITY
NEUT.         1                    : NEUTRON      - NEUTRON TYPE
RESI.         0                    : RESIST       - RESISTIVITY TYPE
RM  .OHMM     0.26                 : RM           - RESISTIVITY OF MUD
RMC .OHMM     0                    : RMC          - RESISTIVITY OF MUD CAKE
RMF .OHMM     0.36                 : RMF          - RESISTIVITY OF MUD FILTRATE
SUFT.C        0                    : SUFT         - SURFACE TEMPERATURE
~A  DEPTH     PHID     PHIN       GR      CAL     RESD
# ...
  531.000    0.229    0.410   94.114  226.662    8.670
  531.250    0.230    0.411   92.022  226.607    8.933
  531.500    0.227    0.418   88.811  226.244    9.451
  531.750    0.218    0.421   87.909  225.776   10.269
  532.000    0.225    0.412   89.816  225.420   10.885
  532.250    0.213    0.397   89.033  225.158   11.067
  532.500    0.195    0.376   84.949  224.791   11.166
  532.750    0.165    0.382   87.413  224.430   11.183
  533.000    0.184    0.386   91.374  224.275   11.326
  533.250    0.212    0.371   85.110  224.336   11.804
  533.500    0.195    0.355   80.149  226.572   12.091
  533.750    0.159    0.351   83.362  229.425   12.363
  534.000    0.126    0.355   81.587  231.246   12.427
  534.250    0.126    0.349   84.676  232.030   11.601
  534.500    0.114    0.341   91.754  232.497   10.212
  534.750    0.089    0.322   99.085  232.448    8.606
  535.000    0.125    0.345  104.043  232.812    7.308
  535.250    0.149    0.360  108.691  232.973    7.006
  535.500    0.171    0.394  113.405  232.720    7.136
  535.750    0.183    0.388  117.300  232.768    7.080
  536.000    0.193    0.388  122.138  232.832    7.009
  536.250    0.184    0.408  119.050  232.881    6.939
  536.500    0.175    0.421  119.521  232.823    6.896
  536.750    0.170    0.439  119.051  232.877    6.907
  537.000    0.161    0.431  111.598  232.826    6.942
  537.250    0.153    0.400  112.379  232.982    6.991
  537.500    0.133    0.380  114.408  233.040    7.014
  537.750    0.111    0.365  117.310  233.092    7.024
  538.000    0.127    0.376  119.586  232.942    7.060
  538.250    0.166    0.389  120.930  233.000    7.125
  538.500    0.135    0.405  123.518  233.055    7.229
  538.750    0.120    0.420  129.225  232.998    7.378
  539.000    0.131    0.430  132.876  233.155    7.865
  539.250    0.174    0.385  129.351  233.205    8.579
  539.500    0.164    0.361  124.520  233.261    9.196
  539.750    0.160    0.346  118.003  233.207   10.221
  540.000    0.173    0.355  107.492  232.535   11.211
  540.250    0.165    0.351  102.784  231.131   12.110
  540.500    0.148    0.359  106.184  229.415   13.209
  540.750    0.157    0.368  103.597  227.807   13.948
  541.000    0.196    0.366   97.518  227.448   14.727
  541.250    0.189    0.362   97.549  227.606   15.060
  541.500    0.181    0.359   98.893  228.070   14.742
  541.750    0.177    0.353   97.051  229.271   13.946
  542.000    0.166    0.349   98.832  230.569   12.776
  542.250    0.151    0.343  101.544  231.557   12.792
  542.500    0.177    0.355  103.263  232.243   13.535
  542.750    0.168    0.375  102.795  232.606   15.073
  543.000    0.154    0.391   99.209  233.185   16.343
  543.250    0.132    0.394   93.315  233.340   17.894
  543.500    0.103    0.369   83.680  233.495   19.000
  543.750    0.086    0.360   89.450  233.438   18.741
  544.000    0.065    0.341   95.972  232.355   14.284
  544.250    0.043    0.305   98.748  231.677   10.562
  544.500    0.066    0.357  102.022  231.417    8.392
  544.750    0.144    0.405  107.417  231.267    7.444
  545.000    0.159    0.435  108.450  231.739    7.177
  545.250    0.153    0.423  107.045  233.250    7.026
  545.500    0.148    0.411  108.453  234.333    7.034
  545.750    0.146    0.397  109.854  235.116    7.044
  546.000    0.161    0.399  112.257  235.484    6.961
  546.250    0.171    0.457  114.784  235.013    6.737
  546.500    0.167    0.473  115.001  233.611    6.218
  546.750    0.165    0.387  112.167  234.085    5.527
  547.000    0.165    0.384  112.384  234.359    5.082
  547.250    0.159    0.394  113.103  235.245    4.507
  547.500    0.156    0.391  114.573  235.504    3.863
  547.750    0.158    0.377  116.534  235.548    3.201
  548.000    0.171    0.388  120.122  236.116    2.866
  548.250    0.163    0.399  122.213  236.389    2.586
  548.500    0.158    0.408  121.249  236.331    3.172
  548.750    0.152    0.395  113.857  236.386    4.134
  549.000    0.140    0.356  112.205  236.126    4.975
  549.250    0.126    0.342  117.165  235.552    5.909
  549.500    0.168    0.358  121.189  234.773    5.986
  549.750    0.174    0.375  124.590  234.940    6.131
  550.000    0.167    0.380  125.368  234.989    6.353
  550.250    0.161    0.382  123.282  234.627    6.608
  550.500    0.154    0.383  122.189  234.163    6.847
  550.750    0.136    0.387  121.288  233.808    7.149
  551.000    0.126    0.384  119.822  233.541    7.407
  551.250    0.146    0.358  116.548  233.175    7.660
  551.500    0.151    0.337  111.965  232.710    7.788
  551.750    0.147    0.353  109.938  232.240    7.873
  552.000    0.128    0.367  106.415  231.575    7.900
  552.250    0.075    0.330   91.228  231.426    7.822
  552.500    0.051    0.290   96.437  231.371    7.599
  552.750    0.093    0.291  116.118  231.219    6.933
  553.000    0.119    0.330  117.022  231.476    5.711
  553.250    0.143    0.341  115.372  231.528    4.625
  553.500    0.161    0.332  116.592  231.377    3.661
  553.750    0.162    0.348  118.615  231.737    3.068
  554.000    0.180    0.379  123.766  232.203    2.711
  554.250    0.180    0.460  127.786  233.919    2.654
  554.500    0.189    0.542  128.318  241.459    2.683
  554.750    0.191    0.505  125.794  233.613    2.722
  555.000    0.171    0.471  125.263  232.010    2.816
  555.250    0.147    0.481  129.474  232.158    3.025
  555.500    0.155    0.475  135.557  232.118    3.674
  555.750    0.143    0.476  134.280  232.066    4.863
  556.000    0.117    0.461  124.331  231.695    5.385
  556.250    0.094    0.362  111.140  231.855    5.432
  556.500    0.105    0.351  117.535  232.220    5.410
  556.750    0.151    0.360  123.929  232.900    5.387
  557.000    0.141    0.382  126.519  234.305    5.313
  557.250    0.123    0.407  128.546  240.697    5.250
  557.500    0.127    0.431  126.209  240.754    5.258
  557.750    0.130    0.410  124.869  237.066    5.325
  558.000    0.104    0.383  119.848  234.933    5.403
  558.250    0.084    0.359  119.695  234.160    5.515
  558.500    0.094    0.368  121.595  234.622    5.617
  558.750    0.126    0.391  118.510  236.131    5.755
  559.000    0.130    0.389  113.740  235.042    5.953
  559.250    0.132    0.377  108.595  231.249    6.201
  559.500    0.135    0.367  103.761  232.142    6.662
  559.750    0.144    0.327   93.127  232.609    7.418
  560.000    0.183    0.266   81.310  231.619    9.668
  560.250    0.276    0.232   63.566  228.135   13.187
  560.500    0.333    0.187   49.503  226.429   21.535
  560.750    0.330    0.173   47.039  225.437   32.601
  561.000    0.334    0.158   45.452  224.663   36.654
  561.250    0.353    0.157   44.047  224.400   38.193
  561.500    0.369    0.174   42.271  223.839   38.539
  561.750    0.385    0.186   44.050  223.681   37.439
  562.000    0.370    0.195   45.145  223.423   32.709
  562.250    0.377    0.202   43.866  222.847   24.786
  562.500    0.368    0.204   43.585  222.914   18.678
  562.750    0.372    0.209   42.994  222.960   15.040
  563.000    0.364    0.227   43.837  223.008   11.906
  563.250    0.353    0.239   46.364  222.957    9.995
  563.500    0.341    0.259   48.890  221.456    7.897
  563.750    0.335    0.265   46.053  220.681    6.228
  564.000    0.339    0.273   43.779  220.726    5.308
  564.250    0.332    0.285   43.814  221.825    4.664
  564.500    0.319    0.309   44.344  223.121    4.338
  564.750    0.300    0.349   45.183  224.528    4.319
  565.000    0.280    0.377   46.587  225.522    4.501
  565.250    0.276    0.351   49.243  225.887    5.021
  565.500    0.267    0.334   46.840  225.639    5.797
  565.750    0.252    0.317   45.564  225.365    6.322
  566.000    0.233    0.373   46.842  224.905    6.501
  566.250    0.267    0.384   48.993  224.653    6.460
  566.500    0.292    0.380   51.272  224.074    6.325
  566.750    0.294    0.382   51.619  223.396    6.203
  567.000    0.285    0.392   51.278  223.660    6.083
  567.250    0.280    0.379   50.871  223.821    5.932
