~VERSION INFORMATION
 VERS.                 2.0:   CWLS LOG ASCII STANDARD -VERSION 2.0
 WRAP.                  NO:   ONE LINE PER DEPTH STEP
~WELL INFORMATION BLOCK
#MNEM.UNIT           DATA                    DESCRIPTION OF MNEMONIC
#---------    -------------------            -------------------------------
# Generated from Intellog Unique Number	CW_76_78/WELL/2580
WELL.         10-33-078-21W4                 : Well_name    - WELL
LOC .         00/10-33-078-21W4/0            : Location     - LOCATION
UWI .         00/10-33-078-21W4/0            : Uwi          - UNIQUE WELL ID
ENTR.         MAX                            : Entered      - ENTERED BY
SRVC.         SCHLUMBERGER                   : Scn          - SERVICE COMPANY
STRT.M        220                            : top_depth    - START DEPTH
STOP.M        435                            : bot_depth    - STOP DEPTH
STEP.M        0.25                           : increment    - STEP LENGTH
 NULL. -999.2500:NULL Value
~CURVE INFORMATION BLOCK
#MNEM UNIT       ERCB CURVE CODE    CURVE DESCRIPTION
#-----------   ------------------   ----------------------------------
DEPT.M        00 001 00 00         : DEPTH        - DEPTH
ILD .OHMM     00 120 00 00         : RESD         - DEEP RESISTIVITY (DIL)
NPHI.V/V      00 330 00 00         : PHIN         - NEUTRON POROSITY (SANDSTONE)
DPHI.V/V      00 890 00 00         : PHID         - DENSITY POROSITY (SANDSTONE)
CALI.MM       00 280 01 00         : CAL          - CALIPER
GR  .API      00 310 00 00         : GR           - GAMMA RAY
~PARAMETER INFORMATION
#MNEM.UNIT           DATA             DESCRIPTION OF MNEMONIC
#---------         -----------     ------------------------------
GL  .M        566.16               : gl           - GROUND LEVEL ELEVATION
EREF.M        570.12               : kb           - ELEVATION OF DEPTH REFERENCE
DATM.M        566.16               : datum        - DATUM ELEVATION
TDD .M        435.5                : tdd          - TOTAL DEPTH DRILLER
RUN .         ONE                  : Run          - RUN NUMBER
ENG .         BILL                 : Engineer     - RECORDING ENGINEER
WIT .         JIM                  : Witness      - WITNESSED BY
MUD .         GEL                  : Mud_type     - MUD TYPE
MATR.         SANDSTONE            : Logunit      - NEUTRON MATRIX
TMAX.C        22                   : BHT          - MAXIMUM RECORDED TEMPERATURE
BHTD.M        435.5                : BHTDEP       - MAXIMUM RECORDED TEMPERATURE
RMT .C        13                   : MDTP         - TEMPERATURE OF MUD
MUDD.KG/M     1128                 : MWT          - MUD DENSITY
NEUT.         1                    : NEUTRON      - NEUTRON TYPE
RESI.         0                    : RESIST       - RESISTIVITY TYPE
RM  .OHMM     3.18                 : RM           - RESISTIVITY OF MUD
RMC .OHMM     0                    : RMC          - RESISTIVITY OF MUD CAKE
RMF .OHMM     1.6                  : RMF          - RESISTIVITY OF MUD FILTRATE
SUFT.C        -20                  : SUFT         - SURFACE TEMPERATURE
~A  DEPTH     RESD     PHIN     PHID      CAL       GR
# ...
  293.000    9.143    0.490    0.271  158.312   73.200
  293.250    9.761    0.464    0.245  160.847   75.312
  293.500   11.115    0.473    0.231  162.379   78.609
  293.750   12.660    0.475    0.218  162.933   85.480
  294.000   13.894    0.447    0.060  162.992   96.211
  294.250   14.972    0.403    0.054  161.551  103.082
  294.500   15.991    0.333    0.073  160.117   90.337
  294.750   16.916    0.289    0.082  160.163   81.444
  295.000   18.398    0.264    0.076  160.228   59.775
  295.250   21.145    0.238    0.053  160.280   54.163
  295.500   30.310    0.202    0.042  160.339   50.628
  295.750   45.913    0.170    0.033  160.378   50.065
  296.000   53.748    0.168    0.032  160.932   50.397
  296.250   54.316    0.188    0.049  160.978   49.834
  296.500   46.500    0.208    0.076  161.043   50.753
  296.750   40.940    0.220    0.090  160.587   54.351
  297.000   39.496    0.224    0.098  160.639   54.089
  297.250   36.072    0.248    0.106  159.701   54.120
  297.500   27.153    0.271    0.135  158.782   55.938
  297.750   25.025    0.352    0.218  157.830   56.858
  298.000   20.273    0.388    0.259  157.393   61.347
  298.250   18.684    0.419    0.298  156.944   65.543
  298.500   16.445    0.456    0.309  156.501   64.980
  298.750   14.746    0.450    0.297  155.080   65.011
  299.000   14.746    0.455    0.297  154.630   66.822
  299.250   14.118    0.467    0.298  154.180   67.159
  299.500   13.495    0.470    0.296  153.750   68.386
  299.750   13.495    0.469    0.297  153.307   69.004
  300.000   13.406    0.472    0.297  153.353   70.819
  300.250   13.173    0.477    0.294  152.916   72.336
  300.500   12.950    0.481    0.295  152.968   74.448
  300.750   12.967    0.483    0.302  153.014   75.966
  301.000   12.860    0.482    0.296  153.066   76.298
  301.250   12.757    0.467    0.287  153.614   75.434
  301.500   12.541    0.454    0.295  153.666   73.979
  301.750   12.440    0.467    0.294  154.220   73.416
  302.000   12.342    0.479    0.286  154.279   75.532
  302.250   12.353    0.479    0.284  154.826   77.639
  302.500   12.370    0.476    0.285  154.878   77.976
  302.750   12.158    0.476    0.282  154.930   77.409
  303.000   12.063    0.473    0.267  154.983   76.255
  303.250   12.413    0.465    0.254  155.035   74.507
  303.500   13.755    0.441    0.239  154.592   74.531
  303.750   14.026    0.408    0.196  154.142   76.642
  304.000   13.783    0.406    0.205  154.207   80.843
  304.250   12.940    0.469    0.275  154.259   82.954
  304.500   11.928    0.479    0.294  154.800   82.986
  304.750   11.403    0.465    0.293  154.853   83.607
  305.000   10.509    0.450    0.291  154.911   80.964
  305.250    9.597    0.437    0.276  154.963   81.590
  305.500    8.368    0.446    0.256  155.016   86.083
  305.750    7.165    0.459    0.242  156.547   95.332
  306.000    6.484    0.467    0.228  160.087  100.115
  306.250    6.314    0.487    0.229  162.107  103.716
  306.500    6.440    0.494    0.237  163.652  104.045
  306.750    6.813    0.479    0.229  164.688  102.594
  307.000    7.617    0.477    0.218  164.252  100.838
  307.250    7.986    0.482    0.212  162.811   96.709
  307.500    8.218    0.466    0.221  160.393   91.390
  307.750    8.227    0.457    0.251  158.953   91.719
  308.000    7.939    0.457    0.228  160.002   96.208
  308.250    7.591    0.486    0.202  162.538  100.999
  308.500    7.531    0.507    0.219  165.562   99.540
  308.750    7.680    0.508    0.238  166.611   96.302
  309.000    7.978    0.490    0.221  166.155   93.963
  309.250    8.061    0.486    0.252  164.721   91.906
  309.500    7.997    0.490    0.245  159.833   93.134
  309.750    8.006    0.499    0.228  158.393   93.760
  310.000    8.627    0.474    0.199  158.445   90.518
  310.250    9.734    0.411    0.175  158.999   83.416
  310.500   10.688    0.396    0.191  160.042   83.150
  310.750   10.315    0.473    0.244  160.094   88.535
  311.000    9.161    0.501    0.233  159.155   90.945
  311.250    8.598    0.489    0.239  158.712   89.490
  311.500    8.609    0.484    0.247  159.253   90.710
  311.750    8.462    0.473    0.235  161.287   94.308
  312.000    8.091    0.475    0.218  162.832   97.609
  312.250    7.526    0.499    0.209  166.364  101.507
  312.500    7.262    0.511    0.216  167.394  102.129
  312.750    7.140    0.519    0.235  167.459   98.000
  313.000    7.414    0.502    0.252  165.524   93.573
  313.250    8.065    0.475    0.252  161.606   87.957
  313.500    8.610    0.454    0.253  159.677   85.611
  313.750    8.946    0.472    0.254  159.241   89.209
  314.000    9.123    0.495    0.257  158.296   89.244
  314.250    9.216    0.494    0.267  157.370   85.407
  314.500    9.229    0.478    0.254  157.416   81.583
  314.750    9.323    0.468    0.254  157.481   79.534
  315.000    9.776    0.479    0.258  157.533   78.970
  315.250   10.437    0.478    0.264  157.579   79.295
  315.500   11.044    0.461    0.252  157.631   80.523
  315.750   11.266    0.435    0.233  157.683   81.141
  316.000   11.171    0.417    0.212  157.735   83.257
  316.250   10.981    0.441    0.254  157.794   85.071
  316.500   10.696    0.455    0.287  157.846   83.620
  316.750   10.608    0.460    0.281  157.892   83.358
  317.000   10.053    0.459    0.257  157.957   85.466
  317.250    9.262    0.452    0.232  158.003   88.466
  317.500    8.458    0.444    0.211  157.553   92.658
  317.750    8.788    0.433    0.195  157.116   94.778
  318.000    9.470    0.447    0.184  157.162   90.644
  318.250    9.568    0.462    0.179  157.723   87.410
  318.500    9.148    0.472    0.253  157.775   86.252
  318.750    8.353    0.463    0.287  157.325   85.983
  319.000    7.217    0.455    0.287  156.882   86.608
  319.250    6.180    0.476    0.284  156.947   89.017
  319.500    5.291    0.526    0.279  158.968   91.430
  319.750    4.876    0.545    0.286  162.983   91.462
  320.000    4.838    0.544    0.265  163.530   91.497
  320.250    5.214    0.548    0.289  162.103   92.717
  320.500    5.776    0.533    0.288  159.190   94.234
  320.750    6.399    0.518    0.263  159.242   95.756
  321.000    6.585    0.494    0.239  160.291   96.675
  321.250    6.532    0.480    0.223  160.826   97.007
  321.500    6.248    0.487    0.213  163.856   97.934
  321.750    6.083    0.496    0.235  167.865   99.448
  322.000    5.979    0.501    0.235  175.361  102.150
  322.250    5.986    0.495    0.232  183.338  101.293
  322.500    6.392    0.497    0.230  179.923   98.051
  322.750    6.889    0.502    0.218  184.427   92.436
  323.000    7.423    0.508    0.214  183.990   91.575
  323.250    8.299    0.483    0.214  170.661   90.121
  323.500    9.540    0.407    0.189  165.265   87.774
  323.750   10.864    0.373    0.174  163.831   85.725
  324.000   11.600    0.357    0.153  161.413   87.841
  324.250   11.938    0.432    0.238  161.465   92.330
  324.500   11.845    0.462    0.235  161.465   93.253
  324.750   11.223    0.462    0.226  161.093   95.662
  325.000   10.247    0.475    0.243  161.126   99.557
  325.250    9.443    0.480    0.248  161.674  103.460
  325.500    8.702    0.489    0.241  162.221  110.327
  325.750    8.399    0.487    0.229  162.769  110.363
  326.000    8.181    0.489    0.229  163.323  108.611
  326.250    8.191    0.493    0.224  163.375  105.373
  326.500    8.191    0.484    0.215  163.929  105.693
  326.750    8.210    0.489    0.210  163.981  106.022
  327.000    8.295    0.487    0.231  164.033  104.868
  327.250    8.295    0.478    0.216  164.033  103.120
  327.500    8.316    0.473    0.217  164.164  103.445
  327.750    8.324    0.470    0.211  164.692  103.179
  328.000    8.410    0.468    0.203  164.731  100.836
  328.250    8.420    0.476    0.195  165.285   99.976
  328.500    8.587    0.479    0.230  165.839   99.710
  328.750    8.839    0.487    0.240  165.891   99.737
  329.000    9.439    0.486    0.220  165.455  101.552
  329.250    9.985    0.471    0.252  164.014  101.286
