~VERSION INFORMATION
 VERS.                 2.0:   CWLS LOG ASCII STANDARD -VERSION 2.0
 WRAP.                  NO:   ONE LINE PER DEPTH STEP
~WELL INFORMATION BLOCK
#MNEM.UNIT           DATA                    DESCRIPTION OF MNEMONIC
#---------    -------------------            -------------------------------
# Generated from Intellog Unique Number	CN_94_101/WELL/2580
WELL.         PARAMOUNT RESOURCES LTD.       : Well_name    - WELL
LOC .         00/11-16-094-19W4/0            : Location     - LOCATION
UWI .         00/11-16-094-19W4/0            : Uwi          - UNIQUE WELL ID
ENTR.         JOETTE                         : Entered      - ENTERED BY
SRVC.         COMPUTALOG                     : Scn          - SERVICE COMPANY
DATE.         06/12/92                       : Date         - LOG DATE
STRT.M        125                            : top_depth    - START DEPTH
STOP.M        340                            : bot_depth    - STOP DEPTH
STEP.M        0.25                           : increment    - STEP LENGTH
 NULL. -999.2500:NULL Value
~CURVE INFORMATION BLOCK
#MNEM UNIT       ERCB CURVE CODE    CURVE DESCRIPTION
#-----------   ------------------   ----------------------------------
DEPT.M        00 001 00 00         : DEPTH        - DEPTH
GR  .API      00 310 00 00         : GR           - GAMMA RAY
NPHI.V/V      00 330 00 00         : PHIN         - NEUTRON POROSITY (SANDSTONE)
ILD .OHMM     00 120 00 00         : RESD         - DEEP RESISTIVITY (DIL)
~PARAMETER INFORMATION
#MNEM.UNIT           DATA             DESCRIPTION OF MNEMONIC
#---------         -----------     ------------------------------
GL  .M        609                  : gl           - GROUND LEVEL ELEVATION
EREF.M        612.45               : kb           - ELEVATION OF DEPTH REFERENCE
DATM.M        612.45               : datum        - DATUM ELEVATION
TDD .M        336.2                : tdd          - TOTAL DEPTH DRILLER
RUN .         ONE                  : Run          - RUN NUMBER
ENG .         BILL                 : Engineer     - RECORDING ENGINEER
WIT .         JIM                  : Witness      - WITNESSED BY
MUD .         GEL                  : Mud_type     - MUD TYPE
MATR.         SANDSTONE            : Logunit      - NEUTRON MATRIX
TMAX.C        34                   : BHT          - MAXIMUM RECORDED TEMPERATURE
BHTD.M        336.2                : BHTDEP       - MAXIMUM RECORDED TEMPERATURE
RMT .C        23.3                 : MDTP         - TEMPERATURE OF MUD
MUDD.KG/M     1130                 : MWT          - MUD DENSITY
NEUT.         1                    : NEUTRON      - NEUTRON TYPE
RESI.         0                    : RESIST       - RESISTIVITY TYPE
RM  .OHMM     4.4                  : RM           - RESISTIVITY OF MUD
RMC .OHMM     4.4                  : RMC          - RESISTIVITY OF MUD CAKE
RMF .OHMM     4.4                  : RMF          - RESISTIVITY OF MUD FILTRATE
SUFT.C        4                    : SUFT         - SURFACE TEMPERATURE
~A  DEPTH       GR     PHIN     RESD
# ...
  179.250   85.825    0.520    5.006
  179.500   75.226    0.508    4.555
  179.750   70.875    0.496    4.387
  180.000   72.148    0.481    4.388
  180.250   69.671    0.477    4.389
  180.500   75.949    0.504    4.826
  180.750  109.714    0.509    5.012
  181.000   84.118    0.494    5.407
  181.250   69.145    0.479    5.832
  181.500   61.670    0.462    6.292
  181.750   61.693    0.477    7.049
  182.000   66.720    0.470    7.750
  182.250   66.744    0.423    8.051
  182.500   69.266    0.426    8.052
  182.750   71.789    0.474    7.903
  183.000   69.312    0.508    7.905
  183.250   66.836    0.506    7.906
  183.500   64.990    0.504    7.760
  183.750   63.764    0.514    7.615
  184.000   61.918    0.514    6.801
  184.250   59.442    0.510    6.306
  184.500   56.965    0.504    5.631
  184.750   58.857    0.494    5.222
  185.000   65.129    0.490    4.935
  185.250   70.782    0.506    4.843
  185.500   70.811    0.516    4.937
  185.750   70.209    0.525    5.032
  186.000   75.856    0.516    5.532
  186.250   78.372    0.501    5.856
  186.500   73.397    0.484    6.561
  186.750   68.421    0.482    7.078
  187.000   66.570    0.473    7.215
  187.250   71.603    0.469    7.216
  187.500   69.746    0.493    7.217
  187.750   67.900    0.512    6.445
  188.000   76.665    0.538    6.822
  188.250   81.063    0.551    7.360
  188.500   72.338    0.535    7.501
  188.750   64.243    0.498    7.646
  189.000   62.392    0.498    7.647
  189.250   68.669    0.506    7.366
  189.500   66.193    0.499    6.961
  189.750   64.336    0.515    6.455
  190.000   66.858    0.575    6.217
  190.250   71.261    0.583    5.875
  190.500   73.165    0.581    5.876
  190.750   68.814    0.575    5.990
  191.000   65.713    0.570    5.991
  191.250   63.231    0.566    6.106
  191.500   62.635    0.561    5.993
  191.750   62.033    0.556    5.772
  192.000   59.551    0.555    5.253
  192.250   58.961    0.566    5.058
  192.500   61.483    0.576    4.603
  192.750   64.631    0.582    4.692
  193.000   65.279    0.577    5.256
  193.250   64.052    0.576    6.001
  193.500   65.325    0.577    7.116
  193.750   65.973    0.585    8.125
  194.000   62.877    0.583    8.282
  194.250   62.901    0.581    7.977
  194.500   66.048    0.581    7.681
  194.750   68.565    0.581    6.859
  195.000   72.337    0.582    6.606
  195.250   66.117    0.576    6.126
  195.500   64.266    0.567    6.012
  195.750   69.288    0.557    5.901
  196.000   71.810    0.553    5.902
  196.250   73.708    0.559    5.903
  196.500   76.236    0.573    5.904
  196.750   76.260    0.583    6.018
  197.000   77.532    0.579    6.252
  197.250   78.192    0.568    6.372
  197.500   76.954    0.556    6.745
  197.750   71.984    0.545    6.876
  198.000   68.882    0.536    7.008
  198.250   70.155    0.535    7.143
  198.500   74.552    0.536    6.751
  198.750   78.325    0.541    6.501
  199.000   77.098    0.528    6.144
  199.250   74.622    0.533    6.030
  199.500   75.270    0.538    6.032
  199.750   76.543    0.535    5.920
  200.000   72.822    0.545    5.921
  200.250   69.102    0.566    6.035
  200.500   70.375    0.566    6.152
  200.750   71.017    0.556    6.271
  201.000   72.290    0.537    6.391
  201.250   69.814    0.516    6.393
  201.500   67.337    0.509    6.394
  201.750   69.866    0.529    6.276
  202.000   69.264    0.532    6.277
  202.250   60.545    0.528    6.160
  202.500   63.687    0.538    6.046
  202.750   64.340    0.553    5.934
  203.000   61.864    0.564    5.935
  203.250   65.011    0.566    5.936
  203.500   68.789    0.566    5.938
  203.750   71.937    0.569    5.939
  204.000   71.329    0.578    6.054
  204.250   63.229    0.575    6.055
  204.500   60.134    0.562    6.056
  204.750   62.651    0.544    6.173
  205.000   68.303    0.519    6.292
  205.250   71.456    0.517    6.413
  205.500   73.973    0.513    6.918
  205.750   71.503    0.508    7.187
  206.000   72.145    0.562    7.054
  206.250   74.667    0.578    6.793
  206.500   76.571    0.583    6.542
  206.750   75.344    0.573    6.301
  207.000   76.617    0.560    6.184
  207.250   79.140    0.558    5.734
  207.500   73.539    0.552    5.218
  207.750   66.064    0.522    4.749
  208.000   66.712    0.507    4.750
  208.250   69.871    0.522    4.750
  208.500   65.514    0.527    4.842
  208.750   68.042    0.534    5.030
  209.000   70.559    0.537    5.225
  209.250   69.333    0.535    5.427
  209.500   65.612    0.525    5.532
  209.750   63.136    0.514    5.856
  210.000   62.534    0.504    6.083
  210.250   66.312    0.503    6.319
  210.500   65.705    0.515    6.563
  210.750   64.484    0.543    6.690
  211.000   66.382    0.563    6.691
  211.250   66.405    0.576    6.693
  211.500   72.677    0.590    6.694
  211.750   86.447    0.600    6.326
  212.000  103.966    0.576    5.867
  212.250   77.745    0.551    5.650
  212.500   74.649    0.538    5.545
  212.750   77.791    0.541    5.546
  213.000   77.195    0.530    5.653
  213.250   73.469    0.502    5.654
  213.500   69.743    0.482    5.764
  213.750   66.023    0.580    5.875
  214.000   68.551    0.569    5.876
  214.250   70.443    0.547    5.767
  214.500   72.965    0.537    5.660
  214.750   74.238    0.534    5.661
  215.000   68.638    0.550    5.662
  215.250   66.161    0.563    5.664
  215.500   69.314    0.563    5.665
  215.750   67.457    0.559    5.774
  216.000   66.231    0.560    5.886
  216.250   70.634    0.565    5.999
  216.500   71.906    0.561    6.000
  216.750   75.679    0.558    6.116
  217.000   76.951    0.553    6.353
  217.250   79.474    0.544    6.475
  217.500   84.496    0.541    6.600
  217.750   82.650    0.562    6.856
  218.000   74.550    0.557    7.258
  218.250   75.204    0.567    7.539
  218.500   73.972    0.574    7.260
  218.750   69.621    0.521    6.607
  219.000   65.900    0.510    6.012
  219.250   67.173    0.526    5.073
  219.500   71.565    0.547    4.885
  219.750   80.966    0.525    4.617
  220.000   81.620    0.508    4.531
  220.250   84.762    0.503    4.532
  220.500   80.411    0.503    4.619
  220.750   73.561    0.503    4.891
  221.000   67.335    0.494    4.984
  221.250   62.359    0.489    5.177
  221.500   69.262    0.489    5.378
  221.750   75.534    0.492    5.587
  222.000   79.936    0.499    5.587
  222.250   78.710    0.522    5.182
  222.500   78.727    0.528    4.991
  222.750   83.130    0.559    4.806
  223.000   82.528    0.575    4.807
  223.250   83.182    0.583    4.808
  223.500   85.699    0.576    4.901
  223.750   78.224    0.566    4.902
  224.000   74.503    0.579    5.189
  224.250   80.150    0.579    5.598
  224.500   73.925    0.571    5.815
  224.750   70.199    0.572    5.927
  225.000   73.977    0.576    5.601
  225.250   75.244    0.576    5.394
  225.500   70.274    0.564    5.195
  225.750   69.053    0.553    5.099
  226.000   69.065    0.562    5.100
  226.250   71.605    0.548    5.101
  226.500   71.003    0.528    5.102
  226.750   69.765    0.519    5.201
  227.000   67.913    0.511    5.301
  227.250   74.810    0.512    5.403
  227.500   82.337    0.533    5.507
  227.750   74.237    0.541    5.613
  228.000   73.647    0.542    5.831
  228.250   74.295    0.533    6.173
  228.500   74.937    0.523    6.412
  228.750   76.204    0.528    6.660
  229.000   76.233    0.540    6.661
  229.250   78.755    0.557    6.662
  229.500   84.402    0.569    6.297
  229.750   89.424    0.575    5.730
  230.000   85.698    0.555    5.624
  230.250   83.228    0.545    5.519
  230.500   81.370    0.538    5.216
  230.750   73.895    0.519    5.217
  231.000   67.670    0.514    5.218
  231.250   62.706    0.526    5.319
  231.500   64.603    0.534    5.320
  231.750   66.501    0.531    5.124
  232.000   67.149    0.527    4.934
  232.250   67.797    0.517    4.752
  232.500   70.314    0.515    4.753
  232.750   77.841    0.535    4.845
  233.000   85.362    0.537    5.033
  233.250   85.385    0.526    5.228
