~VERSION INFORMATION
 VERS.                 2.0:   CWLS LOG ASCII STANDARD -VERSION 2.0
 WRAP.                  NO:   ONE LINE PER DEPTH STEP
~WELL INFORMATION BLOCK
#MNEM.UNIT           DATA                    DESCRIPTION OF MNEMONIC
#---------    -------------------            -------------------------------
# Generated from Intellog Unique Number	CW_70_72/WELL/2906
NULL.         -999.25                        : NULL_VALUE
WELL.         MIKAS CALLING LAKE             : Well_name    - WELL              
LOC .         10-36-070-20W4                 : Location     - LOCATION          
UWI .         00/10-36-070-20W4/0            : Uwi          - UNIQUE WELL ID    
ENTR.         MAX                            : Entered      - ENTERED BY        
SRVC.         SCHLUMBERGER                   : Scn          - SERVICE COMPANY   
STRT.M        316.992                        : top_depth    - START DEPTH       
STOP.M        484.742                        : bot_depth    - STOP DEPTH        
STEP.M        0.25                           : increment    - STEP LENGTH       
~CURVE INFORMATION BLOCK
#MNEM UNIT       ERCB CURVE CODE    CURVE DESCRIPTION
#-----------   ------------------   ----------------------------------
DEPT.M        00 001 00 00         : DEPTH        - DEPTH                       
ILD .OHMM     00 120 00 00         : RESD         - DEEP RESISTIVITY (DIL)      
NPHI.V/V      00 330 00 00         : PHIN         - NEUTRON POROSITY (SANDSTONE)
DPHI.V/V      00 890 00 00         : PHID         - DENSITY POROSITY (SANDSTONE)
CALI.MM       00 280 01 00         : CAL          - CALIPER                     
GR  .API      00 310 00 00         : GR           - GAMMA RAY                   
~PARAMETER INFORMATION       
#MNEM.UNIT           DATA             DESCRIPTION OF MNEMONIC
#---------         -----------     ------------------------------
GL  .M        583.265              : gl           - GROUND LEVEL ELEVATION      
EREF.M        586.435              : kb           - ELEVATION OF DEPTH REFERENCE
DATM.M        583.265              : datum        - DATUM ELEVATION             
TDD .M        490.423              : tdd          - TOTAL DEPTH DRILLER         
RUN .         ONE                  : Run          - RUN NUMBER                  
ENG .         BILL                 : Engineer     - RECORDING ENGINEER          
WIT .         JIM                  : Witness      - WITNESSED BY                
MUD .         GEL                  : Mud_type     - MUD TYPE                    
MATR.         SANDSTONE            : Logunit      - NEUTRON MATRIX              
TMAX.C        26.6667              : BHT          - MAXIMUM RECORDED TEMPERATURE
BHTD.M        490.423              : BHTDEP       - MAXIMUM RECORDED TEMPERATURE
RMT .C        4.44444              : MDTP         - TEMPERATURE OF MUD          
MUDD.KG/M     9000                 : MWT          - MUD DENSITY                 
NEUT.         1                    : NEUTRON      - NEUTRON TYPE                
RESI.         0                    : RESIST       - RESISTIVITY TYPE            
RM  .OHMM     4.66                 : RM           - RESISTIVITY OF MUD          
RMC .OHMM     2.9                  : RMC          - RESISTIVITY OF MUD CAKE     
RMF .OHMM     0.25                 : RMF          - RESISTIVITY OF MUD FILTRATE 
SUFT.C        -20.5556             : SUFT         - SURFACE TEMPERATURE         
~A  DEPTH     RESD     PHIN     PHID      CAL       GR
# ...
  462.992    6.744    0.403    0.131  166.728   88.594
  463.242    6.458    0.412    0.169  166.793   88.628
  463.492    5.964    0.405    0.173  166.836   87.782
  463.742    5.509    0.398    0.177  166.908   86.949
  463.992    4.953    0.408    0.163  166.951   87.561
  464.242    4.334    0.409    0.183  166.526   89.355
  464.492    3.562    0.411    0.208  166.080   92.029
  464.742    2.981    0.454    0.228  165.655   96.757
  464.992    2.753    0.462    0.261  166.202   98.266
  465.242    2.783    0.454    0.213  167.743   94.482
  465.492    2.969    0.453    0.194  168.304   86.596
  465.742    3.724    0.446    0.171  165.885   82.812
  465.992    4.585    0.368    0.115  162.962   78.450
  466.242    6.127    0.349    0.111  162.530   77.897
  466.492    7.281    0.360    0.127  163.077   79.406
  466.742    7.558    0.385    0.130  164.128   81.779
  466.992    7.111    0.408    0.160  164.186   85.039
  467.242    6.566    0.427    0.177  164.251   88.011
  467.492    5.746    0.426    0.187  163.811   91.272
  467.742    4.766    0.417    0.176  163.862   94.240
  467.992    4.688    0.442    0.168  165.417   96.042
  468.242    4.653    0.459    0.165  168.455   95.192
  468.492    4.876    0.459    0.168  171.997   92.292
  468.742    5.391    0.435    0.143  169.081   86.753
  468.992    6.822    0.421    0.106  167.137   79.742
  469.242    7.821    0.311    0.076  165.712   68.335
  469.492    8.650    0.294    0.075  164.769   65.729
  469.742    9.311    0.316    0.099  163.847   74.568
  469.992    9.324    0.351    0.109  164.394   82.229
  470.242    8.690    0.420    0.142  164.444   87.552
  470.492    5.861    0.474    0.183  164.509   89.341
  470.742    4.771    0.509    0.187  165.063   92.602
  470.992    3.715    0.544    0.205  166.611  101.743
  471.242    3.137    0.552    0.202  169.656  100.893
  471.492    2.924    0.517    0.210  172.205   98.873
  471.742    2.876    0.520    0.213  172.759  100.667
  471.992    3.014    0.535    0.205  172.810   98.941
  472.242    3.214    0.532    0.206  171.881   99.859
  472.492    3.491    0.501    0.197  170.448   99.889
  472.742    3.825    0.461    0.185  169.008   94.350
  472.992    4.155    0.445    0.175  168.072   93.210
  473.242    4.276    0.431    0.170  168.137   92.657
  473.492    4.245    0.456    0.145  168.195   92.985
  473.742    4.137    0.456    0.149  168.259   93.899
  473.992    3.963    0.473    0.167  167.827   97.164
  474.242    3.863    0.488    0.198  167.870  102.185
  474.492    3.869    0.486    0.178  168.439  100.752
  474.742    3.946    0.473    0.162  168.489  101.084
  474.992    4.134    0.464    0.163  167.568  102.002
  475.242    4.332    0.433    0.180  167.129  103.209
  475.492    4.417    0.442    0.182  166.682  100.603
  475.742    4.347    0.426    0.185  167.229  101.228
  475.992    4.314    0.416    0.165  167.798  103.018
  476.242    4.282    0.474    0.158  168.849  105.403
  476.492    4.327    0.527    0.174  170.397  108.366
  476.742    4.453    0.540    0.182  171.441  107.227
  476.992    4.623    0.490    0.152  171.513  102.571
  477.242    4.715    0.482    0.150  171.570   99.085
  477.492    4.557    0.394    0.139  169.648   99.119
  477.742    4.402    0.406    0.122  168.201  100.033
  477.992    4.331    0.442    0.176  169.749  105.934
  478.242    4.455    0.485    0.179  171.793  116.240
  478.492    4.797    0.470    0.178  171.354  115.985
  478.742    5.117    0.416    0.166  169.921  114.552
  478.992    5.558    0.403    0.142  168.489  113.123
  479.242    6.783    0.387    0.127  168.553  112.269
  479.492    7.436    0.371    0.109  168.129  111.134
  479.742    9.933    0.365    0.104  167.193  108.527
  479.992   10.500    0.374    0.080  166.242  100.930
  480.242   11.821    0.357    0.057  164.313   89.817
  480.492   14.178    0.302    0.010  162.391   80.761
  480.742   13.820    0.261    0.030  161.951   80.791
  480.992   12.095    0.231    0.044  162.016   86.692
  481.242   10.490    0.246    0.080  162.067   91.713
  481.492    9.347    0.333    0.099  163.614   97.622
  481.742    9.198    0.348    0.077  167.149   89.140
  481.992    9.550    0.309    0.029  167.703   73.631
  482.242   10.095    0.272    0.034  166.789   65.740
  482.492   11.061    0.243    0.041  165.846   58.734
  482.742   12.343    0.256    0.071  164.903   52.603
  482.992   12.820    0.253    0.073  165.464   46.183
  483.242   11.946    0.256    0.079  166.515   40.350
  483.492    9.300    0.280    0.096  166.566   33.637
  483.742    8.140    0.329    0.138  167.127   28.102
  483.992    7.123    0.329    0.147  169.172   24.326
  484.242    7.332    0.296    0.141  168.740   23.773
  484.492    7.890    0.290    0.128  167.811   23.799
  484.742    8.802    0.282    0.122  167.364   22.957
