~VERSION INFORMATION
 VERS.                 2.0:   CWLS LOG ASCII STANDARD -VERSION 2.0
 WRAP.                  NO:   ONE LINE PER DEPTH STEP
~WELL INFORMATION BLOCK
#MNEM.UNIT           DATA                    DESCRIPTION OF MNEMONIC
#---------    -------------------            -------------------------------
# Generated from Intellog Unique Number	CW_70_72/WELL/3308
NULL.         -999.25                        : NULL_VALUE
WELL.         IMP MITSUE                     : Well_name    - WELL              
LOC .         10-03-072-05W5                 : Location     - LOCATION          
UWI .         00/10-03-072-05W5/0            : Uwi          - UNIQUE WELL ID    
ENTR.         CAMPBELL                       : Entered      - ENTERED BY        
SRVC.         SCHLUMBERGER                   : Scn          - SERVICE COMPANY   
DATE.         15 DEC. 1965                   : Date         - LOG DATE          
STRT.M        588.264                        : top_depth    - START DEPTH       
STOP.M        731.514                        : bot_depth    - STOP DEPTH        
STEP.M        0.25                           : increment    - STEP LENGTH       
~CURVE INFORMATION BLOCK
#MNEM UNIT       ERCB CURVE CODE    CURVE DESCRIPTION
#-----------   ------------------   ----------------------------------
DEPT.M        00 001 00 00         : DEPTH        - DEPTH                       
ILD .OHMM     00 120 00 00         : RESD         - DEEP RESISTIVITY (DIL)      
DELT.US/F     00 520 00 00         : DELT         - SONIC TRAVEL TIME           
CALI.MM       00 280 01 00         : CAL          - CALIPER                     
GR  .API      00 310 00 00         : GR           - GAMMA RAY                   
~PARAMETER INFORMATION       
#MNEM.UNIT           DATA             DESCRIPTION OF MNEMONIC
#---------         -----------     ------------------------------
GL  .M        687.72               : gl           - GROUND LEVEL ELEVATION      
EREF.M        691.5                : kb           - ELEVATION OF DEPTH REFERENCE
DATM.M        691.5                : datum        - DATUM ELEVATION             
TDD .M        1817.22              : tdd          - TOTAL DEPTH DRILLER         
RUN .         ONE                  : Run          - RUN NUMBER                  
ENG .         DEMETRICK & WAGNER   : Engineer     - RECORDING ENGINEER          
WIT .         SEMELUK              : Witness      - WITNESSED BY                
MUD .         GEL                  : Mud_type     - MUD TYPE                    
MATR.         SANDSTONE            : Logunit      - NEUTRON MATRIX              
TMAX.C        46.6667              : BHT          - MAXIMUM RECORDED TEMPERATURE
BHTD.M        1817.22              : BHTDEP       - MAXIMUM RECORDED TEMPERATURE
RMT .C        23.3333              : MDTP         - TEMPERATURE OF MUD          
MUDD.KG/M     9700                 : MWT          - MUD DENSITY                 
NEUT.         1                    : NEUTRON      - NEUTRON TYPE                
RESI.         0                    : RESIST       - RESISTIVITY TYPE            
RM  .OHMM     1.56                 : RM           - RESISTIVITY OF MUD          
RMC .OHMM     2                    : RMC          - RESISTIVITY OF MUD CAKE     
RMF .OHMM     1.29                 : RMF          - RESISTIVITY OF MUD FILTRATE 
SUFT.C        -20                  : SUFT         - SURFACE TEMPERATURE         
~A  DEPTH     RESD     DELT      CAL       GR
# ...
  675.264   12.395  373.098  264.294   53.264
  675.514   12.693  371.794  265.338   51.135
  675.764   12.794  369.199  267.386   49.486
  676.014   12.894  367.250  269.433   48.785
  676.264   12.896  365.300  270.970   50.946
  676.514   12.996  365.273  273.516   50.247
  676.764   13.097  365.573  276.061   48.358
  677.014   13.197  365.873  279.113   45.517
  677.264   13.298  365.527  282.671   41.252
  677.514   13.300  366.148  285.713   42.694
  677.764   13.203  367.414  289.267   42.233
  678.014   13.205  370.600  292.314   43.441
  678.264   13.207  372.828  294.353   47.030
  678.514   13.209  374.091  297.414   52.281
  678.764   12.816  374.712  298.946   51.346
  679.014   12.226  375.009  300.488   47.315
  679.264   11.341  376.591  302.535   45.902
  679.514   10.849  378.819  304.081   45.918
  679.764    9.865  381.052  305.116   46.173
  680.014    8.980  383.919  306.662   43.334
  680.264    8.488  386.146  307.204   48.585
  680.514    8.688  387.410  307.235   46.464
  680.764    9.084  385.137  307.781   47.430
  681.014    9.382  383.508  307.817   49.112
  681.264    9.482  382.201  307.852   45.079
  681.514    9.583  382.177  307.883   39.621
  681.764    9.585  382.798  307.945   42.731
  682.014    9.587  383.419  307.963   47.034
  682.264    9.687  384.361  307.994   44.431
  682.514    9.886  385.619  307.537   40.878
  682.764    9.987  386.888  307.070   40.417
  683.014    9.890  387.507  306.599   39.479
  683.264    9.694  387.485  305.635   45.924
  683.514    9.499  388.427  304.667   48.320
  683.764    9.107  388.724  302.699   45.479
  684.014    8.517  388.381  298.723   41.930
  684.264    8.026  387.712  296.240   41.229
  684.514    7.831  387.047  292.273   42.673
  684.764    7.635  386.383  290.296   41.975
  685.014    7.539  386.359  287.822   44.135
  685.264    7.442  386.342  284.846   46.291
  685.514    7.444  384.388  280.870   47.735
  685.764    7.840  383.078  276.383   49.897
  686.014    8.532  385.630  271.910   50.625
  686.264    9.422  383.999  269.427   48.260
  686.514   10.015  379.481  265.456   49.230
  686.764   10.707  373.031  261.982   46.153
  687.014   11.202  370.760  259.001   44.502
  687.264   11.500  370.096  256.025   44.278
  687.514   11.502  367.499  254.048   46.438
  687.764   11.405  365.230  252.582   49.310
  688.014   11.309  362.638  251.614   49.566
  688.264   11.113  366.148  250.650   47.677
  688.514   11.017  371.589  249.681   46.743
  688.764   10.920  379.597  248.713   46.282
  689.014   10.823  380.539  247.749   45.105
  689.264   10.726  379.875  245.777   41.790
  689.514   10.334  369.250  247.318   41.092
  689.764    9.645  350.269  249.863   47.535
  690.014    9.154  324.540  253.417   48.983
  690.264    8.761  310.060  254.958   47.568
  690.514    8.369  296.541  249.974   43.539
  690.764    8.075  324.473  247.500   46.171
  691.014    7.880  344.053  247.033   50.476
  691.264    7.586  377.126  247.078   51.442
  691.514    7.292  380.639  247.109   50.031
  691.764    7.195  384.794  246.651   51.713
  692.014    7.197  388.307  246.682   50.064
  692.264    7.100  391.174  246.718   49.126
  692.514    7.299  393.720  247.260   45.574
  692.764    7.893  395.305  247.291   43.922
  693.014    9.374  396.247  246.327   55.364
  693.264   10.165  394.616  245.865   55.144
  693.514   10.463  388.814  245.896   48.970
  693.764   10.070  381.721  245.936   46.847
  694.014    9.382  378.486  245.936   46.144
  694.264    8.595  375.570  246.526   48.306
  694.514    8.104  375.227  247.055   49.987
  694.764    8.598  377.776  247.086   48.574
  695.014    9.586  380.001  247.126   53.593
  695.264   10.180  379.015  247.166   53.130
  695.514    9.886  374.495  247.166   46.718
  695.764    9.099  369.651  247.232   43.877
  696.014    8.706  373.488  246.766   49.846
  696.264    8.512  381.818  246.304   47.243
  696.514    8.316  383.081  247.352   46.307
  696.764    8.121  384.345  247.885   50.133
  697.014    8.024  384.963  247.916   51.103
  697.264    7.730  385.905  247.956   52.783
  697.514    7.633  383.311  248.494   55.658
  697.764    7.734  382.644  248.529   58.530
  698.014    8.327  381.658  249.067   60.928
  698.264   10.203  380.351  249.107   58.087
  698.514   11.290  377.116  249.146   49.535
  698.764   11.883  374.522  249.182   54.071
  699.014   12.378  369.362  249.724   57.660
  699.264   12.873  362.269  249.759   55.533
  699.514   13.072  356.785  250.301   51.740
  699.764   13.173  354.511  250.834   49.139
  700.014   13.175  354.169  251.381   49.390
  700.264   12.979  353.826  251.412   50.364
  700.514   12.883  352.835  250.945   49.900
  700.764   12.884  351.852  250.981   51.106
  701.014   12.787  351.188  250.519   54.696
  701.264   12.592  349.559  250.550   53.386
  701.514   12.002  348.571  251.096   55.515
  701.764   11.314  351.117  252.131   58.591
  702.014   10.330  354.311  253.677   57.885
  702.264    8.951  363.286  255.218   53.401
  702.514    7.868  367.757  256.764   54.350
  702.764    7.180  368.384  258.301   57.188
  703.014    6.294  365.789  259.842   60.027
  703.264    5.704  361.909  262.401   57.905
  703.514    5.115  358.674  265.941   58.381
  703.764    4.722  358.331  270.499   60.511
  704.014    4.428  358.631  268.029   57.681
  704.264    4.233  365.035  269.570   57.920
  704.514    4.235  368.867  270.605   62.176
  704.764    4.237  373.986  272.155   64.542
  705.014    4.238  385.210  274.701   64.310
  705.264    4.240  383.260  276.744   66.440
  705.514    4.242  393.199  277.286   67.861
  705.764    4.343  362.330  275.314   68.810
  706.014    4.343  364.236  275.860   69.995
  706.264    4.445  367.746  275.887   70.235
  706.514    4.644  362.904  275.922   70.239
  706.764    5.041  359.670  271.440   70.479
  707.014    5.930  333.299  253.907   70.956
  707.264    6.622  326.205  247.919   70.251
  707.514    7.512  316.866  234.410   70.727
  707.764    8.105  294.350  232.935   73.565
  708.014    8.403  289.185  235.485   76.404
  708.264    7.813  310.048  233.006   72.864
  708.514    7.421  353.727  238.062   68.381
  708.764    7.324  363.344  238.101   69.329
  709.014    7.227  372.962  237.133   72.167
  709.264    7.328  391.576  236.671   72.644
  709.514    7.428  388.662  243.232   72.175
  709.764    7.529  359.718  245.777   70.525
  710.014    8.024  361.948  229.750   69.349
  710.264    8.617  330.115  223.762   67.699
  710.514    9.605  328.162  219.284   67.939
  710.764   10.396  322.676  219.822   69.361
  711.014   10.497  328.440  218.356   71.254
  711.264   10.597  339.986  221.399   67.951
  711.514   10.796  341.889  228.470   65.829
  711.764   10.995  331.264  235.027   66.305
  712.014   10.307  319.673  235.569   69.380
  712.264    9.520  325.114  234.600   70.328
  712.514    8.733  331.518  235.142   66.552
  712.764    8.341  337.598  236.679   64.667
  713.014    8.046  353.002  242.747   66.325
  713.264    7.950  354.908  244.284   69.635
  713.514    7.952  351.028  243.316   73.891
  713.764    8.052  328.194  246.874   74.603
  714.014    8.153  317.567  250.418   76.025
  714.264    8.352  323.971  256.477   71.304
  714.514    8.354  327.162  262.541   66.347
  714.764    7.370  328.742  267.600   68.714
  715.014    6.779  328.402  268.138   70.844
  715.264    6.190  337.695  265.664   72.974
  715.514    5.699  330.926  267.707   71.088
  715.764    5.109  386.174  280.798   66.839
  716.014    4.420  419.568  319.493   67.080
  716.264    3.929  420.832  306.975   70.863
  716.514    3.635  412.777  326.089   74.174
  716.764    3.144  432.998  381.847   65.238
  717.014    2.752  441.652  382.384   65.493
  717.264    2.556  535.135  383.424   55.511
  717.514    2.558  609.661  382.957   45.052
  717.764    2.461  601.604  382.997   41.258
  718.014    2.464  636.607  383.033   31.275
  718.264    2.465  679.319  382.566   38.195
  718.514    2.566  683.153  382.108   41.545
