~VERSION INFORMATION
 VERS.                 2.0:   CWLS LOG ASCII STANDARD -VERSION 2.0
 WRAP.                  NO:   ONE LINE PER DEPTH STEP
~WELL INFORMATION BLOCK
#MNEM.UNIT           DATA                    DESCRIPTION OF MNEMONIC
#---------    -------------------            -------------------------------
# Generated from Intellog Unique Number	CS_67_68/WELL/2203
WELL.         11-04-067-03W4                 : Well_name    - WELL
LOC .         00/11-04-067-03W4/0            : Location     - LOCATION
UWI .         00/11-04-067-03W4/0            : Uwi          - UNIQUE WELL ID
ENTR.         SP                             : Entered      - ENTERED BY
SRVC.         SCHLUMBERGER                   : Scn          - SERVICE COMPANY
STRT.M        330                            : top_depth    - START DEPTH
STOP.M        555                            : bot_depth    - STOP DEPTH
STEP.M        0.25                           : increment    - STEP LENGTH
 NULL. -999.2500:NULL Value
~CURVE INFORMATION BLOCK
#MNEM UNIT       ERCB CURVE CODE    CURVE DESCRIPTION
#-----------   ------------------   ----------------------------------
DEPT.M        00 001 00 00         : DEPTH        - DEPTH
ILD .OHMM     00 120 00 00         : RESD         - DEEP RESISTIVITY (DIL)
DPHI.V/V      00 890 00 00         : PHID         - DENSITY POROSITY (LIMESTONE)
NPHI.V/V      00 330 00 00         : PHIN         - NEUTRON POROSITY (LIMESTONE)
GR  .API      00 310 00 00         : GR           - GAMMA RAY
CALI.MM       00 280 01 00         : CAL          - CALIPER
~PARAMETER INFORMATION
#MNEM.UNIT           DATA             DESCRIPTION OF MNEMONIC
#---------         -----------     ------------------------------
GL  .M        654.03               : gl           - GROUND LEVEL ELEVATION
EREF.M        657.79               : kb           - ELEVATION OF DEPTH REFERENCE
DATM.M        657.79               : datum        - DATUM ELEVATION
TDD .M        564                  : tdd          - TOTAL DEPTH DRILLER
RUN .         ONE                  : Run          - RUN NUMBER
ENG .         BILL                 : Engineer     - RECORDING ENGINEER
WIT .         JIM                  : Witness      - WITNESSED BY
MUD .         GEL                  : Mud_type     - MUD TYPE
MATR.         LIMESTONE            : Logunit      - NEUTRON MATRIX
TMAX.C        26                   : BHT          - MAXIMUM RECORDED TEMPERATURE
BHTD.M        564                  : BHTDEP       - MAXIMUM RECORDED TEMPERATURE
MATR.         1                    : LOGUNIT      - NEUTRON MATRIX
RMT .C        25                   : MDTP         - TEMPERATURE OF MUD
NEUT.         1                    : NEUTRON      - NEUTRON TYPE
RESI.         0                    : RESIST       - RESISTIVITY TYPE
RMC .OHMM     0.25                 : RMC          - RESISTIVITY OF MUD CAKE
RMF .OHMM     0.25                 : RMF          - RESISTIVITY OF MUD FILTRATE
SUFT.C        15                   : SUFT         - SURFACE TEMPERATURE
~A  DEPTH     RESD     PHID     PHIN       GR      CAL
# ...
  512.500    6.560    0.310    0.366   43.169  201.324
  512.750    6.607    0.300    0.369   52.873  201.012
  513.000    6.742    0.294    0.382   63.248  200.906
  513.250    6.892    0.297    0.389   66.297  200.697
  513.500    7.033    0.301    0.387   63.608  200.589
  513.750    7.191    0.304    0.386   72.762  200.584
  514.000    7.489    0.289    0.383   81.733  200.579
  514.250    7.601    0.254    0.378   89.605  200.573
  514.500    7.727    0.229    0.374   94.486  200.161
  514.750    7.944    0.225    0.370   96.375  199.850
  515.000    8.062    0.239    0.369   95.884  199.235
  515.250    8.133    0.249    0.375   94.599  198.517
  515.500    8.025    0.253    0.386   90.261  197.901
  515.750    7.829    0.252    0.389   83.237  197.895
  516.000    7.840    0.188    0.347   77.739  197.992
  516.250    7.971    0.168    0.329   77.186  198.494
  516.500    8.043    0.196    0.349   77.549  199.202
  516.750    8.040    0.265    0.367   70.159  200.112
  517.000    7.812    0.285    0.380   60.998  200.819
  517.250    7.708    0.305    0.391   58.248  201.423
  517.500    7.634    0.239    0.386   79.734  201.520
  517.750    7.532    0.187    0.368   94.505  201.617
  518.000    7.403    0.157    0.351  101.889  201.408
  518.250    7.249    0.149    0.367  104.388  201.911
  518.500    7.059    0.162    0.388  110.063  202.516
  518.750    6.822    0.176    0.404  115.249  202.511
  519.000    6.667    0.170    0.419  119.458  202.709
  519.250    7.078    0.162    0.440  113.288  202.704
  519.500    7.035    0.170    0.447  109.683  203.003
  519.750    6.954    0.184    0.436  110.046  202.896
  520.000    6.847    0.203    0.445  111.081  202.687
  520.250    6.768    0.221    0.476  111.688  202.987
  520.500    6.690    0.198    0.489  111.441  203.287
  520.750    6.625    0.167    0.471  109.850  203.485
  521.000    6.586    0.163    0.456  108.687  203.275
  521.250    6.522    0.177    0.445  109.111  202.659
  521.500    6.471    0.174    0.447  109.535  202.553
  521.750    6.395    0.172    0.442  107.151  202.242
  522.000    6.334    0.175    0.433  108.857  201.931
  522.250    6.308    0.177    0.431  108.000  202.130
  522.500    6.305    0.176    0.434  108.118  202.531
  522.750    6.350    0.172    0.434  111.351  202.933
  523.000    6.432    0.174    0.428  109.516  203.640
  523.250    6.477    0.174    0.425  108.170  204.041
  523.500    6.500    0.174    0.440  110.425  204.239
  523.750    6.522    0.176    0.449  111.521  204.336
  524.000    6.568    0.179    0.445  108.647  204.228
  524.250    6.627    0.185    0.427  106.752  204.019
  524.500    6.700    0.196    0.415  104.490  203.709
  524.750    6.773    0.182    0.427  102.289  203.601
  525.000    6.847    0.174    0.442  100.577  203.291
  525.250    6.909    0.180    0.431   96.544  203.286
  525.500    7.010    0.181    0.416   92.817  203.382
  525.750    7.127    0.172    0.421  100.506  203.377
  526.000    7.218    0.166    0.432  105.387  203.575
  526.250    7.283    0.176    0.440  102.026  203.671
  526.500    7.376    0.192    0.417   99.458  203.564
  526.750    7.458    0.201    0.402   98.905  203.151
  527.000    7.511    0.199    0.405  103.969  202.636
  527.250    7.522    0.192    0.410  108.300  202.428
  527.500    7.519    0.180    0.430  111.166  202.525
  527.750    7.488    0.167    0.445  113.789  203.537
  528.000    7.429    0.162    0.435  116.105  204.142
  528.250    7.343    0.161    0.423  118.300  204.238
  528.500    7.259    0.162    0.415  119.029  204.436
  528.750    7.188    0.171    0.427  116.583  204.227
  529.000    7.159    0.176    0.424  115.360  204.222
  529.250    7.183    0.162    0.419  114.258  203.911
  529.500    7.193    0.163    0.415  112.667  203.702
  529.750    7.177    0.167    0.410  110.038  203.392
  530.000    7.175    0.165    0.405  104.663  203.081
  530.250    7.158    0.165    0.417   96.601  202.465
  530.500    7.075    0.195    0.434   86.402  201.645
  530.750    6.929    0.267    0.423   76.265  200.724
  531.000    6.658    0.286    0.403   69.363  200.312
  531.250    6.570    0.243    0.388   76.319  199.696
  531.500    6.518    0.207    0.372   74.302  199.182
  531.750    6.639    0.187    0.359   54.946  199.380
  532.000    6.800    0.211    0.362   48.776  199.476
  532.250    6.771    0.287    0.375   44.683  199.980
  532.500    6.631    0.311    0.402   40.406  200.178
  532.750    6.337    0.326    0.416   38.449  200.478
  533.000    6.056    0.324    0.414   41.132  200.472
  533.250    5.864    0.320    0.400   44.670  200.466
  533.500    5.721    0.322    0.390   47.963  200.360
  533.750    5.623    0.324    0.400   46.189  199.947
  534.000    5.568    0.313    0.396   45.270  200.145
  534.250    5.576    0.294    0.393   46.916  199.936
  534.500    5.564    0.294    0.402   48.377  200.135
  534.750    5.520    0.319    0.411   45.749  200.129
  535.000    5.467    0.334    0.420   42.692  200.124
  535.250    5.373    0.332    0.415   40.980  199.914
  535.500    5.331    0.331    0.410   39.390  200.113
  535.750    5.230    0.336    0.404   36.273  199.700
  536.000    5.121    0.342    0.395   31.691  199.694
  536.250    5.052    0.340    0.389   30.162  199.079
  536.500    5.013    0.334    0.399   30.464  198.564
  536.750    5.011    0.335    0.404   32.048  197.949
  537.000    5.009    0.348    0.404   36.989  197.841
  537.250    5.036    0.338    0.407   42.664  197.531
  537.500    5.081    0.329    0.410   48.216  197.933
  537.750    5.136    0.320    0.413   49.800  198.334
  538.000    5.154    0.331    0.406   46.134  198.532
  538.250    5.161    0.313    0.396   48.450  198.730
  538.500    5.179    0.299    0.403   51.805  198.522
  538.750    5.206    0.294    0.425   54.183  198.210
  539.000    5.263    0.292    0.432   53.630  198.204
  539.250    5.341    0.295    0.436   52.772  198.199
  539.500    5.358    0.300    0.444   49.350  198.500
  539.750    5.287    0.316    0.440   43.852  198.697
  540.000    5.255    0.334    0.424   37.805  198.794
  540.250    5.253    0.349    0.400   31.453  199.094
  540.500    5.330    0.332    0.368   45.125  198.478
  540.750    5.389    0.316    0.383   52.875  198.066
  541.000    5.448    0.302    0.407   56.351  197.450
  541.250    5.538    0.287    0.400   58.180  197.037
  541.500    5.726    0.272    0.386   63.793  196.727
  541.750    5.920    0.256    0.382   67.880  196.314
  542.000    6.098    0.246    0.380   68.548  196.207
  542.250    6.165    0.288    0.391   62.684  195.998
  542.500    6.162    0.337    0.412   48.456  195.993
  542.750    6.068    0.338    0.412   37.342  196.293
  543.000    5.713    0.338    0.408   35.385  197.406
  543.250    5.521    0.340    0.422   32.085  198.927
  543.500    5.306    0.345    0.416   27.442  200.244
  543.750    5.157    0.349    0.399   24.875  201.155
  544.000    5.012    0.353    0.398   23.773  201.556
  544.250    4.973    0.354    0.398   24.319  201.755
  544.500    4.989    0.352    0.398   26.147  201.748
  544.750    5.016    0.350    0.398   27.304  201.438
  545.000    5.033    0.347    0.395   27.484  201.331
  545.250    5.049    0.340    0.393   26.504  201.326
  545.500    5.057    0.343    0.390   27.416  200.812
  545.750    5.046    0.333    0.385   28.634  199.687
  546.000    4.969    0.330    0.395   28.753  198.868
  546.250    4.976    0.336    0.406   29.665  198.252
  546.500    5.174    0.338    0.415   41.811  197.636
  546.750    5.430    0.247    0.420   54.628  196.917
  547.000    5.688    0.221    0.424   74.466  196.709
  547.250    5.871    0.214    0.425   87.284  196.907
  547.500    5.991    0.237    0.433   59.319  197.614
  547.750    6.067    0.267    0.447   50.281  198.321
  548.000    6.099    0.307    0.379   38.800  198.824
  548.250    6.108    0.306    0.363   42.094  199.327
  548.500    6.198    0.278    0.383   54.727  199.118
  548.750    6.302    0.254    0.375   63.821  198.706
