~VERSION INFORMATION
 VERS.                 2.0:   CWLS LOG ASCII STANDARD -VERSION 2.0
 WRAP.                  NO:   ONE LINE PER DEPTH STEP
~WELL INFORMATION BLOCK
#MNEM.UNIT           DATA                    DESCRIPTION OF MNEMONIC
#---------    -------------------            -------------------------------
# Generated from Intellog Unique Number	CW_73_75/WELL/924
WELL.         GULF POC DROWNED 10-16         : Well_name    - WELL
LOC .         00/10-16-075-21W4/0            : Location     - LOCATION
UWI .         00/10-16-075-21W4/0            : Uwi          - UNIQUE WELL ID
ENTR.         JAYE                           : Entered      - ENTERED BY
SRVC.         SCHLUMBERGER                   : Scn          - SERVICE COMPANY
DATE.         6 MAR 78                       : Date         - LOG DATE
STRT.M        356.616                        : top_depth    - START DEPTH
STOP.M        566.866                        : bot_depth    - STOP DEPTH
STEP.M        0.25                           : increment    - STEP LENGTH
 NULL. -999.2500:NULL Value
~CURVE INFORMATION BLOCK
#MNEM UNIT       ERCB CURVE CODE    CURVE DESCRIPTION
#-----------   ------------------   ----------------------------------
DEPT.M        00 001 00 00         : DEPTH        - DEPTH
ILD .OHMM     00 120 00 00         : RESD         - DEEP RESISTIVITY (DIL)
NPHI.V/V      00 330 00 00         : PHIN         - NEUTRON POROSITY (SANDSTONE)
DPHI.V/V      00 890 00 00         : PHID         - DENSITY POROSITY (SANDSTONE)
GR  .API      00 310 00 00         : GR           - GAMMA RAY
CALI.MM       00 280 01 00         : CAL          - CALIPER
~PARAMETER INFORMATION
#MNEM.UNIT           DATA             DESCRIPTION OF MNEMONIC
#---------         -----------     ------------------------------
GL  .M        666.598              : gl           - GROUND LEVEL ELEVATION
EREF.M        670.712              : kb           - ELEVATION OF DEPTH REFERENCE
DATM.M        666.598              : datum        - DATUM ELEVATION
TDD .M        569.976              : tdd          - TOTAL DEPTH DRILLER
RUN .         ONE                  : Run          - RUN NUMBER
ENG .         VERRAIRES            : Engineer     - RECORDING ENGINEER
WIT .         BRINKMAN/ROZENHART   : Witness      - WITNESSED BY
BASE.         EDM                  : Branch       - HOME BASE OF LOGGING UNIT
MUD .         GEL CHEM             : Mud_type     - MUD TYPE
MATR.         SANDSTONE            : Logunit      - NEUTRON MATRIX
TMAX.C        17.2222              : BHT          - MAXIMUM RECORDED TEMPERATURE
BHTD.M        569.671              : BHTDEP       - MAXIMUM RECORDED TEMPERATURE
RMT .C        17.7778              : MDTP         - TEMPERATURE OF MUD
MUDD.KG/M     1116                 : MWT          - MUD DENSITY
NEUT.         1                    : NEUTRON      - NEUTRON TYPE
RESI.         0                    : RESIST       - RESISTIVITY TYPE
RM  .OHMM     4.87                 : RM           - RESISTIVITY OF MUD
RMC .OHMM     0                    : RMC          - RESISTIVITY OF MUD CAKE
RMF .OHMM     5.89                 : RMF          - RESISTIVITY OF MUD FILTRATE
SUFT.C        -17.7778             : SUFT         - SURFACE TEMPERATURE
~A  DEPTH     RESD     PHIN     PHID       GR      CAL
# ...
  539.116    6.369    0.387    0.163  123.237  165.012
  539.366    5.913    0.423    0.154  124.118  165.874
  539.616    5.572    0.443    0.136  126.239  166.209
  539.866    5.280    0.453    0.149  122.155  166.228
  540.116    5.220    0.444    0.166  117.761  166.144
  540.366    5.475    0.421    0.145  116.779  165.746
  540.616    6.252    0.393    0.122  118.653  165.031
  540.866    6.767    0.374    0.103  120.839  164.313
  541.116    7.164    0.386    0.092  123.021  163.179
  541.366    7.486    0.398    0.102  126.198  162.672
  541.616    7.665    0.400    0.112  130.804  162.062
  541.866    7.468    0.375    0.080  137.642  161.870
  542.116    6.972    0.373    0.086  153.355  162.836
  542.366    6.498    0.385    0.109  173.971  163.698
  542.616    6.146    0.398    0.115  181.617  164.772
  542.866    5.976    0.410    0.121  186.594  165.630
  543.116    5.897    0.419    0.157  191.694  166.386
  543.366    5.939    0.441    0.162  195.182  166.722
  543.616    6.287    0.426    0.142  196.683  166.531
  543.866    6.755    0.414    0.139  191.048  165.816
  544.116    7.151    0.387    0.158  119.254  164.890
  544.366    7.570    0.357    0.169  101.330  164.176
  544.616    7.809    0.322    0.146   99.666  163.148
  544.866    7.734    0.340    0.159  104.210  162.326
  545.116    7.356    0.364    0.179  107.821  161.713
  545.366    6.742    0.379    0.205  112.238  161.101
  545.616    6.365    0.376    0.212  120.815  160.284
  545.866    6.121    0.398    0.191  120.889  159.775
  546.116    5.876    0.412    0.187  110.475  158.537
  546.366    5.682    0.415    0.203   94.163  158.134
  546.616    5.680    0.350    0.212   83.252  157.208
  546.866    5.774    0.334    0.193   82.582  156.811
  547.116    6.000    0.327    0.172   85.450  156.308
  547.366    6.352    0.319    0.161   87.759  156.115
  547.616    6.674    0.323    0.148   91.246  155.925
  547.866    6.562    0.317    0.155   93.801  155.947
  548.116    6.346    0.327    0.180   91.207  155.862
  548.366    6.114    0.314    0.163   85.632  155.881
  548.616    5.923    0.328    0.169   82.418  156.113
  548.866    5.856    0.343    0.227   84.787  156.338
  549.116    5.779    0.351    0.208   95.350  156.464
  549.366    5.724    0.352    0.191  110.939  156.697
  549.616    5.775    0.354    0.170  123.735  156.927
  549.866    5.816    0.357    0.151  138.147  157.155
  550.116    5.804    0.366    0.132  144.860  157.281
  550.366    5.780    0.382    0.144  153.002  157.513
  550.616    5.757    0.435    0.165  157.855  157.953
  550.866    5.745    0.441    0.150  152.778  158.391
  551.116    5.775    0.408    0.164  139.322  158.939
  551.366    5.871    0.406    0.174  118.481  159.799
  551.616    6.078    0.413    0.187  104.281  160.238
  551.866    6.423    0.353    0.202   89.770  159.945
  552.116    6.990    0.358    0.219   78.177  158.807
  552.366    7.538    0.375    0.242   78.251  156.622
  552.616    8.703    0.385    0.260   78.325  153.593
  552.866    9.920    0.386    0.259   75.978  150.250
  553.116   11.202    0.395    0.269   76.425  148.800
  553.366   11.599    0.402    0.286   85.932  148.400
  553.616   11.257    0.377    0.288   96.680  148.106
  553.866   10.846    0.393    0.245  107.864  147.811
  554.116   10.202    0.404    0.240  115.075  147.411
  554.366    8.995    0.403    0.251  118.687  147.010
  554.616    7.800    0.393    0.263  117.520  145.979
  554.866    6.865    0.382    0.248  112.566  145.053
  555.116    5.975    0.382    0.254  102.834  144.022
  555.366    5.426    0.392    0.270   94.157  143.305
  555.616    4.749    0.379    0.292   88.150  143.115
  555.866    4.234    0.382    0.285   82.389  143.345
  556.116    3.831    0.384    0.282   75.388  143.786
  556.366    3.453    0.382    0.285   74.841  144.542
  556.616    3.183    0.389    0.299   76.280  144.876
  556.866    3.106    0.400    0.310   79.706  145.216
  557.116    3.123    0.372    0.288   81.766  144.917
  557.366    3.186    0.355    0.264   82.710  144.940
  557.616    3.274    0.373    0.243   84.211  144.958
  557.866    3.378    0.390    0.251   86.642  144.978
  558.116    3.459    0.388    0.275   79.703  144.998
  558.366    3.477    0.365    0.287   77.481  145.228
  558.616    3.463    0.335    0.241   79.851  145.563
  558.866    3.367    0.356    0.211   74.774  146.110
  559.116    3.208    0.378    0.238   54.926  146.550
  559.366    3.029    0.397    0.254   51.959  146.990
  559.616    2.818    0.399    0.274   55.263  147.221
  559.866    2.695    0.388    0.294   56.204  147.452
  560.116    2.630    0.406    0.281   53.733  147.680
  560.366    2.562    0.407    0.302   54.800  148.122
  560.616    2.533    0.366    0.317   59.406  148.563
  560.866    2.542    0.356    0.307   64.009  148.899
  561.116    2.579    0.383    0.293   70.908  149.129
  561.366    2.611    0.399    0.297   71.976  149.672
  561.616    2.664    0.406    0.312   72.485  150.429
  561.866    2.753    0.392    0.288   65.359  150.975
  562.116    2.835    0.391    0.285   48.303  150.890
  562.366    2.979    0.399    0.276   19.022  150.805
  562.616    3.183    0.368    0.043   18.414  150.619
  562.866    3.357    0.375    0.226   19.294  150.424
  563.116    3.777    0.364    0.220   18.872  150.237
  563.366    4.426    0.310    0.130   22.856  149.938
  563.616    5.167    0.329    0.058   30.315  149.959
  563.866    5.846    0.349    0.071   52.110  150.400
  564.116    6.457    0.361    0.149   83.899  151.050
  564.366    7.146    0.289    0.129   88.069  151.807
  564.616    7.453    0.137    0.113   91.865  152.246
  564.866    7.576    0.017    0.094   95.663  152.583
  565.116    7.477    0.015    0.080   99.213  152.708
  565.366    7.071    0.018    0.104  100.467  153.044
  565.616    6.863    0.019    0.118  101.905  153.483
  565.866    7.041    0.019    0.115  102.537  154.133
  566.116    7.523    0.018    0.106  104.225  156.048
  566.366    8.402    0.020    0.091  104.920  156.906
  566.616    9.506    0.021    0.019  105.490  157.767
  566.866   10.519    0.019   -0.004  106.496  157.683
