~VERSION INFORMATION
 VERS.                 2.0:   CWLS LOG ASCII STANDARD -VERSION 2.0
 WRAP.                  NO:   ONE LINE PER DEPTH STEP
~WELL INFORMATION BLOCK
#MNEM.UNIT           DATA                    DESCRIPTION OF MNEMONIC
#---------    -------------------            -------------------------------
# Generated from Intellog Unique Number	CS_71_72/WELL/858
WELL.         ALLIED ET AL WANDER            : Well_name    - WELL
LOC .         00/10-17-072-13W4/0            : Location     - LOCATION
UWI .         00/10-17-072-13W4/0            : Uwi          - UNIQUE WELL ID
ENTR.         SP                             : Entered      - ENTERED BY
SRVC.         SCHLUMBERGER                   : Scn          - SERVICE COMPANY
STRT.M        313.944                        : top_depth    - START DEPTH
STOP.M        536.194                        : bot_depth    - STOP DEPTH
STEP.M        0.25                           : increment    - STEP LENGTH
 NULL. -999.2500:NULL Value
~CURVE INFORMATION BLOCK
#MNEM UNIT       ERCB CURVE CODE    CURVE DESCRIPTION
#-----------   ------------------   ----------------------------------
DEPT.M        00 001 00 00         : DEPTH        - DEPTH
GR  .API      00 310 00 00         : GR           - GAMMA RAY
DPHI.V/V      00 890 00 00         : PHID         - DENSITY POROSITY (SANDSTONE)
NPHI.V/V      00 330 00 00         : PHIN         - NEUTRON POROSITY (SANDSTONE)
ILD .OHMM     00 120 00 00         : RESD         - DEEP RESISTIVITY (DIL)
~PARAMETER INFORMATION
#MNEM.UNIT           DATA             DESCRIPTION OF MNEMONIC
#---------         -----------     ------------------------------
GL  .M        642.671              : gl           - GROUND LEVEL ELEVATION
EREF.M        645.871              : kb           - ELEVATION OF DEPTH REFERENCE
DATM.M        642.671              : datum        - DATUM ELEVATION
TDD .M        548.64               : tdd          - TOTAL DEPTH DRILLER
RUN .         ONE                  : Run          - RUN NUMBER
ENG .         BILL                 : Engineer     - RECORDING ENGINEER
WIT .         JIM                  : Witness      - WITNESSED BY
MUD .         GEL                  : Mud_type     - MUD TYPE
MATR.         SANDSTONE            : Logunit      - NEUTRON MATRIX
TMAX.C        14.4444              : BHT          - MAXIMUM RECORDED TEMPERATURE
BHTD.M        548.64               : BHTDEP       - MAXIMUM RECORDED TEMPERATURE
MATR.         1                    : LOGUNIT      - NEUTRON MATRIX
RMT .C        25                   : MDTP         - TEMPERATURE OF MUD
NEUT.         1                    : NEUTRON      - NEUTRON TYPE
RESI.         0                    : RESIST       - RESISTIVITY TYPE
RMC .OHMM     0.25                 : RMC          - RESISTIVITY OF MUD CAKE
RMF .OHMM     0.25                 : RMF          - RESISTIVITY OF MUD FILTRATE
SUFT.C        15                   : SUFT         - SURFACE TEMPERATURE
~A  DEPTH       GR     PHID     PHIN     RESD
# ...
  444.444   81.141    0.308    0.507    5.037
  444.694   79.725    0.303    0.496    5.171
  444.944   77.551    0.289    0.484    5.181
  445.194   75.625    0.277    0.495    5.088
  445.444   78.167    0.266    0.526    5.021
  445.694   82.475    0.269    0.516    4.983
  445.944   86.019    0.285    0.529    4.846
  446.194   89.626    0.290    0.536    4.848
  446.444   90.988    0.277    0.550    4.846
  446.694   92.382    0.266    0.556    4.845
  446.944   93.024    0.265    0.556    4.893
  447.194   93.079    0.265    0.557    5.026
  447.444   91.883    0.256    0.562    5.156
  447.694   90.551    0.259    0.577    5.344
  447.944   89.357    0.272    0.589    5.409
  448.194   88.921    0.285    0.568    5.473
  448.444   89.195    0.279    0.540    5.605
  448.694   90.139    0.256    0.544    5.640
  448.944   89.108    0.258    0.528    5.712
  449.194   88.079    0.258    0.524    5.706
  449.444   88.509    0.262    0.529    5.702
  449.694   89.874    0.263    0.543    5.628
  449.944   91.682    0.264    0.537    5.521
  450.194   93.286    0.253    0.538    5.304
  450.444   93.475    0.247    0.560    5.207
  450.694   91.313    0.243    0.581    5.048
  450.944   92.643    0.247    0.578    4.831
  451.194   95.639    0.251    0.589    4.650
  451.444   97.821    0.253    0.551    4.476
  451.694   99.306    0.251    0.539    4.198
  451.944  100.294    0.244    0.552    4.023
  452.194  101.288    0.244    0.572    3.849
  452.444  102.246    0.248    0.573    3.776
  452.694  101.067    0.253    0.552    3.801
  452.944   97.589    0.260    0.546    3.938
  453.194   92.105    0.269    0.535    4.051
  453.444   89.990    0.280    0.529    4.386
  453.694   85.368    0.288    0.515    4.720
  453.944   83.781    0.258    0.497    5.032
  454.194   83.041    0.226    0.479    5.341
  454.444   86.341    0.202    0.458    5.588
  454.694   89.054    0.187    0.490    5.770
  454.944   94.666    0.163    0.501    5.748
  455.194   96.989    0.202    0.513    5.614
  455.444   98.975    0.220    0.492    5.353
  455.694  100.848    0.206    0.476    5.182
  455.944   97.961    0.197    0.475    4.975
  456.194   99.094    0.214    0.488    4.720
  456.444   99.835    0.230    0.499    4.632
  456.694   99.195    0.237    0.504    4.569
  456.944   96.326    0.254    0.521    5.017
  457.194   94.558    0.275    0.539    5.625
  457.444   92.602    0.259    0.551    6.673
  457.694   86.416    0.223    0.402    7.401
  457.944   81.098    0.193    0.366    8.639
  458.194   73.989    0.139    0.318   13.717
  458.444   65.491    0.101    0.270   13.598
  458.694   66.721    0.069    0.258   10.726
  458.944   73.711    0.049    0.338    8.431
  459.194   84.245    0.137    0.401    6.409
  459.444   88.211    0.176    0.521    5.863
  459.694   93.759    0.195    0.532    5.551
  459.944   98.928    0.211    0.540    5.492
  460.194  102.007    0.215    0.523    5.403
  460.444  103.496    0.206    0.492    5.405
  460.694  103.902    0.200    0.470    5.410
  460.944  102.941    0.221    0.450    5.326
  461.194  102.025    0.231    0.461    5.243
  461.444  102.145    0.220    0.484    5.098
  461.694   99.826    0.219    0.498    5.131
  461.944   97.290    0.215    0.502    5.167
  462.194   94.798    0.231    0.501    5.050
  462.444   93.259    0.218    0.479    4.835
  462.694   90.871    0.227    0.477    4.673
  462.944   86.459    0.234    0.482    4.462
  463.194   85.516    0.237    0.471    4.355
  463.444   89.652    0.254    0.471    4.662
  463.694   93.698    0.234    0.463    4.836
  463.944   96.156    0.210    0.442    5.109
  464.194   98.138    0.185    0.434    5.285
  464.444   95.594    0.156    0.440    5.560
  464.694   92.296    0.182    0.463    5.518
  464.944   94.300    0.223    0.482    5.239
  465.194   96.270    0.206    0.508    5.011
  465.444   95.888    0.198    0.528    4.383
  465.694   96.430    0.207    0.496    3.689
  465.944   96.853    0.219    0.514    3.227
  466.194   98.383    0.212    0.582    2.669
  466.444   95.901    0.217    0.633    2.297
  466.694   98.122    0.231    0.642    2.059
  466.944   98.979    0.241    0.649    1.716
  467.194   99.768    0.237    0.651    1.620
  467.444   99.073    0.228    0.654    1.627
  467.694   98.230    0.224    0.653    1.900
  467.944   95.944    0.236    0.645    2.163
  468.194   93.005    0.229    0.636    2.517
  468.444   91.542    0.221    0.631    3.091
  468.694   91.455    0.223    0.461    3.609
  468.944   92.111    0.211    0.492    4.172
  469.194   91.949    0.210    0.516    4.368
  469.444   90.653    0.219    0.532    4.595
  469.694   88.651    0.224    0.532    4.643
  469.944   86.631    0.219    0.514    4.440
  470.194   86.362    0.208    0.487    4.893
  470.444   87.457    0.184    0.468    5.399
  470.694   84.768    0.190    0.453    5.888
  470.944   82.091    0.195    0.446    6.178
  471.194   80.624    0.182    0.425    6.519
  471.444   81.054    0.164    0.349    6.662
  471.694   84.836    0.142    0.393    6.202
  471.944   90.442    0.151    0.427    5.773
  472.194   93.281    0.201    0.447    5.277
  472.444   93.620    0.204    0.452    5.894
  472.694   87.913    0.203    0.451    6.369
  472.944   83.679    0.203    0.440    6.899
  473.194   80.174    0.174    0.401    6.789
  473.444   80.575    0.148    0.364    6.379
  473.694   84.737    0.134    0.342    5.538
  473.944   95.040    0.110    0.391    4.677
  474.194  101.433    0.168    0.442    4.030
  474.444  106.017    0.243    0.464    3.483
  474.694  105.374    0.229    0.502    3.082
  474.944  102.253    0.211    0.536    2.906
  475.194  101.645    0.203    0.553    2.856
  475.444  102.887    0.198    0.568    2.854
  475.694  102.690    0.227    0.589    2.852
  475.944  102.276    0.226    0.604    2.851
  476.194  102.226    0.229    0.617    2.852
  476.444  102.922    0.214    0.627    2.865
  476.694  104.008    0.199    0.624    2.923
  476.944  105.391    0.197    0.601    3.005
  477.194  106.802    0.199    0.596    3.089
  477.444  108.782    0.194    0.585    3.081
  477.694  110.910    0.198    0.573    3.079
  477.944  111.426    0.215    0.590    3.078
  478.194  111.395    0.217    0.583    3.138
  478.444  111.273    0.205    0.554    3.153
  478.694  110.272    0.199    0.540    3.155
  478.944  109.344    0.205    0.541    3.200
  479.194  107.353    0.208    0.553    3.333
  479.444  103.849    0.202    0.545    3.463
  479.694  105.072    0.196    0.522    3.598
  479.944  106.950    0.205    0.531    3.620
  480.194  105.838    0.206    0.536    3.701
  480.444  103.262    0.207    0.538    3.618
  480.694  102.233    0.192    0.579    3.529
  480.944  105.138    0.206    0.614    3.417
  481.194  107.735    0.220    0.630    3.105
  481.444  106.298    0.229    0.614    2.813
  481.694  103.150    0.220    0.593    3.009
  481.944   97.993    0.223    0.573    3.750
  482.194   93.504    0.211    0.465    4.940
  482.444   86.815    0.192    0.403    5.878
  482.694   81.855    0.174    0.339    6.976
  482.944   84.217    0.148    0.372    7.798
  483.194   88.371    0.116    0.426    8.183
  483.444   87.709    0.151    0.445    8.159
  483.694   83.231    0.169    0.406    9.422
  483.944   78.435    0.160    0.348   10.153
  484.194   73.548    0.140    0.311   11.056
  484.444   72.637    0.127    0.273   11.756
  484.694   79.598    0.106    0.329   13.019
  484.944   81.689    0.140    0.383   13.717
  485.194   76.971    0.173    0.397   13.436
  485.444   75.857    0.192    0.415   13.572
  485.694   78.049    0.197    0.429   14.633
  485.944   83.291    0.204    0.440   18.388
  486.194   87.475    0.212    0.438   19.858
  486.444   89.526    0.223    0.450   20.545
  486.694   87.484    0.255    0.460   25.487
  486.944   86.152    0.287    0.440   34.669
  487.194   88.130    0.280    0.438   39.958
  487.444   90.379    0.273    0.425   30.072
  487.694   91.612    0.275    0.416   22.032
