~VERSION INFORMATION
 VERS.                 2.0:   CWLS LOG ASCII STANDARD -VERSION 2.0
 WRAP.                  NO:   ONE LINE PER DEPTH STEP
~WELL INFORMATION BLOCK
#MNEM.UNIT           DATA                    DESCRIPTION OF MNEMONIC
#---------    -------------------            -------------------------------
# Generated from Intellog Unique Number	CS_73_76/WELL/3241
WELL.         10-26-075-05W4                 : Well_name    - WELL
LOC .         00/10-26-075-05W4/0            : Location     - LOCATION
UWI .         00/10-26-075-05W4/0            : Uwi          - UNIQUE WELL ID
ENTR.         SP                             : Entered      - ENTERED BY
SRVC.         SCHLUMBERGER                   : Scn          - SERVICE COMPANY
STRT.M        230                            : top_depth    - START DEPTH
STOP.M        455                            : bot_depth    - STOP DEPTH
STEP.M        0.25                           : increment    - STEP LENGTH
 NULL. -999.2500:NULL Value
~CURVE INFORMATION BLOCK
#MNEM UNIT       ERCB CURVE CODE    CURVE DESCRIPTION
#-----------   ------------------   ----------------------------------
DEPT.M        00 001 00 00         : DEPTH        - DEPTH
ILD .OHMM     00 120 00 00         : RESD         - DEEP RESISTIVITY (DIL)
DPHI.V/V      00 890 00 00         : PHID         - DENSITY POROSITY (LIMESTONE)
NPHI.V/V      00 330 00 00         : PHIN         - NEUTRON POROSITY (LIMESTONE)
GR  .API      00 310 00 00         : GR           - GAMMA RAY
~PARAMETER INFORMATION
#MNEM.UNIT           DATA             DESCRIPTION OF MNEMONIC
#---------         -----------     ------------------------------
GL  .M        619.6                : gl           - GROUND LEVEL ELEVATION
EREF.M        624.6                : kb           - ELEVATION OF DEPTH REFERENCE
DATM.M        619.6                : datum        - DATUM ELEVATION
TDD .M        465                  : tdd          - TOTAL DEPTH DRILLER
RUN .         ONE                  : Run          - RUN NUMBER
ENG .         BILL                 : Engineer     - RECORDING ENGINEER
WIT .         JIM                  : Witness      - WITNESSED BY
MUD .         GEL                  : Mud_type     - MUD TYPE
MATR.         LIMESTONE            : Logunit      - NEUTRON MATRIX
TMAX.C        16                   : BHT          - MAXIMUM RECORDED TEMPERATURE
BHTD.M        465                  : BHTDEP       - MAXIMUM RECORDED TEMPERATURE
MATR.         1                    : LOGUNIT      - NEUTRON MATRIX
RMT .C        25                   : MDTP         - TEMPERATURE OF MUD
NEUT.         1                    : NEUTRON      - NEUTRON TYPE
RESI.         0                    : RESIST       - RESISTIVITY TYPE
RMC .OHMM     0.25                 : RMC          - RESISTIVITY OF MUD CAKE
RMF .OHMM     0.25                 : RMF          - RESISTIVITY OF MUD FILTRATE
SUFT.C        15                   : SUFT         - SURFACE TEMPERATURE
~A  DEPTH     RESD     PHID     PHIN       GR
# ...
  273.500   26.427    0.288    0.401   41.115
  273.750   26.923    0.293    0.373   36.273
  274.000   26.435    0.302    0.363   34.455
  274.250   26.437    0.277    0.355   35.662
  274.500   25.958    0.258    0.369   40.496
  274.750   25.485    0.281    0.384   37.468
  275.000   24.564    0.299    0.396   39.884
  275.250   22.818    0.306    0.391   45.929
  275.500   20.809    0.306    0.385   54.393
  275.750   19.690    0.299    0.394   62.857
  276.000   18.978    0.300    0.406   69.507
  276.250   18.292    0.317    0.421   75.551
  276.500   17.308    0.322    0.433   75.548
  276.750   16.078    0.303    0.435   74.335
  277.000   14.935    0.320    0.441   75.541
  277.250   13.619    0.323    0.449   82.795
  277.500   11.535    0.302    0.437   90.653
  277.750   10.519    0.280    0.427   93.674
  278.000    9.771    0.262    0.429   98.509
  278.250    9.076    0.229    0.444  100.925
  278.500    8.588    0.222    0.454  102.735
  278.750    8.278    0.238    0.459  104.547
  279.000    7.979    0.251    0.466  105.148
  279.250    7.834    0.250    0.472  105.145
  279.500    7.692    0.255    0.480  102.722
  279.750    7.836    0.240    0.490   99.695
  280.000    8.283    0.232    0.496   95.457
  280.250    9.783    0.231    0.503   95.454
  280.500   10.931    0.248    0.499   95.450
  280.750   11.991    0.271    0.484   94.236
  281.000   12.443    0.275    0.477   93.023
  281.250   13.154    0.280    0.467   89.996
  281.500   13.400    0.292    0.462   85.154
  281.750   13.402    0.295    0.450   88.779
  282.000   13.159    0.281    0.442   93.614
  282.250   13.161    0.263    0.435   96.030
  282.500   13.163    0.279    0.428   93.002
  282.750   12.924    0.288    0.424   92.394
  283.000   12.925    0.274    0.418   93.600
  283.250   12.927    0.272    0.420   95.411
  283.500   13.415    0.269    0.437   92.988
  283.750   14.715    0.272    0.453   85.726
  284.000   17.061    0.271    0.470   79.070
  284.250   18.714    0.284    0.493   68.180
  284.500   19.782    0.312    0.485   57.895
  284.750   19.067    0.340    0.460   50.028
  285.000   18.043    0.348    0.436   44.581
  285.250   16.760    0.334    0.408   60.907
  285.500   15.859    0.289    0.410   67.557
  285.750   15.570    0.272    0.420   73.602
  286.000   16.159    0.272    0.435   72.994
  286.250   17.725    0.294    0.448   68.151
  286.500   18.057    0.314    0.460   64.518
  286.750   18.739    0.325    0.439   65.725
  287.000   19.091    0.332    0.437   68.745
  287.250   19.094    0.325    0.452   71.161
  287.500   19.096    0.318    0.457   72.367
  287.750   18.751    0.308    0.443   72.968
  288.000   18.410    0.290    0.437   73.569
  288.250   18.411    0.279    0.427   73.567
  288.500   18.414    0.291    0.410   72.958
  288.750   18.416    0.301    0.396   72.349
  289.000   18.419    0.269    0.390   72.346
  289.250   19.114    0.254    0.403   72.343
  289.500   20.206    0.253    0.417   68.710
  289.750   22.164    0.267    0.424   63.263
  290.000   23.867    0.275    0.429   57.816
  290.250   25.701    0.258    0.444   52.974
  290.500   26.183    0.232    0.458   46.922
  290.750   26.187    0.248    0.429   43.290
  291.000   25.240    0.264    0.401   47.520
  291.250   23.883    0.299    0.415   49.936
  291.500   22.186    0.295    0.422   48.117
  291.750   21.782    0.280    0.411   49.929
  292.000   20.611    0.272    0.404   55.368
  292.250   19.504    0.289    0.424   53.550
  292.500   18.798    0.301    0.428   54.152
  292.750   18.456    0.307    0.421   58.382
  293.000   18.121    0.283    0.429   62.612
  293.250   18.805    0.274    0.442   65.633
  293.500   20.250    0.269    0.450   65.629
  293.750   21.407    0.286    0.461   63.810
  294.000   22.215    0.286    0.471   59.573
  294.250   21.020    0.312    0.482   54.731
  294.500   19.171    0.327    0.459   55.333
  294.750   18.139    0.324    0.423   58.958
  295.000   17.483    0.313    0.430   61.374
  295.250   17.165    0.303    0.434   64.394
  295.500   16.544    0.297    0.429   65.601
  295.750   15.369    0.314    0.437   61.968
  296.000   14.812    0.310    0.418   65.594
  296.250   14.277    0.306    0.415   69.823
  296.500   13.263    0.283    0.431   73.449
  296.750   12.320    0.273    0.438   74.655
  297.000   11.874    0.281    0.441   76.467
  297.250   11.236    0.281    0.438   74.648
  297.500   11.032    0.276    0.435   72.830
  297.750   11.662    0.282    0.441   70.407
  298.000   12.102    0.308    0.452   69.798
  298.250   12.560    0.314    0.441   69.189
  298.500   11.884    0.310    0.427   69.792
  298.750   10.837    0.294    0.420   68.579
  299.000    9.883    0.298    0.427   66.761
  299.250    8.847    0.304    0.423   69.176
  299.500    8.068    0.292    0.443   72.197
  299.750    7.357    0.287    0.463   72.798
  300.000    6.586    0.271    0.468   73.400
  300.250    6.587    0.258    0.452   71.582
  300.500    6.711    0.267    0.444   69.763
  300.750    6.712    0.285    0.445   69.155
  301.000    6.838    0.246    0.466   69.152
  301.250    6.838    0.303    0.479   71.567
  301.500    9.715    0.322    0.496   72.169
  301.750   12.583    0.352    0.514   69.746
  302.000   15.708    0.368    0.525   67.323
  302.250   17.878    0.357    0.524   66.713
  302.500   19.977    0.357    0.502   66.106
  302.750   20.732    0.349    0.480   63.078
  303.000   21.120    0.346    0.473   61.259
  303.250   21.123    0.356    0.467   60.651
  303.500   21.126    0.368    0.474   60.648
  303.750   21.129    0.372    0.479   60.040
  304.000   20.744    0.357    0.473   60.036
  304.250   20.748    0.359    0.472   60.034
  304.500   20.750    0.366    0.469   59.423
  304.750   20.754    0.360    0.479   59.421
  305.000   20.756    0.344    0.484   59.418
  305.250   20.759    0.344    0.475   60.018
  305.500   20.762    0.347    0.467   60.620
  305.750   20.764    0.345    0.477   63.035
  306.000   21.154    0.349    0.485   64.242
  306.250   23.204    0.343    0.496   61.819
  306.500   26.411    0.316    0.476   59.397
  306.750   30.621    0.284    0.380   55.764
  307.000   32.973    0.016    0.323   54.551
  307.250   34.218    0.010    0.195   55.153
  307.500   30.632    0.084    0.260   70.874
  307.750   26.921    0.127    0.308   87.201
  308.000   23.659    0.186    0.365   96.270
  308.250   21.575    0.267    0.396   99.895
  308.500   20.415    0.323    0.436   97.472
  308.750   20.044    0.337    0.439  104.726
  309.000   19.679    0.344    0.447  108.957
  309.250   19.324    0.327    0.449  105.324
  309.500   18.972    0.317    0.462   88.990
  309.750   18.627    0.323    0.477   73.262
  310.000   18.288    0.332    0.472   62.371
  310.250   17.628    0.329    0.481   59.948
  310.500   17.307    0.332    0.465   56.315
  310.750   17.632    0.348    0.456   53.287
  311.000   17.963    0.344    0.461   51.470
  311.250   18.302    0.337    0.461   50.256
  311.500   18.304    0.347    0.448   49.648
  311.750   18.305    0.353    0.441   48.435
  312.000   17.973    0.349    0.436   47.825
  312.250   17.324    0.334    0.458   47.824
  312.500   17.009    0.354    0.455   49.029
  312.750   16.700    0.361    0.438   49.630
  313.000   16.396    0.359    0.432   49.627
  313.250   16.100    0.360    0.437   52.647
  313.500   15.807    0.355    0.452   55.064
  313.750   15.519    0.343    0.459   55.060
  314.000   15.237    0.337    0.457   52.031
  314.250   14.960    0.341    0.453   52.028
  314.500   14.420    0.336    0.451   51.420
  314.750   14.158    0.346    0.441   50.207
  315.000   13.900    0.352    0.448   49.598
  315.250   13.398    0.348    0.434   50.803
  315.500   12.914    0.353    0.443   52.011
  315.750   12.447    0.345    0.447   53.822
  316.000   11.997    0.318    0.437   55.027
  316.250   11.352    0.290    0.405   55.629
  316.500   10.546    0.265    0.384   56.231
  316.750   10.164    0.294    0.408   56.832
