~VERSION INFORMATION
 VERS.                 2.0:   CWLS LOG ASCII STANDARD -VERSION 2.0
 WRAP.                  NO:   ONE LINE PER DEPTH STEP
~WELL INFORMATION BLOCK
#MNEM.UNIT           DATA                    DESCRIPTION OF MNEMONIC
#---------    -------------------            -------------------------------
# Generated from Intellog Unique Number	CW_70_72/WELL/3028
NULL.         -999.25                        : NULL_VALUE
WELL.         SULPETRO ET AL MITSUE 11-10    : Well_name    - WELL              
LOC .         11-10-070-05W5                 : Location     - LOCATION          
UWI .         00/11-10-070-05W5/0            : Uwi          - UNIQUE WELL ID    
ENTR.         JAYE                           : Entered      - ENTERED BY        
SRVC.         SCHLUMBERGER                   : Scn          - SERVICE COMPANY   
DATE.         4 FEB 79                       : Date         - LOG DATE          
STRT.M        680                            : top_depth    - START DEPTH       
STOP.M        905                            : bot_depth    - STOP DEPTH        
STEP.M        0.25                           : increment    - STEP LENGTH       
~CURVE INFORMATION BLOCK
#MNEM UNIT       ERCB CURVE CODE    CURVE DESCRIPTION
#-----------   ------------------   ----------------------------------
DEPT.M        00 001 00 00         : DEPTH        - DEPTH                       
CALI.MM       00 280 01 00         : CAL          - CALIPER                     
ILD .OHMM     00 120 00 00         : RESD         - DEEP RESISTIVITY (DIL)      
GR  .API      00 310 00 00         : GR           - GAMMA RAY                   
NPHI.V/V      00 330 00 00         : PHIN         - NEUTRON POROSITY (SANDSTONE)
DPHI.V/V      00 890 00 00         : PHID         - DENSITY POROSITY (SANDSTONE)
~PARAMETER INFORMATION       
#MNEM.UNIT           DATA             DESCRIPTION OF MNEMONIC
#---------         -----------     ------------------------------
GL  .M        785.2                : gl           - GROUND LEVEL ELEVATION      
EREF.M        788.2                : kb           - ELEVATION OF DEPTH REFERENCE
DATM.M        785.2                : datum        - DATUM ELEVATION             
TDD .M        931                  : tdd          - TOTAL DEPTH DRILLER         
RUN .         ONE                  : Run          - RUN NUMBER                  
ENG .         RIVOLLIER            : Engineer     - RECORDING ENGINEER          
WIT .         TRUNK                : Witness      - WITNESSED BY                
BASE.         EDM                  : Branch       - HOME BASE OF LOGGING UNIT   
MUD .         GEL                  : Mud_type     - MUD TYPE                    
MATR.         SANDSTONE            : Logunit      - NEUTRON MATRIX              
TMAX.C        0                    : BHT          - MAXIMUM RECORDED TEMPERATURE
BHTD.M        931                  : BHTDEP       - MAXIMUM RECORDED TEMPERATURE
RMT .C        11                   : MDTP         - TEMPERATURE OF MUD          
MUDD.KG/M     1102                 : MWT          - MUD DENSITY                 
NEUT.         1                    : NEUTRON      - NEUTRON TYPE                
RESI.         0                    : RESIST       - RESISTIVITY TYPE            
RM  .OHMM     5.96                 : RM           - RESISTIVITY OF MUD          
RMC .OHMM     0.25                 : RMC          - RESISTIVITY OF MUD CAKE     
RMF .OHMM     7.48                 : RMF          - RESISTIVITY OF MUD FILTRATE 
SUFT.C        0                    : SUFT         - SURFACE TEMPERATURE         
~A  DEPTH      CAL     RESD       GR     PHIN     PHID
# ...
  862.500  161.077    2.166  100.237    0.436    0.182
  862.750  157.408    1.835   94.633    0.467    0.197
  863.000  155.991    1.566   97.607    0.539    0.213
  863.250  156.319    1.329  100.704    0.533    0.224
  863.500  157.158    1.209   99.852    0.518    0.233
  863.750  157.686    1.162   97.459    0.508    0.244
  864.000  156.578    1.143   96.420    0.501    0.204
  864.250  156.289    1.140   95.692    0.474    0.213
  864.500  157.026    1.172   95.703    0.491    0.207
  864.750  158.273    1.197   92.691    0.483    0.196
  865.000  159.934    1.253   88.260    0.470    0.197
  865.250  160.666    1.404   87.161    0.451    0.181
  865.500  162.327    1.743   87.050    0.397    0.126
  865.750  162.551    2.050   86.507    0.379    0.136
  866.000  162.262    2.526   85.531    0.381    0.146
  866.250  162.176    2.932   83.693    0.383    0.129
  866.500  162.297    3.321   82.161    0.373    0.147
  866.750  162.522    3.445   83.037    0.341    0.118
  867.000  162.847    3.327   87.800    0.355    0.123
  867.250  163.276    3.196   96.266    0.389    0.157
  867.500  164.112    3.134   94.735    0.402    0.175
  867.750  164.953    3.096   90.488    0.404    0.172
  868.000  164.662    3.082   84.885    0.392    0.149
  868.250  164.680    3.079   86.809    0.368    0.121
  868.500  164.086    3.105   89.228    0.371    0.140
  868.750  163.899    3.191   91.338    0.381    0.137
  869.000  163.712    3.347   93.015    0.366    0.145
  869.250  163.115    3.382   94.633    0.350    0.157
  869.500  162.319    3.334   95.509    0.351    0.151
  869.750  161.824    3.282   95.951    0.365    0.142
  870.000  161.533    3.230   96.642    0.372    0.161
  870.250  161.859    3.198   96.407    0.374    0.160
  870.500  162.390    3.170   95.246    0.383    0.149
  870.750  162.920    3.210   93.593    0.384    0.134
  871.000  163.348    3.261   92.060    0.380    0.132
  871.250  163.265    3.314   90.962    0.386    0.139
  871.500  163.488    3.430   91.591    0.377    0.143
  871.750  164.226    3.578   93.700    0.367    0.145
  872.000  164.447    3.691   97.292    0.354    0.133
  872.250  164.362    3.952   99.155    0.347    0.121
  872.500  163.972    4.169   99.782    0.349    0.106
  872.750  163.683    4.357   97.017    0.348    0.092
  873.000  163.292    4.477   92.835    0.343    0.084
  873.250  163.104    4.415   91.303    0.327    0.075
  873.500  162.510    3.957   97.053    0.303    0.063
  873.750  161.195    3.487  102.557    0.355    0.092
  874.000  160.804    3.050  104.296    0.390    0.141
  874.250  161.539    2.764   98.878    0.407    0.152
  874.500  161.252    2.611   98.951    0.392    0.117
  874.750  160.143    2.599   99.088    0.387    0.137
  875.000  159.035    2.783   94.964    0.401    0.152
  875.250  158.539    3.169   91.027    0.406    0.157
  875.500  158.865    3.478   87.091    0.393    0.146
  875.750  159.194    3.837   82.720    0.371    0.071
  876.000  158.903    4.187   84.707    0.331    0.048
  876.250  158.614    3.955   91.198    0.305    0.029
  876.500  158.531    3.617   97.195    0.325    0.055
  876.750  158.549    3.353  100.600    0.350    0.107
  877.000  158.567    2.928  103.327    0.388    0.152
  877.250  158.792    2.781  102.043    0.394    0.148
  877.500  159.015    3.012   98.105    0.379    0.136
  877.750  159.342    3.360   96.204    0.368    0.132
  878.000  160.178    3.785   97.698    0.350    0.123
  878.250  161.222    4.320  100.362    0.334    0.112
  878.500  162.266    4.565   99.078    0.320    0.118
  878.750  163.003    4.561  100.571    0.323    0.123
  879.000  163.223    4.540  102.742    0.341    0.104
  879.250  163.551    4.426   99.484    0.354    0.103
  879.500  163.875    4.300  101.162    0.363    0.111
  879.750  163.588    4.130  101.976    0.370    0.116
  880.000  163.093    3.960  104.579    0.366    0.117
  880.250  162.599    3.840  104.591    0.340    0.110
  880.500  160.568    3.688  103.307    0.353    0.126
  880.750  158.745    3.516  108.194    0.360    0.121
  881.000  158.353    3.371  107.773    0.372    0.128
  881.250  159.191    3.269  103.898    0.384    0.142
  881.500  160.645    3.169  101.628    0.372    0.151
  881.750  162.098    3.039  104.230    0.372    0.167
  882.000  162.832    2.930  108.007    0.391    0.141
  882.250  162.850    2.804  112.707    0.391    0.149
  882.500  162.459    2.697  115.989    0.373    0.157
  882.750  162.579    2.736  112.360    0.399    0.143
  883.000  169.157    2.892  102.808    0.424    0.138
  883.250  169.276    3.439   94.243    0.393    0.101
  883.500  171.755    3.954   88.886    0.373    0.104
  883.750  172.183    4.513   82.789    0.345    0.122
  884.000  165.132    4.905   73.052    0.304    0.124
  884.250  161.359    4.846   67.324    0.287    0.144
  884.500  157.896    4.263   62.523    0.273    0.195
  884.750  155.044    3.914   62.167    0.283    0.217
  885.000  152.397    3.796   62.301    0.296    0.234
  885.250  152.624    3.792   62.312    0.308    0.232
  885.500  152.844    3.889   62.324    0.305    0.221
  885.750  152.761    4.103   61.041    0.298    0.185
  886.000  152.477    4.418   60.127    0.308    0.170
  886.250  152.492    4.784   60.446    0.310    0.162
  886.500  152.204    5.009   62.556    0.303    0.156
  886.750  151.812    5.042   65.591    0.294    0.150
  887.000  151.829    5.009   67.701    0.287    0.174
  887.250  152.258    4.930   68.823    0.304    0.166
  887.500  152.482    4.981   66.183    0.310    0.164
  887.750  152.909    5.052   64.034    0.303    0.164
  888.000  154.157    5.201   65.651    0.291    0.160
  888.250  155.302    5.395   67.513    0.284    0.157
  888.500  156.961    5.492   69.376    0.277    0.150
  888.750  158.517    5.385   70.992    0.281    0.141
  889.000  159.866    5.281   74.152    0.296    0.126
  889.250  160.911    5.207   77.310    0.281    0.137
  889.500  161.031    5.341   79.234    0.306    0.147
  889.750  161.460    5.654   74.187    0.340    0.127
  890.000  161.581    6.157   76.358    0.334    0.117
  890.250  161.602    6.557   80.567    0.303    0.129
  890.500  162.129    6.852   85.083    0.279    0.141
  890.750  162.560    6.859   90.524    0.261    0.141
  891.000  162.376    6.638   95.226    0.277    0.124
  891.250  162.390    6.558   98.322    0.297    0.143
  891.500  162.412    6.739   95.558    0.309    0.152
  891.750  162.223    7.256   90.201    0.294    0.148
  892.000  162.139    8.052   84.166    0.279    0.136
  892.250  161.849    8.671   81.216    0.279    0.109
  892.500  160.742    8.909   79.869    0.269    0.145
  892.750  160.248    9.002   78.955    0.263    0.137
  893.000  160.882    8.298   80.019    0.273    0.130
  893.250  161.719    7.298   82.990    0.296    0.142
  893.500  162.559    7.103   90.098    0.314    0.125
  893.750  163.193    7.097   93.999    0.333    0.133
  894.000  163.413    7.500   92.775    0.348    0.146
  894.250  163.438    8.032   85.074    0.324    0.155
  894.500  163.450    8.862   81.876    0.317    0.142
  894.750  163.471    9.313   77.199    0.303    0.126
  895.000  163.491    9.064   69.189    0.282    0.117
  895.250  163.712    8.261   62.352    0.273    0.111
  895.500  163.526    7.294   61.376    0.297    0.100
  895.750  163.441    6.864   74.284    0.309    0.113
  896.000  163.153    6.717   85.527    0.291    0.134
  896.250  162.761    6.800   89.919    0.313    0.158
  896.500  163.602    7.268   84.131    0.344    0.155
  896.750  163.516    8.019   82.229    0.309    0.162
  897.000  162.408    9.238   85.080    0.284    0.148
  897.250  161.711   10.327   84.474    0.260    0.147
  897.500  161.317   10.976   80.907    0.272    0.152
  897.750  161.132   11.406   81.413    0.284    0.160
  898.000  160.739   11.742   83.399    0.280    0.160
  898.250  160.452   11.953   81.251    0.270    0.146
  898.500  160.368   11.832   74.352    0.275    0.127
  898.750  160.491   11.133   67.885    0.291    0.121
