~VERSION INFORMATION
 VERS.                 2.0:   CWLS LOG ASCII STANDARD -VERSION 2.0
 WRAP.                  NO:   ONE LINE PER DEPTH STEP
~WELL INFORMATION BLOCK
#MNEM.UNIT           DATA                    DESCRIPTION OF MNEMONIC
#---------    -------------------            -------------------------------
# Generated from Intellog Unique Number	CW_70_72/WELL/3036
NULL.         -999.25                        : NULL_VALUE
WELL.         MANNVILLE ET AL DECRENE 15-36  : Well_name    - WELL              
LOC .         15-36-070-02W5                 : Location     - LOCATION          
UWI .         00/15-36-070-02W5/0            : Uwi          - UNIQUE WELL ID    
ENTR.         JAYE                           : Entered      - ENTERED BY        
SRVC.         SCHLUMBERGER                   : Scn          - SERVICE COMPANY   
DATE.         2 MAR 84                       : Date         - LOG DATE          
STRT.M        400                            : top_depth    - START DEPTH       
STOP.M        630                            : bot_depth    - STOP DEPTH        
STEP.M        0.25                           : increment    - STEP LENGTH       
~CURVE INFORMATION BLOCK
#MNEM UNIT       ERCB CURVE CODE    CURVE DESCRIPTION
#-----------   ------------------   ----------------------------------
DEPT.M        00 001 00 00         : DEPTH        - DEPTH                       
ILD .OHMM     00 120 00 00         : RESD         - DEEP RESISTIVITY (DIL)      
CALI.MM       00 280 01 00         : CAL          - CALIPER                     
GR  .API      00 310 00 00         : GR           - GAMMA RAY                   
NPHI.V/V      00 330 00 00         : PHIN         - NEUTRON POROSITY (SANDSTONE)
DPHI.V/V      00 890 00 00         : PHID         - DENSITY POROSITY (SANDSTONE)
~PARAMETER INFORMATION       
#MNEM.UNIT           DATA             DESCRIPTION OF MNEMONIC
#---------         -----------     ------------------------------
GL  .M        591.5                : gl           - GROUND LEVEL ELEVATION      
EREF.M        595                  : kb           - ELEVATION OF DEPTH REFERENCE
DATM.M        591.5                : datum        - DATUM ELEVATION             
TDD .M        640                  : tdd          - TOTAL DEPTH DRILLER         
RUN .         ONE                  : Run          - RUN NUMBER                  
ENG .         PIERAOCL             : Engineer     - RECORDING ENGINEER          
WIT .         LYSZKIEWICZ          : Witness      - WITNESSED BY                
BASE.         EDM                  : Branch       - HOME BASE OF LOGGING UNIT   
MUD .         GEL CHEM             : Mud_type     - MUD TYPE                    
MATR.         SANDSTONE            : Logunit      - NEUTRON MATRIX              
TMAX.C        28                   : BHT          - MAXIMUM RECORDED TEMPERATURE
BHTD.M        641                  : BHTDEP       - MAXIMUM RECORDED TEMPERATURE
RMT .C        20                   : MDTP         - TEMPERATURE OF MUD          
MUDD.KG/M     1100                 : MWT          - MUD DENSITY                 
NEUT.         1                    : NEUTRON      - NEUTRON TYPE                
RESI.         0                    : RESIST       - RESISTIVITY TYPE            
RM  .OHMM     2.86                 : RM           - RESISTIVITY OF MUD          
RMC .OHMM     0.25                 : RMC          - RESISTIVITY OF MUD CAKE     
RMF .OHMM     4.03                 : RMF          - RESISTIVITY OF MUD FILTRATE 
SUFT.C        0                    : SUFT         - SURFACE TEMPERATURE         
~A  DEPTH     RESD      CAL       GR     PHIN     PHID
# ...
  473.000    6.719  166.043   41.958    0.193    0.074
  473.250    6.799  166.071   44.273    0.262    0.112
  473.500    5.562  166.097   48.758    0.327    0.278
  473.750    3.996  165.190   51.942    0.367    0.312
  474.000    3.044  163.454   51.647    0.404    0.320
  474.250    2.434  162.031   52.406    0.437    0.317
  474.500    1.925  161.332   57.766    0.444    0.313
  474.750    1.783  161.043   60.078    0.419    0.310
  475.000    1.778  160.863   59.781    0.397    0.324
  475.250    1.789  160.888   59.302    0.414    0.334
  475.500    1.804  161.127   59.936    0.421    0.340
  475.750    1.805  161.768   61.195    0.417    0.337
  476.000    1.806  162.205   64.253    0.414    0.324
  476.250    1.807  162.335   65.263    0.420    0.318
  476.500    1.821  162.466   54.966    0.430    0.318
  476.750    1.819  162.798   50.508    0.436    0.323
  477.000    1.817  163.653   53.444    0.438    0.324
  477.250    1.801  162.641   56.129    0.430    0.331
  477.500    1.775  161.432   57.700    0.412    0.342
  477.750    1.753  160.935   58.833    0.410    0.334
  478.000    1.721  160.960   58.910    0.412    0.326
  478.250    1.710  162.125   56.874    0.414    0.326
  478.500    1.710  164.739   56.455    0.411    0.319
  478.750    1.715  166.729   56.097    0.397    0.325
  479.000    1.726  168.415   54.683    0.387    0.329
  479.250    1.736  168.851   52.276    0.395    0.324
  479.500    1.744  169.393   56.079    0.403    0.308
  479.750    1.772  169.524   58.145    0.406    0.316
  480.000    1.786  169.445   57.042    0.405    0.322
  480.250    1.818  169.266   57.865    0.397    0.316
  480.500    1.846  169.390   60.612    0.412    0.310
  480.750    1.897  169.421   62.617    0.427    0.303
  481.000    1.945  169.442   63.998    0.434    0.300
  481.250    1.998  170.191   62.524    0.429    0.299
  481.500    2.053  170.217   59.307    0.428    0.304
  481.750    2.108  170.138   63.236    0.427    0.310
  482.000    2.154  170.271   72.879    0.409    0.291
  482.250    2.234  170.710   81.157    0.384    0.250
  482.500    2.383  172.499   83.968    0.408    0.227
  482.750    2.610  174.697   87.772    0.439    0.228
  483.000    2.774  176.372   93.564    0.470    0.228
  483.250    2.903  179.195   89.789    0.488    0.217
  483.500    2.994  182.845   86.016    0.471    0.199
  483.750    3.001  187.423   83.174    0.448    0.208
  484.000    2.970  190.762   83.437    0.435    0.211
  484.250    2.949  189.958   86.185    0.431    0.210
  484.500    2.912  186.256   89.866    0.434    0.218
  484.750    2.849  181.209   93.049    0.474    0.241
  485.000    2.725  176.885   91.015    0.505    0.232
  485.250    2.640  174.117   83.326    0.490    0.209
  485.500    2.251  172.588   75.825    0.482    0.204
  485.750    2.262  168.371   71.430    0.485    0.211
  486.000    2.301  165.084   66.228    0.462    0.212
  486.250    2.360  163.248   56.800    0.441    0.263
  486.500    2.265  162.240   56.196    0.433    0.297
  486.750    2.118  162.052   61.180    0.415    0.310
  487.000    2.022  162.701   60.885    0.392    0.311
  487.250    1.949  163.039   59.408    0.379    0.299
  487.500    1.896  163.379   59.175    0.409    0.293
  487.750    1.872  163.707   59.501    0.428    0.303
  488.000    1.852  164.562   58.711    0.445    0.319
  488.250    1.839  165.313   58.662    0.422    0.329
  488.500    1.837  165.232   59.732    0.402    0.336
  488.750    1.821  165.164   61.302    0.391    0.334
  489.000    1.815  164.560   61.627    0.391    0.330
  489.250    1.826  163.961   58.661    0.401    0.328
  489.500    1.817  164.400   54.575    0.406    0.319
  489.750    1.829  165.155   56.268    0.404    0.310
  490.000    1.840  165.382   62.247    0.395    0.303
  490.250    1.897  165.938   67.107    0.391    0.269
  490.500    2.126  166.269   74.270    0.405    0.250
  490.750    2.355  166.808   76.827    0.417    0.221
  491.000    2.618  165.486   80.011    0.430    0.232
  491.250    2.883  163.440   77.232    0.441    0.247
  491.500    3.152  162.842   71.220    0.451    0.260
  491.750    3.148  163.076   69.434    0.446    0.268
  492.000    2.840  163.520   76.159    0.419    0.245
  492.250    2.773  164.163   78.224    0.397    0.220
  492.500    2.892  165.015   78.551    0.420    0.203
  492.750    3.033  165.768   80.801    0.425    0.217
  493.000    3.254  166.930   86.283    0.416    0.231
  493.250    3.471  168.409   87.788    0.405    0.223
  493.500    3.579  169.258   87.680    0.399    0.200
  493.750    3.656  170.219   90.676    0.414    0.196
  494.000    3.750  171.177   90.691    0.430    0.197
  494.250    3.823  171.823   86.854    0.424    0.197
  494.500    3.927  172.258   88.300    0.416    0.195
  494.750    4.042  172.801   89.681    0.418    0.191
  495.000    4.161  172.723   85.474    0.418    0.192
  495.250    4.235  172.752   87.662    0.413    0.179
  495.500    4.302  173.087   95.627    0.413    0.165
  495.750    4.312  173.109   97.135    0.422    0.153
  496.000    4.363  173.445   93.918    0.424    0.148
  496.250    4.366  173.885   92.071    0.418    0.151
  496.500    4.393  174.538   91.902    0.408    0.158
  496.750    4.371  175.074   92.598    0.414    0.171
  497.000    4.317  175.722   93.732    0.422    0.186
  497.250    4.207  176.264   96.168    0.429    0.194
  497.500    3.979  175.564   96.497    0.444    0.198
  497.750    3.699  173.725   86.820    0.446    0.194
  498.000    3.426  168.678   74.472    0.440    0.220
  498.250    3.222  164.769   66.537    0.422    0.251
  498.500    3.041  162.310   66.491    0.389    0.293
  498.750    2.823  161.197   67.748    0.386    0.287
  499.000    2.679  161.021   69.315    0.401    0.273
  499.250    2.553  161.251   68.275    0.421    0.289
  499.500    2.535  161.690   63.072    0.418    0.305
  499.750    2.590  163.056   67.560    0.409    0.305
  500.000    2.732  164.635   80.808    0.391    0.245
  500.250    2.886  166.524   87.965    0.368    0.187
  500.500    3.192  166.965   93.264    0.378    0.168
  500.750    3.411  167.720   94.269    0.396    0.155
  501.000    3.597  167.327   91.738    0.412    0.151
  501.250    3.845  166.942   86.164    0.431    0.181
  501.500    3.972  166.451   86.489    0.444    0.226
  501.750    3.886  166.471   90.231    0.456    0.239
  502.000    3.724  166.187   92.667    0.444    0.244
  502.250    3.602  165.691   75.166    0.442    0.225
  502.500    3.368  165.928   58.597    0.477    0.243
  502.750    3.044  166.571   46.311    0.507    0.278
  503.000    2.680  167.945   59.930    0.571    0.229
  503.250    2.422  169.110   87.650    0.443    0.177
  503.500    2.456  170.166   93.196    0.408    0.196
  503.750    2.846  171.336   92.651    0.410    0.200
  504.000    3.286  170.838   89.996    0.414    0.200
  504.250    3.612  170.659   92.432    0.401    0.198
  504.500    3.912  170.481   95.056    0.397    0.200
  504.750    4.080  170.295   95.818    0.419    0.207
  505.000    4.082  170.321   93.968    0.421    0.214
  505.250    4.039  170.038   93.058    0.412    0.204
  505.500    3.996  170.161   92.571    0.401    0.193
  505.750    3.968  170.709   91.281    0.395    0.185
  506.000    3.941  171.463   88.935    0.396    0.195
  506.250    3.914  172.103   85.348    0.395    0.195
  506.500    3.953  172.546   86.794    0.380    0.185
  506.750    3.986  172.566   89.478    0.381    0.175
  507.000    3.988  171.766   87.569    0.394    0.180
  507.250    3.968  170.858   88.390    0.388    0.193
  507.500    3.896  169.640   80.395    0.387    0.216
  507.750    3.761  168.114   72.211    0.436    0.252
  508.000    3.432  166.174   64.708    0.452    0.266
  508.250    3.167  164.441   65.532    0.438    0.293
  508.500    3.035  163.845   64.488    0.435    0.300
  508.750    2.952  162.432   61.214    0.432    0.298
  509.000    2.894  162.243   60.793    0.424    0.295
  509.250    2.857  162.265   65.283    0.402    0.298
