~VERSION INFORMATION
 VERS.                 2.0:   CWLS LOG ASCII STANDARD -VERSION 2.0
 WRAP.                  NO:   ONE LINE PER DEPTH STEP
~WELL INFORMATION BLOCK
#MNEM.UNIT           DATA                    DESCRIPTION OF MNEMONIC
#---------    -------------------            -------------------------------
# Generated from Intellog Unique Number	CS_77_79/WELL/3309
WELL.         COLUMBIA GAS DEVELOPMENT       : Well_name    - WELL
LOC .         00/16-24-079-16W4/0            : Location     - LOCATION
UWI .         00/16-24-079-16W4/0            : Uwi          - UNIQUE WELL ID
ENTR.         JOETTE                         : Entered      - ENTERED BY
SRVC.         SCHLUMBERGER                   : Scn          - SERVICE COMPANY
DATE.         08-24-92                       : Date         - LOG DATE
STRT.M        180                            : top_depth    - START DEPTH
STOP.M        400                            : bot_depth    - STOP DEPTH
STEP.M        0.25                           : increment    - STEP LENGTH
 NULL. -999.2500:NULL Value
~CURVE INFORMATION BLOCK
#MNEM UNIT       ERCB CURVE CODE    CURVE DESCRIPTION
#-----------   ------------------   ----------------------------------
DEPT.M        00 001 00 00         : DEPTH        - DEPTH
ILD .OHMM     00 120 00 00         : RESD         - DEEP RESISTIVITY (DIL)
DPHI.V/V      00 890 00 00         : PHID         - DENSITY POROSITY (SANDSTONE)
NPHI.V/V      00 330 00 00         : PHIN         - NEUTRON POROSITY (SANDSTONE)
GR  .API      00 310 00 00         : GR           - GAMMA RAY
~PARAMETER INFORMATION
#MNEM.UNIT           DATA             DESCRIPTION OF MNEMONIC
#---------         -----------     ------------------------------
GL  .M        584.7                : gl           - GROUND LEVEL ELEVATION
EREF.M        588.2                : kb           - ELEVATION OF DEPTH REFERENCE
DATM.M        588.2                : datum        - DATUM ELEVATION
TDD .M        406                  : tdd          - TOTAL DEPTH DRILLER
RUN .         ONE                  : Run          - RUN NUMBER
ENG .         BILL                 : Engineer     - RECORDING ENGINEER
WIT .         JIM                  : Witness      - WITNESSED BY
MUD .         GEL                  : Mud_type     - MUD TYPE
MATR.         SANDSTONE            : Logunit      - NEUTRON MATRIX
TMAX.C        25                   : BHT          - MAXIMUM RECORDED TEMPERATURE
BHTD.M        406                  : BHTDEP       - MAXIMUM RECORDED TEMPERATURE
MATR.         1                    : LOGUNIT      - NEUTRON MATRIX
RMT .C        22                   : MDTP         - TEMPERATURE OF MUD
NEUT.         1                    : NEUTRON      - NEUTRON TYPE
RESI.         0                    : RESIST       - RESISTIVITY TYPE
RMC .OHMM     5                    : RMC          - RESISTIVITY OF MUD CAKE
RMF .OHMM     5                    : RMF          - RESISTIVITY OF MUD FILTRATE
SUFT.C        15                   : SUFT         - SURFACE TEMPERATURE
~A  DEPTH     RESD     PHID     PHIN       GR
# ...
  223.500   10.796    0.137    0.380   86.678
  223.750   10.589    0.155    0.377   74.139
  224.000   10.582    0.182    0.377   80.678
  224.250   10.577    0.208    0.386   84.231
  224.500   10.768    0.236    0.390   86.602
  224.750   10.763    0.252    0.381   81.813
  225.000   10.957    0.253    0.376   80.602
  225.250   10.952    0.249    0.369   84.159
  225.500   11.153    0.246    0.367   87.718
  225.750   11.354    0.250    0.372   84.117
  226.000   11.777    0.254    0.380   81.718
  226.250   12.216    0.256    0.378   80.501
  226.500   12.672    0.253    0.392   73.919
  226.750   12.904    0.252    0.396   69.732
  227.000   13.139    0.263    0.383   64.342
  227.250   12.419    0.276    0.382   65.520
  227.500   11.310    0.290    0.386   64.309
  227.750   10.493    0.284    0.377   77.406
  228.000    9.918    0.269    0.384   88.118
  228.250    9.728    0.252    0.384   86.906
  228.500    9.904    0.249    0.371   94.638
  228.750   10.085    0.234    0.366   98.792
  229.000   10.270    0.228    0.375   92.210
  229.250   10.650    0.228    0.386   93.388
  229.500   10.843    0.225    0.386   97.538
  229.750   10.837    0.221    0.395   91.561
  230.000   11.034    0.230    0.392   82.003
  230.250   11.029    0.245    0.380   81.388
  230.500   11.023    0.248    0.370   84.350
  230.750   11.222    0.250    0.379   81.946
  231.000   11.427    0.252    0.388   78.350
  231.250   11.853    0.253    0.390   82.504
  231.500   12.067    0.257    0.384   84.865
  231.750   12.288    0.259    0.375   84.846
  232.000   12.281    0.260    0.374   89.005
  232.250   12.048    0.258    0.384   87.793
  232.500   11.601    0.254    0.381   89.563
  232.750   10.764    0.248    0.375   82.389
  233.000    9.099    0.241    0.373   86.539
  233.250    7.694    0.239    0.383   83.539
  233.500    6.267    0.236    0.383   80.544
  233.750    5.398    0.239    0.388   81.121
  234.000    4.480    0.242    0.426   97.199
  234.250    4.079    0.239    0.460  108.507
  234.500    4.392    0.233    0.503  110.868
  234.750    5.486    0.240    0.477   98.334
  235.000    9.756    0.251    0.468   74.462
  235.250   10.701    0.264    0.445   60.731
  235.500   13.875    0.289    0.379   51.163
  235.750   17.332    0.321    0.385   52.341
  236.000   19.730    0.335    0.399   53.510
  236.250   20.849    0.341    0.400   54.097
  236.500   22.867    0.343    0.393   54.674
  236.750   25.550    0.341    0.387   55.847
  237.000   29.630    0.331    0.378   53.443
  237.250   37.008    0.326    0.384   51.039
  237.500   50.741    0.325    0.383   52.809
  237.750   56.680    0.328    0.377   54.578
  238.000   61.029    0.331    0.372   53.963
  238.250   66.944    0.335    0.380   50.963
  238.500   72.070    0.342    0.391   49.742
  238.750   74.746    0.350    0.400   53.305
  239.000   76.115    0.353    0.399   53.882
  239.250   76.071    0.346    0.401   51.473
  239.500   77.443    0.329    0.393   54.440
  239.750   78.850    0.322    0.386   55.017
  240.000   80.295    0.327    0.397   54.402
  240.250   84.851    0.331    0.390   51.998
  240.500   89.653    0.335    0.386   53.171
  240.750   87.950    0.338    0.394   53.152
  241.000   83.131    0.338    0.403   54.325
  241.250   75.720    0.336    0.395   53.104
  241.500   70.252    0.330    0.383   55.475
  241.750   62.801    0.330    0.386   56.648
  242.000   56.132    0.330    0.383   51.864
  242.250   40.899    0.322    0.382   55.422
  242.500   40.128    0.330    0.393   59.572
  242.750   37.225    0.341    0.396   61.341
  243.000   33.272    0.350    0.389   59.533
  243.250   25.637    0.356    0.390   55.346
  243.500   24.683    0.347    0.396   54.134
  243.750   23.772    0.335    0.400   54.711
  244.000   21.646    0.331    0.404   52.899
  244.250   19.713    0.335    0.405   50.495
  244.500   18.633    0.338    0.400   48.687
  244.750   16.657    0.331    0.401   50.462
  245.000   16.037    0.320    0.418   55.212
  245.250   16.033    0.323    0.414   55.784
  245.500   16.023    0.318    0.380   52.789
  245.750   16.312    0.321    0.383   53.953
  246.000   16.303    0.319    0.381   51.549
  246.250   15.991    0.294    0.373   51.535
  246.500   15.984    0.304    0.391   52.107
  246.750   15.683    0.329    0.394   54.477
  247.000   15.095    0.336    0.391   52.074
  247.250   15.093    0.347    0.392   50.857
  247.500   14.806    0.332    0.386   50.838
  247.750   14.798    0.322    0.378   49.632
  248.000   14.513    0.335    0.373   52.593
  248.250   14.506    0.343    0.403   50.781
  248.500   14.500    0.337    0.396   49.574
  248.750   14.761    0.333    0.388   56.709
  249.000   14.753    0.343    0.388   56.094
  249.250   14.746    0.340    0.389   52.498
  249.500   14.736    0.338    0.386   50.690
  249.750   14.727    0.342    0.377   48.883
  250.000   14.447    0.345    0.388   52.441
  250.250   14.441    0.347    0.393   55.999
  250.500   14.433    0.346    0.389   52.999
  250.750   14.425    0.340    0.395   50.595
  251.000   14.416    0.336    0.404   51.172
  251.250   14.408    0.346    0.389   51.153
  251.500   14.399    0.347    0.390   48.153
  251.750   14.387    0.342    0.378   51.110
  252.000   14.379    0.341    0.366   54.072
  252.250   14.372    0.337    0.377   54.053
  252.500   14.364    0.324    0.395   54.630
  252.750   14.354    0.312    0.404   57.000
  253.000   14.343    0.310    0.403   61.154
  253.250   14.337    0.311    0.398   60.539
  253.500   14.327    0.317    0.397   58.135
  253.750   14.057    0.329    0.391   58.116
  254.000   14.049    0.323    0.394   58.688
  254.250   14.042    0.324    0.392   52.707
  254.500   14.034    0.333    0.385   50.304
  254.750   14.026    0.326    0.383   49.688
  255.000   14.016    0.309    0.395   50.862
  255.250   14.006    0.292    0.402   54.420
  255.500   13.742    0.281    0.413   59.766
  255.750   13.483    0.283    0.420   59.742
  256.000   12.981    0.291    0.406   61.517
  256.250   12.974    0.286    0.400   63.877
  256.500   12.966    0.280    0.402   63.858
  256.750   13.704    0.273    0.403   67.421
  257.000   15.600    0.264    0.397   71.575
  257.250   17.430    0.255    0.387   66.782
  257.500   20.593    0.245    0.394   69.749
  257.750   28.760    0.250    0.407   68.537
  258.000   32.738    0.239    0.414   65.537
  258.250   38.673    0.133    0.221   60.152
  258.500   39.381    0.078    0.179   54.768
  258.750   37.916    0.048    0.138   46.998
  259.000   35.844    0.006    0.129   45.186
  259.250   32.038   -0.011    0.147   49.941
  259.500   28.644    0.003    0.216   55.287
  259.750   24.671    0.041    0.255   61.230
  260.000   19.363    0.248    0.310   59.422
  260.250   17.634    0.265    0.370   61.783
  260.500   16.053    0.264    0.392   65.942
  260.750   15.750    0.266    0.408   64.731
  261.000   15.456    0.270    0.390   56.961
  261.250   15.156    0.271    0.387   62.308
  261.500   15.151    0.261    0.391   62.880
  261.750   15.143    0.253    0.397   61.669
  262.000   15.136    0.252    0.402   64.631
  262.250   14.848    0.256    0.392   67.001
  262.500   14.836    0.262    0.390   65.780
  262.750   14.554    0.268    0.398   63.376
  263.000   14.280    0.277    0.403   62.169
  263.250   13.751    0.280    0.395   65.131
  263.500   13.489    0.274    0.383   70.473
  263.750   13.233    0.268    0.382   71.050
  264.000   12.982    0.268    0.383   72.224
  264.250   12.499    0.272    0.378   72.204
  264.500   12.264    0.274    0.395   73.974
  264.750   12.257    0.281    0.397   75.743
  265.000   12.246    0.275    0.383   78.710
  265.250   12.241    0.271    0.368   81.071
  265.500   12.008    0.269    0.372   71.518
  265.750   11.778    0.268    0.389   73.883
  266.000   11.773    0.263    0.389   80.422
  266.250   11.552    0.262    0.388   84.572
  266.500   11.543    0.262    0.386   89.923
  266.750   11.536    0.272    0.378   77.384
