~VERSION INFORMATION
 VERS.                 2.0:   CWLS LOG ASCII STANDARD -VERSION 2.0
 WRAP.                  NO:   ONE LINE PER DEPTH STEP
~WELL INFORMATION BLOCK
#MNEM.UNIT           DATA                    DESCRIPTION OF MNEMONIC
#---------    -------------------            -------------------------------
# Generated from Intellog Unique Number	CS_67_68/WELL/2202
WELL.         BVX LAC LA BICHE               : Well_name    - WELL
LOC .         00/11-03-067-13W4/0            : Location     - LOCATION
UWI .         00/11-03-067-13W4/0            : Uwi          - UNIQUE WELL ID
ENTR.         SP                             : Entered      - ENTERED BY
SRVC.         SCHLUMBERGER                   : Scn          - SERVICE COMPANY
STRT.M        310                            : top_depth    - START DEPTH
STOP.M        495                            : bot_depth    - STOP DEPTH
STEP.M        0.25                           : increment    - STEP LENGTH
 NULL. -999.2500:NULL Value
~CURVE INFORMATION BLOCK
#MNEM UNIT       ERCB CURVE CODE    CURVE DESCRIPTION
#-----------   ------------------   ----------------------------------
DEPT.M        00 001 00 00         : DEPTH        - DEPTH
ILD .OHMM     00 120 00 00         : RESD         - DEEP RESISTIVITY (DIL)
DPHI.V/V      00 890 00 00         : PHID         - DENSITY POROSITY (LIMESTONE)
NPHI.V/V      00 330 00 00         : PHIN         - NEUTRON POROSITY (LIMESTONE)
GR  .API      00 310 00 00         : GR           - GAMMA RAY
CALI.MM       00 280 01 00         : CAL          - CALIPER
~PARAMETER INFORMATION
#MNEM.UNIT           DATA             DESCRIPTION OF MNEMONIC
#---------         -----------     ------------------------------
GL  .M        577.4                : gl           - GROUND LEVEL ELEVATION
EREF.M        580.3                : kb           - ELEVATION OF DEPTH REFERENCE
DATM.M        580.3                : datum        - DATUM ELEVATION
TDD .M        498                  : tdd          - TOTAL DEPTH DRILLER
RUN .         ONE                  : Run          - RUN NUMBER
ENG .         BILL                 : Engineer     - RECORDING ENGINEER
WIT .         JIM                  : Witness      - WITNESSED BY
MUD .         GEL                  : Mud_type     - MUD TYPE
MATR.         LIMESTONE            : Logunit      - NEUTRON MATRIX
TMAX.C        22                   : BHT          - MAXIMUM RECORDED TEMPERATURE
BHTD.M        495                  : BHTDEP       - MAXIMUM RECORDED TEMPERATURE
MATR.         1                    : LOGUNIT      - NEUTRON MATRIX
RMT .C        25                   : MDTP         - TEMPERATURE OF MUD
NEUT.         1                    : NEUTRON      - NEUTRON TYPE
RESI.         0                    : RESIST       - RESISTIVITY TYPE
RMC .OHMM     0.25                 : RMC          - RESISTIVITY OF MUD CAKE
RMF .OHMM     0.25                 : RMF          - RESISTIVITY OF MUD FILTRATE
SUFT.C        15                   : SUFT         - SURFACE TEMPERATURE
~A  DEPTH     RESD     PHID     PHIN       GR      CAL
# ...
  346.500    2.356    0.274    0.440   81.760  152.578
  346.750    2.292    0.288    0.443   77.826  152.586
  347.000    2.276    0.290    0.439   77.406  152.393
  347.250    2.306    0.286    0.433   78.927  152.199
  347.500    2.341    0.290    0.423   78.204  152.511
  347.750    2.390    0.279    0.433   78.330  154.033
  348.000    2.404    0.262    0.440   79.790  155.861
  348.250    2.378    0.266    0.425   79.492  157.385
  348.500    2.369    0.278    0.420   79.678  158.806
  348.750    2.392    0.280    0.427   82.472  160.026
  349.000    2.446    0.277    0.430   85.022  161.348
  349.250    2.535    0.269    0.441   87.997  157.721
  349.500    2.646    0.264    0.452   90.426  155.406
  349.750    2.773    0.270    0.464   93.279  154.201
  350.000    2.846    0.262    0.458   96.558  154.008
  350.250    2.789    0.261    0.446  100.017  156.945
  350.500    2.653    0.260    0.440  103.173  160.287
  350.750    2.534    0.252    0.450  101.360  162.113
  351.000    2.388    0.232    0.452   94.395  160.809
  351.250    2.336    0.279    0.444   90.885  160.211
  351.500    2.380    0.278    0.436   93.800  159.817
  351.750    2.545    0.273    0.430   92.834  159.520
  352.000    2.778    0.276    0.438   89.142  159.528
  352.250    3.004    0.277    0.441   94.239  159.537
  352.500    3.219    0.258    0.437   99.577  159.949
  352.750    3.385    0.238    0.445  104.430  160.563
  353.000    3.411    0.226    0.437  105.647  161.684
  353.250    3.197    0.240    0.436  103.107  161.893
  353.500    2.909    0.249    0.457   99.293  163.114
  353.750    2.706    0.263    0.477   89.662  163.021
  354.000    2.846    0.272    0.462   82.818  159.595
  354.250    2.993    0.279    0.451   83.793  157.987
  354.500    3.177    0.272    0.438   91.435  157.996
  354.750    3.322    0.259    0.437   96.955  158.610
  355.000    3.462    0.242    0.441  100.293  160.033
  355.250    3.534    0.225    0.437  100.965  161.859
  355.500    3.608    0.223    0.448  102.910  162.069
  355.750    3.642    0.233    0.431  107.036  160.058
  356.000    3.623    0.240    0.414  112.435  158.550
  356.250    3.699    0.218    0.414  115.227  160.983
  356.500    3.811    0.202    0.443  115.657  163.718
  356.750    3.905    0.187    0.476  111.601  165.949
  357.000    3.964    0.194    0.463  105.424  162.524
  357.250    3.907    0.210    0.452  100.762  160.107
  357.500    3.758    0.221    0.435  101.495  157.995
  357.750    3.542    0.238    0.425  104.894  157.295
  358.000    3.252    0.239    0.419   99.808  155.082
  358.250    3.083    0.238    0.429   91.510  154.888
  358.500    3.147    0.255    0.432   94.909  156.210
  358.750    3.297    0.269    0.417  102.792  158.442
  359.000    3.455    0.274    0.404  109.464  159.660
  359.250    3.586    0.241    0.403  104.621  161.587
  359.500    3.702    0.228    0.408  101.413  162.910
  359.750    3.794    0.239    0.399   99.479  162.614
  360.000    3.902    0.232    0.393  102.273  162.016
  360.250    4.020    0.227    0.390  103.489  161.924
  360.500    4.166    0.225    0.395  100.827  161.629
  360.750    4.245    0.234    0.391   98.650  160.829
  361.000    4.390    0.231    0.400  103.443  159.322
  361.250    4.532    0.216    0.410  106.661  160.543
  361.500    4.661    0.207    0.415  107.878  162.774
  361.750    4.714    0.198    0.403  109.823  164.701
  362.000    4.663    0.182    0.420  111.767  166.527
  362.250    4.494    0.175    0.429  114.075  168.658
  362.500    4.291    0.197    0.434  116.444  170.383
  362.750    3.948    0.202    0.434  117.236  171.603
  363.000    3.721    0.201    0.430  112.029  173.228
  363.250    3.494    0.218    0.420  104.397  173.337
  363.500    3.330    0.236    0.412   99.191  165.871
  363.750    3.179    0.251    0.417   94.831  159.718
  364.000    3.064    0.240    0.419   97.080  155.280
  364.250    2.986    0.238    0.420   98.478  153.471
  364.500    2.894    0.234    0.429   98.967  155.297
  364.750    2.815    0.246    0.433   92.730  156.821
  365.000    2.688    0.254    0.426   90.068  157.536
  365.250    2.644    0.244    0.421   88.861  156.838
  365.500    2.576    0.242    0.417   84.684  155.837
  365.750    2.567    0.234    0.409   81.113  155.037
  366.000    2.568    0.246    0.409   77.118  154.440
  366.250    2.578    0.258    0.426   78.457  154.346
  366.500    2.574    0.247    0.415   81.249  154.354
  366.750    2.579    0.241    0.413   80.831  154.362
  367.000    2.628    0.231    0.410   81.563  154.371
  367.250    2.629    0.262    0.399   83.386  154.783
  367.500    2.629    0.248    0.385   84.906  155.398
  367.750    2.630    0.240    0.377   82.001  156.213
  368.000    2.534    0.259    0.387   81.461  156.828
  368.250    2.461    0.244    0.407   82.012  157.141
  368.500    2.466    0.236    0.423   76.806  157.149
  368.750    2.531    0.249    0.409   72.749  157.257
  369.000    2.599    0.244    0.401   72.208  157.366
  369.250    2.698    0.253    0.399   75.729  157.375
  369.500    2.853    0.253    0.407   78.279  156.676
  369.750    3.062    0.258    0.409   81.133  155.879
  370.000    3.299    0.264    0.405   83.441  155.785
  370.250    3.483    0.236    0.394   85.203  155.590
  370.500    3.595    0.235    0.385   85.632  155.699
  370.750    3.563    0.232    0.394   89.092  155.808
  371.000    3.446    0.230    0.398   92.612  155.816
  371.250    3.285    0.232    0.401   90.738  155.622
  371.500    3.090    0.247    0.404   88.622  155.227
  371.750    2.956    0.233    0.401   89.718  155.034
  372.000    2.902    0.217    0.393   93.845  154.840
  372.250    2.919    0.215    0.385   96.273  154.242
  372.500    2.941    0.215    0.376   99.431  154.048
  372.750    2.958    0.210    0.388  101.496  153.753
  373.000    2.959    0.206    0.394   99.440  153.460
  373.250    2.960    0.221    0.387   95.203  153.568
  373.500    2.982    0.239    0.376   94.602  153.374
  373.750    3.172    0.245    0.368   99.152  153.180
  374.000    3.417    0.230    0.359  104.310  153.088
  374.250    3.600    0.203    0.364  106.981  152.793
  374.500    3.872    0.184    0.376  110.320  152.399
  374.750    4.110    0.186    0.387  109.960  152.507
  375.000    4.323    0.193    0.385  108.329  152.818
  375.250    4.495    0.182    0.381  109.729  152.928
  375.500    4.606    0.187    0.391  111.066  153.239
  375.750    4.659    0.162    0.387  111.738  159.510
  376.000    4.549    0.176    0.378  106.288  161.337
  376.250    4.177    0.166    0.388  102.839  158.617
  376.500    3.648    0.169    0.405  100.176  155.596
  376.750    3.337    0.190    0.427   99.394  154.189
  377.000    3.025    0.216    0.441  101.702  153.995
  377.250    2.804    0.224    0.430  102.980  157.944
  377.500    2.667    0.215    0.422  103.954  161.993
  377.750    2.552    0.209    0.460  104.202  166.647
  378.000    2.552    0.222    0.493  102.025  172.918
  378.250    2.615    0.240    0.510   99.971  178.482
  378.500    2.802    0.258    0.528   99.005  178.289
  378.750    2.996    0.237    0.496   97.797  171.227
  379.000    3.216    0.207    0.461   96.833  165.981
  379.250    3.376    0.187    0.428   96.413  166.091
  379.500    3.551    0.223    0.418   95.449  167.008
  379.750    3.665    0.248    0.417   94.059  162.976
  380.000    3.687    0.274    0.415   91.943  159.449
  380.250    3.620    0.296    0.413   89.948  158.044
  380.500    3.501    0.303    0.411   89.650  157.143
  380.750    3.362    0.298    0.425   90.746  156.647
  381.000    3.192    0.292    0.435   92.327  156.250
  381.250    3.065    0.288    0.422   92.332  155.753
  381.500    2.981    0.284    0.432   89.185  155.662
  381.750    2.943    0.292    0.439   86.099  155.769
  382.000    2.988    0.290    0.431   86.105  156.991
  382.250    3.149    0.276    0.421   91.503  158.413
  382.500    3.262    0.250    0.413  100.176  161.249
  382.750    3.456    0.230    0.417  103.999  164.288
