~VERSION INFORMATION
 VERS.                 2.0:   CWLS LOG ASCII STANDARD -VERSION 2.0
 WRAP.                  NO:   ONE LINE PER DEPTH STEP
~WELL INFORMATION BLOCK
#MNEM.UNIT           DATA                    DESCRIPTION OF MNEMONIC
#---------    -------------------            -------------------------------
# Generated from Intellog Unique Number	CS_73_76/WELL/3239
WELL.         10-23-076-08W4                 : Well_name    - WELL
LOC .         00/10-23-076-08W4/0            : Location     - LOCATION
UWI .         00/10-23-076-08W4/0            : Uwi          - UNIQUE WELL ID
ENTR.         SP                             : Entered      - ENTERED BY
SRVC.         SCHLUMBERGER                   : Scn          - SERVICE COMPANY
STRT.M        204.216                        : top_depth    - START DEPTH
STOP.M        432.466                        : bot_depth    - STOP DEPTH
STEP.M        0.25                           : increment    - STEP LENGTH
 NULL. -999.2500:NULL Value
~CURVE INFORMATION BLOCK
#MNEM UNIT       ERCB CURVE CODE    CURVE DESCRIPTION
#-----------   ------------------   ----------------------------------
DEPT.M        00 001 00 00         : DEPTH        - DEPTH
GR  .API      00 310 00 00         : GR           - GAMMA RAY
DPHI.V/V      00 890 00 00         : PHID         - DENSITY POROSITY (SANDSTONE)
NPHI.V/V      00 330 00 00         : PHIN         - NEUTRON POROSITY (SANDSTONE)
ILD .OHMM     00 120 00 00         : RESD         - DEEP RESISTIVITY (DIL)
~PARAMETER INFORMATION
#MNEM.UNIT           DATA             DESCRIPTION OF MNEMONIC
#---------         -----------     ------------------------------
GL  .M        612.587              : gl           - GROUND LEVEL ELEVATION
EREF.M        616.427              : kb           - ELEVATION OF DEPTH REFERENCE
DATM.M        612.587              : datum        - DATUM ELEVATION
TDD .M        545.592              : tdd          - TOTAL DEPTH DRILLER
RUN .         ONE                  : Run          - RUN NUMBER
ENG .         BILL                 : Engineer     - RECORDING ENGINEER
WIT .         JIM                  : Witness      - WITNESSED BY
MUD .         GEL                  : Mud_type     - MUD TYPE
MATR.         SANDSTONE            : Logunit      - NEUTRON MATRIX
TMAX.C        60                   : BHT          - MAXIMUM RECORDED TEMPERATURE
BHTD.M        545.592              : BHTDEP       - MAXIMUM RECORDED TEMPERATURE
MATR.         1                    : LOGUNIT      - NEUTRON MATRIX
RMT .C        25                   : MDTP         - TEMPERATURE OF MUD
NEUT.         1                    : NEUTRON      - NEUTRON TYPE
RESI.         0                    : RESIST       - RESISTIVITY TYPE
RMC .OHMM     0.25                 : RMC          - RESISTIVITY OF MUD CAKE
RMF .OHMM     0.25                 : RMF          - RESISTIVITY OF MUD FILTRATE
SUFT.C        15                   : SUFT         - SURFACE TEMPERATURE
~A  DEPTH       GR     PHID     PHIN     RESD
# ...
  291.216   81.832    0.251    0.464    5.888
  291.466   84.907    0.239    0.478    5.154
  291.716   88.136    0.242    0.494    4.327
  291.966   91.306    0.229    0.507    4.066
  292.216   92.439    0.241    0.514    3.462
  292.466   93.453    0.246    0.496    3.176
  292.716   93.212    0.250    0.511    3.184
  292.966   89.858    0.276    0.539    3.578
  293.216   87.375    0.325    0.562    4.199
  293.466   83.112    0.335    0.542    5.024
  293.716   77.405    0.344    0.508    5.948
  293.966   71.246    0.353    0.470    7.551
  294.216   66.138    0.357    0.430    8.484
  294.466   61.906    0.348    0.432    9.227
  294.716   59.908    0.345    0.441    9.351
  294.966   58.938    0.353    0.441    9.059
  295.216   57.951    0.346    0.433    8.691
  295.466   58.388    0.342    0.422    8.806
  295.716   59.191    0.354    0.428    8.842
  295.966   59.796    0.357    0.441    8.843
  296.216   59.350    0.358    0.441    9.016
  296.466   59.178    0.359    0.427    8.994
  296.716   59.152    0.357    0.432    9.162
  296.966   59.127    0.353    0.435    9.144
  297.216   59.025    0.350    0.450    9.346
  297.466   58.503    0.346    0.453    9.490
  297.716   58.557    0.347    0.457    9.486
  297.966   57.805    0.350    0.462    9.701
  298.216   56.758    0.356    0.468    9.538
  298.466   56.685    0.363    0.473    9.567
  298.716   56.673    0.368    0.480    9.872
  298.966   57.622    0.347    0.468   10.032
  299.216   59.347    0.333    0.461   10.246
  299.466   60.268    0.337    0.464   10.228
  299.716   60.922    0.337    0.468   10.035
  299.966   60.879    0.330    0.470    9.794
  300.216   60.869    0.342    0.464    9.502
  300.466   60.932    0.344    0.458    9.195
  300.716   60.223    0.338    0.457    9.112
  300.966   59.644    0.343    0.454    8.956
  301.216   61.500    0.347    0.450    8.958
  301.466   61.912    0.345    0.447    8.955
  301.716   59.544    0.346    0.447    9.086
  301.966   61.306    0.344    0.452    9.103
  302.216   63.267    0.343    0.456    9.294
  302.466   63.869    0.343    0.460    9.290
  302.716   63.839    0.342    0.465    9.332
  302.966   63.827    0.342    0.464    9.466
  303.216   63.749    0.340    0.445    9.268
  303.466   64.454    0.341    0.444    9.279
  303.716   64.516    0.345    0.450    9.277
  303.966   62.105    0.349    0.453    9.275
  304.216   61.161    0.350    0.447    9.272
  304.466   60.474    0.352    0.447    9.271
  304.716   62.206    0.353    0.453    9.272
  304.966   63.837    0.343    0.459    9.274
  305.216   63.946    0.336    0.456    9.453
  305.466   63.939    0.332    0.448    9.494
  305.716   61.320    0.331    0.452    9.611
  305.966   60.285    0.334    0.444    9.609
  306.216   60.070    0.334    0.436    9.605
  306.466   60.073    0.338    0.437    9.603
  306.716   59.028    0.339    0.436    9.605
  306.966   58.775    0.340    0.434    9.624
  307.216   57.514    0.336    0.431    9.801
  307.466   59.792    0.331    0.429    9.659
  307.716   61.350    0.326    0.427    9.764
  307.966   61.879    0.311    0.422    9.903
  308.216   60.731    0.291    0.398   10.252
  308.466   59.358    0.192    0.374    9.935
  308.716   58.927    0.100    0.325    9.655
  308.966   62.433    0.063    0.263    9.071
  309.216   66.470    0.122    0.280    8.418
  309.466   73.238    0.216    0.332    7.826
  309.716   76.251    0.253    0.414    7.286
  309.966   78.740    0.268    0.447    6.755
  310.216   80.074    0.277    0.478    6.268
  310.466   81.391    0.262    0.474    6.100
  310.716   83.915    0.245    0.468    5.905
  310.966   86.914    0.257    0.474    5.848
  311.216   89.896    0.254    0.468    5.783
  311.466   91.519    0.243    0.481    5.778
  311.716   90.455    0.246    0.484    5.757
  311.966   90.361    0.250    0.477    5.463
  312.216   91.266    0.244    0.470    5.302
  312.466   92.921    0.248    0.477    5.152
  312.716   92.220    0.256    0.485    4.730
  312.966   91.499    0.259    0.494    4.222
  313.216   91.508    0.251    0.499    3.773
  313.466   92.076    0.260    0.516    3.230
  313.716   92.390    0.264    0.528    2.734
  313.966   92.666    0.262    0.537    2.432
  314.216   92.070    0.260    0.551    2.287
  314.466   91.814    0.265    0.562    2.267
  314.716   88.341    0.271    0.568    2.361
  314.966   85.009    0.281    0.566    2.578
  315.216   81.254    0.299    0.567    2.777
  315.466   79.285    0.299    0.580    3.051
  315.716   80.324    0.294    0.576    3.338
  315.966   79.308    0.305    0.542    3.754
  316.216   76.845    0.319    0.545    4.158
  316.466   76.162    0.294    0.552    4.843
  316.716   75.383    0.315    0.535    5.508
  316.966   73.785    0.298    0.519    6.104
  317.216   73.693    0.296    0.500    6.933
  317.466   73.620    0.294    0.480    7.488
  317.716   70.953    0.294    0.463    7.857
  317.966   69.135    0.291    0.462    7.866
  318.216   71.872    0.272    0.463    8.027
  318.466   73.318    0.290    0.461    8.021
  318.716   72.689    0.295    0.452    8.022
  318.966   70.768    0.303    0.439    8.020
  319.216   66.025    0.315    0.431    8.018
  319.466   62.794    0.322    0.425    8.016
  319.716   59.285    0.318    0.424    8.014
  319.966   54.988    0.314    0.421    8.012
  320.216   52.283    0.314    0.426    8.010
  320.466   53.850    0.320    0.423    8.008
  320.716   54.741    0.331    0.420    8.006
  320.966   54.696    0.341    0.422    8.004
  321.216   55.072    0.345    0.433    8.002
  321.466   55.996    0.345    0.430    7.998
  321.716   55.294    0.342    0.433    8.000
  321.966   55.194    0.329    0.437    7.836
  322.216   56.887    0.335    0.430    7.846
  322.466   57.683    0.341    0.435    7.844
  322.716   58.362    0.344    0.437    7.842
  322.966   58.286    0.344    0.431    7.835
  323.216   58.373    0.343    0.424    7.964
  323.466   56.720    0.337    0.419    7.980
  323.716   55.816    0.340    0.419    7.982
  323.966   55.295    0.348    0.425    7.980
  324.216   55.857    0.348    0.432    7.979
  324.466   56.428    0.339    0.439    7.976
  324.716   57.470    0.335    0.445    7.870
  324.966   57.687    0.335    0.448    7.791
  325.216   59.395    0.341    0.451    7.677
  325.466   59.443    0.339    0.444    7.672
  325.716   58.583    0.336    0.438    7.649
  325.966   56.492    0.338    0.426    7.528
  326.216   55.392    0.344    0.437    7.544
  326.466   55.095    0.347    0.446    7.383
  326.716   56.518    0.328    0.456    7.275
  326.966   58.459    0.326    0.460    7.210
  327.216   58.712    0.324    0.438    6.978
  327.466   57.094    0.323    0.447    7.067
  327.716   55.088    0.333    0.453    7.284
  327.966   52.650    0.334    0.449    7.650
  328.216   52.428    0.311    0.424    8.423
  328.466   49.832    0.232    0.393   10.221
  328.716   47.289    0.154    0.369   12.731
  328.966   45.116    0.059    0.169   15.045
  329.216   45.496    0.077    0.170   17.268
  329.466   47.543    0.077    0.170   17.321
  329.716   48.658    0.162    0.180   14.622
  329.966   48.994    0.204    0.265   11.522
  330.216   50.651    0.257    0.324    9.757
  330.466   51.962    0.287    0.399    8.322
  330.716   55.049    0.308    0.429    7.486
  330.966   58.399    0.333    0.460    7.262
  331.216   58.446    0.340    0.452    7.222
  331.466   58.005    0.342    0.438    7.216
  331.716   57.715    0.348    0.443    7.215
  331.966   56.838    0.352    0.437    7.215
  332.216   57.874    0.360    0.438    7.197
  332.466   59.533    0.368    0.445    6.819
  332.716   60.340    0.372    0.458    6.460
  332.966   58.162    0.377    0.480    6.442
  333.216   57.151    0.354    0.479    6.442
  333.466   55.442    0.351    0.470    6.440
  333.716   54.416    0.353    0.466    6.436
  333.966   54.250    0.347    0.462    6.398
  334.216   54.870    0.344    0.445    6.317
  334.466   55.857    0.332    0.433    6.321
