~VERSION INFORMATION
 VERS.                 2.0:   CWLS LOG ASCII STANDARD -VERSION 2.0
 WRAP.                  NO:   ONE LINE PER DEPTH STEP
~WELL INFORMATION BLOCK
#MNEM.UNIT           DATA                    DESCRIPTION OF MNEMONIC
#---------    -------------------            -------------------------------
# Generated from Intellog Unique Number	CS_69_70/WELL/874
WELL.         ET AL HEART LAKE               : Well_name    - WELL
LOC .         00/10-30-069-11W4/0            : Location     - LOCATION
UWI .         00/10-30-069-11W4/0            : Uwi          - UNIQUE WELL ID
ENTR.         SP                             : Entered      - ENTERED BY
SRVC.         SCHLUMBERGER                   : Scn          - SERVICE COMPANY
STRT.F        1070                           : top_depth    - START DEPTH
STOP.F        1709.76                        : bot_depth    - STOP DEPTH
STEP.F        0.82                           : increment    - STEP LENGTH
 NULL. -999.2500:NULL Value
~CURVE INFORMATION BLOCK
#MNEM UNIT       ERCB CURVE CODE    CURVE DESCRIPTION
#-----------   ------------------   ----------------------------------
DEPT.F        00 001 00 00         : DEPTH        - DEPTH
GR  .API      00 310 00 00         : GR           - GAMMA RAY
NPHI.V/V      00 330 00 00         : PHIN         - NEUTRON POROSITY (SANDSTONE)
DPHI.V/V      00 890 00 00         : PHID         - DENSITY POROSITY (SANDSTONE)
ILD .OHMM     00 120 00 00         : RESD         - DEEP RESISTIVITY (DIL)
~PARAMETER INFORMATION
#MNEM.UNIT           DATA             DESCRIPTION OF MNEMONIC
#---------         -----------     ------------------------------
GL  .M        650.138              : gl           - GROUND LEVEL ELEVATION
EREF.M        652.668              : kb           - ELEVATION OF DEPTH REFERENCE
DATM.M        650.138              : datum        - DATUM ELEVATION
TDD .M        527.304              : tdd          - TOTAL DEPTH DRILLER
RUN .         ONE                  : Run          - RUN NUMBER
ENG .         BILL                 : Engineer     - RECORDING ENGINEER
WIT .         JIM                  : Witness      - WITNESSED BY
MUD .         GEL                  : Mud_type     - MUD TYPE
MATR.         SANDSTONE            : Logunit      - NEUTRON MATRIX
TMAX.C        20                   : BHT          - MAXIMUM RECORDED TEMPERATURE
BHTD.M        527.304              : BHTDEP       - MAXIMUM RECORDED TEMPERATURE
MATR.         1                    : LOGUNIT      - NEUTRON MATRIX
RMT .C        25                   : MDTP         - TEMPERATURE OF MUD
NEUT.         1                    : NEUTRON      - NEUTRON TYPE
RESI.         0                    : RESIST       - RESISTIVITY TYPE
RMC .OHMM     0.25                 : RMC          - RESISTIVITY OF MUD CAKE
RMF .OHMM     0.25                 : RMF          - RESISTIVITY OF MUD FILTRATE
SUFT.C        15                   : SUFT         - SURFACE TEMPERATURE
~A  DEPTH       GR     PHIN     PHID     RESD
# ...
 1355.430   58.911    0.359    0.133    9.672
 1356.250   56.631    0.178    0.094   11.900
 1357.070   57.877    0.178    0.053   13.586
 1357.890   62.133    0.198    0.088   15.801
 1358.710   66.388    0.243    0.128   16.140
 1359.530   69.455    0.282    0.199   14.212
 1360.350   70.682    0.350    0.244   12.059
 1361.170   73.788    0.380    0.308    9.679
 1361.990   75.014    0.414    0.292    8.523
 1362.810   76.893    0.446    0.296    7.500
 1363.640   79.347    0.445    0.301    6.854
 1364.460   80.018    0.441    0.305    6.268
 1365.280   78.907    0.440    0.306    5.948
 1366.100   78.371    0.442    0.312    5.743
 1366.920   76.684    0.444    0.333    5.649
 1367.740   75.554    0.447    0.337    5.567
 1368.560   77.471    0.450    0.345    5.578
 1369.380   78.698    0.456    0.349    5.593
 1370.200   81.171    0.456    0.349    5.611
 1371.020   82.417    0.450    0.336    5.623
 1371.840   83.683    0.447    0.329    5.538
 1372.660   82.016    0.448    0.329    5.454
 1373.480   80.866    0.449    0.332    5.364
 1374.300   79.180    0.449    0.335    5.276
 1375.120   78.049    0.442    0.340    5.193
 1375.940   78.165    0.432    0.343    5.217
 1376.760   78.204    0.423    0.342    5.132
 1377.580   78.281    0.429    0.332    5.142
 1378.400   78.990    0.434    0.322    5.152
 1379.220   79.068    0.443    0.293    5.263
 1380.040   79.125    0.449    0.277    5.586
 1380.860   79.222    0.441    0.255    5.702
 1381.680   79.279    0.436    0.250    5.941
 1382.500   78.782    0.431    0.258    5.949
 1383.320   78.840    0.418    0.259    6.424
 1384.140   79.530    0.430    0.259    6.814
 1384.960   80.201    0.444    0.260    7.090
 1385.780   80.853    0.452    0.264    7.109
 1386.600   81.544    0.446    0.268    6.751
 1387.420   81.640    0.439    0.273    6.399
 1388.240   81.717    0.439    0.277    6.178
 1389.060   81.200    0.440    0.275    5.867
 1389.880   81.258    0.440    0.270    5.770
 1390.700   81.335    0.438    0.262    5.782
 1391.520   81.412    0.436    0.258    5.797
 1392.340   81.489    0.436    0.253    5.921
 1393.160   80.991    0.435    0.249    5.945
 1393.980   80.474    0.435    0.244    6.068
 1394.800   80.532    0.436    0.240    6.081
 1395.620   80.609    0.436    0.234    6.211
 1396.440   80.706    0.433    0.229    6.597
 1397.260   80.802    0.428    0.228    6.729
 1398.080   81.454    0.422    0.233    6.878
 1398.900   81.531    0.420    0.234    7.030
 1399.720   81.627    0.429    0.236    7.039
 1400.540   82.318    0.433    0.237    7.058
 1401.360   83.564    0.428    0.235    7.082
 1402.190   86.631    0.430    0.235    6.965
 1403.010   87.858    0.443    0.235    6.734
 1403.830   87.379    0.446    0.234    6.747
 1404.650   86.249    0.442    0.232    6.523
 1405.470   85.751    0.435    0.232    6.298
 1406.290   85.847    0.429    0.232    5.977
 1407.110   86.499    0.432    0.233    5.879
 1407.930   86.557    0.436    0.236    5.576
 1408.750   86.079    0.436    0.239    5.491
 1409.570   86.731    0.431    0.239    5.620
 1410.390   87.977    0.424    0.237    5.628
 1411.210   91.025    0.428    0.236    5.646
 1412.030   93.498    0.433    0.235    5.554
 1412.850   91.792    0.443    0.234    5.470
 1413.670   94.840    0.448    0.234    5.281
 1414.490   94.917    0.442    0.241    5.106
 1415.310   94.400    0.438    0.249    5.018
 1416.130   93.902    0.461    0.262    4.759
 1416.950   93.960    0.484    0.262    4.038
 1417.770   93.443    0.504    0.254    3.556
 1418.590   93.539    0.522    0.249    3.188
 1419.410   93.616    0.528    0.247    2.807
 1420.230   93.099    0.527    0.245    2.520
 1421.050   91.375    0.521    0.236    2.719
 1421.870   89.669    0.495    0.235    3.109
 1422.690   87.983    0.476    0.244    3.484
 1423.510   86.872    0.457    0.271    3.691
 1424.330   86.355    0.455    0.280    4.136
 1425.150   87.639    0.459    0.280    4.638
 1425.970   89.499    0.453    0.253    4.917
 1426.790   86.605    0.454    0.248    5.309
 1427.610   84.306    0.462    0.247    5.628
 1428.430   83.769    0.474    0.247    5.974
 1429.250   83.252    0.471    0.254    5.990
 1430.070   80.991    0.466    0.273    5.787
 1430.890   79.842    0.461    0.285    5.388
 1431.710   78.155    0.457    0.284    5.205
 1432.530   77.638    0.452    0.277    4.940
 1433.350   75.952    0.437    0.272    4.855
 1434.170   74.228    0.430    0.271    4.779
 1434.990   71.334    0.423    0.298    4.620
 1435.810   69.015    0.415    0.307    4.544
 1436.630   66.141    0.406    0.303    4.476
 1437.450   68.000    0.396    0.300    4.402
 1438.270   68.652    0.400    0.305    4.417
 1439.090   69.323    0.408    0.311    4.426
 1439.910   67.043    0.414    0.313    4.443
 1440.730   65.913    0.421    0.322    4.452
 1441.560   66.028    0.421    0.329    4.379
 1442.380   66.067    0.410    0.337    4.231
 1443.200   66.757    0.400    0.334    4.090
 1444.020   68.023    0.405    0.328    4.023
 1444.840   70.476    0.411    0.323    4.039
 1445.660   71.742    0.418    0.318    4.047
 1446.480   71.838    0.423    0.314    4.214
 1447.300   71.896    0.411    0.309    4.467
 1448.120   72.606    0.403    0.302    4.648
 1448.940   73.238    0.408    0.297    4.833
 1449.760   72.760    0.418    0.297    5.029
 1450.580   72.224    0.427    0.297    5.049
 1451.400   71.687    0.431    0.297    4.967
 1452.220   68.238    0.428    0.296    4.892
 1453.040   65.900    0.421    0.294    4.905
 1453.860   62.431    0.414    0.288    5.296
 1454.680   60.132    0.400    0.273    5.822
 1455.500   59.615    0.371    0.228    7.435
 1456.320   62.682    0.206    0.045    9.487
 1457.140   65.730    0.184    0.006   12.114
 1457.960   69.372    0.193    0.033   14.621
 1458.780   72.419    0.224    0.078   14.660
 1459.600   74.260    0.296    0.163    8.584
 1460.420   73.148    0.369    0.250    7.014
 1461.240   72.037    0.411    0.251    5.036
 1462.060   70.351    0.422    0.255    4.435
 1462.880   69.853    0.437    0.265    4.206
 1463.700   70.505    0.442    0.268    4.217
 1464.520   72.365    0.440    0.265    4.234
 1465.340   76.026    0.437    0.259    4.240
 1466.160   79.055    0.436    0.256    4.254
 1466.980   82.141    0.436    0.251    4.262
 1467.800   82.774    0.432    0.247    4.274
 1468.620   83.464    0.426    0.242    4.288
 1469.440   84.135    0.424    0.237    4.299
 1470.260   84.213    0.424    0.231    4.314
 1471.080   84.903    0.425    0.229    4.322
 1471.900   84.980    0.426    0.226    4.336
 1472.720   84.444    0.427    0.226    4.426
 1473.540   83.946    0.422    0.228    4.524
 1474.360   82.873    0.431    0.233    4.536
 1475.180   82.912    0.440    0.241    4.465
 1476.000   82.989    0.451    0.253    4.391
 1476.820   83.047    0.456    0.253    4.248
 1477.640   83.143    0.454    0.252    4.179
 1478.460   83.814    0.453    0.251    4.110
 1479.280   84.486    0.454    0.253    3.971
 1480.100   85.176    0.455    0.252    3.981
 1480.930   84.659    0.454    0.252    3.995
 1481.750   84.736    0.449    0.256    4.083
 1482.570   84.813    0.447    0.256    4.088
 1483.390   86.059    0.446    0.255    4.102
 1484.210   87.938    0.446    0.253    4.116
 1485.030   89.204    0.447    0.253    4.129
 1485.850   89.875    0.450    0.250    4.135
 1486.670   90.546    0.453    0.243    4.070
 1487.490   91.811    0.455    0.233    3.932
 1488.310   91.314    0.462    0.236    3.734
 1489.130   90.777    0.472    0.257    3.670
 1489.950   90.279    0.490    0.260    3.546
 1490.770   90.356    0.512    0.259    3.492
 1491.590   91.641    0.507    0.256    3.376
 1492.410   92.274    0.504    0.254    3.321
 1493.230   94.172    0.501    0.254    3.208
 1494.050   95.437    0.496    0.255    3.100
 1494.870   96.683    0.491    0.252    2.886
 1495.690   97.355    0.501    0.250    2.735
 1496.510   96.263    0.523    0.260    2.499
 1497.330   95.726    0.531    0.267    2.327
