~VERSION INFORMATION
 VERS.                 2.0:   CWLS LOG ASCII STANDARD -VERSION 2.0
 WRAP.                  NO:   ONE LINE PER DEPTH STEP
~WELL INFORMATION BLOCK
#MNEM.UNIT           DATA                    DESCRIPTION OF MNEMONIC
#---------    -------------------            -------------------------------
# Generated from Intellog Unique Number	CW_76_78/WELL/2811
WELL.         AAMOCO ET ROCK 10-34           : Well_name    - WELL
LOC .         00/10-34-077-24W4/0            : Location     - LOCATION
UWI .         00/10-34-077-24W4/0            : Uwi          - UNIQUE WELL ID
ENTR.         JJ                             : Entered      - ENTERED BY
SRVC.         WESTERN ATLAS                  : Scn          - SERVICE COMPANY
DATE.         14 JAN 73                      : Date         - LOG DATE
STRT.M        396.24                         : top_depth    - START DEPTH
STOP.M        533.49                         : bot_depth    - STOP DEPTH
STEP.M        0.25                           : increment    - STEP LENGTH
 NULL. -999.2500:NULL Value
~CURVE INFORMATION BLOCK
#MNEM UNIT       ERCB CURVE CODE    CURVE DESCRIPTION
#-----------   ------------------   ----------------------------------
DEPT.M        00 001 00 00         : DEPTH        - DEPTH
DELT.US/F     00 520 00 00         : DELT         - SONIC TRAVEL TIME
NPHI.V/V      00 330 00 00         : PHIN         - NEUTRON POROSITY (SANDSTONE)
GR  .API      00 310 00 00         : GR           - GAMMA RAY
CALI.MM       00 280 01 00         : CAL          - CALIPER
ILD .OHMM     00 120 00 00         : RESD         - DEEP RESISTIVITY (DIL)
~PARAMETER INFORMATION
#MNEM.UNIT           DATA             DESCRIPTION OF MNEMONIC
#---------         -----------     ------------------------------
GL  .M        613.105              : gl           - GROUND LEVEL ELEVATION
EREF.M        617.281              : kb           - ELEVATION OF DEPTH REFERENCE
DATM.M        613.105              : datum        - DATUM ELEVATION
TDD .M        534.924              : tdd          - TOTAL DEPTH DRILLER
RUN .         ONE                  : Run          - RUN NUMBER
ENG .         MACLEAN-HETHERINGTON : Engineer     - RECORDING ENGINEER
WIT .         MACALDER-DAVIS       : Witness      - WITNESSED BY
BASE.         V.V                  : Branch       - HOME BASE OF LOGGING UNIT
MUD .         GEL                  : Mud_type     - MUD TYPE
MATR.         SANDSTONE            : Logunit      - NEUTRON MATRIX
TMAX.C        28.3333              : BHT          - MAXIMUM RECORDED TEMPERATURE
BHTD.M        535.534              : BHTDEP       - MAXIMUM RECORDED TEMPERATURE
RMT .C        18.3333              : MDTP         - TEMPERATURE OF MUD
MUDD.KG/M     1140                 : MWT          - MUD DENSITY
NEUT.         1                    : NEUTRON      - NEUTRON TYPE
RESI.         0                    : RESIST       - RESISTIVITY TYPE
RM  .OHMM     4.1                  : RM           - RESISTIVITY OF MUD
RMC .OHMM     4.5                  : RMC          - RESISTIVITY OF MUD CAKE
RMF .OHMM     3.5                  : RMF          - RESISTIVITY OF MUD FILTRATE
SUFT.C        5                    : SUFT         - SURFACE TEMPERATURE
~A  DEPTH     DELT     PHIN       GR      CAL     RESD
# ...
  432.740  354.640    0.272   68.206  224.945    5.038
  432.990  354.710    0.280   67.946  223.658    4.948
  433.240  364.373    0.287   68.154  221.649    4.755
  433.490  387.543    0.294   68.436  220.474    4.602
  433.740  388.138    0.298   68.971  219.815    4.511
  433.990  395.058    0.297   69.983  219.256    4.455
  434.240  387.365    0.285   70.998  219.424    4.514
  434.490  385.087    0.283   71.522  221.141    4.616
  434.740  380.525    0.287   71.678  221.924    4.659
  434.990  382.880    0.293   71.528  219.401    4.644
  435.240  388.366    0.292   71.998  221.326    4.578
  435.490  393.593    0.286   72.642  222.229    4.513
  435.740  382.309    0.284   71.338  221.558    4.448
  435.990  383.489    0.285   69.662  219.763    4.337
  436.240  389.694    0.287   68.118  218.475    4.205
  436.490  390.744    0.289   68.025  219.369    3.974
  436.740  389.446    0.293   69.713  222.851    3.784
  436.990  391.408    0.298   71.646  224.890    3.499
  437.240  399.636    0.303   73.460  226.089    3.276
  437.490  400.751    0.313   74.717  226.770    3.241
  437.740  398.212    0.325   75.851  226.827    3.357
  437.990  382.622    0.319   75.766  226.577    3.728
  438.240  368.402    0.309   72.074  223.847    4.397
  438.490  370.954    0.300   67.101  221.432    5.235
  438.740  367.240    0.288   69.097  219.847    6.301
  438.990  357.392    0.280   69.438  219.793    6.634
  439.240  392.177    0.268   65.137  219.850    6.282
  439.490  395.184    0.257   65.056  221.473    5.713
  439.740  394.603    0.271   66.746  222.892    5.243
  439.990  388.670    0.282   67.874  223.973    4.733
  440.240  392.657    0.279   69.746  224.665    4.242
  440.490  389.857    0.276   71.620  225.142    4.166
  440.740  382.423    0.273   72.757  224.889    4.268
  440.990  383.930    0.271   73.836  224.751    4.461
  441.240  388.831    0.271   75.761  224.604    4.612
  441.490  388.313    0.271   73.969  225.182    4.883
  441.740  384.992    0.273   71.807  224.528    5.123
  441.990  383.105    0.269   71.596  223.140    5.248
  442.240  382.720    0.267   72.553  222.070    5.033
  442.490  382.856    0.268   72.708  222.124    4.636
  442.740  381.360    0.272   71.039  222.189    4.537
  442.990  378.103    0.267   70.339  222.978    4.572
  443.240  374.260    0.263   70.559  223.469    4.632
  443.490  373.155    0.269   71.093  223.836    4.789
  443.740  379.752    0.271   71.190  223.782    5.070
  443.990  380.214    0.266   70.609  223.232    5.508
  444.240  377.022    0.257   68.814  222.567    6.071
  444.490  364.891    0.247   66.712  221.402    6.766
  444.740  281.375    0.234   63.326  220.528    7.694
  444.990  270.287    0.214   60.123  220.273    9.060
  445.240  280.473    0.188   58.275  220.225    9.452
  445.490  269.124    0.186   56.225  220.191    8.852
  445.740  240.224    0.187   58.893  219.844    8.274
  445.990  275.530    0.191   63.331  219.292    7.442
  446.240  310.054    0.214   66.609  219.444    6.633
  446.490  375.116    0.246   68.416  221.270    5.999
  446.740  389.086    0.238   68.580  223.400    5.537
  446.990  379.173    0.226   68.921  225.639    5.213
  447.240  359.995    0.224   69.503  225.189    4.963
  447.490  372.398    0.249   70.951  223.281    4.786
  447.740  387.868    0.282   72.211  221.587    4.667
  447.990  386.244    0.291   72.064  221.445    4.617
  448.240  381.290    0.286   70.331  221.407    4.669
  448.490  369.356    0.281   69.083  219.804    4.758
  448.740  369.817    0.282   68.995  218.524    4.811
  448.990  375.631    0.286   69.282  218.384    4.830
  449.240  375.831    0.293   69.681  218.649    4.886
  449.490  381.254    0.300   70.023  219.451    4.932
  449.740  380.803    0.308   70.853  219.508    4.916
  449.990  377.742    0.306   71.993  219.267    4.908
  450.240  376.377    0.292   72.644  220.142    4.909
  450.490  376.317    0.284   72.065  221.353    4.911
  450.740  375.344    0.280   71.129  222.029    4.886
  450.990  374.175    0.276   70.003  222.298    4.834
  451.240  379.335    0.271   69.003  222.890    4.782
  451.490  384.039    0.276   68.183  223.669    4.723
  451.740  378.760    0.274   67.732  221.145    4.699
  451.990  374.393    0.279   68.380  220.484    4.691
  452.240  374.986    0.281   70.064  221.065    4.667
  452.490  375.972    0.271   72.427  221.641    4.669
  452.740  373.432    0.275   74.296  220.365    4.704
  452.990  370.697    0.277   75.065  219.602    4.732
  453.240  371.746    0.279   74.009  219.667    4.794
  453.490  381.802    0.278   76.247  220.861    4.796
  453.740  380.697    0.281   77.500  223.109    4.824
  453.990  381.030    0.281   75.400  223.577    4.870
  454.240  376.338    0.275   73.237  223.741    4.880
  454.490  368.447    0.270   74.804  224.221    4.909
  454.740  365.779    0.265   74.844  224.077    4.910
  454.990  364.544    0.260   73.964  222.900    4.929
  455.240  361.809    0.261   73.203  221.308    4.967
  455.490  357.835    0.266   74.281  220.121    5.024
  455.740  356.600    0.269   75.722  219.770    5.081
  455.990  355.562    0.269   73.743  219.225    5.110
  456.240  364.376    0.266   72.253  218.967    5.075
  456.490  359.879    0.266   73.028  220.269    5.003
  456.740  356.166    0.269   75.325  222.514    4.886
  456.990  363.742    0.274   78.601  223.825    4.729
  457.240  374.905    0.283   81.083  225.956    4.560
  457.490  389.592    0.285   82.763  226.423    4.294
  457.740  398.406    0.282   80.784  222.245    4.126
  457.990  387.711    0.276   75.141  220.035    4.165
  458.240  355.548    0.262   73.345  221.028    4.354
  458.490  342.113    0.250   75.397  223.997    4.501
  458.740  329.001    0.257   77.695  225.186    4.679
  458.990  354.194    0.255   74.738  225.668    4.838
  459.240  378.996    0.252   74.166  223.974    4.893
  459.490  370.062    0.255   74.088  222.372    4.912
  459.740  361.977    0.257   74.056  221.101    4.842
  459.990  361.917    0.261   75.870  220.641    4.808
  460.240  362.445    0.265   75.662  219.974    4.881
  460.490  369.367    0.268   73.556  219.531    5.167
  460.740  379.356    0.260   70.291  219.589    5.634
  460.990  322.137    0.246   68.007  219.447    6.267
  461.240  308.309    0.224   66.155  219.103    6.998
  461.490  342.115    0.229   65.882  219.270    7.463
  461.740  347.406    0.249   67.085  219.422    7.317
  461.990  362.616    0.266   68.278  219.487    7.056
  462.240  372.540    0.270   69.789  220.795    6.499
  462.490  370.066    0.273   72.263  223.446    5.793
  462.740  379.860    0.279   74.561  225.373    5.287
  462.990  380.583    0.279   70.017  226.573    5.052
  463.240  381.763    0.278   66.943  226.840    4.926
  463.490  385.292    0.275   65.081  226.286    4.946
  463.740  383.993    0.270   64.078  225.517    5.002
  463.990  389.349    0.266   68.148  224.547    5.105
  464.240  384.005    0.264   66.416  223.173    5.326
  464.490  377.615    0.257   66.087  221.985    5.702
  464.740  370.573    0.249   66.793  221.230    6.228
  464.990  362.945    0.239   61.090  220.774    6.667
  465.240  353.228    0.222   60.514  220.833    6.930
  465.490  273.039    0.212   62.270  221.092    6.337
  465.740  309.847    0.236   63.460  221.472    5.617
  465.990  342.218    0.255   64.784  222.778    5.241
  466.240  358.340    0.262   65.793  217.454    5.018
  466.490  365.328    0.264   67.425  209.859    4.848
  466.740  356.590    0.263   68.750  215.933    4.761
  466.990  351.637    0.265   69.944  219.300    4.642
  467.240  378.135    0.267   71.320  223.098    4.584
  467.490  379.185    0.267   68.918  223.670    4.594
  467.740  367.966    0.264   66.384  223.114    4.596
  467.990  359.033    0.260   64.835  222.965    4.572
  468.240  353.427    0.257   65.365  223.134    4.507
  468.490  349.583    0.252   66.009  223.516    4.458
  468.740  352.591    0.258   67.576  223.570    4.371
  468.990  368.844    0.266   69.507  224.359    4.223
