~VERSION INFORMATION
 VERS.                 2.0:   CWLS LOG ASCII STANDARD -VERSION 2.0
 WRAP.                  NO:   ONE LINE PER DEPTH STEP
~WELL INFORMATION BLOCK
#MNEM.UNIT           DATA                    DESCRIPTION OF MNEMONIC
#---------    -------------------            -------------------------------
# Generated from Intellog Unique Number	CS_77_79/WELL/1025
WELL.         CWWE THORNBURY                 : Well_name    - WELL
LOC .         00/16-18-079-13W4/0            : Location     - LOCATION
UWI .         00/16-18-079-13W4/0            : Uwi          - UNIQUE WELL ID
ENTR.         JHS                            : Entered      - ENTERED BY
SRVC.         SCHLUMBERGER                   : Scn          - SERVICE COMPANY
STRT.M        250                            : top_depth    - START DEPTH
STOP.M        510                            : bot_depth    - STOP DEPTH
STEP.M        0.25                           : increment    - STEP LENGTH
 NULL. -999.2500:NULL Value
~CURVE INFORMATION BLOCK
#MNEM UNIT       ERCB CURVE CODE    CURVE DESCRIPTION
#-----------   ------------------   ----------------------------------
DEPT.M        00 001 00 00         : DEPTH        - DEPTH
DPHI.V/V      00 890 00 00         : PHID         - DENSITY POROSITY (LIMESTONE)
NPHI.V/V      00 330 00 00         : PHIN         - NEUTRON POROSITY (LIMESTONE)
GR  .API      00 310 00 00         : GR           - GAMMA RAY
ILD .OHMM     00 120 00 00         : RESD         - DEEP RESISTIVITY (DIL)
RHOB.KG/M3    00 350 00 00         : DENS         - BULK DENSITY
~PARAMETER INFORMATION
#MNEM.UNIT           DATA             DESCRIPTION OF MNEMONIC
#---------         -----------     ------------------------------
GL  .M        681.78               : gl           - GROUND LEVEL ELEVATION
EREF.M        684.88               : kb           - ELEVATION OF DEPTH REFERENCE
DATM.M        684.88               : datum        - DATUM ELEVATION
TDD .M        523                  : tdd          - TOTAL DEPTH DRILLER
RUN .         ONE                  : Run          - RUN NUMBER
ENG .         BILL                 : Engineer     - RECORDING ENGINEER
WIT .         JIM                  : Witness      - WITNESSED BY
MUD .         GEL                  : Mud_type     - MUD TYPE
MATR.         LIMESTONE            : Logunit      - NEUTRON MATRIX
TMAX.C        21                   : BHT          - MAXIMUM RECORDED TEMPERATURE
BHTD.M        523                  : BHTDEP       - MAXIMUM RECORDED TEMPERATURE
MATR.         1                    : LOGUNIT      - NEUTRON MATRIX
RMT .C        25                   : MDTP         - TEMPERATURE OF MUD
NEUT.         1                    : NEUTRON      - NEUTRON TYPE
RESI.         0                    : RESIST       - RESISTIVITY TYPE
RMC .OHMM     0.25                 : RMC          - RESISTIVITY OF MUD CAKE
RMF .OHMM     0.25                 : RMF          - RESISTIVITY OF MUD FILTRATE
SUFT.C        15                   : SUFT         - SURFACE TEMPERATURE
~A  DEPTH     PHID     PHIN       GR     RESD     DENS
# ...
  359.500    0.319    0.426   60.982   14.144    0.000
  359.750    0.320    0.426   60.969   13.647    0.000
  360.000    0.316    0.431   59.118   13.418    0.000
  360.250    0.316    0.443   59.712   12.695    0.000
  360.500    0.316    0.447   64.587   11.358    0.000
  360.750    0.308    0.428   68.249    9.972    0.000
  361.000    0.296    0.421   76.801    8.924    0.000
  361.250    0.278    0.443   82.297    8.606    0.000
  361.500    0.275    0.487   84.115    8.145    0.000
  361.750    0.299    0.471   80.422    7.711    0.000
  362.000    0.302    0.454   87.140    7.161    0.000
  362.250    0.290    0.438   95.083    6.651    0.000
  362.500    0.267    0.444   97.508    5.732    0.000
  362.750    0.266    0.467   94.435    4.410    0.000
  363.000    0.262    0.484  101.764    3.269    0.000
  363.250    0.234    0.519  107.868    2.713    0.000
  363.500    0.228    0.555  111.524    2.519    0.000
  363.750    0.227    0.592  113.344    2.431    0.000
  364.000    0.230    0.606  112.100    2.434    0.000
  364.250    0.238    0.588  107.798    2.437    0.000
  364.500    0.243    0.571  110.839    2.397    0.000
  364.750    0.245    0.567  111.433    2.355    0.000
  365.000    0.250    0.559  110.807    2.403    0.000
  365.250    0.259    0.548  109.567    2.595    0.000
  365.500    0.261    0.555  108.323    2.909    0.000
  365.750    0.248    0.546  108.308    3.452    0.000
  366.000    0.248    0.573  108.895    4.253    0.000
  366.250    0.259    0.592  108.274    5.140    0.000
  366.500    0.265    0.503  101.521    6.576    0.000
  366.750    0.269    0.457   98.439    7.654    0.000
  367.000    0.270    0.447   98.424    8.266    0.000
  367.250    0.250    0.439   99.015    8.438    0.000
  367.500    0.239    0.441   98.388    8.290    0.000
  367.750    0.230    0.454   98.373    7.999    0.000
  368.000    0.225    0.449  100.194    7.432    0.000
  368.250    0.222    0.451  100.177    7.036    0.000
  368.500    0.227    0.457  100.158    6.911    0.000
  368.750    0.242    0.442  103.814    6.925    0.000
  369.000    0.243    0.444  105.023    6.807    0.000
  369.250    0.246    0.467  100.719    6.687    0.000
  369.500    0.236    0.458   98.864    6.214    0.000
  369.750    0.225    0.443  101.909    5.879    0.000
  370.000    0.220    0.445  104.341    5.360    0.000
  370.250    0.221    0.469  104.937    5.075    0.000
  370.500    0.231    0.501  103.695    5.081    0.000
  370.750    0.232    0.503  103.066    5.187    0.000
  371.000    0.233    0.492  105.492    5.394    0.000
  371.250    0.235    0.473  104.256    5.610    0.000
  371.500    0.241    0.459   98.729    5.834    0.000
  371.750    0.250    0.464   93.202    6.183    0.000
  372.000    0.242    0.474   98.079    6.310    0.000
  372.250    0.238    0.484  101.736    6.686    0.000
  372.500    0.245    0.501  101.104    6.822    0.000
  372.750    0.256    0.496   94.965    6.962    0.000
  373.000    0.266    0.476   89.436    6.973    0.000
  373.250    0.277    0.457   88.200    6.857    0.000
  373.500    0.301    0.443   90.014    6.490    0.000
  373.750    0.299    0.450   88.161    6.142    0.000
  374.000    0.282    0.478   90.598    5.392    0.000
  374.250    0.272    0.510  104.044    4.914    0.000
  374.500    0.255    0.524  111.374    4.234    0.000
  374.750    0.251    0.529  115.643    3.321    0.000
  375.000    0.254    0.542  113.790    2.971    0.000
  375.250    0.258    0.553  107.648    2.610    0.000
  375.500    0.264    0.565  111.305    2.290    0.000
  375.750    0.264    0.576  114.959    0.815    0.000
  376.000    0.245    0.563  116.168    0.560    0.000
  376.250    0.233    0.552  114.313    0.482    0.000
  376.500    0.222    0.565  109.402    0.511    0.000
  376.750    0.227    0.568  109.996    0.595    0.000
  377.000    0.252    0.598  113.040    0.776    0.000
  377.250    0.274    0.599  111.183    1.154    0.000
  377.500    0.295    0.586  108.106    1.957    0.000
  377.750    0.287    0.575  105.634    2.649    0.000
  378.000    0.259    0.564  105.013    3.026    0.000
  378.250    0.232    0.549  111.114    3.208    0.000
  378.500    0.230    0.548  112.933    3.152    0.000
  378.750    0.253    0.587  111.695    3.098    0.000
  379.000    0.265    0.559  112.286    3.046    0.000
  379.250    0.264    0.542  101.861    3.167    0.000
  379.500    0.250    0.534  101.237    3.355    0.000
  379.750    0.237    0.557  102.432    3.692    0.000
  380.000    0.225    0.550  100.588    3.986    0.000
  380.250    0.221    0.509  101.182    4.225    0.000
  380.500    0.225    0.479  107.897    4.479    0.000
  380.750    0.225    0.488  110.333    4.483    0.000
  381.000    0.237    0.544  109.084    4.577    0.000
  381.250    0.253    0.525   98.667    4.849    0.000
  381.500    0.249    0.489   90.077    5.337    0.000
  381.750    0.244    0.473   94.955    5.548    0.000
  382.000    0.267    0.468   96.779    6.106    0.000
  382.250    0.320    0.470   85.743    6.470    0.000
  382.500    0.320    0.467   78.989    6.860    0.000
  382.750    0.310    0.443   74.071    6.997    0.000
  383.000    0.301    0.432   72.221    7.280    0.000
  383.250    0.298    0.417   72.199    7.431    0.000
  383.500    0.315    0.415   72.187    7.438    0.000
  383.750    0.315    0.445   69.719    7.452    0.000
  384.000    0.293    0.452   68.477    7.324    0.000
  384.250    0.283    0.430   73.972    6.931    0.000
  384.500    0.282    0.419   77.624    6.811    0.000
  384.750    0.277    0.433   76.383    6.696    0.000
  385.000    0.278    0.441   73.306    6.709    0.000
  385.250    0.293    0.418   73.287    6.846    0.000
  385.500    0.320    0.422   73.272    7.117    0.000
  385.750    0.314    0.439   73.257    7.400    0.000
  386.000    0.304    0.465   75.689    7.842    0.000
  386.250    0.294    0.459   78.731    8.796    0.000
  386.500    0.298    0.461   79.937   10.050    0.000
  386.750    0.274    0.498   72.575   11.484    0.000
  387.000    0.096    0.404   60.316   12.167    0.000
  387.250    0.041    0.213   50.503   11.960    0.000
  387.500    0.045    0.194   58.444   10.698    0.000
  387.750    0.124    0.237   84.133    9.043    0.000
  388.000    0.207    0.357   95.137    6.962    0.000
  388.250    0.274    0.428   98.180    6.591    0.000
  388.500    0.272    0.442   96.326    6.355    0.000
  388.750    0.263    0.428   96.312    6.130    0.000
  389.000    0.256    0.425  100.572    6.025    0.000
  389.250    0.265    0.432  100.554    6.035    0.000
  389.500    0.268    0.446   99.319    6.157    0.000
  389.750    0.258    0.459   97.462    6.287    0.000
  390.000    0.263    0.460   94.995    6.417    0.000
  390.250    0.285    0.452   93.760    6.427    0.000
  390.500    0.273    0.449   93.130    6.433    0.000
  390.750    0.257    0.448   86.377    6.206    0.000
  391.000    0.260    0.453   88.192    5.876    0.000
  391.250    0.257    0.452   94.907    5.458    0.000
  391.500    0.249    0.434   98.569    5.069    0.000
  391.750    0.239    0.414   99.159    4.708    0.000
  392.000    0.240    0.415   96.695    4.293    0.000
  392.250    0.254    0.442   95.455    4.139    0.000
  392.500    0.257    0.464   97.883    4.146    0.000
  392.750    0.254    0.477  100.928    4.232    0.000
  393.000    0.239    0.489  103.361    4.485    0.000
  393.250    0.231    0.506  103.955    4.844    0.000
  393.500    0.235    0.510  102.105    5.330    0.000
  393.750    0.255    0.500   97.184    5.753    0.000
  394.000    0.256    0.510   94.718    6.331    0.000
  394.250    0.256    0.498   94.086    6.841    0.000
  394.500    0.267    0.454   92.848    6.976    0.000
  394.750    0.280    0.458   90.382    6.989    0.000
  395.000    0.281    0.465   89.140    6.614    0.000
  395.250    0.281    0.445   90.352    6.260    0.000
  395.500    0.248    0.414   98.898    5.815    0.000
  395.750    0.231    0.418  100.724    5.407    0.000
