~VERSION INFORMATION
 VERS.                 2.0:   CWLS LOG ASCII STANDARD -VERSION 2.0
 WRAP.                  NO:   ONE LINE PER DEPTH STEP
~WELL INFORMATION BLOCK
#MNEM.UNIT           DATA                    DESCRIPTION OF MNEMONIC
#---------    -------------------            -------------------------------
# Generated from Intellog Unique Number	CS_71_72/WELL/903
WELL.         BVX HOL UNIGAS NIXON           : Well_name    - WELL
LOC .         00/11-24-072-15W4/0            : Location     - LOCATION
UWI .         00/11-24-072-15W4/0            : Uwi          - UNIQUE WELL ID
ENTR.         SP                             : Entered      - ENTERED BY
SRVC.         SCHLUMBERGER                   : Scn          - SERVICE COMPANY
STRT.M        274.32                         : top_depth    - START DEPTH
STOP.M        469.82                         : bot_depth    - STOP DEPTH
STEP.M        0.25                           : increment    - STEP LENGTH
 NULL. -999.2500:NULL Value
~CURVE INFORMATION BLOCK
#MNEM UNIT       ERCB CURVE CODE    CURVE DESCRIPTION
#-----------   ------------------   ----------------------------------
DEPT.M        00 001 00 00         : DEPTH        - DEPTH
GR  .API      00 310 00 00         : GR           - GAMMA RAY
DPHI.V/V      00 890 00 00         : PHID         - DENSITY POROSITY (SANDSTONE)
NPHI.V/V      00 330 00 00         : PHIN         - NEUTRON POROSITY (SANDSTONE)
ILD .OHMM     00 120 00 00         : RESD         - DEEP RESISTIVITY (DIL)
~PARAMETER INFORMATION
#MNEM.UNIT           DATA             DESCRIPTION OF MNEMONIC
#---------         -----------     ------------------------------
GL  .M        601.98               : gl           - GROUND LEVEL ELEVATION
EREF.M        605.028              : kb           - ELEVATION OF DEPTH REFERENCE
DATM.M        601.98               : datum        - DATUM ELEVATION
TDD .M        472.745              : tdd          - TOTAL DEPTH DRILLER
RUN .         ONE                  : Run          - RUN NUMBER
ENG .         BILL                 : Engineer     - RECORDING ENGINEER
WIT .         JIM                  : Witness      - WITNESSED BY
MUD .         GEL                  : Mud_type     - MUD TYPE
MATR.         SANDSTONE            : Logunit      - NEUTRON MATRIX
TMAX.C        20.5556              : BHT          - MAXIMUM RECORDED TEMPERATURE
BHTD.M        472.745              : BHTDEP       - MAXIMUM RECORDED TEMPERATURE
MATR.         1                    : LOGUNIT      - NEUTRON MATRIX
RMT .C        25                   : MDTP         - TEMPERATURE OF MUD
NEUT.         1                    : NEUTRON      - NEUTRON TYPE
RESI.         0                    : RESIST       - RESISTIVITY TYPE
RMC .OHMM     0.25                 : RMC          - RESISTIVITY OF MUD CAKE
RMF .OHMM     0.25                 : RMF          - RESISTIVITY OF MUD FILTRATE
SUFT.C        15                   : SUFT         - SURFACE TEMPERATURE
~A  DEPTH       GR     PHID     PHIN     RESD
# ...
  404.820   87.340    0.322    0.521    4.123
  405.070   87.834    0.327    0.518    4.061
  405.320   88.498    0.329    0.521    4.063
  405.570   89.255    0.322    0.534    4.065
  405.820   89.670    0.318    0.554    4.069
  406.070   90.312    0.314    0.556    4.068
  406.320   90.942    0.306    0.523    4.164
  406.570   90.901    0.299    0.504    4.223
  406.820   90.917    0.294    0.497    4.439
  407.070   90.924    0.294    0.520    4.568
  407.320   90.524    0.300    0.538    4.722
  407.570   90.525    0.304    0.553    4.768
  407.820   90.941    0.298    0.544    4.838
  408.070   90.976    0.292    0.539    4.843
  408.320   91.165    0.287    0.533    4.847
  408.570   92.680    0.285    0.530    4.859
  408.820   93.580    0.288    0.530    4.759
  409.070   95.212    0.291    0.533    4.766
  409.320   95.112    0.282    0.534    4.616
  409.570   94.918    0.265    0.539    4.579
  409.820   93.892    0.252    0.536    4.535
  410.070   91.456    0.249    0.529    4.477
  410.320   89.375    0.282    0.520    4.468
  410.570   91.590    0.284    0.518    4.385
  410.820   94.458    0.287    0.526    4.394
  411.070   94.152    0.291    0.546    4.270
  411.320   92.248    0.299    0.560    4.090
  411.570   92.245    0.307    0.576    3.897
  411.820   92.791    0.300    0.579    3.630
  412.070   92.364    0.289    0.565    3.422
  412.320   90.430    0.275    0.549    3.242
  412.570   88.437    0.264    0.523    3.371
  412.820   81.459    0.230    0.500    3.986
  413.070   75.657    0.178    0.485    4.810
  413.320   71.321    0.131    0.366    5.970
  413.570   68.384    0.094    0.352    7.193
  413.820   70.257    0.116    0.344    8.270
  414.070   72.017    0.142    0.348    9.574
  414.320   71.746    0.162    0.325   10.942
  414.570   69.904    0.141    0.311   11.705
  414.820   71.781    0.128    0.309   12.624
  415.070   73.879    0.135    0.325   13.310
  415.320   75.163    0.172    0.357   13.723
  415.570   77.642    0.194    0.410   13.613
  415.820   80.337    0.237    0.458   11.459
  416.070   82.963    0.269    0.501    9.372
  416.320   85.374    0.301    0.521    7.200
  416.570   87.658    0.302    0.530    6.322
  416.820   88.153    0.296    0.541    5.600
  417.070   87.535    0.295    0.545    5.164
  417.320   86.626    0.296    0.533    5.109
  417.570   85.233    0.298    0.520    4.950
  417.820   84.537    0.300    0.511    4.954
  418.070   84.491    0.303    0.504    4.957
  418.320   84.056    0.293    0.498    4.952
  418.570   83.684    0.265    0.505    5.058
  418.820   84.121    0.252    0.507    5.173
  419.070   85.731    0.255    0.499    5.319
  419.320   86.810    0.270    0.499    5.563
  419.570   85.780    0.273    0.506    5.784
  419.820   84.376    0.272    0.511    5.954
  420.070   84.237    0.259    0.491    6.110
  420.320   85.234    0.241    0.462    6.233
  420.570   88.255    0.244    0.467    6.007
  420.820   91.523    0.279    0.488    5.713
  421.070   93.507    0.281    0.495    5.414
  421.320   94.770    0.277    0.503    4.997
  421.570   96.739    0.270    0.503    4.839
  421.820   97.241    0.265    0.497    4.919
  422.070   98.011    0.243    0.489    5.040
  422.320   99.782    0.224    0.481    5.147
  422.570  103.563    0.238    0.471    5.308
  422.820  104.067    0.269    0.478    5.481
  423.070  101.960    0.276    0.497    5.542
  423.320  100.888    0.282    0.499    5.558
  423.570  101.478    0.285    0.487    5.422
  423.820  101.374    0.276    0.470    5.269
  424.070  102.045    0.272    0.457    5.108
  424.320  101.989    0.261    0.459    5.069
  424.570  102.102    0.255    0.479    4.996
  424.820   99.325    0.252    0.483    5.041
  425.070   96.512    0.258    0.476    5.213
  425.320   92.463    0.207    0.471    5.281
  425.570   86.282    0.186    0.450    5.519
  425.820   89.063    0.207    0.462    5.502
  426.070   91.512    0.256    0.492    5.339
  426.320   93.909    0.272    0.496    5.168
  426.570   96.666    0.268    0.487    4.773
  426.820   98.324    0.276    0.492    4.162
  427.070   99.651    0.288    0.518    3.429
  427.320   95.487    0.295    0.553    3.158
  427.570   93.566    0.298    0.567    2.797
  427.820   98.112    0.293    0.563    2.597
  428.070  101.135    0.287    0.576    2.368
  428.320  101.869    0.283    0.595    2.242
  428.570  100.874    0.282    0.609    2.230
  428.820  100.970    0.275    0.599    2.328
  429.070  100.211    0.269    0.562    2.518
  429.320   97.296    0.259    0.522    2.897
  429.570   95.337    0.251    0.504    3.166
  429.820   94.210    0.245    0.490    3.684
  430.070   93.233    0.246    0.487    4.089
  430.320   92.665    0.248    0.484    4.474
  430.570   91.110    0.245    0.482    4.874
  430.820   86.498    0.237    0.494    5.184
  431.070   80.420    0.199    0.466    5.509
  431.320   79.208    0.152    0.390    5.986
  431.570   85.225    0.139    0.384    6.046
  431.820   88.679    0.199    0.443    6.318
  432.070   90.349    0.242    0.474    6.438
  432.320   90.347    0.245    0.468    6.818
  432.570   87.276    0.239    0.425    7.588
  432.820   84.338    0.220    0.390    7.878
  433.070   82.308    0.179    0.378    8.390
  433.320   83.908    0.158    0.408    8.702
  433.570   88.814    0.187    0.406    8.576
  433.820   92.558    0.197    0.402    6.618
  434.070   95.311    0.165    0.450    5.376
  434.320   96.204    0.230    0.473    4.711
  434.570   97.544    0.258    0.485    4.277
  434.820   98.142    0.251    0.494    3.798
  435.070   99.114    0.255    0.504    3.486
  435.320  100.219    0.258    0.522    3.283
  435.570  102.889    0.252    0.541    3.127
  435.820  103.427    0.249    0.551    3.073
  436.070  103.187    0.257    0.548    3.060
  436.320  101.080    0.235    0.535    3.082
  436.570  102.256    0.206    0.515    3.118
  436.820  105.719    0.182    0.538    3.130
  437.070  108.671    0.219    0.556    3.106
  437.320  109.993    0.245    0.573    2.915
  437.570  113.933    0.240    0.566    2.997
  437.820  121.082    0.236    0.542    3.147
  438.070  125.435    0.219    0.518    3.305
  438.320  129.179    0.178    0.499    3.550
  438.570  125.553    0.157    0.501    3.713
  438.820  113.239    0.198    0.505    3.908
  439.070  107.674    0.235    0.489    4.106
  439.320  106.189    0.232    0.490    4.149
  439.570  103.555    0.240    0.501    4.272
  439.820  101.689    0.234    0.493    4.270
  440.070  104.585    0.229    0.489    4.235
  440.320  107.505    0.233    0.500    4.098
  440.570  109.464    0.237    0.512    3.881
  440.820  109.476    0.246    0.525    3.588
  441.070  109.445    0.254    0.533    3.482
  441.320  108.606    0.257    0.540    3.343
  441.570  105.260    0.248    0.518    3.295
  441.820  100.442    0.232    0.479    3.667
  442.070   96.684    0.215    0.455    4.534
  442.320   90.875    0.195    0.440    5.969
  442.570   87.597    0.180    0.440    7.450
  442.820   78.298    0.182    0.447    8.506
  443.070   70.710    0.189    0.384   10.515
  443.320   61.730    0.147    0.368   12.402
  443.570   61.574    0.150    0.400   13.995
  443.820   65.219    0.194    0.410   16.142
  444.070   67.244    0.268    0.421   17.372
  444.320   68.433    0.278    0.430   18.458
  444.570   70.485    0.261    0.426   17.060
  444.820   76.066    0.248    0.426   14.706
  445.070   84.641    0.239    0.441   12.711
  445.320   86.964    0.233    0.454   11.749
  445.570   81.059    0.259    0.467   12.951
  445.820   77.263    0.305    0.450   16.437
  446.070   73.898    0.321    0.436   19.403
  446.320   74.836    0.332    0.440   27.678
  446.570   76.743    0.334    0.441   34.271
  446.820   80.252    0.320    0.429   39.033
  447.070   83.982    0.305    0.425   29.553
  447.320   88.574    0.280    0.422   21.043
  447.570   93.050    0.262    0.413   15.474
  447.820   96.610    0.240    0.404   12.604
  448.070   97.807    0.232    0.399   10.991
