~VERSION INFORMATION
 VERS.                 2.0:   CWLS LOG ASCII STANDARD -VERSION 2.0
 WRAP.                  NO:   ONE LINE PER DEPTH STEP
~WELL INFORMATION BLOCK
#MNEM.UNIT           DATA                    DESCRIPTION OF MNEMONIC
#---------    -------------------            -------------------------------
# Generated from Intellog Unique Number	CW_73_75/WELL/2750
WELL.         QUINTANA CEGO BLANCHE 14-15    : Well_name    - WELL
LOC .         00/14-15-073-03W5/0            : Location     - LOCATION
UWI .         00/14-15-073-03W5/0            : Uwi          - UNIQUE WELL ID
ENTR.         JAYE                           : Entered      - ENTERED BY
SRVC.         SCHLUMBERGER                   : Scn          - SERVICE COMPANY
DATE.         31 JAN 81                      : Date         - LOG DATE
STRT.M        400                            : top_depth    - START DEPTH
STOP.M        640                            : bot_depth    - STOP DEPTH
STEP.M        0.25                           : increment    - STEP LENGTH
 NULL. -999.2500:NULL Value
~CURVE INFORMATION BLOCK
#MNEM UNIT       ERCB CURVE CODE    CURVE DESCRIPTION
#-----------   ------------------   ----------------------------------
DEPT.M        00 001 00 00         : DEPTH        - DEPTH
DPHI.V/V      00 890 00 00         : PHID         - DENSITY POROSITY (SANDSTONE)
NPHI.V/V      00 330 00 00         : PHIN         - NEUTRON POROSITY (SANDSTONE)
GR  .API      00 310 00 00         : GR           - GAMMA RAY
CALI.MM       00 280 01 00         : CAL          - CALIPER
ILD .OHMM     00 120 00 00         : RESD         - DEEP RESISTIVITY (DIL)
~PARAMETER INFORMATION
#MNEM.UNIT           DATA             DESCRIPTION OF MNEMONIC
#---------         -----------     ------------------------------
GL  .M        608.48               : gl           - GROUND LEVEL ELEVATION
EREF.M        612.88               : kb           - ELEVATION OF DEPTH REFERENCE
DATM.M        608.48               : datum        - DATUM ELEVATION
TDD .M        1585                 : tdd          - TOTAL DEPTH DRILLER
RUN .         ONE                  : Run          - RUN NUMBER
ENG .         VERKAIK              : Engineer     - RECORDING ENGINEER
WIT .         WALSH                : Witness      - WITNESSED BY
BASE.         EDM                  : Branch       - HOME BASE OF LOGGING UNIT
MUD .         GEL CHEM             : Mud_type     - MUD TYPE
MATR.         SANDSTONE            : Logunit      - NEUTRON MATRIX
TMAX.C        47.8                 : BHT          - MAXIMUM RECORDED TEMPERATURE
BHTD.M        1585                 : BHTDEP       - MAXIMUM RECORDED TEMPERATURE
RMT .C        16.7                 : MDTP         - TEMPERATURE OF MUD
MUDD.KG/M     1070                 : MWT          - MUD DENSITY
NEUT.         1                    : NEUTRON      - NEUTRON TYPE
RESI.         0                    : RESIST       - RESISTIVITY TYPE
RM  .OHMM     0.52                 : RM           - RESISTIVITY OF MUD
RMC .OHMM     0                    : RMC          - RESISTIVITY OF MUD CAKE
RMF .OHMM     0.5                  : RMF          - RESISTIVITY OF MUD FILTRATE
SUFT.C        0                    : SUFT         - SURFACE TEMPERATURE
~A  DEPTH     PHID     PHIN       GR      CAL     RESD
# ...
  546.000    0.195    0.459   80.231  255.198    4.385
  546.250    0.192    0.463   81.602  255.413    4.275
  546.500    0.197    0.484   84.402  255.628    4.231
  546.750    0.198    0.490   86.146  256.156    4.212
  547.000    0.191    0.472   86.586  256.163    4.305
  547.250    0.183    0.461   86.281  257.104    4.577
  547.500    0.196    0.450   85.664  258.457    4.831
  547.750    0.206    0.428   85.048  260.432    4.994
  548.000    0.215    0.452   84.743  262.925    5.142
  548.250    0.217    0.464   84.437  264.590    5.061
  548.500    0.203    0.446   84.380  265.219    4.725
  548.750    0.190    0.413   85.689  265.435    4.361
  549.000    0.170    0.415   88.241  265.236    4.087
  549.250    0.153    0.434   90.854  265.245    3.932
  549.500    0.168    0.450   87.940  265.459    3.929
  549.750    0.193    0.464   87.945  265.260    4.046
  550.000    0.200    0.478   90.435  263.363    4.198
  550.250    0.201    0.479   89.638  261.289    5.069
  550.500    0.222    0.464   85.794  255.825    5.592
  550.750    0.239    0.439   80.414  249.335    6.370
  551.000    0.161    0.368   74.593  244.597    7.175
  551.250    0.131    0.343   64.453  242.126    7.931
  551.500    0.191    0.364   58.264  241.377    8.394
  551.750    0.248    0.393   66.427  241.062    7.934
  552.000    0.202    0.406   73.730  242.006    7.128
  552.250    0.171    0.384   82.563  244.164    6.452
  552.500    0.161    0.398   82.627  246.624    6.133
  552.750    0.204    0.357   71.181  249.405    5.786
  553.000    0.222    0.334   63.566  251.583    5.521
  553.250    0.239    0.428   58.555  252.284    5.064
  553.500    0.267    0.483   56.762  252.714    4.558
  553.750    0.257    0.452   55.833  253.106    4.212
  554.000    0.244    0.428   54.035  253.029    4.111
  554.250    0.247    0.452   52.428  253.342    4.238
  554.500    0.263    0.481   55.463  253.506    4.435
  554.750    0.280    0.486   58.427  254.222    4.444
  555.000    0.298    0.464   62.810  254.866    4.305
  555.250    0.308    0.419   62.199  255.143    4.170
  555.500    0.288    0.439   60.766  256.393    3.980
  555.750    0.280    0.461   59.292  257.837    3.826
  556.000    0.290    0.479   58.100  259.899    3.706
  556.250    0.284    0.479   59.405  261.950    3.672
  556.500    0.287    0.447   61.623  261.218    3.659
  556.750    0.290    0.418   64.784  259.882    3.674
  557.000    0.281    0.436   65.335  260.814    3.710
  557.250    0.270    0.456   60.937  262.957    3.746
  557.500    0.274    0.456   59.330  265.427    3.796
  557.750    0.287    0.475   61.613  267.585    3.869
  558.000    0.278    0.473   65.389  269.878    3.922
  558.250    0.258    0.452   63.469  271.425    3.967
  558.500    0.252    0.438   57.095  272.754    3.968
  558.750    0.264    0.432   58.328  273.877    3.969
  559.000    0.272    0.458   65.505  274.889    3.940
  559.250    0.276    0.455   66.735  276.561    3.890
  559.500    0.275    0.447   66.565  277.174    3.883
  559.750    0.265    0.443   66.855  277.355    3.877
  560.000    0.255    0.443   69.274  277.766    3.863
  560.250    0.247    0.449   72.917  278.084    3.849
  560.500    0.230    0.414   75.264  278.292    3.764
  560.750    0.214    0.456   81.699  281.787    3.571
  561.000    0.207    0.469   88.496  290.437    3.427
  561.250    0.199    0.456   86.826  293.115    3.428
  561.500    0.163    0.447   85.465  280.943    3.474
  561.750    0.131    0.452   87.013  271.147    3.548
  562.000    0.194    0.430   89.666  269.711    3.664
  562.250    0.186    0.402   90.288  271.349    3.735
  562.500    0.171    0.416   89.791  277.631    3.843
  562.750    0.190    0.433   89.165  286.185    3.932
  563.000    0.212    0.437   87.497  293.193    3.985
  563.250    0.242    0.433   82.170  284.326    4.039
  563.500    0.235    0.432   78.148  286.396    4.179
  563.750    0.200    0.425   78.825  288.340    4.341
  564.000    0.190    0.411   82.537  288.133    4.492
  564.250    0.179    0.402   85.134  286.786    4.630
  564.500    0.166    0.400   87.480  285.644    4.755
  564.750    0.149    0.416   87.603  285.658    4.930
  565.000    0.159    0.418   82.220  286.052    5.188
  565.250    0.165    0.400   76.405  287.109    5.554
  565.500    0.165    0.376   75.100  287.719    5.801
  565.750    0.164    0.365   76.036  288.775    5.857
  566.000    0.166    0.365   78.689  289.253    5.642
  566.250    0.169    0.371   81.781  289.746    5.263
  566.500    0.171    0.382   83.078  290.171    4.864
  566.750    0.169    0.402   83.937  290.362    4.632
  567.000    0.163    0.423   87.337  290.793    4.581
  567.250    0.153    0.428   83.693  291.010    4.635
  567.500    0.166    0.419   78.922  290.983    4.805
  567.750    0.176    0.414   79.107  290.668    5.000
  568.000    0.163    0.444   78.796  289.742    5.213
  568.250    0.165    0.421   77.254  288.807    5.323
  568.500    0.181    0.405   76.194  288.070    5.385
  568.750    0.181    0.386   80.027  287.868    5.326
  569.000    0.179    0.394   83.491  288.888    5.208
  569.250    0.177    0.409   85.220  294.250    5.102
  569.500    0.172    0.390   86.517  294.877    5.017
  569.750    0.167    0.398   90.166  292.902    4.944
  570.000    0.157    0.415   94.429  290.835    4.908
  570.250    0.153    0.430   93.809  290.017    4.844
  570.500    0.150    0.411   89.728  290.132    4.809
  570.750    0.147    0.396   90.219  290.129    4.792
  571.000    0.164    0.435   93.745  290.415    4.848
  571.250    0.189    0.471   94.235  290.736    4.988
  571.500    0.174    0.415   88.855  290.661    5.171
  571.750    0.157    0.384   84.462  290.633    5.422
  572.000    0.153    0.371   87.486  290.510    5.621
  572.250    0.160    0.383   89.897  290.809    5.665
  572.500    0.163    0.396   87.547  290.925    5.571
  572.750    0.161    0.402   84.263  291.008    5.437
  573.000    0.155    0.411   85.200  291.942    5.188
  573.250    0.146    0.419   88.897  295.435    4.643
  573.500    0.164    0.442   94.837  308.625    4.299
  573.750    0.177    0.437   91.928  311.926    4.236
  574.000    0.171    0.435   87.347  303.479    4.568
  574.250    0.190    0.449   88.333  305.733    4.993
  574.500    0.180    0.425   89.819  308.818    5.603
  574.750    0.169    0.377   86.167  301.298    6.111
  575.000    0.167    0.383   83.261  296.344    6.780
  575.250    0.165    0.390   80.725  295.924    7.368
  575.500    0.165    0.391   78.614  292.933    7.828
  575.750    0.168    0.400   76.385  289.009    8.270
  576.000    0.172    0.411   73.660  285.198    8.688
  576.250    0.173    0.353   68.960  281.994    8.922
  576.500    0.154    0.324   63.759  279.623    9.162
  576.750    0.130    0.286   64.010  279.306    9.165
  577.000    0.144    0.346   68.830  279.720    8.663
  577.250    0.182    0.371   71.674  281.483    8.096
  577.500    0.211    0.370   71.925  284.048    7.639
  577.750    0.197    0.355   72.105  285.286    7.456
  578.000    0.177    0.380   72.043  284.876    7.415
  578.250    0.174    0.388   72.656  283.423    7.459
  578.500    0.173    0.357   75.808  281.962    7.661
  578.750    0.168    0.333   78.408  281.054    8.002
  579.000    0.149    0.325   75.927  282.375    8.249
  579.250    0.135    0.319   76.111  286.817    8.219
  579.500    0.118    0.312   82.117  291.240    7.510
  579.750    0.117    0.316   87.741  295.039    6.571
  580.000    0.134    0.337   92.439  299.079    5.993
  580.250    0.142    0.362   97.324  301.234    5.665
  580.500    0.151    0.383  101.464  302.774    5.709
  580.750    0.166    0.408  103.873  303.394    6.430
  581.000    0.176    0.386   94.100  302.763    7.693
  581.250    0.118    0.319   84.758  298.950    8.981
  581.500    0.093    0.296   78.507  291.226    9.398
  581.750    0.069    0.274   69.844  287.300    9.243
  582.000    0.047    0.233   62.419  285.739    9.038
  582.250    0.054    0.249   67.559  286.148    8.822
