~VERSION INFORMATION
 VERS.                 2.0:   CWLS LOG ASCII STANDARD -VERSION 2.0
 WRAP.                  NO:   ONE LINE PER DEPTH STEP
~WELL INFORMATION BLOCK
#MNEM.UNIT           DATA                    DESCRIPTION OF MNEMONIC
#---------    -------------------            -------------------------------
# Generated from Intellog Unique Number	CS_73_76/WELL/3268
WELL.         HOUSTON OIL LIMITED            : Well_name    - WELL
LOC .         00/11-27-076-17W4/0            : Location     - LOCATION
UWI .         00/11-27-076-17W4/0            : Uwi          - UNIQUE WELL ID
ENTR.         SP                             : Entered      - ENTERED BY
SRVC.         SCHLUMBERGER                   : Scn          - SERVICE COMPANY
STRT.M        350.52                         : top_depth    - START DEPTH
STOP.M        571.52                         : bot_depth    - STOP DEPTH
STEP.M        0.25                           : increment    - STEP LENGTH
 NULL. -999.2500:NULL Value
~CURVE INFORMATION BLOCK
#MNEM UNIT       ERCB CURVE CODE    CURVE DESCRIPTION
#-----------   ------------------   ----------------------------------
DEPT.M        00 001 00 00         : DEPTH        - DEPTH
GR  .API      00 310 00 00         : GR           - GAMMA RAY
DPHI.V/V      00 890 00 00         : PHID         - DENSITY POROSITY (SANDSTONE)
NPHI.V/V      00 330 00 00         : PHIN         - NEUTRON POROSITY (SANDSTONE)
ILD .OHMM     00 120 00 00         : RESD         - DEEP RESISTIVITY (DIL)
~PARAMETER INFORMATION
#MNEM.UNIT           DATA             DESCRIPTION OF MNEMONIC
#---------         -----------     ------------------------------
GL  .M        714.146              : gl           - GROUND LEVEL ELEVATION
EREF.M        717.194              : kb           - ELEVATION OF DEPTH REFERENCE
DATM.M        714.146              : datum        - DATUM ELEVATION
TDD .M        572.414              : tdd          - TOTAL DEPTH DRILLER
RUN .         ONE                  : Run          - RUN NUMBER
ENG .         BILL                 : Engineer     - RECORDING ENGINEER
WIT .         JIM                  : Witness      - WITNESSED BY
MUD .         GEL                  : Mud_type     - MUD TYPE
MATR.         SANDSTONE            : Logunit      - NEUTRON MATRIX
TMAX.C        25.5556              : BHT          - MAXIMUM RECORDED TEMPERATURE
BHTD.M        572.414              : BHTDEP       - MAXIMUM RECORDED TEMPERATURE
MATR.         1                    : LOGUNIT      - NEUTRON MATRIX
RMT .C        25                   : MDTP         - TEMPERATURE OF MUD
NEUT.         1                    : NEUTRON      - NEUTRON TYPE
RESI.         0                    : RESIST       - RESISTIVITY TYPE
RMC .OHMM     0.25                 : RMC          - RESISTIVITY OF MUD CAKE
RMF .OHMM     0.25                 : RMF          - RESISTIVITY OF MUD FILTRATE
SUFT.C        15                   : SUFT         - SURFACE TEMPERATURE
~A  DEPTH       GR     PHID     PHIN     RESD
# ...
  437.520   59.929    0.324    0.471   10.286
  437.770   59.923    0.325    0.474   10.284
  438.020   60.628    0.324    0.476   10.282
  438.270   61.082    0.321    0.476   10.281
  438.520   61.202    0.315    0.463   10.279
  438.770   61.227    0.316    0.454   10.278
  439.020   61.848    0.319    0.465   10.270
  439.270   61.814    0.319    0.481   10.214
  439.520   61.804    0.319    0.491   10.085
  439.770   61.590    0.309    0.498    9.785
  440.020   64.766    0.297    0.472    9.518
  440.270   68.041    0.291    0.474    8.746
  440.520   73.330    0.295    0.468    8.423
  440.770   78.029    0.293    0.474    7.585
  441.020   81.288    0.286    0.485    7.170
  441.270   84.695    0.278    0.496    6.527
  441.520   87.250    0.270    0.492    6.085
  441.770   88.611    0.267    0.486    5.884
  442.020   84.486    0.284    0.494    6.004
  442.270   81.667    0.289    0.482    6.340
  442.520   81.322    0.299    0.484    7.155
  442.770   80.084    0.309    0.496    7.613
  443.020   79.802    0.327    0.507    8.048
  443.270   80.505    0.306    0.501    8.215
  443.520   85.237    0.278    0.494    8.188
  443.770   88.564    0.259    0.488    7.799
  444.020   89.873    0.236    0.496    7.261
  444.270   89.524    0.237    0.492    6.916
  444.520   89.428    0.257    0.487    6.499
  444.770   89.904    0.253    0.458    6.177
  445.020   89.471    0.238    0.431    6.466
  445.270   92.077    0.211    0.402    7.166
  445.520   95.121    0.173    0.411    7.320
  445.770   99.713    0.204    0.445    7.608
  446.020  100.643    0.226    0.481    7.216
  446.270  102.499    0.235    0.490    6.715
  446.520  103.914    0.235    0.487    6.221
  446.770  103.307    0.233    0.492    5.849
  447.020  101.913    0.230    0.498    5.647
  447.270   98.821    0.235    0.485    5.642
  447.520   97.184    0.242    0.482    5.766
  447.770   97.971    0.242    0.491    5.754
  448.020   97.436    0.242    0.484    5.750
  448.270   97.134    0.253    0.479    5.720
  448.520   96.734    0.246    0.491    5.539
  448.770   97.381    0.258    0.506    5.367
  449.020   97.501    0.264    0.508    5.157
  449.270   97.917    0.271    0.503    4.871
  449.520   98.949    0.274    0.501    4.680
  449.770   99.147    0.268    0.504    4.580
  450.020   98.581    0.257    0.516    4.439
  450.270   98.345    0.256    0.520    4.429
  450.520   97.498    0.263    0.511    4.533
  450.770   99.151    0.271    0.510    4.563
  451.020   96.414    0.295    0.508    5.121
  451.270   86.847    0.320    0.497    5.355
  451.520   85.559    0.332    0.485    5.884
  451.770   87.380    0.333    0.483    6.559
  452.020   87.095    0.334    0.489    7.031
  452.270   87.569    0.325    0.484    6.812
  452.520   92.029    0.302    0.512    5.987
  452.770   96.546    0.282    0.545    4.905
  453.020   98.484    0.259    0.577    4.020
  453.270  101.122    0.253    0.591    3.621
  453.520  102.409    0.248    0.576    3.146
  453.770  105.891    0.259    0.601    2.765
  454.020  107.059    0.272    0.637    2.428
  454.270  108.685    0.279    0.647    2.194
  454.520  108.763    0.265    0.647    1.918
  454.770  108.108    0.258    0.612    1.815
  455.020  105.060    0.254    0.593    1.798
  455.270  102.961    0.256    0.545    1.972
  455.520  100.972    0.261    0.534    2.300
  455.770   98.768    0.262    0.543    2.671
  456.020   95.177    0.257    0.528    3.182
  456.270   94.929    0.252    0.517    3.633
  456.520   96.074    0.261    0.518    4.042
  456.770   97.867    0.268    0.526    4.183
  457.020   95.953    0.264    0.537    4.053
  457.270   92.315    0.243    0.520    3.945
  457.520   92.541    0.231    0.516    3.949
  457.770   90.877    0.248    0.518    4.127
  458.020   85.660    0.269    0.504    4.404
  458.270   82.237    0.283    0.481    4.836
  458.520   82.375    0.289    0.479    5.166
  458.770   82.642    0.290    0.492    5.586
  459.020   82.253    0.283    0.498    5.921
  459.270   81.574    0.295    0.489    6.162
  459.520   81.632    0.302    0.494    6.380
  459.770   81.603    0.299    0.494    6.479
  460.020   82.733    0.311    0.484    6.433
  460.270   85.494    0.316    0.480    6.367
  460.520   87.617    0.309    0.490    6.249
  460.770   87.884    0.297    0.495    6.212
  461.020   88.259    0.289    0.488    6.142
  461.270   87.392    0.282    0.499    6.148
  461.520   87.041    0.279    0.505    5.983
  461.770   87.634    0.284    0.498    5.914
  462.020   87.409    0.285    0.484    5.843
  462.270   85.896    0.269    0.474    5.785
  462.520   85.920    0.273    0.461    5.694
  462.770   84.129    0.275    0.477    5.694
  463.020   80.097    0.277    0.487    5.691
  463.270   77.116    0.291    0.480    5.785
  463.520   73.250    0.294    0.466    5.836
  463.770   63.821    0.276    0.459    6.025
  464.020   59.294    0.253    0.447    6.285
  464.270   52.702    0.170    0.403    6.912
  464.520   52.724    0.093    0.360    7.655
  464.770   58.384    0.101    0.240    8.636
  465.020   64.078    0.156    0.285    9.673
  465.270   67.571    0.216    0.357   10.438
  465.520   69.624    0.265    0.454   11.001
  465.770   70.715    0.320    0.489   10.995
  466.020   69.645    0.340    0.500    9.703
  466.270   68.569    0.329    0.501    8.278
  466.520   69.054    0.328    0.499    7.418
  466.770   70.073    0.337    0.500    6.770
  467.020   70.196    0.344    0.496    6.229
  467.270   69.531    0.349    0.482    5.998
  467.520   70.468    0.341    0.483    5.807
  467.770   70.994    0.339    0.483    5.777
  468.020   70.195    0.342    0.478    5.889
  468.270   69.274    0.339    0.485    5.951
  468.520   67.530    0.325    0.483    6.166
  468.770   66.649    0.301    0.467    6.442
  469.020   65.073    0.292    0.435    6.781
  469.270   62.644    0.222    0.382    6.981
  469.520   64.144    0.137    0.320    7.074
  469.770   71.780    0.099    0.287    7.231
  470.020   78.234    0.166    0.337    7.224
  470.270   81.021    0.219    0.383    7.260
  470.520   80.186    0.276    0.472    7.038
  470.770   79.198    0.287    0.492    6.688
  471.020   83.217    0.291    0.498    6.281
  471.270   84.106    0.284    0.500    6.034
  471.520   84.605    0.285    0.491    5.874
  471.770   85.656    0.289    0.486    5.874
  472.020   85.988    0.280    0.495    5.874
  472.270   88.014    0.278    0.499    5.874
  472.520   90.413    0.274    0.496    5.880
  472.770   92.095    0.256    0.499    5.744
  473.020   94.138    0.244    0.502    5.661
  473.270   94.698    0.259    0.491    5.508
  473.520   93.602    0.266    0.474    5.346
  473.770   93.026    0.271    0.474    5.360
  474.020   93.282    0.263    0.482    5.240
  474.270   96.030    0.253    0.489    5.249
  474.520   98.178    0.245    0.497    5.248
  474.770   99.803    0.236    0.502    5.247
  475.020  100.256    0.232    0.504    5.246
  475.270   99.413    0.222    0.497    5.245
  475.520   97.259    0.225    0.492    5.244
  475.770   98.389    0.223    0.485    5.244
  476.020   98.230    0.227    0.477    5.252
  476.270   97.237    0.230    0.477    5.140
  476.520   96.769    0.230    0.482    5.146
  476.770   96.446    0.231    0.484    5.143
  477.020   96.047    0.231    0.486    5.143
  477.270   95.602    0.241    0.479    5.211
  477.520   95.285    0.246    0.472    5.255
  477.770   94.832    0.238    0.473    5.432
  478.020   95.143    0.228    0.476    5.493
  478.270   96.180    0.233    0.474    5.531
  478.520   97.123    0.238    0.473    5.534
  478.770   98.804    0.239    0.487    5.542
  479.020   99.703    0.235    0.502    5.421
  479.270   99.189    0.230    0.511    5.439
  479.520   98.187    0.227    0.502    5.317
  479.770   97.195    0.233    0.485    5.326
  480.020   96.209    0.235    0.494    5.403
  480.270   95.226    0.238    0.490    5.455
  480.520   94.227    0.240    0.493    5.526
  480.770   94.304    0.241    0.499    5.525
