~VERSION INFORMATION
 VERS.                 2.0:   CWLS LOG ASCII STANDARD -VERSION 2.0
 WRAP.                  NO:   ONE LINE PER DEPTH STEP
~WELL INFORMATION BLOCK
#MNEM.UNIT           DATA                    DESCRIPTION OF MNEMONIC
#---------    -------------------            -------------------------------
# Generated from Intellog Unique Number	CW_73_75/WELL/2745
WELL.         SEA-JOR ET AL BLANCHE 11-14    : Well_name    - WELL
LOC .         00/11-14-073-02W5/0            : Location     - LOCATION
UWI .         00/11-14-073-02W5/0            : Uwi          - UNIQUE WELL ID
ENTR.         JAYE                           : Entered      - ENTERED BY
SRVC.         SCHLUMBERGER                   : Scn          - SERVICE COMPANY
DATE.         2 FEB 80                       : Date         - LOG DATE
STRT.M        385                            : top_depth    - START DEPTH
STOP.M        625                            : bot_depth    - STOP DEPTH
STEP.M        0.25                           : increment    - STEP LENGTH
 NULL. -999.2500:NULL Value
~CURVE INFORMATION BLOCK
#MNEM UNIT       ERCB CURVE CODE    CURVE DESCRIPTION
#-----------   ------------------   ----------------------------------
DEPT.M        00 001 00 00         : DEPTH        - DEPTH
DPHI.V/V      00 890 00 00         : PHID         - DENSITY POROSITY (SANDSTONE)
NPHI.V/V      00 330 00 00         : PHIN         - NEUTRON POROSITY (SANDSTONE)
GR  .API      00 310 00 00         : GR           - GAMMA RAY
CALI.MM       00 280 01 00         : CAL          - CALIPER
ILD .OHMM     00 120 00 00         : RESD         - DEEP RESISTIVITY (DIL)
~PARAMETER INFORMATION
#MNEM.UNIT           DATA             DESCRIPTION OF MNEMONIC
#---------         -----------     ------------------------------
GL  .M        602                  : gl           - GROUND LEVEL ELEVATION
EREF.M        605.2                : kb           - ELEVATION OF DEPTH REFERENCE
DATM.M        602                  : datum        - DATUM ELEVATION
TDD .M        629                  : tdd          - TOTAL DEPTH DRILLER
RUN .         ONE                  : Run          - RUN NUMBER
BASE.         EDM                  : Branch       - HOME BASE OF LOGGING UNIT
MUD .         GEL                  : Mud_type     - MUD TYPE
MATR.         SANDSTONE            : Logunit      - NEUTRON MATRIX
TMAX.C        25                   : BHT          - MAXIMUM RECORDED TEMPERATURE
BHTD.M        630                  : BHTDEP       - MAXIMUM RECORDED TEMPERATURE
RMT .C        13.3                 : MDTP         - TEMPERATURE OF MUD
MUDD.KG/M     1170                 : MWT          - MUD DENSITY
NEUT.         1                    : NEUTRON      - NEUTRON TYPE
RESI.         0                    : RESIST       - RESISTIVITY TYPE
RM  .OHMM     4.9                  : RM           - RESISTIVITY OF MUD
RMC .OHMM     0                    : RMC          - RESISTIVITY OF MUD CAKE
RMF .OHMM     5.12                 : RMF          - RESISTIVITY OF MUD FILTRATE
SUFT.C        0                    : SUFT         - SURFACE TEMPERATURE
~A  DEPTH     PHID     PHIN       GR      CAL     RESD
# ...
  458.000    0.158    0.398   86.408  164.340    5.007
  458.250    0.179    0.393   80.050  163.967    4.980
  458.500    0.197    0.388   77.472  163.280    4.953
  458.750    0.193    0.388   78.607  161.762    4.963
  459.000    0.175    0.390   82.407  160.773    4.974
  459.250    0.176    0.383   83.419  160.807    5.062
  459.500    0.167    0.374   82.203  161.353    5.171
  459.750    0.145    0.376   80.616  162.732    5.302
  460.000    0.138    0.384   78.593  164.323    5.468
  460.250    0.131    0.373   76.074  164.249    5.607
  460.500    0.128    0.356   73.803  162.014    5.524
  460.750    0.130    0.334   72.338  161.021    5.257
  461.000    0.113    0.328   77.253  161.575    4.974
  461.250    0.132    0.354   88.548  162.433    4.733
  461.500    0.149    0.412   90.490  163.087    4.583
  461.750    0.167    0.416   86.177  163.125    4.497
  462.000    0.178    0.406   80.499  162.241    4.464
  462.250    0.183    0.406   74.512  161.647    4.439
  462.500    0.195    0.421   70.138  160.758    4.440
  462.750    0.237    0.412   66.566  159.452    4.493
  463.000    0.261    0.385   62.935  157.943    4.589
  463.250    0.254    0.382   60.603  157.252    4.688
  463.500    0.250    0.389   58.826  156.669    4.698
  463.750    0.253    0.384   55.998  156.393    4.654
  464.000    0.254    0.375   54.349  156.335    4.611
  464.250    0.253    0.389   52.202  156.159    4.551
  464.500    0.239    0.379   52.533  156.089    4.474
  464.750    0.255    0.378   54.042  156.338    4.399
  465.000    0.252    0.391   55.367  156.480    4.358
  465.250    0.234    0.404   55.509  156.409    4.317
  465.500    0.237    0.420   53.983  156.138    4.269
  465.750    0.275    0.409   52.331  156.065    4.221
  466.000    0.279    0.404   51.424  155.897    4.158
  466.250    0.265    0.405   49.960  155.936    4.223
  466.500    0.256    0.404   48.185  156.171    4.509
  466.750    0.252    0.403   46.473  156.315    4.731
  467.000    0.246    0.394   48.663  156.349    4.993
  467.250    0.235    0.382   50.728  156.385    5.189
  467.500    0.230    0.382   52.112  156.318    5.210
  467.750    0.238    0.388   53.497  156.156    5.054
  468.000    0.262    0.396   54.201  156.189    4.874
  468.250    0.262    0.408   54.901  156.219    4.621
  468.500    0.259    0.412   56.349  156.462    4.398
  468.750    0.275    0.424   56.060  156.606    4.217
  469.000    0.286    0.410   58.190  156.638    4.067
  469.250    0.281    0.403   60.131  156.671    4.006
  469.500    0.274    0.408   60.275  156.411    3.977
  469.750    0.272    0.429   57.572  156.445    3.940
  470.000    0.265    0.419   58.089  156.477    3.844
  470.250    0.256    0.406   58.295  156.507    3.715
  470.500    0.259    0.417   57.699  156.541    3.590
  470.750    0.276    0.428   56.110  156.371    3.509
  471.000    0.275    0.414   55.202  156.202    3.443
  471.250    0.275    0.401   55.966  155.930    3.418
  471.500    0.270    0.393   57.661  155.967    3.425
  471.750    0.257    0.389   59.356  156.010    3.452
  472.000    0.272    0.388   60.617  155.835    3.520
  472.250    0.254    0.398   62.559  155.870    3.609
  472.500    0.246    0.406   65.427  155.901    3.730
  472.750    0.253    0.415   70.218  156.146    3.752
  473.000    0.245    0.438   71.975  156.799    3.640
  473.250    0.261    0.434   70.448  157.251    3.537
  473.500    0.266    0.426   69.416  157.289    3.432
  473.750    0.264    0.434   68.138  157.217    3.348
  474.000    0.269    0.443   68.408  156.844    3.298
  474.250    0.261    0.436   70.040  156.678    3.273
  474.500    0.244    0.429   71.051  156.092    3.243
  474.750    0.252    0.447   70.393  155.504    3.275
  475.000    0.277    0.441   68.989  155.336    3.345
  475.250    0.284    0.404   69.197  155.892    3.417
  475.500    0.284    0.416   68.910  156.443    3.511
  475.750    0.268    0.429   68.248  156.991    3.635
  476.000    0.256    0.422   63.625  157.543    3.778
  476.250    0.268    0.410   61.418  158.410    3.889
  476.500    0.264    0.413   61.935  159.273    3.935
  476.750    0.270    0.420   61.029  160.133    3.966
  477.000    0.257    0.425   59.687  160.791    3.937
  477.250    0.269    0.411   58.221  161.235    3.812
  477.500    0.294    0.392   54.527  161.586    3.620
  477.750    0.299    0.380   53.063  161.820    3.419
  478.000    0.287    0.390   52.589  161.659    3.229
  478.250    0.287    0.398   52.860  161.383    3.242
  478.500    0.294    0.388   54.056  161.419    3.363
  478.750    0.272    0.366   56.740  161.453    3.674
  479.000    0.211    0.342   59.858  161.592    4.210
  479.250    0.143    0.292   62.978  161.940    4.927
  479.500    0.093    0.249   64.424  161.972    6.593
  479.750    0.057    0.226   63.950  162.322   10.362
  480.000    0.050    0.217   62.237  162.357   11.276
  480.250    0.046    0.223   63.560  162.495    9.137
  480.500    0.116    0.279   65.441  162.326    7.290
  480.750    0.174    0.349   68.496  161.738    5.513
  481.000    0.221    0.374   70.995  161.463    4.695
  481.250    0.242    0.423   73.185  160.681    4.598
  481.500    0.236    0.426   73.330  159.370    4.724
  481.750    0.220    0.401   72.546  157.752    4.798
  482.000    0.200    0.379   73.686  157.794    4.745
  482.250    0.168    0.371   75.688  158.341    4.701
  482.500    0.178    0.386   78.001  158.792    4.684
  482.750    0.194    0.407   80.376  159.453    4.667
  483.000    0.177    0.418   83.309  159.791    4.650
  483.250    0.175    0.416   82.531  160.036    4.589
  483.500    0.172    0.399   81.866  160.589    4.503
  483.750    0.167    0.402   82.134  160.828    4.462
  484.000    0.184    0.412   83.581  161.181    4.386
  484.250    0.171    0.417   83.355  161.215    4.346
  484.500    0.163    0.421   83.192  161.459    4.363
  484.750    0.180    0.433   84.636  161.488    4.390
  485.000    0.193    0.427   86.578  162.046    4.433
  485.250    0.203    0.418   87.529  162.393    4.434
  485.500    0.201    0.412   88.789  162.424    4.409
  485.750    0.180    0.412   88.748  161.633    4.402
  486.000    0.197    0.430   85.984  160.223    4.395
  486.250    0.210    0.424   84.642  158.919    4.345
  486.500    0.232    0.413   82.003  158.231    4.240
  486.750    0.233    0.410   78.183  157.754    4.144
  487.000    0.230    0.420   74.302  157.271    4.043
  487.250    0.243    0.420   70.485  157.101    3.907
  487.500    0.260    0.411   67.966  156.828    3.783
  487.750    0.272    0.405   68.172  156.461    3.649
  488.000    0.293    0.397   68.009  156.495    3.519
  488.250    0.287    0.394   67.289  156.427    3.368
  488.500    0.270    0.392   68.795  156.149    3.261
  488.750    0.284    0.395   71.790  155.873    3.231
  489.000    0.296    0.405   70.326  155.806    3.313
  489.250    0.311    0.420   68.738  155.946    3.404
  489.500    0.302    0.418   67.768  155.986    3.551
  489.750    0.297    0.420   67.047  155.913    3.733
  490.000    0.291    0.412   66.386  156.159    3.895
  490.250    0.284    0.401   65.478  156.091    4.126
  490.500    0.276    0.400   64.447  156.333    4.363
  490.750    0.269    0.408   64.407  156.271    4.465
  491.000    0.261    0.417   62.508  156.406    4.579
  491.250    0.270    0.417   62.284  156.335    4.598
  491.500    0.276    0.396   62.924  155.855    4.625
  491.750    0.260    0.392   62.760  154.756    4.807
  492.000    0.244    0.386   63.092  154.486    5.132
  492.250    0.207    0.363   64.165  155.552    5.447
  492.500    0.176    0.322   57.250  157.137    6.123
  492.750    0.118    0.268   55.662  159.139    6.651
  493.000    0.124    0.259   57.542  160.721    7.168
  493.250    0.181    0.283   60.350  161.269    7.115
  493.500    0.221    0.350   62.479  160.997    6.567
  493.750    0.254    0.381   64.048  159.177    5.582
  494.000    0.259    0.392   64.812  158.283    5.015
  494.250    0.263    0.401   65.267  157.904    4.755
