~VERSION INFORMATION
 VERS.                 2.0:   CWLS LOG ASCII STANDARD -VERSION 2.0
 WRAP.                  NO:   ONE LINE PER DEPTH STEP
~WELL INFORMATION BLOCK
#MNEM.UNIT           DATA                    DESCRIPTION OF MNEMONIC
#---------    -------------------            -------------------------------
# Generated from Intellog Unique Number	CS_73_76/WELL/3231
WELL.         10-08-076-05W4                 : Well_name    - WELL
LOC .         00/10-08-076-05W4/0            : Location     - LOCATION
UWI .         00/10-08-076-05W4/0            : Uwi          - UNIQUE WELL ID
ENTR.         SP                             : Entered      - ENTERED BY
SRVC.         SCHLUMBERGER                   : Scn          - SERVICE COMPANY
STRT.M        175                            : top_depth    - START DEPTH
STOP.M        420                            : bot_depth    - STOP DEPTH
STEP.M        0.25                           : increment    - STEP LENGTH
 NULL. -999.2500:NULL Value
~CURVE INFORMATION BLOCK
#MNEM UNIT       ERCB CURVE CODE    CURVE DESCRIPTION
#-----------   ------------------   ----------------------------------
DEPT.M        00 001 00 00         : DEPTH        - DEPTH
GR  .API      00 310 00 00         : GR           - GAMMA RAY
DPHI.V/V      00 890 00 00         : PHID         - DENSITY POROSITY (LIMESTONE)
NPHI.V/V      00 330 00 00         : PHIN         - NEUTRON POROSITY (LIMESTONE)
ILD .OHMM     00 120 00 00         : RESD         - DEEP RESISTIVITY (DIL)
~PARAMETER INFORMATION
#MNEM.UNIT           DATA             DESCRIPTION OF MNEMONIC
#---------         -----------     ------------------------------
GL  .M        578.86               : gl           - GROUND LEVEL ELEVATION
EREF.M        582.66               : kb           - ELEVATION OF DEPTH REFERENCE
DATM.M        578.86               : datum        - DATUM ELEVATION
TDD .M        429                  : tdd          - TOTAL DEPTH DRILLER
RUN .         ONE                  : Run          - RUN NUMBER
ENG .         BILL                 : Engineer     - RECORDING ENGINEER
WIT .         JIM                  : Witness      - WITNESSED BY
MUD .         GEL                  : Mud_type     - MUD TYPE
MATR.         LIMESTONE            : Logunit      - NEUTRON MATRIX
TMAX.C        21                   : BHT          - MAXIMUM RECORDED TEMPERATURE
BHTD.M        429                  : BHTDEP       - MAXIMUM RECORDED TEMPERATURE
MATR.         1                    : LOGUNIT      - NEUTRON MATRIX
RMT .C        25                   : MDTP         - TEMPERATURE OF MUD
NEUT.         1                    : NEUTRON      - NEUTRON TYPE
RESI.         0                    : RESIST       - RESISTIVITY TYPE
RMC .OHMM     0.25                 : RMC          - RESISTIVITY OF MUD CAKE
RMF .OHMM     0.25                 : RMF          - RESISTIVITY OF MUD FILTRATE
SUFT.C        15                   : SUFT         - SURFACE TEMPERATURE
~A  DEPTH       GR     PHID     PHIN     RESD
  175.000   88.664    0.310    0.546    2.748
  175.250   87.452    0.325    0.552    2.907
  175.500   89.277    0.326    0.561    2.963
  175.750   88.672    0.331    0.582    2.964
  176.000   86.853    0.341    0.585    3.077
  176.250   85.641    0.338    0.587    3.021
  176.500   86.251    0.327    0.574    2.911
  176.750   85.039    0.307    0.514    2.911
  177.000   84.434    0.297    0.502    2.967
  177.250   86.866    0.292    0.505    2.968
  177.500   88.690    0.297    0.512    2.968
  177.750   90.515    0.292    0.519    3.025
  178.000   88.696    0.276    0.530    2.969
  178.250   86.269    0.293    0.540    2.970
  178.500   87.487    0.302    0.547    2.971
  178.750   86.274    0.301    0.519    3.028
  179.000   83.848    0.303    0.511    2.972
  179.250   82.636    0.312    0.518    2.973
  179.500   87.497    0.302    0.525    3.029
  179.750   89.321    0.293    0.525    3.087
  180.000   84.466    0.279    0.536    3.146
  180.250   82.039    0.250    0.538    3.267
  180.500   80.827    0.227    0.527    3.330
  180.750   88.725    0.275    0.512    3.393
  181.000   90.549    0.271    0.509    3.458
  181.250   92.981    0.261    0.513    3.459
  181.500   95.412    0.255    0.520    3.459
  181.750   92.986    0.261    0.533    3.396
  182.000   87.522    0.264    0.508    3.397
  182.250   90.562    0.264    0.508    3.527
  182.500   91.779    0.270    0.536    3.663
  182.750   92.996    0.269    0.528    3.733
  183.000   91.177    0.255    0.522    3.733
  183.250   89.965    0.253    0.507    3.805
  183.500   89.360    0.265    0.502    4.025
  183.750   89.363    0.258    0.495    4.102
  184.000   86.936    0.254    0.479    4.181
  184.250   86.332    0.250    0.468    4.341
  184.500   86.941    0.242    0.458    4.679
  184.750   82.693    0.230    0.475    5.237
  185.000   59.011    0.216    0.448    5.752
  185.250   36.544    0.161    0.283    6.683
  185.500   29.866    0.135    0.286    9.189
  185.750   31.084    0.242    0.398   12.170
  186.000   37.766    0.282    0.409   39.589
  186.250   45.057    0.278    0.408   42.678
  186.500   54.169    0.302    0.415   35.398
  186.750   65.709    0.319    0.432   13.376
  187.000   88.789    0.299    0.451    7.774
  187.250   94.257    0.282    0.504    5.656
  187.500   93.045    0.262    0.509    4.780
  187.750   92.441    0.261    0.502    4.273
  188.000   90.014    0.273    0.517    3.892
  188.250   86.981    0.270    0.529    4.042
  188.500   87.590    0.254    0.515    4.439
  188.750   85.771    0.253    0.508    4.786
  189.000   80.308    0.271    0.496    5.159
  189.250   80.918    0.250    0.441    5.561
  189.500   79.098    0.232    0.434    6.707
  189.750   59.060    0.215    0.474    8.090
  190.000   50.561    0.243    0.460   10.129
  190.250   49.956    0.306    0.449   12.448
  190.500   51.174    0.310    0.447   17.769
  190.750   55.428    0.316    0.442   19.885
  191.000   63.325    0.292    0.433   21.841
  191.250   71.829    0.261    0.422   21.441
  191.500   78.512    0.238    0.407   21.048
  191.750   82.158    0.245    0.388   20.278
  192.000   80.339    0.266    0.388   20.283
  192.250   76.698    0.283    0.393   21.061
  192.500   76.701    0.276    0.387   21.065
  192.750   79.740    0.262    0.393   21.469
  193.000   84.601    0.273    0.389   21.075
  193.250   88.247    0.268    0.383   19.928
  193.500   89.464    0.245    0.388   19.201
  193.750   93.111    0.229    0.410   18.500
  194.000   94.935    0.232    0.433   18.159
  194.250   89.472    0.242    0.407   17.495
  194.500   81.580    0.255    0.418   17.499
  194.750   77.331    0.271    0.410   19.221
  195.000   71.261    0.265    0.393   20.720
  195.250   65.191    0.264    0.372   22.758
  195.500   59.120    0.275    0.376   24.078
  195.750   54.265    0.310    0.391   24.537
  196.000   53.053    0.315    0.404   24.542
  196.250   66.416    0.304    0.405   24.092
  196.500   71.277    0.287    0.398   23.213
  196.750   69.457    0.283    0.403   22.786
  197.000   63.995    0.271    0.410   23.222
  197.250   59.139    0.309    0.398   25.033
  197.500   57.319    0.331    0.398   30.194
  197.750   58.536    0.337    0.414   36.418
  198.000   70.078    0.344    0.424   39.256
  198.250   79.797    0.348    0.427   40.764
  198.500   73.119    0.347    0.428   40.773
  198.750   63.405    0.332    0.405   40.779
  199.000   56.120    0.318    0.382   36.456
  199.250   60.374    0.317    0.371   28.056
  199.500   69.486    0.309    0.365   18.589
  199.750   77.990    0.277    0.375   14.041
  200.000   87.710    0.241    0.405   11.218
  200.250   93.178    0.233    0.417    9.306
  200.500   92.573    0.241    0.427    8.636
  200.750   85.896    0.248    0.443    8.166
  201.000   85.898    0.244    0.449    8.479
  201.250   84.686    0.235    0.449    9.668
  201.500   68.900    0.252    0.438   11.882
  201.750   57.363    0.285    0.426   16.338
  202.000   52.508    0.334    0.399   19.705
  202.250   50.082    0.335    0.349   26.592
  202.500   48.262    0.324    0.332   34.567
  202.750   48.265    0.316    0.340   40.160
  203.000   50.696    0.324    0.362   35.902
  203.250   56.772    0.321    0.384   29.227
  203.500   73.171    0.309    0.387   24.700
  203.750   79.246    0.294    0.394   20.875
  204.000   84.107    0.293    0.397   18.662
  204.250   85.932    0.296    0.421   17.646
  204.500   93.222    0.302    0.436   16.377
  204.750   97.475    0.304    0.448   15.486
  205.000   95.049    0.315    0.454   15.201
  205.250   72.582    0.304    0.438   14.922
  205.500   65.905    0.267    0.400   15.207
  205.750   62.263    0.219    0.383   16.393
  206.000   61.660    0.230    0.377   16.093
  206.250   62.876    0.245    0.371   13.348
  206.500   68.344    0.202    0.378   10.467
  206.750   79.885    0.172    0.394    9.013
  207.000   91.426    0.179    0.426    7.476
  207.250   99.323    0.203    0.443    6.938
  207.500  101.148    0.173    0.465    6.561
  207.750  101.150    0.173    0.478    6.089
  208.000  103.583    0.205    0.476    5.757
  208.250  105.407    0.222    0.477    5.444
  208.500  106.624    0.224    0.495    5.148
  208.750  107.841    0.219    0.503    4.868
  209.000  109.666    0.224    0.515    4.690
  209.250  106.024    0.227    0.502    4.519
  209.500  106.634    0.223    0.491    4.436
  209.750  110.888    0.201    0.502    4.437
  210.000  110.283    0.217    0.513    4.438
  210.250  106.035    0.234    0.527    4.439
  210.500  104.216    0.238    0.503    4.524
  210.750  103.004    0.253    0.482    4.697
  211.000  102.399    0.277    0.503    5.257
  211.250   88.434    0.288    0.493    5.883
  211.500   79.935    0.295    0.484    6.583
  211.750   73.257    0.300    0.484    7.231
  212.000   69.009    0.300    0.483    7.650
  212.250   70.226    0.279    0.475    7.944
  212.500   72.657    0.264    0.457    7.798
  212.750   75.696    0.269    0.455    7.374
  213.000   78.735    0.280    0.472    7.104
  213.250   79.953    0.292    0.572    6.845
  213.500   79.956    0.291    0.571    6.594
  213.750   79.958    0.290    0.527    6.474
  214.000   79.960    0.295    0.523    6.475
  214.250   80.570    0.300    0.515    6.476
  214.500   77.537    0.308    0.492    6.852
  214.750   78.754    0.308    0.482    7.386
  215.000   76.934    0.305    0.472    7.962
  215.250   73.900    0.301    0.466    8.583
  215.500   70.867    0.306    0.448    9.427
  215.750   72.084    0.307    0.435   10.550
  216.000   72.694    0.303    0.444   10.752
  216.250   69.660    0.299    0.463   10.754
  216.500   67.234    0.292    0.460   10.756
  216.750   66.629    0.289    0.434   10.759
  217.000   66.024    0.288    0.417   11.172
  217.250   64.205    0.297    0.452   11.385
  217.500   61.171    0.309    0.499   11.603
  217.750   58.744    0.320    0.504   11.825
  218.000   53.888    0.319    0.481   12.051
  218.250   50.855    0.317    0.443   12.281
