~VERSION INFORMATION
 VERS.                 2.0:   CWLS LOG ASCII STANDARD -VERSION 2.0
 WRAP.                  NO:   ONE LINE PER DEPTH STEP
~WELL INFORMATION BLOCK
#MNEM.UNIT           DATA                    DESCRIPTION OF MNEMONIC
#---------    -------------------            -------------------------------
# Generated from Intellog Unique Number	CS_77_79/WELL/1009
WELL.         MESA PORTAGE                   : Well_name    - WELL
LOC .         00/11-34-079-18W4/0            : Location     - LOCATION
UWI .         00/11-34-079-18W4/0            : Uwi          - UNIQUE WELL ID
ENTR.         JHS                            : Entered      - ENTERED BY
SRVC.         SCHLUMBERGER                   : Scn          - SERVICE COMPANY
STRT.M        152.4                          : top_depth    - START DEPTH
STOP.M        374.65                         : bot_depth    - STOP DEPTH
STEP.M        0.25                           : increment    - STEP LENGTH
 NULL. -999.2500:NULL Value
~CURVE INFORMATION BLOCK
#MNEM UNIT       ERCB CURVE CODE    CURVE DESCRIPTION
#-----------   ------------------   ----------------------------------
DEPT.M        00 001 00 00         : DEPTH        - DEPTH
RHOB.KG/M3    00 350 00 00         : DENS         - BULK DENSITY
GR  .API      00 310 00 00         : GR           - GAMMA RAY
DPHI.V/V      00 890 00 00         : PHID         - DENSITY POROSITY (SANDSTONE)
NPHI.V/V      00 330 00 00         : PHIN         - NEUTRON POROSITY (SANDSTONE)
ILD .OHMM     00 120 00 00         : RESD         - DEEP RESISTIVITY (DIL)
~PARAMETER INFORMATION
#MNEM.UNIT           DATA             DESCRIPTION OF MNEMONIC
#---------         -----------     ------------------------------
GL  .M        554.462              : gl           - GROUND LEVEL ELEVATION
EREF.M        557.814              : kb           - ELEVATION OF DEPTH REFERENCE
DATM.M        557.814              : datum        - DATUM ELEVATION
TDD .M        374.904              : tdd          - TOTAL DEPTH DRILLER
RUN .         ONE                  : Run          - RUN NUMBER
ENG .         BILL                 : Engineer     - RECORDING ENGINEER
WIT .         JIM                  : Witness      - WITNESSED BY
MUD .         GEL                  : Mud_type     - MUD TYPE
MATR.         SANDSTONE            : Logunit      - NEUTRON MATRIX
TMAX.C        60                   : BHT          - MAXIMUM RECORDED TEMPERATURE
BHTD.M        374.904              : BHTDEP       - MAXIMUM RECORDED TEMPERATURE
MATR.         1                    : LOGUNIT      - NEUTRON MATRIX
RMT .C        25                   : MDTP         - TEMPERATURE OF MUD
NEUT.         1                    : NEUTRON      - NEUTRON TYPE
RESI.         0                    : RESIST       - RESISTIVITY TYPE
RMC .OHMM     0.25                 : RMC          - RESISTIVITY OF MUD CAKE
RMF .OHMM     0.25                 : RMF          - RESISTIVITY OF MUD FILTRATE
SUFT.C        15                   : SUFT         - SURFACE TEMPERATURE
~A  DEPTH     DENS       GR     PHID     PHIN     RESD
# ...
  225.400    0.000   30.937    0.339    0.419   17.784
  225.650    0.000   31.633    0.329    0.426   17.950
  225.900    0.000   31.695    0.341    0.441   17.851
  226.150    0.000   32.815    0.336    0.444   17.521
  226.400    0.000   31.703    0.347    0.427   17.349
  226.650    0.000   33.041    0.342    0.431   17.206
  226.900    0.000   34.063    0.336    0.444   17.509
  227.150    0.000   33.170    0.333    0.456   17.566
  227.400    0.000   32.167    0.349    0.458   17.586
  227.650    0.000   30.965    0.330    0.454   17.637
  227.900    0.000   31.724    0.341    0.445   17.255
  228.150    0.000   32.355    0.343    0.442   17.304
  228.400    0.000   32.349    0.330    0.442   17.019
  228.650    0.000   32.417    0.323    0.442   16.670
  228.900    0.000   31.802    0.324    0.441   16.731
  229.150    0.000   32.132    0.330    0.446   16.395
  229.400    0.000   33.204    0.346    0.460   16.379
  229.650    0.000   33.676    0.342    0.459   16.149
  229.900    0.000   33.748    0.336    0.467   16.177
  230.150    0.000   33.050    0.351    0.479   16.222
  230.400    0.000   32.662    0.347    0.468   16.516
  230.650    0.000   32.109    0.347    0.458   16.400
  230.900    0.000   32.526    0.345    0.462   16.240
  231.150    0.000   31.732    0.343    0.476   16.011
  231.400    0.000   29.847    0.349    0.486   15.871
  231.650    0.000   28.892    0.349    0.481   15.677
  231.900    0.000   29.227    0.338    0.445   15.887
  232.150    0.000   31.148    0.326    0.437   16.000
  232.400    0.000   32.544    0.350    0.448   16.022
  232.650    0.000   34.256    0.354    0.480   16.035
  232.900    0.000   35.210    0.347    0.480   16.052
  233.150    0.000   36.295    0.352    0.465   16.063
  233.400    0.000   35.186    0.342    0.457   16.081
  233.650    0.000   32.355    0.320    0.458   16.101
  233.900    0.000   31.019    0.319    0.463   16.114
  234.150    0.000   32.994    0.303    0.470   16.129
  234.400    0.000   33.977    0.314    0.464   16.142
  234.650    0.000   33.892    0.338    0.458   16.161
  234.900    0.000   35.922    0.347    0.455   16.173
  235.150    0.000   40.595    0.334    0.446   16.191
  235.400    0.000   55.682    0.334    0.440   16.234
  235.650    0.000   59.062    0.344    0.442   15.892
  235.900    0.000   35.390    0.352    0.456   15.935
  236.150    0.000   28.976    0.353    0.458   15.947
  236.400   -0.000   30.207    0.342    0.456   15.966
  236.650    0.000   33.272    0.325    0.467   15.978
  236.900   -0.000   34.819    0.309    0.479   16.000
  237.150   -0.000   34.695    0.306    0.504   16.011
  237.400    0.000   32.593    0.313    0.502   16.023
  237.650    0.000   31.609    0.328    0.470   16.014
  237.900    0.000   32.975    0.330    0.456   16.362
  238.150   -0.000   34.640    0.340    0.454   16.332
  238.400   -0.000   35.687    0.332    0.433   16.732
  238.650    0.000   35.498    0.332    0.427   16.715
  238.900    0.000   35.487    0.326    0.424   16.719
  239.150    0.000   35.468    0.318    0.426   16.683
  239.400   -0.000   36.004    0.318    0.436   16.490
  239.650   -0.000   36.983    0.317    0.441   15.880
  239.900   -0.000   38.751    0.309    0.444   14.936
  240.150    0.000   41.303    0.298    0.445   14.325
  240.400    0.000   43.868    0.276    0.449   13.839
  240.650    0.000   46.647    0.281    0.467   13.708
  240.900   -0.000   46.645    0.276    0.477   13.695
  241.150   -0.000   42.103    0.305    0.482   14.064
  241.400    0.000   38.123    0.322    0.468   14.803
  241.650    0.000   37.091    0.309    0.450   15.630
  241.900    0.000   36.899    0.301    0.467   16.814
  242.150   -0.000   36.905    0.275    0.471   18.477
  242.400   -0.000   36.978    0.265    0.470   20.853
  242.650   -0.000   36.279    0.243    0.452   24.156
  242.900    0.000   36.346    0.152    0.355   28.214
  243.150    0.000   36.369    0.057    0.295   31.545
  243.400    0.000   36.402    0.046    0.239   33.463
  243.650   -0.000   37.393    0.061    0.250   31.795
  243.900   -0.000   39.150    0.104    0.284   26.441
  244.150   -0.000   40.098    0.166    0.332   21.326
  244.400    0.000   41.159    0.197    0.409   18.675
  244.650    0.000   41.207    0.309    0.467   16.555
  244.900   -0.000   40.157    0.294    0.465   16.202
  245.150   -0.000   40.216    0.286    0.450   15.815
  245.400   -0.000   39.395    0.280    0.457   16.598
  245.650    0.000   38.903    0.291    0.471   17.422
  245.900    0.000   39.675    0.282    0.487   17.480
  246.150    0.000   38.816    0.278    0.486   17.495
  246.400   -0.000   37.803    0.297    0.447   16.921
  246.650   -0.000   37.373    0.283    0.434   16.660
  246.900   -0.000   37.823    0.288    0.456   16.302
  247.150    0.000   38.954    0.291    0.445   15.587
  247.400    0.000   39.251    0.272    0.461   15.041
  247.650   -0.000   39.698    0.278    0.476   14.892
  247.900   -0.000   39.700    0.295    0.468   14.303
  248.150   -0.000   39.594    0.281    0.452   14.302
  248.400    0.000   39.122    0.278    0.447   14.115
  248.650    0.000   39.167    0.276    0.457   14.277
  248.900    0.000   39.282    0.294    0.462   14.414
  249.150   -0.000   41.980    0.293    0.453   14.189
  249.400   -0.000   42.935    0.277    0.447   14.053
  249.650   -0.000   42.196    0.284    0.446   13.912
  249.900    0.000   41.592    0.284    0.451   13.259
  250.150    0.000   42.306    0.284    0.452   13.044
  250.400    0.000   42.935    0.276    0.452   12.228
  250.650   -0.000   42.115    0.296    0.457   11.294
  250.900   -0.000   44.712    0.313    0.459   10.305
  251.150    0.000   48.953    0.269    0.468    9.478
  251.400    0.000   51.356    0.242    0.493    8.402
  251.650    0.000   52.250    0.245    0.503    7.820
  251.900   -0.000   51.770    0.229    0.505    7.732
  252.150   -0.000   49.399    0.219    0.520    7.725
  252.400   -0.000   47.759    0.244    0.506    7.728
  252.650    0.000   46.153    0.276    0.489    7.737
  252.900    0.000   46.925    0.279    0.488    7.754
  253.150    0.000   49.279    0.259    0.501    7.599
  253.400   -0.000   47.690    0.253    0.496    7.707
  253.650   -0.000   46.401    0.239    0.487    7.916
  253.900    0.000   45.002    0.244    0.487    8.063
  254.150    0.000   43.417    0.274    0.480    8.583
  254.400    0.000   41.787    0.268    0.484    9.114
  254.650   -0.000   40.181    0.272    0.490    9.217
  254.900   -0.000   40.571    0.282    0.472    9.443
  255.150   -0.000   44.305    0.282    0.472    9.235
  255.400    0.000   44.701    0.287    0.472    9.098
  255.650    0.000   42.188    0.294    0.469    9.009
  255.900    0.000   42.036    0.276    0.485    8.917
  256.150   -0.000   42.985    0.286    0.475    8.646
  256.400   -0.000   44.138    0.293    0.454    8.439
  256.650   -0.000   45.178    0.279    0.458    8.458
  256.900    0.000   44.763    0.275    0.455    8.302
  257.150    0.000   43.435    0.258    0.452    8.314
  257.400   -0.000   41.554    0.291    0.467    8.477
  257.650   -0.000   42.018    0.290    0.479    9.035
  257.900   -0.000   41.608    0.267    0.477    9.374
  258.150    0.000   39.859    0.257    0.459    9.685
  258.400    0.000   41.452    0.274    0.460    9.548
  258.650    0.000   46.313    0.276    0.487    8.951
  258.900   -0.000   47.184    0.263    0.475    8.158
  259.150   -0.000   47.594    0.268    0.461    7.431
  259.400   -0.000   49.712    0.257    0.490    7.088
  259.650    0.000   49.743    0.274    0.482    7.205
  259.900    0.000   50.176    0.274    0.470    7.305
  260.150    0.000   52.734    0.242    0.483    7.810
  260.400   -0.000   51.589    0.228    0.488    8.363
  260.650   -0.000   49.400    0.208    0.477    9.085
  260.900    0.000   50.250    0.224    0.466   10.125
  261.150    0.000   49.834    0.172    0.468   11.261
  261.400    0.000   46.252    0.122    0.407   11.648
  261.650   -0.000   43.730    0.061    0.292   11.301
