~VERSION INFORMATION
 VERS.                 2.0:   CWLS LOG ASCII STANDARD -VERSION 2.0
 WRAP.                  NO:   ONE LINE PER DEPTH STEP
~WELL INFORMATION BLOCK
#MNEM.UNIT           DATA                    DESCRIPTION OF MNEMONIC
#---------    -------------------            -------------------------------
# Generated from Intellog Unique Number	CS_67_68/WELL/819
WELL.         GULF OIL CANADA LTD            : Well_name    - WELL
LOC .         00/11-07-068-17W4/0            : Location     - LOCATION
UWI .         00/11-07-068-17W4/0            : Uwi          - UNIQUE WELL ID
ENTR.         SP                             : Entered      - ENTERED BY
SRVC.         SCHLUMBERGER                   : Scn          - SERVICE COMPANY
STRT.M        298.704                        : top_depth    - START DEPTH
STOP.M        545.454                        : bot_depth    - STOP DEPTH
STEP.M        0.25                           : increment    - STEP LENGTH
 NULL. -999.2500:NULL Value
~CURVE INFORMATION BLOCK
#MNEM UNIT       ERCB CURVE CODE    CURVE DESCRIPTION
#-----------   ------------------   ----------------------------------
DEPT.M        00 001 00 00         : DEPTH        - DEPTH
GR  .API      00 310 00 00         : GR           - GAMMA RAY
DPHI.V/V      00 890 00 00         : PHID         - DENSITY POROSITY (SANDSTONE)
NPHI.V/V      00 330 00 00         : PHIN         - NEUTRON POROSITY (SANDSTONE)
ILD .OHMM     00 120 00 00         : RESD         - DEEP RESISTIVITY (DIL)
~PARAMETER INFORMATION
#MNEM.UNIT           DATA             DESCRIPTION OF MNEMONIC
#---------         -----------     ------------------------------
GL  .M        176.376              : gl           - GROUND LEVEL ELEVATION
EREF.M        177.595              : kb           - ELEVATION OF DEPTH REFERENCE
DATM.M        176.376              : datum        - DATUM ELEVATION
TDD .M        169.362              : tdd          - TOTAL DEPTH DRILLER
RUN .         ONE                  : Run          - RUN NUMBER
ENG .         BILL                 : Engineer     - RECORDING ENGINEER
WIT .         JIM                  : Witness      - WITNESSED BY
MUD .         GEL                  : Mud_type     - MUD TYPE
MATR.         SANDSTONE            : Logunit      - NEUTRON MATRIX
TMAX.C        20                   : BHT          - MAXIMUM RECORDED TEMPERATURE
BHTD.M        169.362              : BHTDEP       - MAXIMUM RECORDED TEMPERATURE
MATR.         1                    : LOGUNIT      - NEUTRON MATRIX
RMT .C        25                   : MDTP         - TEMPERATURE OF MUD
NEUT.         1                    : NEUTRON      - NEUTRON TYPE
RESI.         0                    : RESIST       - RESISTIVITY TYPE
RMC .OHMM     0.25                 : RMC          - RESISTIVITY OF MUD CAKE
RMF .OHMM     0.25                 : RMF          - RESISTIVITY OF MUD FILTRATE
SUFT.C        15                   : SUFT         - SURFACE TEMPERATURE
~A  DEPTH       GR     PHID     PHIN     RESD
# ...
  472.704   74.534    0.072    0.217   11.015
  472.954   77.540    0.094    0.241   10.188
  473.204   80.036    0.121    0.262    8.818
  473.454   82.499    0.148    0.286    7.328
  473.704   84.647    0.173    0.310    6.312
  473.954   86.628    0.192    0.339    5.148
  474.204   88.479    0.192    0.357    4.742
  474.454   90.302    0.185    0.335    4.458
  474.704   92.939    0.192    0.349    4.261
  474.954   95.789    0.207    0.374    4.173
  475.204   97.635    0.216    0.400    4.148
  475.454   97.800    0.213    0.402    4.169
  475.704   98.148    0.204    0.399    4.166
  475.954   99.437    0.193    0.400    4.146
  476.204  100.722    0.185    0.390    4.146
  476.454  101.790    0.201    0.380    4.146
  476.704  102.453    0.208    0.376    4.123
  476.954  103.110    0.208    0.379    4.093
  477.204  103.256    0.206    0.381    4.060
  477.454  103.055    0.204    0.376    4.037
  477.704  102.583    0.201    0.382    4.015
  477.954  100.981    0.201    0.391    4.012
  478.204   98.903    0.199    0.397    4.031
  478.454   97.721    0.195    0.408    4.042
  478.704   96.937    0.192    0.418    4.071
  478.954   96.550    0.197    0.411    4.114
  479.204   96.271    0.188    0.405    4.152
  479.454   96.180    0.180    0.397    4.190
  479.704   96.176    0.173    0.390    4.196
  479.954   98.185    0.187    0.395    4.216
  480.204  100.871    0.208    0.399    4.226
  480.454  102.212    0.219    0.392    4.251
  480.704  102.814    0.213    0.397    4.275
  480.954  104.246    0.206    0.404    4.294
  481.204  105.320    0.198    0.408    4.320
  481.454  104.107    0.198    0.409    4.335
  481.704  100.784    0.199    0.406    4.312
  481.954   97.259    0.188    0.404    4.204
  482.204   94.642    0.178    0.402    3.935
  482.454   92.186    0.172    0.400    3.603
  482.704   95.277    0.190    0.400    3.239
  482.954   98.270    0.215    0.407    2.722
  483.204  101.630    0.233    0.426    2.461
  483.454  105.136    0.235    0.450    2.262
  483.704  105.989    0.234    0.466    2.119
  483.954  104.175    0.232    0.488    2.101
  484.204  103.044    0.241    0.494    2.142
  484.454  101.677    0.233    0.492    2.293
  484.704   98.813    0.225    0.484    2.543
  484.954   94.605    0.212    0.472    2.807
  485.204   92.036    0.195    0.451    3.241
  485.454   91.517    0.190    0.436    3.688
  485.704   93.036    0.192    0.426    4.140
  485.954   94.561    0.187    0.411    4.553
  486.204   95.956    0.193    0.396    4.576
  486.454   96.454    0.200    0.383    4.577
  486.704   96.368    0.193    0.384    4.598
  486.954   94.375    0.180    0.384    4.653
  487.204   91.923    0.166    0.366    4.739
  487.454   92.560    0.148    0.354    4.821
  487.704   99.779    0.127    0.360    4.845
  487.954  104.530    0.164    0.377    4.708
  488.204  102.670    0.180    0.390    4.557
  488.454   99.993    0.175    0.402    4.393
  488.704   96.640    0.164    0.404    4.267
  488.954   91.708    0.147    0.403    4.218
  489.204   87.961    0.118    0.373    4.195
  489.454   86.441    0.098    0.363    4.119
  489.704   91.340    0.115    0.380    3.948
  489.954   95.587    0.157    0.395    3.714
  490.204  100.351    0.190    0.413    3.429
  490.454  104.000    0.209    0.428    3.179
  490.704  105.612    0.204    0.438    3.061
  490.954  106.117    0.218    0.435    2.981
  491.204  106.973    0.230    0.432    2.946
  491.454  106.726    0.250    0.438    2.908
  491.704  106.108    0.257    0.449    2.882
  491.954  105.564    0.249    0.444    2.850
  492.204  105.487    0.237    0.435    2.841
  492.454  105.033    0.218    0.429    2.832
  492.704  104.553    0.229    0.444    2.822
  492.954  104.111    0.261    0.460    2.829
  493.204  103.831    0.269    0.473    2.853
  493.454  103.581    0.256    0.465    2.935
  493.704  103.917    0.245    0.462    3.023
  493.954  105.058    0.239    0.450    3.112
  494.204  105.493    0.232    0.448    3.213
  494.454  104.017    0.232    0.452    3.303
  494.704  102.583    0.236    0.448    3.383
  494.954  101.270    0.236    0.440    3.383
  495.204   99.410    0.232    0.429    3.298
  495.454   98.469    0.225    0.419    3.112
  495.704   98.688    0.224    0.409    2.904
  495.954  101.993    0.226    0.427    2.731
  496.204  104.696    0.230    0.451    2.920
  496.454  109.211    0.254    0.522    3.521
  496.704  107.794    0.272    0.481    3.930
  496.954  100.750    0.259    0.450    4.505
  497.204   94.891    0.247    0.392    5.279
  497.454   89.581    0.228    0.381    6.193
  497.704   84.432    0.200    0.376    6.938
  497.954   81.527    0.202    0.371    7.262
  498.204   81.222    0.204    0.367    7.000
  498.454   81.946    0.215    0.364    6.615
  498.704   83.069    0.226    0.361    6.342
  498.954   84.629    0.220    0.357    6.189
  499.204   87.419    0.215    0.353    6.578
  499.454   91.279    0.210    0.348    7.426
  499.704   94.495    0.220    0.345    8.342
  499.954   93.407    0.220    0.343    9.421
  500.204   94.044    0.217    0.350   10.340
  500.454   93.808    0.230    0.354   11.404
  500.704   87.053    0.242    0.355   12.368
  500.954   72.061    0.250    0.353   13.427
  501.204   68.731    0.246    0.352   13.992
  501.454   69.584    0.229    0.352   13.839
  501.704   72.340    0.217    0.356   11.768
  501.954   75.337    0.219    0.361   11.295
  502.204   76.777    0.230    0.356   10.711
  502.454   78.282    0.235    0.353   10.102
  502.704   80.139    0.237    0.354    9.661
  502.954   84.107    0.236    0.364    9.600
  503.204   86.283    0.232    0.358   10.158
  503.454   87.053    0.226    0.354   10.652
  503.704   85.850    0.217    0.356   10.748
  503.954   84.924    0.213    0.361   10.435
  504.204   84.882    0.214    0.352   10.030
  504.454   85.781    0.212    0.344    9.704
  504.704   88.161    0.198    0.338    9.124
  504.954   93.795    0.185    0.332    7.943
  505.204  102.002    0.175    0.351    7.045
  505.454  107.294    0.179    0.376    6.495
  505.704  109.819    0.188    0.388    5.966
  505.954  109.086    0.155    0.385    5.813
  506.204  106.946    0.107    0.382    6.111
  506.454  104.151    0.081    0.393    6.442
  506.704  101.947    0.086    0.396    6.706
  506.954  101.123    0.106    0.395    6.771
  507.204  100.088    0.112    0.405    6.677
  507.454   99.886    0.091    0.401    6.421
  507.704  102.057    0.112    0.389    5.951
  507.954  113.897    0.169    0.374    5.662
  508.204  120.452    0.211    0.366    5.390
  508.454  123.228    0.210    0.363    5.140
  508.704  121.480    0.207    0.361    4.945
  508.954  118.260    0.206    0.357    4.933
  509.204  114.852    0.210    0.352    4.989
  509.454  112.188    0.212    0.349    5.019
  509.704  109.309    0.216    0.345    5.045
  509.954  107.321    0.213    0.342    5.047
  510.204  105.012    0.201    0.338    5.063
  510.454  102.490    0.190    0.338    5.063
  510.704  102.260    0.183    0.339    5.073
  510.954  107.465    0.175    0.347    5.086
  511.204  109.583    0.170    0.354    5.129
  511.454  108.117    0.173    0.357    5.154
  511.704  106.214    0.177    0.330    5.196
  511.954  105.227    0.168    0.316    5.207
  512.204  104.784    0.162    0.307    5.228
  512.454  105.617    0.160    0.298    5.270
  512.704  108.412    0.164    0.321    5.286
  512.954  114.466    0.167    0.366    5.269
  513.204  116.720    0.173    0.380    5.241
  513.454  115.052    0.180    0.385    5.237
  513.704  111.160    0.186    0.376    5.325
  513.954  108.274    0.181    0.366    5.626
  514.204  103.758    0.166    0.353    5.948
  514.454   99.318    0.155    0.347    6.243
  514.704   94.391    0.149    0.301    6.577
  514.954   88.166    0.147    0.278    6.863
  515.204   84.823    0.146    0.268    7.065
  515.454   78.742    0.150    0.266    7.165
  515.704   81.541    0.182    0.276    7.173
  515.954   84.891    0.172    0.286    7.120
