~VERSION INFORMATION
 VERS.                 2.0:   CWLS LOG ASCII STANDARD -VERSION 2.0
 WRAP.                  NO:   ONE LINE PER DEPTH STEP
~WELL INFORMATION BLOCK
#MNEM.UNIT           DATA                    DESCRIPTION OF MNEMONIC
#---------    -------------------            -------------------------------
# Generated from Intellog Unique Number	CC_80_83/WELL/2397
NULL.         -999.25                        : NULL_VALUE
WELL.         PCI PCEJ HANGINGSTONE          : Well_name    - WELL
LOC .         11-11-083-08W4                 : Location     - LOCATION          
UWI .         00/11-11-083-08W4/0            : Uwi          - UNIQUE WELL ID    
ENTR.         DW                             : Entered      - ENTERED BY        
SRVC.         SCHLUMBERGER                   : Scn          - SERVICE COMPANY   
DATE.         17 FEB 86                      : Date         - LOG DATE
STRT.M        260                            : top_depth    - START DEPTH       
STOP.M        514.99                         : bot_depth    - STOP DEPTH        
STEP.M        0.3                            : increment    - STEP LENGTH       
~CURVE INFORMATION BLOCK
#MNEM UNIT       ERCB CURVE CODE    CURVE DESCRIPTION
#-----------   ------------------   ----------------------------------
DEPT.M        00 001 00 00         : DEPTH        - DEPTH                       
ILD .OHMM     00 120 00 00         : RESD         - DEEP RESISTIVITY (DIL)      
GR  .API      00 310 00 00         : GR           - GAMMA RAY                   
NPHI.V/V      00 330 00 00         : PHIN         - NEUTRON POROSITY (LIMESTONE)
DPHI.V/V      00 890 00 00         : PHID         - DENSITY POROSITY (LIMESTONE)
~PARAMETER INFORMATION       
#MNEM.UNIT           DATA             DESCRIPTION OF MNEMONIC
#---------         -----------     ------------------------------
GL  .M        731.6                : gl           - GROUND LEVEL ELEVATION      
EREF.M        734.7                : kb           - ELEVATION OF DEPTH REFERENCE
DATM.M        734.7                : datum        - DATUM ELEVATION             
TDD .M        516                  : tdd          - TOTAL DEPTH DRILLER         
RUN .         ONE                  : Run          - RUN NUMBER                  
ENG .         BILL                 : Engineer     - RECORDING ENGINEER          
WIT .         JIM                  : Witness      - WITNESSED BY                
MUD .         GEL                  : Mud_type     - MUD TYPE                    
MATR.         LIMESTONE            : Logunit      - NEUTRON MATRIX              
TMAX.C        18                   : BHT          - MAXIMUM RECORDED TEMPERATURE
BHTD.M        516                  : BHTDEP       - MAXIMUM RECORDED TEMPERATURE
MATR.         1                    : LOGUNIT      - NEUTRON MATRIX              
RMT .C        25                   : MDTP         - TEMPERATURE OF MUD          
NEUT.         1                    : NEUTRON      - NEUTRON TYPE                
RESI.         0                    : RESIST       - RESISTIVITY TYPE            
RMC .OHMM     0.25                 : RMC          - RESISTIVITY OF MUD CAKE     
RMF .OHMM     0.25                 : RMF          - RESISTIVITY OF MUD FILTRATE 
SUFT.C        15                   : SUFT         - SURFACE TEMPERATURE         
~A  DEPTH     RESD       GR     PHIN     PHID
# ...
  468.792    9.184  119.997    0.407    0.248
  469.091    9.013  123.694    0.402    0.255
  469.391    8.682  124.921    0.417    0.248
  469.691    8.521  123.683    0.428    0.232
  469.991    8.688  119.975    0.398    0.234
  470.291    9.199  113.797    0.377    0.219
  470.591   10.115  110.089    0.365    0.203
  470.891   10.914  111.317    0.339    0.214
  471.191   11.778  116.866    0.360    0.241
  471.491   12.469  118.712    0.422    0.260
  471.791   13.974  105.747    0.420    0.292
  472.091   14.794   79.821    0.414    0.288
  472.391   15.665   85.369    0.359    0.263
  472.691   16.902   92.152    0.341    0.262
  472.991   18.942   89.679    0.338    0.275
  473.291   19.678   76.096    0.359    0.286
  473.591   17.909   81.028    0.399    0.292
  473.891   15.991   89.045    0.381    0.297
  474.191   12.508  103.234    0.372    0.223
  474.491   11.169  109.400    0.420    0.246
  474.791   11.172  108.161    0.428    0.299
  475.091   14.567   79.149    0.381    0.328
  475.391   19.727   76.058    0.371    0.334
  475.691   17.616   82.841    0.352    0.297
  475.991   15.145  116.778    0.329    0.235
  476.291   13.271  121.093    0.429    0.241
  476.591   16.661  101.339    0.472    0.328
  476.891   20.139   95.778    0.423    0.328
  477.191   23.002  103.796    0.374    0.308
  477.491   24.350  108.728    0.358    0.291
  477.791   25.298  101.317    0.385    0.323
  478.091   22.168   77.860    0.409    0.349
  478.391   18.702   76.620    0.424    0.328
  478.691   13.820   86.488    0.384    0.264
  478.991   10.213  107.466    0.366    0.197
  479.291    9.837  113.632    0.374    0.255
  479.591   10.220  102.517    0.364    0.260
  479.891   11.238   98.809    0.359    0.232
  480.191   12.836   97.568    0.358    0.224
  480.491   13.848   98.798    0.355    0.239
  480.791   15.521   98.793    0.356    0.254
  481.091   16.123   95.083    0.375    0.261
  481.391   16.439   95.079    0.385    0.229
  481.691   15.833  102.479    0.379    0.234
  481.991   14.409  105.559    0.384    0.271
  482.291   12.155  109.874    0.392    0.251
  482.591   10.064  117.274    0.354    0.186
  482.891    9.692  120.972    0.344    0.182
  483.191    9.695  109.240    0.389    0.217
  483.491   10.663   90.103    0.359    0.270
  483.791   11.077   95.033    0.354    0.279
  484.091   11.727   99.966    0.357    0.265
  484.391   13.650   98.727    0.361    0.256
  484.691   15.589   76.504    0.365    0.268
  484.991   18.143   72.795    0.366    0.312
  485.291   23.217   72.790    0.392    0.316
  485.591   24.579   91.916    0.383    0.301
  485.891   27.547   92.528    0.389    0.303
  486.191   28.615   80.796    0.409    0.337
  486.491   31.466   83.876    0.409    0.352
  486.791   33.317   85.721    0.407    0.360
  487.091   31.492   78.311    0.397    0.332
  487.391   30.329   72.135    0.373    0.303
  487.691   32.115   68.425    0.389    0.325
  487.991   34.655   75.826    0.399    0.326
  488.291   35.999   83.844    0.402    0.317
  488.591   36.702   87.541    0.405    0.315
  488.891   33.398   73.340    0.393    0.325
  489.191   26.122   70.867    0.389    0.326
  489.491   22.888   80.118    0.438    0.318
  489.791   18.948   91.222    0.451    0.307
  490.091   16.291   99.856    0.416    0.286
  490.391   13.745  101.084    0.385    0.270
  490.691   12.044  106.016    0.410    0.254
  490.991   11.382  110.948    0.422    0.239
  491.291   10.758  114.028    0.398    0.257
  491.591   10.968  112.171    0.386    0.284
  491.891   11.180   94.886    0.388    0.296
  492.191   11.837   90.559    0.416    0.314
  492.491   13.266   94.258    0.426    0.326
  492.791   14.045  102.276    0.403    0.293
  493.091   14.593  107.824    0.375    0.267
  493.391   14.323   90.538    0.395    0.284
  493.690   14.601   95.470    0.390    0.252
  493.990   15.757  100.402    0.387    0.242
  494.290   16.369   98.545    0.392    0.275
  494.590   16.067   84.962    0.405    0.309
  494.890   14.622   79.402    0.415    0.304
  495.190   11.222   84.950    0.388    0.256
  495.490    7.835   95.436    0.368    0.220
  495.790    6.245  104.688    0.352    0.175
  496.090    5.903  112.089    0.380    0.181
  496.390    5.794  121.958    0.389    0.185
  496.690    5.688  126.890    0.403    0.184
  496.990    5.478  134.907    0.413    0.179
  497.290    5.277  136.753    0.408    0.177
  497.590    5.179  130.576    0.408    0.170
  497.890    5.381  123.163    0.403    0.149
  498.190    6.030  118.222    0.416    0.111
  498.490    7.018  110.193    0.387    0.128
  498.790    7.431  109.571    0.352    0.193
  499.090    7.575  115.736    0.403    0.184
  499.390    7.436  118.817    0.390    0.164
  499.690    7.299  123.132    0.382    0.157
  499.990    6.898  129.914    0.390    0.166
  500.290    6.398  121.887    0.404    0.184
  500.590    6.162  126.818    0.404    0.194
  500.890    6.049  130.515    0.389    0.198
  501.190    6.166  121.253    0.371    0.190
  501.490    6.287  114.459    0.367    0.184
  501.790    6.408  113.836    0.367    0.180
  502.090    6.534  115.063    0.358    0.171
  502.390    6.660  119.996    0.356    0.158
  502.690    6.663  123.075    0.356    0.167
  502.990    6.665  123.070    0.386    0.176
  503.290    6.795  124.300    0.372    0.182
  503.590    6.928  123.060    0.372    0.182
  503.890    6.929  126.756    0.382    0.183
  504.190    7.064  127.986    0.368    0.180
  504.490    7.067  127.363    0.359    0.177
  504.790    7.069  125.506    0.357    0.167
  505.090    7.073  119.330    0.365    0.157
  505.390    7.074  111.300    0.344    0.184
  505.690    7.212  118.084    0.336    0.255
  505.990    7.352  134.125    0.478    0.325
  506.290    7.495  142.759    0.538    0.299
  506.590    7.640  151.394    0.498    0.169
  506.890    8.244  155.092    0.277    0.127
  507.190    9.779  152.616    0.302    0.069
  507.490   11.599  143.972    0.364    0.000
  507.790   14.839  141.497    0.354    0.000
  508.090   24.282  153.218    0.172    0.000
  508.390   35.468  155.063    0.160    0.000
  508.690   40.506  150.120    0.168    0.006
  508.990   39.760  144.561    0.193    0.020
  509.290   37.578  144.555    0.219    0.021
  509.590   32.928  146.400    0.235    0.019
  509.890   30.537  146.396    0.235    0.025
  510.190   29.413  145.773    0.235    0.029
  510.490   28.873  144.531    0.233    0.024
  510.790   28.342  144.528    0.233    0.021
  511.090   28.890  144.522    0.236    0.024
  511.390   28.901  145.134    0.239    0.025
  511.690   28.912  145.744    0.236    0.031
  511.990   28.383  146.355    0.234    0.036
  512.290   28.931  146.352    0.233    0.035
  512.590   28.941  146.345    0.231    0.029
  512.890   27.878  145.721    0.231    0.025
  513.190   27.362  145.716    0.230    0.032
  513.490   26.355  145.710    0.230    0.036
  513.790   25.869  145.707    0.230    0.029
  514.090   25.395  145.699    0.230    0.025
  514.390   24.925  145.695    0.230    0.034
  514.690   24.473  145.688    0.230    0.042
  514.990   24.020  145.683    0.230    0.046
