~VERSION INFORMATION
 VERS.                 2.0:   CWLS LOG ASCII STANDARD -VERSION 2.0
 WRAP.                  NO:   ONE LINE PER DEPTH STEP
~WELL INFORMATION BLOCK
#MNEM.UNIT           DATA                    DESCRIPTION OF MNEMONIC
#---------    -------------------            -------------------------------
# Generated from Intellog Unique Number	CW_82_90/WELL/2591
WELL.         AMOCO D-1 WABASCA 10-03        : Well_name    - WELL
LOC .         00/10-03-084-22W4/0            : Location     - LOCATION
UWI .         00/10-03-084-22W4/0            : Uwi          - UNIQUE WELL ID
ENTR.         JJ                             : Entered      - ENTERED BY
SRVC.         SCHLUMBERGER                   : Scn          - SERVICE COMPANY
DATE.         8 MAR 72                       : Date         - LOG DATE
STRT.M        272.491                        : top_depth    - START DEPTH
STOP.M        400.491                        : bot_depth    - STOP DEPTH
STEP.M        0.25                           : increment    - STEP LENGTH
 NULL. -999.2500:NULL Value
~CURVE INFORMATION BLOCK
#MNEM UNIT       ERCB CURVE CODE    CURVE DESCRIPTION
#-----------   ------------------   ----------------------------------
DEPT.M        00 001 00 00         : DEPTH        - DEPTH
ILD .OHMM     00 120 00 00         : RESD         - DEEP RESISTIVITY (DIL)
CALI.MM       00 280 01 00         : CAL          - CALIPER
GR  .API      00 310 00 00         : GR           - GAMMA RAY
NPHI.V/V      00 330 00 00         : PHIN         - NEUTRON POROSITY (SANDSTONE)
DPHI.V/V      00 890 00 00         : PHID         - DENSITY POROSITY (SANDSTONE)
~PARAMETER INFORMATION
#MNEM.UNIT           DATA             DESCRIPTION OF MNEMONIC
#---------         -----------     ------------------------------
GL  .M        605.333              : gl           - GROUND LEVEL ELEVATION
EREF.M        607.771              : kb           - ELEVATION OF DEPTH REFERENCE
DATM.M        607.771              : datum        - DATUM ELEVATION
TDD .M        399.288              : tdd          - TOTAL DEPTH DRILLER
RUN .         ONE                  : Run          - RUN NUMBER
ENG .         WORONUK              : Engineer     - RECORDING ENGINEER
WIT .         HUCULAK              : Witness      - WITNESSED BY
BASE.         EDM                  : Branch       - HOME BASE OF LOGGING UNIT
MUD .         GEL-SAWDUST          : Mud_type     - MUD TYPE
MATR.         SANDSTONE            : Logunit      - NEUTRON MATRIX
TMAX.C        26.1111              : BHT          - MAXIMUM RECORDED TEMPERATURE
BHTD.M        399.898              : BHTDEP       - MAXIMUM RECORDED TEMPERATURE
RMT .C        20                   : MDTP         - TEMPERATURE OF MUD
MUDD.KG/M     1164                 : MWT          - MUD DENSITY
NEUT.         1                    : NEUTRON      - NEUTRON TYPE
RESI.         0                    : RESIST       - RESISTIVITY TYPE
RM  .OHMM     7.15                 : RM           - RESISTIVITY OF MUD
RMC .OHMM     0                    : RMC          - RESISTIVITY OF MUD CAKE
RMF .OHMM     6.84                 : RMF          - RESISTIVITY OF MUD FILTRATE
SUFT.C        5                    : SUFT         - SURFACE TEMPERATURE
~A  DEPTH     RESD      CAL       GR     PHIN     PHID
# ...
  381.991   12.928  169.755  105.359    0.303    0.191
  382.241   13.096  168.719  110.867    0.310    0.172
  382.491   13.737  168.098  116.131    0.311    0.177
  382.741   14.277  166.959  117.600    0.323    0.188
  382.991   10.640  165.094  102.056    0.307    0.166
  383.241   11.859  163.955   90.000    0.262    0.152
  383.491   16.328  164.577   82.901    0.242    0.128
  383.741   27.872  168.101   83.452    0.257    0.074
  383.991   40.252  170.071   94.591    0.274    0.062
  384.241   23.194  169.553   98.569    0.279    0.101
  384.491   20.545  169.554   99.365    0.288    0.158
  384.741   19.550  169.244  101.813    0.300    0.178
  384.991   15.340  168.415   98.570    0.300    0.160
  385.241   14.544  166.550   95.633    0.305    0.137
  385.491   18.132  164.893   95.450    0.327    0.130
  385.741   22.941  163.961  105.854    0.346    0.140
  385.991   12.765  163.236  111.424    0.318    0.159
  386.241    6.539  163.133  110.751    0.303    0.181
  386.491    7.859  163.341  106.712    0.288    0.195
  386.741   10.487  163.963  100.960    0.272    0.172
  386.991   14.598  164.689   88.475    0.252    0.107
  387.241   25.853  165.312   78.072    0.278    0.085
  387.491   39.020  166.038   87.313    0.294    0.082
  387.741   36.792  166.142  101.328    0.312    0.111
  387.991   19.517  166.142  110.141    0.329    0.140
  388.241   13.147  165.210  107.938    0.327    0.172
  388.491    9.171  163.449   97.106    0.332    0.183
  388.741   13.220  161.792   88.661    0.297    0.195
  388.991   30.561  160.238   71.281    0.314    0.231
  389.241   53.727  159.099   76.789    0.344    0.235
  389.491   33.136  157.752   74.464    0.362    0.224
  389.741   25.339  157.338   65.223    0.349    0.255
  389.991   35.015  157.131   57.880    0.344    0.286
  390.241   65.765  158.376   51.271    0.338    0.280
  390.491   70.264  159.205   63.388    0.351    0.267
  390.741   80.500  159.620   70.365    0.354    0.298
  390.991  110.426  160.554   74.405    0.328    0.284
  391.241   52.270  161.176   76.425    0.333    0.253
  391.491   58.471  161.798   76.793    0.327    0.263
  391.741   81.696  161.799   76.915    0.329    0.280
  391.991  126.517  161.385   86.096    0.295    0.287
  392.241  173.550  160.971   90.625    0.310    0.280
  392.491  210.488  160.868   81.935    0.317    0.256
  392.741   44.468  160.558   83.526    0.308    0.221
  392.991   13.078  160.662   89.891    0.301    0.177
  393.241   10.299  160.870   89.096    0.310    0.192
  393.491   14.416  160.974   80.835    0.314    0.213
  393.741   26.486  160.975   65.596    0.314    0.233
  393.991   21.401  160.665   67.310    0.291    0.210
  394.241   19.027  161.805   63.883    0.294    0.197
  394.491   32.361  161.702   65.597    0.298    0.228
  394.741   28.665  161.910   78.021    0.288    0.239
  394.991   18.442  162.532   85.059    0.291    0.198
  395.241   14.497  163.051   88.059    0.310    0.208
  395.491   15.805  163.984   94.668    0.296    0.220
  395.741   12.912  165.436   88.427    0.299    0.203
  395.991   25.114  165.747   90.018    0.308    0.207
  396.241   41.399  163.054   90.692    0.313    0.220
  396.491   39.979  161.500   86.592    0.313    0.214
  396.741   35.478  159.013   84.328    0.309    0.209
  396.991   29.686  155.905   89.407    0.315    0.171
  397.241   25.675  153.936   93.692    0.352    0.180
  397.491   21.922  152.901   87.144    0.387    0.189
  397.741   20.746  153.212   87.206    0.389    0.205
  397.991   28.302  154.042   86.043    0.375    0.220
  398.241   26.588  154.561   90.695    0.357    0.224
  398.491   24.433  155.701   93.939    0.346    0.168
  398.741   21.763  155.080   93.755    0.329    0.174
  398.991   18.210  145.132   93.388    0.335    0.190
  399.241   15.778  136.635   84.086    0.355    0.185
  399.491   18.446  135.910   85.739    0.341    0.178
  399.741   20.036  136.222   92.472    0.345    0.171
  399.991   20.825  136.740   94.247    0.342    0.171
  400.241   21.924  136.223   87.393    0.335    0.179
  400.491   22.620  134.151   79.559    0.318    0.185
