~VERSION INFORMATION
 VERS.                 2.0:   CWLS LOG ASCII STANDARD -VERSION 2.0
 WRAP.                  NO:   ONE LINE PER DEPTH STEP
~WELL INFORMATION BLOCK
#MNEM.UNIT           DATA                    DESCRIPTION OF MNEMONIC
#---------    -------------------            -------------------------------
# Generated from Intellog Unique Number	CS_67_68/WELL/845
WELL.         INTER-CITY MANUFACTURING       : Well_name    - WELL
LOC .         00/11-29-068-12W4/0            : Location     - LOCATION
UWI .         00/11-29-068-12W4/0            : Uwi          - UNIQUE WELL ID
ENTR.         SP                             : Entered      - ENTERED BY
SRVC.         SCHLUMBERGER                   : Scn          - SERVICE COMPANY
STRT.M        304.8                          : top_depth    - START DEPTH
STOP.M        496.550                        : bot_depth    - STOP DEPTH
STEP.M        0.25                           : increment    - STEP LENGTH
 NULL. -999.2500:NULL Value
~CURVE INFORMATION BLOCK
#MNEM UNIT       ERCB CURVE CODE    CURVE DESCRIPTION
#-----------   ------------------   ----------------------------------
DEPT.M        00 001 00 00         : DEPTH        - DEPTH
GR  .API      00 310 00 00         : GR           - GAMMA RAY
DPHI.V/V      00 890 00 00         : PHID         - DENSITY POROSITY (SANDSTONE)
NPHI.V/V      00 330 00 00         : PHIN         - NEUTRON POROSITY (SANDSTONE)
ILD .OHMM     00 120 00 00         : RESD         - DEEP RESISTIVITY (DIL)
~PARAMETER INFORMATION
#MNEM.UNIT           DATA             DESCRIPTION OF MNEMONIC
#---------         -----------     ------------------------------
GL  .M        604.114              : gl           - GROUND LEVEL ELEVATION
EREF.M        576.377              : kb           - ELEVATION OF DEPTH REFERENCE
DATM.M        604.114              : datum        - DATUM ELEVATION
TDD .M        502.006              : tdd          - TOTAL DEPTH DRILLER
RUN .         ONE                  : Run          - RUN NUMBER
ENG .         BILL                 : Engineer     - RECORDING ENGINEER
WIT .         JIM                  : Witness      - WITNESSED BY
MUD .         GEL                  : Mud_type     - MUD TYPE
MATR.         SANDSTONE            : Logunit      - NEUTRON MATRIX
TMAX.C        22.2222              : BHT          - MAXIMUM RECORDED TEMPERATURE
BHTD.M        502.006              : BHTDEP       - MAXIMUM RECORDED TEMPERATURE
MATR.         1                    : LOGUNIT      - NEUTRON MATRIX
RMT .C        25                   : MDTP         - TEMPERATURE OF MUD
NEUT.         1                    : NEUTRON      - NEUTRON TYPE
RESI.         0                    : RESIST       - RESISTIVITY TYPE
RMC .OHMM     0.25                 : RMC          - RESISTIVITY OF MUD CAKE
RMF .OHMM     0.25                 : RMF          - RESISTIVITY OF MUD FILTRATE
SUFT.C        15                   : SUFT         - SURFACE TEMPERATURE
~A  DEPTH       GR     PHID     PHIN     RESD
# ...
  391.800   58.361    0.002    0.163    4.030
  392.050   61.623    0.042    0.237    3.713
  392.300   65.537    0.170    0.366    3.046
  392.550   69.006    0.275    0.387    2.495
  392.800   71.656    0.291    0.404    2.240
  393.050   72.968    0.275    0.414    2.140
  393.300   73.576    0.283    0.424    2.100
  393.550   74.007    0.293    0.434    2.143
  393.800   74.402    0.305    0.442    2.201
  394.050   76.955    0.302    0.441    2.255
  394.300   79.542    0.310    0.438    2.289
  394.550   82.045    0.322    0.451    2.315
  394.800   82.516    0.310    0.471    2.316
  395.050   81.786    0.307    0.478    2.311
  395.300   80.937    0.313    0.468    2.286
  395.550   82.335    0.327    0.461    2.264
  395.800   83.017    0.335    0.471    2.237
  396.050   78.793    0.323    0.466    2.211
  396.300   76.165    0.310    0.468    2.214
  396.550   77.075    0.317    0.466    2.246
  396.800   79.522    0.325    0.455    2.242
  397.050   80.521    0.317    0.454    2.256
  397.300   81.727    0.308    0.460    2.277
  397.550   82.847    0.312    0.464    2.341
  397.800   84.440    0.320    0.454    2.455
  398.050   86.157    0.305    0.449    2.595
  398.300   88.043    0.285    0.459    2.767
  398.550   87.903    0.268    0.455    2.917
  398.800   87.441    0.253    0.445    3.074
  399.050   91.789    0.238    0.439    3.260
  399.300   89.964    0.223    0.435    3.442
  399.550   87.520    0.214    0.432    3.578
  399.800   87.308    0.222    0.434    3.697
  400.050   86.241    0.222    0.440    3.743
  400.300   87.972    0.242    0.438    3.744
  400.550   91.038    0.251    0.434    3.731
  400.800   92.927    0.228    0.441    3.733
  401.050   93.791    0.210    0.451    3.784
  401.300   93.763    0.198    0.446    3.900
  401.550   93.171    0.215    0.444    4.038
  401.800   93.778    0.224    0.458    4.154
  402.050   95.154    0.214    0.473    4.282
  402.300   94.535    0.212    0.467    4.345
  402.550   92.344    0.213    0.452    4.337
  402.800   90.138    0.212    0.447    4.223
  403.050   91.141    0.220    0.435    4.115
  403.300   92.063    0.224    0.444    4.008
  403.550   93.004    0.225    0.457    3.933
  403.800   94.141    0.217    0.451    3.865
  404.050   96.064    0.210    0.443    3.836
  404.300   98.776    0.204    0.444    3.873
  404.550  100.408    0.211    0.439    3.930
  404.800  101.054    0.219    0.428    3.996
  405.050  100.946    0.215    0.420    4.069
  405.300  100.790    0.208    0.435    4.106
  405.550   99.944    0.216    0.434    4.119
  405.800   98.302    0.214    0.428    4.107
  406.050  100.377    0.211    0.445    4.096
  406.300  102.530    0.209    0.458    4.055
  406.550  103.851    0.220    0.452    4.054
  406.800  104.918    0.228    0.442    4.061
  407.050  106.835    0.216    0.436    4.090
  407.300  108.069    0.210    0.436    4.077
  407.550  107.833    0.207    0.444    3.846
  407.800  105.576    0.206    0.451    3.303
  408.050  102.819    0.217    0.456    2.745
  408.300   99.860    0.234    0.487    2.323
  408.550   98.222    0.246    0.545    2.089
  408.800  102.214    0.257    0.571    1.955
  409.050  103.192    0.263    0.582    1.857
  409.300  101.432    0.247    0.556    1.814
  409.550   99.770    0.235    0.533    1.849
  409.800  103.370    0.225    0.510    1.998
  410.050  105.319    0.218    0.476    2.158
  410.300  105.282    0.223    0.469    2.310
  410.550  103.625    0.228    0.478    2.664
  410.800  102.472    0.242    0.485    2.861
  411.050   99.564    0.266    0.488    2.975
  411.300   96.667    0.274    0.483    3.041
  411.550   95.166    0.254    0.472    3.090
  411.800   94.659    0.235    0.461    3.132
  412.050   94.877    0.224    0.454    3.183
  412.300   95.805    0.232    0.449    3.200
  412.550   95.121    0.236    0.455    3.187
  412.800   90.498    0.243    0.469    3.137
  413.050   87.404    0.260    0.480    3.058
  413.300   91.089    0.250    0.482    2.981
  413.550   93.109    0.237    0.470    2.919
  413.800   93.408    0.239    0.460    2.948
  414.050   85.194    0.243    0.467    2.925
  414.300   79.700    0.243    0.479    2.858
  414.550   76.066    0.231    0.488    2.727
  414.800   73.519    0.231    0.479    2.592
  415.050   70.443    0.277    0.457    2.417
  415.300   67.406    0.309    0.443    2.056
  415.550   63.559    0.315    0.434    1.974
  415.800   65.139    0.318    0.423    1.806
  416.050   68.121    0.318    0.424    1.701
  416.300   69.478    0.301    0.436    1.710
  416.550   71.012    0.286    0.441    1.809
  416.800   71.867    0.284    0.445    1.907
  417.050   68.869    0.292    0.450    1.956
  417.300   64.826    0.294    0.449    1.945
  417.550   64.251    0.296    0.440    1.905
  417.800   67.632    0.309    0.430    1.935
  418.050   71.466    0.326    0.421    2.025
  418.300   77.477    0.312    0.421    2.214
  418.550   79.289    0.275    0.413    2.735
  418.800   65.999    0.245    0.382    3.913
  419.050   60.214    0.164    0.300    5.347
  419.300   58.001    0.101    0.206    6.256
  419.550   61.105    0.052    0.235    7.110
  419.800   64.996    0.130    0.339    5.843
  420.050   67.662    0.258    0.377    4.729
  420.300   67.055    0.295    0.407    3.869
  420.550   66.424    0.316    0.421    3.055
  420.800   66.533    0.323    0.438    2.561
  421.050   70.794    0.313    0.433    2.231
  421.300   75.258    0.301    0.432    2.090
  421.550   78.625    0.282    0.439    2.126
  421.800   81.626    0.265    0.435    2.334
  422.050   81.110    0.253    0.440    2.491
  422.300   79.007    0.238    0.445    2.687
  422.550   77.307    0.225    0.432    2.858
  422.800   79.616    0.207    0.448    3.048
  423.050   86.213    0.190    0.462    3.130
  423.300   92.712    0.202    0.469    2.395
  423.550   98.208    0.186    0.467    1.758
  423.800  102.679    0.189    0.462    1.346
  424.050  104.671    0.204    0.457    1.041
  424.300  104.822    0.213    0.453    0.892
  424.550  104.385    0.200    0.447    0.785
  424.800  102.950    0.204    0.454    0.778
  425.050  100.760    0.217    0.468    0.920
  425.300   99.049    0.226    0.479    1.005
  425.550   99.093    0.212    0.461    1.043
  425.800  100.899    0.209    0.452    1.043
  426.050  101.316    0.207    0.440    1.007
  426.300   98.804    0.205    0.435    0.962
  426.550   97.690    0.201    0.433    0.959
  426.800   98.170    0.199    0.434    1.032
  427.050   98.203    0.206    0.440    1.259
  427.300   98.017    0.191    0.446    1.542
  427.550   98.967    0.182    0.452    1.848
  427.800   99.779    0.184    0.455    2.196
  428.050   99.419    0.192    0.456    2.786
  428.300   97.955    0.196    0.454    3.350
  428.550   96.521    0.178    0.457    3.799
  428.800   95.593    0.164    0.465    4.053
  429.050   96.322    0.188    0.477    4.137
  429.300   97.774    0.207    0.477    4.161
  429.550   99.850    0.224    0.458    4.103
  429.800  102.662    0.235    0.440    3.947
  430.050  105.014    0.239    0.445    3.745
  430.300  106.771    0.231    0.473    3.405
  430.550  109.404    0.229    0.504    3.147
  430.800  112.178    0.235    0.529    2.947
  431.050  109.170    0.223    0.532    2.735
  431.300  107.290    0.214    0.519    2.569
  431.550  109.283    0.225    0.513    2.421
  431.800  111.102    0.230    0.519    2.279
  432.050  110.609    0.241    0.529    2.181
  432.300  109.020    0.240    0.536    2.119
  432.550  108.436    0.243    0.528    2.084
  432.800  107.387    0.240    0.521    2.125
  433.050  105.628    0.227    0.510    2.179
  433.300  105.061    0.215    0.506    2.242
  433.550  104.845    0.206    0.510    2.343
  433.800  104.538    0.208    0.493    2.474
  434.050  103.801    0.214    0.453    2.578
  434.300   99.195    0.219    0.419    2.682
  434.550   92.866    0.237    0.425    2.735
  434.800   87.456    0.254    0.430    2.804
  435.050   85.138    0.248    0.372    2.910
