~VERSION INFORMATION
 VERS.                 2.0:   CWLS LOG ASCII STANDARD -VERSION 2.0
 WRAP.                  NO:   ONE LINE PER DEPTH STEP
~WELL INFORMATION BLOCK
#MNEM.UNIT           DATA                    DESCRIPTION OF MNEMONIC
#---------    -------------------            -------------------------------
# Generated from Intellog Unique Number	CS_69_70/WELL/879
WELL.         GULF CANADA LIMITED            : Well_name    - WELL
LOC .         00/10-34-069-15W4/0            : Location     - LOCATION
UWI .         00/10-34-069-15W4/0            : Uwi          - UNIQUE WELL ID
ENTR.         SP                             : Entered      - ENTERED BY
SRVC.         SCHLUMBERGER                   : Scn          - SERVICE COMPANY
STRT.M        250                            : top_depth    - START DEPTH
STOP.M        465                            : bot_depth    - STOP DEPTH
STEP.M        0.25                           : increment    - STEP LENGTH
 NULL. -999.2500:NULL Value
~CURVE INFORMATION BLOCK
#MNEM UNIT       ERCB CURVE CODE    CURVE DESCRIPTION
#-----------   ------------------   ----------------------------------
DEPT.M        00 001 00 00         : DEPTH        - DEPTH
ILD .OHMM     00 120 00 00         : RESD         - DEEP RESISTIVITY (DIL)
DPHI.V/V      00 890 00 00         : PHID         - DENSITY POROSITY (LIMESTONE)
NPHI.V/V      00 330 00 00         : PHIN         - NEUTRON POROSITY (LIMESTONE)
GR  .API      00 310 00 00         : GR           - GAMMA RAY
~PARAMETER INFORMATION
#MNEM.UNIT           DATA             DESCRIPTION OF MNEMONIC
#---------         -----------     ------------------------------
GL  .M        559.6                : gl           - GROUND LEVEL ELEVATION
EREF.M        563.41               : kb           - ELEVATION OF DEPTH REFERENCE
DATM.M        559.6                : datum        - DATUM ELEVATION
TDD .M        465                  : tdd          - TOTAL DEPTH DRILLER
RUN .         ONE                  : Run          - RUN NUMBER
ENG .         BILL                 : Engineer     - RECORDING ENGINEER
WIT .         JIM                  : Witness      - WITNESSED BY
MUD .         GEL                  : Mud_type     - MUD TYPE
MATR.         LIMESTONE            : Logunit      - NEUTRON MATRIX
TMAX.C        18                   : BHT          - MAXIMUM RECORDED TEMPERATURE
BHTD.M        465                  : BHTDEP       - MAXIMUM RECORDED TEMPERATURE
MATR.         1                    : LOGUNIT      - NEUTRON MATRIX
RMT .C        25                   : MDTP         - TEMPERATURE OF MUD
NEUT.         1                    : NEUTRON      - NEUTRON TYPE
RESI.         0                    : RESIST       - RESISTIVITY TYPE
RMC .OHMM     0.25                 : RMC          - RESISTIVITY OF MUD CAKE
RMF .OHMM     0.25                 : RMF          - RESISTIVITY OF MUD FILTRATE
SUFT.C        15                   : SUFT         - SURFACE TEMPERATURE
~A  DEPTH     RESD     PHID     PHIN       GR
# ...
  337.000    2.920    0.306    0.508   66.725
  337.250    2.905    0.318    0.493   69.693
  337.500    2.890    0.324    0.484   71.508
  337.750    2.875    0.314    0.473   67.903
  338.000    2.881    0.303    0.461   65.519
  338.250    2.871    0.312    0.453   64.898
  338.500    2.878    0.324    0.444   69.632
  338.750    2.879    0.334    0.437   72.605
  339.000    2.890    0.335    0.450   75.695
  339.250    2.897    0.324    0.467   77.389
  339.500    2.882    0.298    0.478   74.454
  339.750    2.861    0.295    0.482   69.695
  340.000    2.830    0.308    0.485   67.613
  340.250    2.785    0.319    0.490   68.026
  340.500    2.749    0.325    0.490   67.710
  340.750    2.700    0.328    0.482   66.053
  341.000    2.681    0.332    0.474   64.946
  341.250    2.657    0.338    0.464   66.698
  341.500    2.648    0.334    0.454   69.305
  341.750    2.649    0.329    0.454   72.944
  342.000    2.755    0.319    0.467   76.706
  342.250    2.909    0.293    0.460   82.354
  342.500    3.169    0.279    0.453   86.787
  342.750    3.537    0.255    0.461   89.757
  343.000    3.949    0.229    0.480   91.571
  343.250    4.138    0.211    0.490   92.472
  343.500    4.178    0.214    0.496   92.519
  343.750    4.118    0.225    0.493   90.682
  344.000    3.881    0.237    0.488   84.339
  344.250    3.652    0.249    0.483   79.944
  344.500    3.481    0.258    0.478   77.558
  344.750    3.392    0.276    0.483   74.987
  345.000    3.337    0.293    0.483   73.151
  345.250    3.382    0.305    0.476   71.435
  345.500    3.492    0.299    0.466   72.577
  345.750    3.585    0.292    0.464   75.123
  346.000    3.674    0.285    0.460   78.337
  346.250    3.703    0.284    0.451   76.742
  346.500    3.490    0.283    0.448   74.171
  346.750    3.253    0.290    0.460   72.699
  347.000    3.022    0.308    0.471   71.044
  347.250    2.939    0.312    0.480   68.901
  347.500    2.870    0.321    0.479   66.576
  347.750    2.839    0.319    0.472   66.321
  348.000    2.846    0.313    0.466   67.647
  348.250    2.878    0.308    0.456   69.583
  348.500    2.933    0.304    0.450   69.812
  348.750    3.012    0.307    0.457   71.019
  349.000    3.075    0.312    0.465   73.441
  349.250    3.134    0.306    0.460   75.744
  349.500    3.217    0.294    0.450   77.983
  349.750    3.322    0.291    0.441   79.127
  350.000    3.385    0.290    0.434   80.029
  350.250    3.399    0.286    0.447   80.747
  350.500    3.350    0.280    0.456   81.830
  350.750    3.314    0.280    0.469   82.305
  351.000    3.272    0.296    0.486   81.867
  351.250    3.249    0.291    0.501   83.437
  351.500    3.238    0.272    0.510   87.443
  351.750    3.227    0.253    0.503   91.327
  352.000    3.181    0.235    0.497   95.755
  352.250    3.217    0.216    0.489   97.753
  352.500    3.347    0.213    0.494   97.924
  352.750    3.546    0.223    0.484   97.486
  353.000    3.716    0.240    0.471   95.281
  353.250    3.844    0.254    0.460   91.797
  353.500    3.917    0.262    0.453   90.267
  353.750    3.890    0.253    0.468   91.107
  354.000    3.812    0.263    0.476   91.946
  354.250    3.682    0.279    0.486   92.116
  354.500    3.601    0.289    0.491   89.791
  354.750    3.490    0.297    0.497   87.710
  355.000    3.421    0.283    0.496   86.420
  355.250    3.347    0.278    0.490   85.738
  355.500    3.274    0.286    0.486   86.393
  355.750    3.269    0.291    0.491   85.896
  356.000    3.258    0.284    0.485   85.518
  356.250    3.271    0.276    0.476   85.079
  356.500    3.315    0.268    0.466   81.903
  356.750    3.429    0.256    0.460   83.838
  357.000    3.668    0.247    0.458   83.400
  357.250    4.217    0.238    0.473   77.361
  357.500    4.950    0.162    0.468   73.271
  357.750    6.592    0.094    0.448   68.450
  358.000    9.265    0.034    0.387   64.299
  358.250   13.896    0.013    0.309   60.816
  358.500   19.135    0.004    0.195   57.457
  358.750   22.004    0.106    0.217   61.705
  359.000   18.010    0.140    0.322   69.483
  359.250    8.826    0.184    0.374   74.707
  359.500    6.510    0.227    0.435   82.120
  359.750    5.623    0.266    0.488   88.013
  360.000    4.995    0.295    0.515   89.340
  360.250    4.536    0.272    0.504   86.587
  360.500    4.205    0.259    0.489   85.237
  360.750    4.045    0.246    0.482   85.408
  361.000    4.017    0.262    0.479   87.037
  361.250    4.109    0.244    0.478   88.367
  361.500    4.187    0.230    0.472   89.570
  361.750    4.243    0.243    0.464   89.255
  362.000    4.308    0.253    0.460   88.695
  362.250    4.383    0.260    0.464   87.404
  362.500    4.433    0.261    0.472   84.835
  362.750    4.526    0.254    0.470   84.701
  363.000    4.630    0.240    0.458   85.784
  363.250    4.736    0.218    0.450   86.442
  363.500    4.855    0.208    0.448   86.612
  363.750    4.883    0.230    0.462   87.331
  364.000    4.893    0.241    0.470   89.083
  364.250    4.913    0.239    0.464   90.655
  364.500    4.888    0.228    0.453   92.101
  364.750    4.862    0.225    0.447   90.813
  365.000    4.863    0.214    0.443   86.782
  365.250    4.919    0.203    0.441   87.988
  365.500    4.967    0.188    0.436   90.228
  365.750    5.034    0.175    0.432   89.486
  366.000    5.073    0.161    0.431   88.377
  366.250    5.122    0.155    0.430   90.799
  366.500    5.058    0.178    0.437   93.648
  366.750    4.957    0.177    0.444   96.741
  367.000    4.886    0.198    0.445   98.981
  367.250    4.771    0.210    0.444  100.795
  367.500    4.676    0.203    0.442  102.728
  367.750    4.591    0.192    0.449  103.449
  368.000    4.550    0.190    0.458   98.504
  368.250    4.577    0.193    0.465   95.816
  368.500    4.700    0.189    0.456   92.940
  368.750    4.916    0.191    0.446   91.652
  369.000    5.056    0.200    0.439   90.849
  369.250    5.134    0.193    0.431   90.775
  369.500    5.183    0.183    0.419   91.494
  369.750    5.243    0.186    0.429   90.812
  370.000    5.274    0.179    0.444   90.252
  370.250    5.256    0.188    0.452   90.483
  370.500    5.229    0.196    0.465   90.957
  370.750    5.349    0.171    0.475   91.067
  371.000    5.678    0.147    0.458   87.403
  371.250    6.062    0.125    0.414   81.182
  371.500    6.259    0.097    0.377   79.648
  371.750    6.191    0.130    0.346   86.636
  372.000    5.814    0.168    0.365   93.867
  372.250    5.440    0.180    0.401   98.238
  372.500    5.224    0.190    0.429   98.347
  372.750    5.035    0.186    0.453   96.630
  373.000    4.871    0.179    0.458   95.582
  373.250    4.765    0.175    0.460   96.788
  373.500    4.732    0.174    0.465   99.208
  373.750    4.698    0.179    0.466  100.660
  374.000    4.631    0.185    0.470  102.048
  374.250    4.555    0.192    0.486  101.183
  374.500    4.465    0.197    0.491  100.258
  374.750    4.384    0.195    0.481   97.932
  375.000    4.289    0.196    0.472   92.016
  375.250    4.188    0.209    0.456   88.048
  375.500    4.074    0.221    0.446   89.314
  375.750    3.941    0.231    0.438   90.640
  376.000    3.785    0.242    0.450   91.297
  376.250    3.515    0.249    0.462   93.659
  376.500    3.198    0.252    0.481   97.908
  376.750    2.622    0.249    0.501  104.712
  377.000    2.083    0.236    0.513  110.971
  377.250    1.773    0.225    0.534  115.585
  377.500    1.613    0.237    0.556  117.398
  377.750    1.647    0.246    0.574  114.951
  378.000    1.733    0.247    0.584  111.652
  378.250    1.920    0.233    0.582  109.144
  378.500    2.249    0.222    0.574  106.636
  378.750    2.659    0.214    0.558  103.762
  379.000    3.018    0.214    0.528  101.256
  379.250    3.363    0.214    0.506   97.773
  379.500    3.644    0.213    0.487   95.936
  379.750    3.811    0.214    0.468   95.254
  380.000    3.827    0.224    0.449   95.363
  380.250    3.821    0.231    0.446   94.498
