~VERSION INFORMATION
 VERS.                 2.0:   CWLS LOG ASCII STANDARD -VERSION 2.0
 WRAP.                  NO:   ONE LINE PER DEPTH STEP
~WELL INFORMATION BLOCK
#MNEM.UNIT           DATA                    DESCRIPTION OF MNEMONIC
#---------    -------------------            -------------------------------
# Generated from Intellog Unique Number	CS_77_79/WELL/1003
WELL.         HOME LEISTER                   : Well_name    - WELL
LOC .         00/11-30-078-06W4/0            : Location     - LOCATION
UWI .         00/11-30-078-06W4/0            : Uwi          - UNIQUE WELL ID
ENTR.         JHS                            : Entered      - ENTERED BY
SRVC.         SCHLUMBERGER                   : Scn          - SERVICE COMPANY
STRT.M        137                            : top_depth    - START DEPTH
STOP.M        384.25                         : bot_depth    - STOP DEPTH
STEP.M        0.25                           : increment    - STEP LENGTH
 NULL. -999.2500:NULL Value
~CURVE INFORMATION BLOCK
#MNEM UNIT       ERCB CURVE CODE    CURVE DESCRIPTION
#-----------   ------------------   ----------------------------------
DEPT.M        00 001 00 00         : DEPTH        - DEPTH
DPHI.V/V      00 890 00 00         : PHID         - DENSITY POROSITY (LIMESTONE)
NPHI.V/V      00 330 00 00         : PHIN         - NEUTRON POROSITY (LIMESTONE)
GR  .API      00 310 00 00         : GR           - GAMMA RAY
ILD .OHMM     00 120 00 00         : RESD         - DEEP RESISTIVITY (DIL)
~PARAMETER INFORMATION
#MNEM.UNIT           DATA             DESCRIPTION OF MNEMONIC
#---------         -----------     ------------------------------
GL  .M        561.09               : gl           - GROUND LEVEL ELEVATION
EREF.M        564.09               : kb           - ELEVATION OF DEPTH REFERENCE
DATM.M        564.09               : datum        - DATUM ELEVATION
TDD .M        386                  : tdd          - TOTAL DEPTH DRILLER
RUN .         ONE                  : Run          - RUN NUMBER
ENG .         BILL                 : Engineer     - RECORDING ENGINEER
WIT .         JIM                  : Witness      - WITNESSED BY
MUD .         GEL                  : Mud_type     - MUD TYPE
MATR.         LIMESTONE            : Logunit      - NEUTRON MATRIX
TMAX.C        27                   : BHT          - MAXIMUM RECORDED TEMPERATURE
BHTD.M        386                  : BHTDEP       - MAXIMUM RECORDED TEMPERATURE
MATR.         1                    : LOGUNIT      - NEUTRON MATRIX
RMT .C        25                   : MDTP         - TEMPERATURE OF MUD
NEUT.         1                    : NEUTRON      - NEUTRON TYPE
RESI.         0                    : RESIST       - RESISTIVITY TYPE
RMC .OHMM     0.25                 : RMC          - RESISTIVITY OF MUD CAKE
RMF .OHMM     0.25                 : RMF          - RESISTIVITY OF MUD FILTRATE
SUFT.C        15                   : SUFT         - SURFACE TEMPERATURE
~A  DEPTH     PHID     PHIN       GR     RESD
  137.000    0.324    0.582  105.365    2.491
  137.250    0.329    0.530  104.738    2.493
  137.500    0.319    0.488   99.772    2.495
  137.750    0.318    0.527   99.766    2.497
  138.000    0.329    0.570   93.562    2.546
  138.250    0.330    0.518  102.231    2.595
  138.500    0.331    0.483  106.564    2.646
  138.750    0.323    0.521  100.978    2.648
  139.000    0.306    0.556  102.211    2.649
  139.250    0.315    0.574  102.825    2.651
  139.500    0.307    0.589  102.199    2.654
  139.750    0.298    0.615  102.811    2.656
  140.000    0.306    0.614   97.845    2.657
  140.250    0.308    0.584  100.319    2.659
  140.500    0.308    0.523  101.552    2.612
  140.750    0.313    0.511  100.926    2.614
  141.000    0.314    0.477  101.538    2.616
  141.250    0.316    0.466   99.052    2.667
  141.500    0.303    0.452   97.806    2.719
  141.750    0.289    0.487  101.519    2.825
  142.000    0.300    0.481  102.750    2.989
  142.250    0.283    0.526  103.364    3.105
  142.500    0.266    0.517  104.597    3.286
  142.750    0.263    0.531  107.069    3.350
  143.000    0.278    0.521  105.823    3.416
  143.250    0.280    0.550  106.436    3.483
  143.500    0.266    0.506  106.430    3.551
  143.750    0.256    0.488  103.943    3.688
  144.000    0.255    0.508  103.318    3.831
  144.250    0.258    0.519  105.170    3.905
  144.500    0.250    0.484  103.924    3.981
  144.750    0.258    0.460   97.719    3.985
  145.000    0.288    0.487  105.769    3.987
  145.250    0.291    0.510  106.383    3.917
  145.500    0.262    0.489  102.657    3.847
  145.750    0.254    0.443  100.791    3.851
  146.000    0.239    0.456   98.305    3.926
  146.250    0.236    0.495   93.960    4.078
  146.500    0.244    0.448   74.740    4.478
  146.750    0.141    0.411   57.379    5.201
  147.000    0.161    0.349   59.851    6.042
  147.250    0.232    0.370   59.224    6.888
  147.500    0.196    0.332   61.077    7.154
  147.750    0.230    0.356   62.930    6.285
  148.000    0.310    0.416   88.955    5.730
  148.250    0.327    0.453  101.344    5.033
  148.500    0.293    0.475  100.716    4.422
  148.750    0.267    0.470  105.669    4.032
  149.000    0.262    0.498  106.281    3.887
  149.250    0.259    0.480   99.457    3.964
  149.500    0.283    0.446   91.393    4.116
  149.750    0.287    0.449   82.710    5.056
  150.000    0.290    0.475   65.969    6.691
  150.250    0.341    0.454   54.806    8.065
  150.500    0.358    0.398   80.211    9.544
  150.750    0.314    0.410   95.079   11.085
  151.000    0.270    0.480   98.171   11.732
  151.250    0.259    0.539  101.883   10.897
  151.500    0.271    0.479   96.297   10.313
  151.750    0.187    0.426   85.135   10.913
  152.000    0.210    0.404   83.889   12.441
  152.250    0.313    0.379   85.741   13.922
  152.500    0.286    0.388   93.172   14.462
  152.750    0.304    0.470   98.123   13.944
  153.000    0.278    0.424  102.456   12.951
  153.250    0.234    0.387  100.589   12.031
  153.500    0.244    0.384   99.344   12.040
  153.750    0.282    0.418   92.520   12.981
  154.000    0.316    0.445   71.440   15.079
  154.250    0.329    0.412   65.854   16.872
  154.500    0.337    0.404   68.947   18.531
  154.750    0.332    0.406   80.716   18.894
  155.000    0.323    0.408   89.386   17.228
  155.250    0.290    0.414   93.717   15.134
  155.500    0.269    0.395   94.331   13.049
  155.750    0.285    0.380  100.523   11.043
  156.000    0.257    0.414  105.475    9.005
  156.250    0.228    0.467  108.566    8.058
  156.500    0.233    0.492  109.180    7.626
  156.750    0.270    0.470  104.215    7.923
  157.000    0.302    0.441  100.490    8.865
  157.250    0.324    0.445   98.003   10.888
  157.500    0.301    0.424   91.180   12.184
  157.750    0.301    0.417   97.370   12.421
  158.000    0.270    0.348  104.181   11.755
  158.250    0.249    0.347  108.512   11.764
  158.500    0.333    0.413  113.465   12.222
  158.750    0.381    0.466  111.599   12.931
  159.000    0.523    0.535   82.462   14.204
  159.250    0.601    0.605   82.455   15.601
  159.500    0.620    0.626   91.125   17.135
  159.750    0.260    0.614   69.426   19.538
  160.000    0.361    0.341   40.909   21.864
  160.250    0.495    0.456   22.928   24.011
  160.500    0.583    0.505   23.540   27.375
  160.750    0.620    0.622   26.014   30.071
  161.000    0.627    0.639   23.527   33.648
  161.250    0.516    0.631   22.281   37.659
  161.500    0.355    0.454   24.752   40.603
  161.750    0.355    0.362   27.846   42.963
  162.000    0.346    0.361   31.558   44.626
  162.250    0.366    0.422   34.651   46.358
  162.500    0.454    0.477   31.544   47.270
  162.750    0.398    0.490   29.059   47.297
  163.000    0.333    0.432   32.151   47.330
  163.250    0.336    0.400   28.425   45.633
  163.500    0.344    0.398   27.799   45.665
  163.750    0.412    0.451   32.750   46.554
  164.000    0.371    0.489   38.942   51.156
  164.250    0.357    0.470   50.711   52.150
  164.500    0.362    0.434   46.365   52.172
  164.750    0.317    0.385   45.120   49.384
  165.000    0.307    0.420   49.451   47.606
  165.250    0.332    0.484   45.106   45.060
  165.500    0.332    0.462   42.620   43.448
  165.750    0.350    0.450   47.573   41.893
  166.000    0.355    0.439   50.044   41.143
  166.250    0.343    0.422   51.897   39.666
  166.500    0.346    0.437   57.468   38.249
  166.750    0.346    0.449   59.321   36.883
  167.000    0.348    0.438   59.934   36.216
  167.250    0.345    0.419   64.265   34.282
  167.500    0.320    0.401   66.117   33.666
  167.750    0.321    0.433   65.493   33.072
  168.000    0.318    0.457   64.866   31.889
  168.250    0.312    0.494   71.674   31.915
  168.500    0.307    0.498   70.430   31.936
  168.750    0.325    0.411   68.563   31.957
  169.000    0.312    0.380   68.556   32.580
  169.250    0.298    0.422   67.310   33.229
  169.500    0.303    0.472   63.585   33.242
  169.750    0.310    0.514   54.282   33.275
  170.000    0.295    0.415   35.062   33.298
  170.250    0.301    0.338   33.196   31.507
  170.500    0.337    0.358   48.685   28.731
  170.750    0.369    0.422   63.553   27.186
  171.000    0.344    0.441   77.802   24.332
  171.250    0.328    0.403   73.455   23.899
  171.500    0.317    0.399   76.547   22.621
  171.750    0.321    0.418   76.542   20.241
  172.000    0.366    0.393   82.733   16.200
  172.250    0.336    0.396   97.602   12.492
  172.500    0.273    0.380  114.949    9.455
  172.750    0.233    0.412  127.337    7.428
  173.000    0.231    0.413  126.091    6.170
  173.250    0.215    0.442  132.903    5.420
  173.500    0.201    0.504  128.556    4.942
  173.750    0.194    0.584  127.311    4.677
  174.000    0.215    0.573  132.263    4.344
  174.250    0.241    0.542  125.438    4.268
  174.500    0.257    0.530  109.936    4.600
  174.750    0.274    0.577   99.394    5.651
  175.000    0.281    0.418  101.865    6.813
  175.250    0.247    0.395  101.859    8.685
  175.500    0.209    0.439   92.555   10.867
  175.750    0.224    0.469   70.237   15.207
  176.000    0.296    0.411   42.959   19.026
  176.250    0.238    0.371   40.471   23.807
  176.500    0.166    0.390   44.184   26.642
  176.750    0.215    0.477   52.855   26.660
  177.000    0.319    0.507   60.906   25.705
  177.250    0.307    0.475   68.337   24.327
  177.500    0.303    0.430   63.991   23.028
  177.750    0.295    0.406   67.703   22.617
  178.000    0.286    0.422   70.793   23.062
  178.250    0.307    0.422   68.310   22.647
  178.500    0.293    0.397   75.741   22.249
  178.750    0.263    0.383   70.156   21.855
  179.000    0.202    0.396   76.967   21.071
  179.250    0.240    0.424   80.679   19.941
  179.500    0.287    0.417   74.475   19.224
  179.750    0.298    0.396   72.607   18.195
  180.000    0.297    0.375   67.023   17.875
  180.250    0.301    0.391   72.593   17.232
