~VERSION INFORMATION
 VERS.                 2.0:   CWLS LOG ASCII STANDARD -VERSION 2.0
 WRAP.                  NO:   ONE LINE PER DEPTH STEP
~WELL INFORMATION BLOCK
#MNEM.UNIT           DATA                    DESCRIPTION OF MNEMONIC
#---------    -------------------            -------------------------------
# Generated from Intellog Unique Number	CW_79_81/WELL/2493
WELL.         GULF WABASCA                   : Well_name    - WELL
LOC .         00/15-36-080-19W4/0            : Location     - LOCATION
UWI .         00/15-36-080-19W4/0            : Uwi          - UNIQUE WELL ID
ENTR.         MAX                            : Entered      - ENTERED BY
SRVC.         SCHLUMBERGER                   : Scn          - SERVICE COMPANY
STRT.M        137.16                         : top_depth    - START DEPTH
STOP.M        365.41                         : bot_depth    - STOP DEPTH
STEP.M        0.25                           : increment    - STEP LENGTH
 NULL. -999.2500:NULL Value
~CURVE INFORMATION BLOCK
#MNEM UNIT       ERCB CURVE CODE    CURVE DESCRIPTION
#-----------   ------------------   ----------------------------------
DEPT.M        00 001 00 00         : DEPTH        - DEPTH
ILD .OHMM     00 120 00 00         : RESD         - DEEP RESISTIVITY (DIL)
NPHI.V/V      00 330 00 00         : PHIN         - NEUTRON POROSITY (SANDSTONE)
DPHI.V/V      00 890 00 00         : PHID         - DENSITY POROSITY (SANDSTONE)
GR  .API      00 310 00 00         : GR           - GAMMA RAY
CALI.MM       00 280 01 00         : CAL          - CALIPER
~PARAMETER INFORMATION
#MNEM.UNIT           DATA             DESCRIPTION OF MNEMONIC
#---------         -----------     ------------------------------
GL  .M        569.976              : gl           - GROUND LEVEL ELEVATION
EREF.M        573.329              : kb           - ELEVATION OF DEPTH REFERENCE
DATM.M        569.976              : datum        - DATUM ELEVATION
TDD .M        376.733              : tdd          - TOTAL DEPTH DRILLER
RUN .         ONE                  : Run          - RUN NUMBER
ENG .         BILL                 : Engineer     - RECORDING ENGINEER
WIT .         JIM                  : Witness      - WITNESSED BY
MUD .         GEL                  : Mud_type     - MUD TYPE
MATR.         SANDSTONE            : Logunit      - NEUTRON MATRIX
TMAX.C        23.3333              : BHT          - MAXIMUM RECORDED TEMPERATURE
BHTD.M        376.733              : BHTDEP       - MAXIMUM RECORDED TEMPERATURE
MATR.         1                    : LOGUNIT      - NEUTRON MATRIX
RMT .C        20                   : MDTP         - TEMPERATURE OF MUD
NEUT.         1                    : NEUTRON      - NEUTRON TYPE
RESI.         0                    : RESIST       - RESISTIVITY TYPE
RMC .OHMM     7.3                  : RMC          - RESISTIVITY OF MUD CAKE
RMF .OHMM     7.49                 : RMF          - RESISTIVITY OF MUD FILTRATE
SUFT.C        -23.3333             : SUFT         - SURFACE TEMPERATURE
~A  DEPTH     RESD     PHIN     PHID       GR      CAL
# ...
  319.660    9.758    0.484    0.180  110.103  171.041
  319.910   10.014    0.481    0.178  104.855  170.540
  320.160    9.860    0.477    0.181  103.372  170.103
  320.410    9.715    0.478    0.167  104.066  170.481
  320.660    9.467    0.478    0.181  105.289  170.563
  320.910    9.055    0.475    0.198  106.336  170.345
  321.160    8.591    0.472    0.205  107.031  170.126
  321.410    8.232    0.476    0.206  107.919  171.329
  321.660    7.985    0.496    0.189  108.886  175.458
  321.910    8.041    0.497    0.181  110.522  177.830
  322.160    8.407    0.493    0.194  111.452  179.602
  322.410    8.878    0.483    0.206  109.677  177.790
  322.660    9.309    0.476    0.201  106.431  173.291
  322.910    9.653    0.493    0.181  106.182  171.044
  323.160    9.650    0.507    0.195  106.168  171.853
  323.410    9.165    0.494    0.181  106.157  169.444
  323.660    8.657    0.483    0.183  106.322  168.230
  323.910    8.350    0.474    0.181  106.428  168.608
  324.160    8.302    0.468    0.172  106.064  169.881
  324.410    8.559    0.470    0.172  104.150  170.089
  324.660    8.958    0.474    0.180  101.686  169.237
  324.910    9.763    0.462    0.180   98.383  165.637
  325.160   10.315    0.447    0.180   96.313  161.734
  325.410   10.544    0.442    0.179   96.536  159.920
  325.660   10.522    0.449    0.181   98.524  160.297
  325.910   10.426    0.453    0.200   99.274  160.589
  326.160   10.345    0.441    0.203   94.853  160.154
  326.410   10.267    0.439    0.212   91.077  160.137
  326.660   10.245    0.442    0.222   91.007  161.015
  326.910   10.205    0.444    0.233   90.878  161.991
  327.160   10.147    0.442    0.241   89.867  162.367
  327.410   10.159    0.446    0.235   90.088  161.551
  327.660   10.233    0.465    0.215   90.077  161.529
  327.910   10.306    0.478    0.204   85.830  163.897
  328.160   10.548    0.487    0.226   85.994  164.775
  328.410   11.088    0.487    0.228   88.218  164.956
  328.660   12.045    0.479    0.199   90.090  165.137
  328.910   13.613    0.468    0.162   89.036  165.991
  329.160   13.923    0.435    0.129   88.534  166.386
  329.410   13.419    0.368    0.107   92.287  167.161
  329.660   12.648    0.369    0.110   95.332  167.640
  329.910   12.023    0.396    0.145   96.495  168.020
  330.160   11.656    0.426    0.190   96.191  168.599
  330.410   11.501    0.449    0.198   96.708  170.187
  330.660   11.586    0.440    0.202   98.165  172.241
  330.910   11.924    0.451    0.208   97.213  173.018
  331.160   13.005    0.458    0.212   94.849  172.003
  331.410   15.030    0.461    0.208   91.545  170.390
  331.660   18.173    0.458    0.200   87.359  169.375
  331.910   22.477    0.435    0.195   80.367  169.734
  332.160   26.006    0.375    0.168   72.513  167.639
  332.410   26.000    0.291    0.154   68.266  166.424
  332.660   24.586    0.269    0.098   69.138  165.509
  332.910   22.765    0.278    0.063   72.890  165.488
  333.160   20.890    0.302    0.081   77.994  166.165
  333.410   18.588    0.344    0.152   83.136  166.542
  333.660   17.235    0.368    0.170   80.675  166.521
  333.910   16.010    0.354    0.150   78.074  165.703
  334.160   14.876    0.343    0.119   82.356  166.083
  334.410   13.987    0.374    0.117   88.697  166.462
  334.660   13.391    0.439    0.153   93.213  165.944
  334.910   13.157    0.479    0.200   92.570  163.930
  335.160   13.456    0.478    0.211   90.599  163.908
  335.410   13.552    0.450    0.210   88.942  164.289
  335.660   13.573    0.436    0.199   87.990  166.160
  335.910   13.420    0.432    0.186   87.861  167.336
  336.160   13.127    0.434    0.177   88.496  167.317
  336.410   12.761    0.437    0.178   89.804  167.290
  336.660   12.377    0.444    0.198   90.527  167.272
  336.910   11.929    0.439    0.198   91.221  166.856
  337.160   11.435    0.439    0.201   92.267  167.335
  337.410   11.066    0.438    0.205   93.550  167.714
  337.660   10.904    0.436    0.207   94.893  167.893
  337.910   10.997    0.443    0.202   95.565  168.666
  338.160   11.078    0.449    0.181   93.102  168.646
  338.410   11.074    0.453    0.185   93.090  168.623
  338.660   10.950    0.456    0.187   94.667  168.602
  338.910   10.710    0.455    0.186   97.478  168.782
  339.160   10.381    0.451    0.181  100.053  169.162
  339.410    9.947    0.450    0.166   99.803  169.706
  339.660    9.648    0.452    0.144   99.791  170.514
  339.910    9.231    0.468    0.119  100.958  171.291
  340.160    8.636    0.476    0.120  104.063  170.574
  340.410    8.242    0.477    0.146  109.226  169.361
  340.660    8.136    0.474    0.182  115.390  169.442
  340.910    8.326    0.470    0.196  120.609  173.732
  341.160    8.714    0.461    0.167  122.066  175.373
  341.410    9.497    0.464    0.159  118.762  176.150
  341.660   10.357    0.456    0.160  115.634  177.226
  341.910   11.643    0.443    0.158  111.742  175.016
  342.160   13.455    0.426    0.149  106.615  170.115
  342.410   15.115    0.404    0.130   99.905  167.220
  342.660   15.577    0.384    0.118   98.180  166.785
  342.910   15.573    0.397    0.105   99.108  166.768
  343.160   15.230    0.416    0.145   98.980  166.747
  343.410   15.280    0.425    0.179   98.497  167.126
  343.660   15.927    0.426    0.186   98.367  167.705
  343.910   17.108    0.432    0.186   99.884  167.597
  344.160   18.320    0.420    0.189  102.811  167.164
  344.410   19.268    0.399    0.175  102.093  166.746
  344.660   19.622    0.380    0.159  103.317  166.030
  344.910   19.617    0.379    0.143  106.011  164.813
  345.160   19.361    0.393    0.141  109.058  163.594
  345.410   18.744    0.398    0.176  110.590  163.739
  345.660   18.457    0.387    0.171  110.090  164.551
  345.910   18.185    0.380    0.168  108.198  165.728
  346.160   18.114    0.387    0.171  108.421  167.201
  346.410   18.372    0.399    0.169  110.761  167.976
  346.660   18.978    0.404    0.161  114.573  167.956
  346.910   19.733    0.386    0.145  117.089  167.935
  347.160   19.285    0.376    0.130  109.726  167.917
  347.410   17.260    0.368    0.117  101.482  167.897
  347.660   15.103    0.379    0.115  100.647  167.878
  347.910   12.775    0.393    0.114  104.280  168.655
  348.160   10.861    0.407    0.125  109.209  170.229
  348.410    9.518    0.433    0.175  112.165  172.213
  348.660    8.256    0.441    0.172  112.886  174.265
  348.910    7.841    0.450    0.166  112.406  175.841
  349.160    7.574    0.458    0.161  104.692  174.126
  349.410    7.572    0.466    0.163   94.567  171.715
  349.660    8.139    0.478    0.170   83.029  170.103
  349.910   10.645    0.503    0.181   65.392  169.600
  350.160   13.113    0.494    0.209   56.069  169.167
  350.410   17.229    0.462    0.240   57.233  169.546
  350.660   21.610    0.431    0.241   58.045  169.626
  350.910   24.024    0.414    0.237   60.031  169.607
  351.160   23.066    0.409    0.233   63.370  169.686
  351.410   19.720    0.406    0.218   68.014  170.059
  351.660   17.359    0.403    0.212   73.637  170.036
  351.910   14.628    0.402    0.228   77.860  170.419
  352.160   13.311    0.400    0.224   81.905  169.901
  352.410   12.134    0.406    0.211   86.246  169.084
  352.660   10.749    0.421    0.198   90.823  168.567
  352.910    8.967    0.429    0.187   94.945  169.105
  353.160    7.778    0.434    0.194   94.442  169.915
  353.410    7.066    0.435    0.188   99.371  168.701
  353.660    6.681    0.439    0.177  102.887  165.993
  353.910    6.561    0.442    0.166  103.699  163.982
  354.160    6.666    0.441    0.157  101.629  163.763
  354.410    7.015    0.432    0.140   96.393  165.749
  354.660    7.286    0.411    0.123   90.256  167.799
  354.910    7.607    0.387    0.119   94.477  168.975
  355.160    7.732    0.402    0.118  100.463  169.854
  355.410    7.645    0.427    0.133  108.331  170.235
  355.660    7.339    0.446    0.155  116.024  170.017
  355.910    6.675    0.452    0.152  119.302  169.031
