~VERSION INFORMATION
 VERS.                 2.0:   CWLS LOG ASCII STANDARD -VERSION 2.0
 WRAP.                  NO:   ONE LINE PER DEPTH STEP
~WELL INFORMATION BLOCK
#MNEM.UNIT           DATA                    DESCRIPTION OF MNEMONIC
#---------    -------------------            -------------------------------
# Generated from Intellog Unique Number	CW_70_72/WELL/3024
NULL.         -999.25                        : NULL_VALUE
WELL.         CHIEFCO ET AL RANCH 10-32      : Well_name    - WELL              
LOC .         10-32-070-26W4                 : Location     - LOCATION          
UWI .         00/10-32-070-26W4/0            : Uwi          - UNIQUE WELL ID    
ENTR.         J                              : Entered      - ENTERED BY        
SRVC.         SCHLUMBERGER                   : Scn          - SERVICE COMPANY   
DATE.         31 DEC 75                      : Date         - LOG DATE          
STRT.M        435.864                        : top_depth    - START DEPTH       
STOP.M        701.114                        : bot_depth    - STOP DEPTH        
STEP.M        0.25                           : increment    - STEP LENGTH       
~CURVE INFORMATION BLOCK
#MNEM UNIT       ERCB CURVE CODE    CURVE DESCRIPTION
#-----------   ------------------   ----------------------------------
DEPT.M        00 001 00 00         : DEPTH        - DEPTH                       
ILD .OHMM     00 120 00 00         : RESD         - DEEP RESISTIVITY (DIL)      
CALI.MM       00 280 01 00         : CAL          - CALIPER                     
GR  .API      00 310 00 00         : GR           - GAMMA RAY                   
NPHI.V/V      00 330 00 00         : PHIN         - NEUTRON POROSITY (SANDSTONE)
DPHI.V/V      00 890 00 00         : PHID         - DENSITY POROSITY (SANDSTONE)
~PARAMETER INFORMATION       
#MNEM.UNIT           DATA             DESCRIPTION OF MNEMONIC
#---------         -----------     ------------------------------
GL  .M        612.953              : gl           - GROUND LEVEL ELEVATION      
EREF.M        615.696              : kb           - ELEVATION OF DEPTH REFERENCE
DATM.M        612.953              : datum        - DATUM ELEVATION             
TDD .M        715.975              : tdd          - TOTAL DEPTH DRILLER         
RUN .         ONE                  : Run          - RUN NUMBER                  
ENG .         WILTSHIRE            : Engineer     - RECORDING ENGINEER          
BASE.         EDM                  : Branch       - HOME BASE OF LOGGING UNIT   
MUD .         GEL CHEM             : Mud_type     - MUD TYPE                    
MATR.         SANDSTONE            : Logunit      - NEUTRON MATRIX              
TMAX.C        -17.7778             : BHT          - MAXIMUM RECORDED TEMPERATURE
BHTD.M        717.194              : BHTDEP       - MAXIMUM RECORDED TEMPERATURE
RMT .C        21.1111              : MDTP         - TEMPERATURE OF MUD          
MUDD.KG/M     1128                 : MWT          - MUD DENSITY                 
NEUT.         1                    : NEUTRON      - NEUTRON TYPE                
RESI.         0                    : RESIST       - RESISTIVITY TYPE            
RM  .OHMM     3.87                 : RM           - RESISTIVITY OF MUD          
RMC .OHMM     0.25                 : RMC          - RESISTIVITY OF MUD CAKE     
RMF .OHMM     4.74                 : RMF          - RESISTIVITY OF MUD FILTRATE 
SUFT.C        -17.7778             : SUFT         - SURFACE TEMPERATURE         
~A  DEPTH     RESD      CAL       GR     PHIN     PHID
# ...
  654.864    6.170  168.714   88.488    0.239    0.159
  655.114    5.609  168.392   91.568    0.272    0.176
  655.364    5.383  168.878   95.498    0.301    0.168
  655.614    5.327  170.405  102.627    0.318    0.164
  655.864    5.687  171.826  110.130    0.333    0.163
  656.114    6.105  174.210  117.094    0.344    0.154
  656.364    6.275  175.079  117.748    0.358    0.141
  656.614    6.520  175.179  114.465    0.356    0.123
  656.864    6.775  174.943  107.254    0.325    0.100
  657.114    7.002  174.123   99.917    0.300    0.095
  657.364    7.172  173.286   97.003    0.280    0.105
  657.614    7.492  173.077   98.026    0.288    0.120
  657.864    8.190  172.656  100.922    0.303    0.108
  658.114    8.806  173.049   96.375    0.309    0.092
  658.364    9.151  173.331   86.745    0.290    0.082
  658.614    8.910  173.931   85.591    0.267    0.058
  658.864    8.158  173.926   92.723    0.252    0.020
  659.114    7.323  173.802   95.983    0.280    0.026
  659.364    6.669  173.792  101.002    0.321    0.058
  659.614    6.354  174.409  111.159    0.340    0.057
  659.864    6.883  175.203  115.394    0.366    0.105
  660.114    7.537  175.800  111.024    0.364    0.102
  660.364    8.120  174.656   98.550    0.336    0.080
  660.614    7.806  172.603   90.001    0.314    0.069
  660.864    6.650  171.668   88.606    0.288    0.065
  661.114    6.078  172.368  116.928    0.263    0.053
  661.364    5.525  174.707  126.058    0.348    0.064
  661.614    5.264  177.358  134.159    0.380    0.155
  661.864    4.970  180.524  132.701    0.402    0.163
  662.114    4.839  183.173  123.976    0.417    0.126
  662.364    4.504  179.578  113.137    0.420    0.105
  662.614    4.184  173.106  102.473    0.394    0.096
  662.864    3.859  169.296   85.150    0.362    0.056
  663.114    3.458  166.431   71.646    0.331    0.154
  663.364    3.195  165.176   65.707    0.318    0.218
  663.614    3.054  164.235   68.056    0.310    0.218
  663.864    2.980  164.239   70.289    0.308    0.217
  664.114    2.986  164.828   76.340    0.312    0.226
  664.364    3.120  165.842   77.719    0.311    0.227
  664.614    3.307  166.352   79.108    0.305    0.193
  664.864    3.424  167.479   82.736    0.299    0.179
  665.114    3.649  168.363   86.788    0.293    0.166
  665.364    4.003  169.383   90.587    0.290    0.138
  665.614    4.289  169.987   95.237    0.298    0.172
  665.864    4.705  170.993  104.435    0.291    0.158
  666.114    4.960  172.613  111.078    0.279    0.150
  666.364    5.126  173.520  110.410    0.273    0.136
  666.614    4.893  172.071   99.257    0.281    0.135
  666.864    4.586  170.828   82.603    0.297    0.145
  667.114    4.185  170.418   76.481    0.306    0.162
  667.364    4.009  170.911   80.112    0.310    0.181
  667.614    3.785  173.776   82.645    0.313    0.184
  667.864    3.639  175.087   85.296    0.313    0.185
  668.114    3.575  175.178   87.535    0.311    0.194
  668.364    3.557  174.461   90.063    0.312    0.192
  668.614    3.611  173.821   96.601    0.309    0.197
  668.864    3.890  172.982  102.644    0.304    0.189
  669.114    4.337  172.572  110.075    0.305    0.164
  669.364    4.698  172.546  121.448    0.307    0.117
  669.614    4.599  173.253  120.963    0.317    0.095
  669.864    4.382  174.271  112.598    0.348    0.088
  670.114    4.137  174.352  100.906    0.371    0.083
  670.364    4.261  173.631   97.085    0.366    0.065
  670.614    4.598  172.476  103.619    0.327    0.087
  670.864    4.936  172.153  109.913    0.297    0.109
  671.114    5.166  173.490  113.645    0.306    0.116
  671.364    4.851  172.657  105.889    0.321    0.111
  671.614    4.285  169.141   87.846    0.326    0.116
  671.864    3.938  164.731   73.429    0.297    0.136
  672.114    4.040  163.485   74.211    0.275    0.157
  672.364    4.290  164.290   79.649    0.266    0.158
  672.614    4.698  167.361   84.362    0.256    0.092
  672.864    5.061  169.284   90.230    0.233    0.065
  673.114    5.325  170.313   97.913    0.246    0.068
  673.364    5.056  170.177  101.353    0.267    0.105
  673.614    4.896  169.346  105.033    0.286    0.089
  673.864    4.750  169.350  102.546    0.295    0.079
  674.114    4.812  170.371  100.845    0.286    0.077
  674.364    4.884  171.047  101.015    0.276    0.114
  674.614    4.653  174.012  106.883    0.268    0.116
  674.864    4.386  174.202  111.653    0.290    0.111
  675.114    4.157  171.013  106.563    0.315    0.079
  675.364    4.076  166.490   99.106    0.319    0.046
  675.614    3.990  168.441   90.382    0.297    0.069
  675.864    3.963  169.954   87.714    0.273    0.147
  676.114    3.965  170.343   85.891    0.276    0.158
  676.364    3.996  170.539   85.345    0.280    0.153
  676.614    4.019  170.432   86.724    0.277    0.155
  676.864    4.028  170.204   91.260    0.271    0.145
  677.114    3.971  169.587   95.240    0.270    0.131
  677.364    3.818  167.924   97.836    0.273    0.102
  677.614    3.651  165.444   97.526    0.279    0.090
  677.864    3.875  166.981   99.936    0.288    0.085
  678.114    4.080  169.017  105.325    0.299    0.046
  678.364    4.096  172.789  110.457    0.309    0.014
  678.614    3.637  174.932  116.873    0.333    0.056
  678.864    3.800  175.730  118.188    0.377    0.068
  679.114    3.977  174.200  111.583    0.426    0.035
  679.364    4.193  171.828  116.249    0.389    0.004
  679.614    4.429  171.905  116.109    0.350   -0.006
  679.864    4.601  174.144  118.956    0.313    0.116
  680.114    4.781  177.327  123.784    0.281    0.100
  680.364    4.853  178.539  129.460    0.298    0.117
  680.614    4.582  179.440  135.871    0.357    0.121
  680.864    4.128  180.561  134.419    0.371    0.105
  681.114    3.699  180.646  130.172    0.352    0.082
  681.364    3.191  180.827  124.358    0.355    0.050
  681.614    3.062  177.335  121.128    0.368    0.034
  681.864    3.003  174.654  133.228    0.351   -0.008
  682.114    3.087  178.437  141.394    0.397    0.058
  682.364    3.219  178.942  143.091    0.392    0.084
  682.614    3.735  176.150  144.403    0.400    0.068
  682.864    4.202  177.587  146.819    0.391    0.079
  683.114    4.054  179.514  144.091    0.370    0.057
  683.364    3.712  181.269  139.113    0.371    0.054
  683.614    3.308  181.852  138.022    0.386    0.048
  683.864    3.187  181.540  135.344    0.399    0.028
  684.114    3.188  180.691  140.547    0.410   -0.003
  684.364    3.212  178.319  146.708    0.429   -0.009
  684.614    3.296  174.206  147.734    0.434    0.077
  684.864    3.519  177.382  144.879    0.426    0.068
  685.114    3.784  180.635  138.090    0.410    0.036
  685.364    3.997  181.137  135.793    0.383    0.026
  685.614    4.130  179.800  140.386    0.377    0.000
  685.864    4.177  179.062  143.519    0.381    0.045
  686.114    3.818  180.165  146.967    0.405    0.069
  686.364    2.444  181.083  148.586    0.433    0.072
  686.614    1.855  180.451  145.313    0.471    0.075
  686.864    1.656  179.514  138.584    0.481    0.061
  687.114    1.630  176.950  132.885    0.461    0.025
  687.364    1.681  175.900  136.872    0.427   -0.010
  687.614    1.940  177.655  141.348    0.412    0.037
  687.864    2.696  178.844  145.402    0.413    0.047
  688.114    2.974  181.614  145.325    0.407    0.061
  688.364    1.651  183.954  143.012    0.415    0.059
  688.614    1.296  184.443  131.807    0.451    0.047
  688.864    1.196  181.772  117.212    0.416   -0.007
  689.114    1.302  177.659  129.732    0.404    0.046
  689.364    1.654  178.871  141.473    0.419    0.091
  689.614    2.383  179.776  142.020    0.446    0.072
  689.864    3.171  178.654  141.580    0.450    0.052
  690.114    3.666  178.419  140.719    0.450    0.042
  690.364    3.929  178.301  139.385    0.462    0.061
  690.614    4.075  178.920  137.507    0.482    0.074
  690.864    4.219  179.004  135.380    0.479    0.079
  691.114    4.167  179.189  133.309    0.489    0.064
