~VERSION INFORMATION
 VERS.                 2.0:   CWLS LOG ASCII STANDARD -VERSION 2.0
 WRAP.                  NO:   ONE LINE PER DEPTH STEP
~WELL INFORMATION BLOCK
#MNEM.UNIT           DATA                    DESCRIPTION OF MNEMONIC
#---------    -------------------            -------------------------------
# Generated from Intellog Unique Number	CW_70_72/WELL/1057
NULL.         -999.25                        : NULL_VALUE
WELL.         MIKAS AMOCO CALLING LAKE 11-12 : Well_name    - WELL              
LOC .         11-12-072-20W4                 : Location     - LOCATION          
UWI .         00/11-12-072-20W4/0            : Uwi          - UNIQUE WELL ID    
ENTR.         JAYE                           : Entered      - ENTERED BY        
SRVC.         SCHLUMBERGER                   : Scn          - SERVICE COMPANY   
DATE.         24 FEB 73                      : Date         - LOG DATE          
STRT.M        316.992                        : top_depth    - START DEPTH       
STOP.M        518.242                        : bot_depth    - STOP DEPTH        
STEP.M        0.25                           : increment    - STEP LENGTH       
~CURVE INFORMATION BLOCK
#MNEM UNIT       ERCB CURVE CODE    CURVE DESCRIPTION
#-----------   ------------------   ----------------------------------
DEPT.M        00 001 00 00         : DEPTH        - DEPTH                       
DPHI.V/V      00 890 00 00         : PHID         - DENSITY POROSITY (SANDSTONE)
NPHI.V/V      00 330 00 00         : PHIN         - NEUTRON POROSITY (SANDSTONE)
GR  .API      00 310 00 00         : GR           - GAMMA RAY                   
CALI.MM       00 280 01 00         : CAL          - CALIPER                     
ILD .OHMM     00 120 00 00         : RESD         - DEEP RESISTIVITY (DLL)      
~PARAMETER INFORMATION       
#MNEM.UNIT           DATA             DESCRIPTION OF MNEMONIC
#---------         -----------     ------------------------------
GL  .M        594.055              : gl           - GROUND LEVEL ELEVATION      
EREF.M        597.408              : kb           - ELEVATION OF DEPTH REFERENCE
DATM.M        594.055              : datum        - DATUM ELEVATION             
TDD .M        542.544              : tdd          - TOTAL DEPTH DRILLER         
RUN .         ONE                  : Run          - RUN NUMBER                  
ENG .         LYE                  : Engineer     - RECORDING ENGINEER          
WIT .         COVENEY/BOUPLAND     : Witness      - WITNESSED BY                
BASE.         R.D.                 : Branch       - HOME BASE OF LOGGING UNIT   
MUD .         GEL CHEM             : Mud_type     - MUD TYPE                    
MATR.         SANDSTONE            : Logunit      - NEUTRON MATRIX              
TMAX.C        28.8889              : BHT          - MAXIMUM RECORDED TEMPERATURE
BHTD.M        542.239              : BHTDEP       - MAXIMUM RECORDED TEMPERATURE
RMT .C        18.8889              : MDTP         - TEMPERATURE OF MUD          
MUDD.KG/M     1104                 : MWT          - MUD DENSITY                 
NEUT.         1                    : NEUTRON      - NEUTRON TYPE                
RESI.         1                    : RESIST       - RESISTIVITY TYPE            
RM  .OHMM     4.29                 : RM           - RESISTIVITY OF MUD          
RMC .OHMM     0                    : RMC          - RESISTIVITY OF MUD CAKE     
RMF .OHMM     5.03                 : RMF          - RESISTIVITY OF MUD FILTRATE 
SUFT.C        -17.7778             : SUFT         - SURFACE TEMPERATURE         
~A  DEPTH     PHID     PHIN       GR      CAL     RESD
# ...
  499.492    0.128    0.399  126.804  158.351    6.285
  499.742    0.144    0.393  129.267  160.667    5.800
  499.992    0.148    0.386  130.818  163.398    5.538
  500.242    0.136    0.381  131.818  164.877    5.461
  500.492    0.118    0.377  135.014  163.467    5.377
  500.742    0.095    0.387  139.127  158.653    5.312
  500.992    0.088    0.408  141.960  156.402    5.248
  501.242    0.102    0.470  140.882  156.130    5.158
  501.492    0.102    0.496  137.119  158.755    5.103
  501.742    0.093    0.471  132.438  162.411    5.058
  501.992    0.100    0.438  126.776  164.206    5.006
  502.242    0.109    0.428  122.034  160.829    5.022
  502.492    0.126    0.444  121.813  162.828    5.142
  502.742    0.137    0.472  121.774  166.072    5.346
  502.992    0.113    0.495  118.313  167.145    5.662
  503.242    0.094    0.509  112.839  166.459    5.886
  503.492    0.076    0.508  111.823  165.984    5.955
  503.742    0.062    0.485  113.065  166.014    5.984
  503.992    0.076    0.439  114.736  165.954    5.993
  504.242    0.078    0.420  116.103  165.881    6.022
  504.492    0.101    0.399  112.276  166.031    6.061
  504.742    0.095    0.381  113.643  166.269    6.059
  504.992    0.065    0.373  117.022  166.715    6.017
  505.242    0.089    0.378  113.074  167.271    6.014
  505.492    0.077    0.375   98.010  167.620    5.992
  505.742    0.089    0.379   99.497  167.867    5.961
  505.992    0.077    0.377  102.942  167.898    5.958
  506.242    0.059    0.380  105.344  167.318    5.907
  506.492    0.090    0.374  107.870  167.253    5.824
  506.742    0.076    0.369  108.504  167.286    5.774
  506.992    0.075    0.367  106.937  167.738    5.743
  507.242    0.065    0.374  103.354  168.190    5.682
  507.492    0.082    0.371   99.347  168.430    5.662
  507.742    0.110    0.360   97.412  168.780    5.699
  507.992    0.083    0.351   93.342  168.503    5.718
  508.242    0.097    0.353   88.845  166.064    5.754
  508.492    0.105    0.353   85.141  163.613    5.911
  508.742    0.129    0.346   86.934  165.310    5.970
  508.992    0.128    0.366   88.850  173.205    6.029
  509.242    0.123    0.399   91.868  171.689    6.058
  509.492    0.102    0.459   94.084  165.106    5.883
  509.742    0.133    0.470   96.733  172.795    5.744
  509.992    0.127    0.458   84.479  168.595    5.373
  510.242    0.153    0.440   76.010  165.428    5.087
  510.492    0.162    0.420   72.186  165.980    4.915
  510.742    0.209    0.409   75.383  168.600    5.058
  510.992    0.231    0.449   78.091  166.883    5.478
  511.242    0.249    0.408   70.662  167.335    5.589
  511.492    0.274    0.382   73.070  167.161    5.588
  511.742    0.283    0.382   77.486  160.786    5.557
  511.992    0.262    0.369   83.187  158.452    5.388
  512.242    0.232    0.354   90.111  160.241    5.197
  512.492    0.196    0.343   98.256  164.308    4.946
  512.742    0.177    0.348  106.095  167.967    4.691
  512.992    0.160    0.339  114.850  170.277    4.463
  513.242    0.176    0.367  124.279  170.005    4.276
  513.492    0.171    0.392  131.752  167.455    4.124
  513.742    0.180    0.411  136.599  170.285    3.986
  513.992    0.194    0.410  127.887  171.669    3.943
  514.242    0.170    0.404  123.756  169.635    3.922
  514.492    0.188    0.401  120.968  172.156    3.902
  514.742    0.172    0.382  115.676  172.814    3.900
  514.992    0.164    0.401  118.997  171.403    3.899
  515.242    0.180    0.408  119.262  169.270    3.891
  515.492    0.175    0.384  112.261  168.683    3.877
  515.742    0.193    0.375  113.077  169.032    3.876
  515.992    0.201    0.390  114.504  169.279    3.907
  516.242    0.193    0.388  115.747  169.830    4.001
  516.492    0.184    0.387  115.647  171.008    4.069
  516.742    0.176    0.399  116.095  172.177    4.109
  516.992    0.167    0.396  116.301  172.939    4.122
  517.242    0.162    0.389  117.848  172.667    4.136
  517.492    0.162    0.377  120.254  171.978    4.140
  517.742    0.148    0.375  121.373  170.776    4.070
  517.992    0.157    0.381  116.204  169.677    3.972
  518.242    0.169    0.396  119.279  169.400    3.838
