~VERSION INFORMATION
 VERS.                 2.0:   CWLS LOG ASCII STANDARD -VERSION 2.0
 WRAP.                  NO:   ONE LINE PER DEPTH STEP
~WELL INFORMATION BLOCK
#MNEM.UNIT           DATA                    DESCRIPTION OF MNEMONIC
#---------    -------------------            -------------------------------
# Generated from Intellog Unique Number	CW_73_75/WELL/903
WELL.         CDN SUP ET AL FRANCIS 10-01    : Well_name    - WELL
LOC .         00/10-01-074-21W4/0            : Location     - LOCATION
UWI .         00/10-01-074-21W4/0            : Uwi          - UNIQUE WELL ID
ENTR.         JAYE                           : Entered      - ENTERED BY
SRVC.         SCHLUMBERGER                   : Scn          - SERVICE COMPANY
DATE.         16 FEB 75                      : Date         - LOG DATE
STRT.M        396.24                         : top_depth    - START DEPTH
STOP.M        636.99                         : bot_depth    - STOP DEPTH
STEP.M        0.25                           : increment    - STEP LENGTH
 NULL. -999.2500:NULL Value
~CURVE INFORMATION BLOCK
#MNEM UNIT       ERCB CURVE CODE    CURVE DESCRIPTION
#-----------   ------------------   ----------------------------------
DEPT.M        00 001 00 00         : DEPTH        - DEPTH
DPHI.V/V      00 890 00 00         : PHID         - DENSITY POROSITY (SANDSTONE)
NPHI.V/V      00 330 00 00         : PHIN         - NEUTRON POROSITY (SANDSTONE)
GR  .API      00 310 00 00         : GR           - GAMMA RAY
CALI.MM       00 280 01 00         : CAL          - CALIPER
ILD .OHMM     00 120 00 00         : RESD         - DEEP RESISTIVITY (DIL)
~PARAMETER INFORMATION
#MNEM.UNIT           DATA             DESCRIPTION OF MNEMONIC
#---------         -----------     ------------------------------
GL  .M        708.05               : gl           - GROUND LEVEL ELEVATION
EREF.M        710.489              : kb           - ELEVATION OF DEPTH REFERENCE
DATM.M        708.05               : datum        - DATUM ELEVATION
TDD .M        694.944              : tdd          - TOTAL DEPTH DRILLER
RUN .         ONE                  : Run          - RUN NUMBER
ENG .         LLOYD                : Engineer     - RECORDING ENGINEER
WIT .         NESSIER              : Witness      - WITNESSED BY
BASE.         EDMONTON             : Branch       - HOME BASE OF LOGGING UNIT
MUD .         GEL                  : Mud_type     - MUD TYPE
MATR.         SANDSTONE            : Logunit      - NEUTRON MATRIX
TMAX.C        26.1111              : BHT          - MAXIMUM RECORDED TEMPERATURE
BHTD.M        695.249              : BHTDEP       - MAXIMUM RECORDED TEMPERATURE
RMT .C        4.44444              : MDTP         - TEMPERATURE OF MUD
MUDD.KG/M     1104                 : MWT          - MUD DENSITY
NEUT.         1                    : NEUTRON      - NEUTRON TYPE
RESI.         0                    : RESIST       - RESISTIVITY TYPE
RM  .OHMM     5.12                 : RM           - RESISTIVITY OF MUD
RMC .OHMM     0                    : RMC          - RESISTIVITY OF MUD CAKE
RMF .OHMM     3.6                  : RMF          - RESISTIVITY OF MUD FILTRATE
SUFT.C        -17.7778             : SUFT         - SURFACE TEMPERATURE
~A  DEPTH     PHID     PHIN       GR      CAL     RESD
  396.240    0.217    0.496   97.516  172.568    3.157
  396.490    0.215    0.482   97.464  172.068    3.252
  396.740    0.199    0.484   97.048  171.570    3.399
  396.990    0.200    0.516   93.541  171.173    3.554
  397.240    0.202    0.531   90.762  171.187    3.681
  397.490    0.183    0.500   87.801  171.201    3.926
  397.740    0.163    0.470   82.536  170.497    4.370
  397.990    0.139    0.421   77.636  166.099    4.696
  398.240    0.113    0.436   76.796  165.497    5.121
  398.490    0.168    0.435   81.168  166.949    5.585
  398.740    0.242    0.430   86.509  168.812    5.838
  398.990    0.228    0.435   91.731  169.543    5.268
  399.240    0.217    0.467   97.375  169.558    4.599
  399.490    0.187    0.510  102.172  168.751    4.491
  399.740    0.163    0.508  101.573  166.919    4.916
  399.990    0.137    0.456   99.279  166.215    5.624
  400.240    0.106    0.439  100.802  166.844    6.247
  400.490    0.201    0.439   98.448  167.884    6.952
  400.740    0.239    0.429   91.123  166.257    7.723
  400.990    0.250    0.418   85.494  164.834    8.484
  401.240    0.257    0.416   83.564  164.336    9.321
  401.490    0.268    0.404   83.935  164.454    9.888
  401.740    0.211    0.400   92.004  164.878    9.928
  401.990    0.192    0.394   96.498  164.994    9.554
  402.240    0.169    0.384   96.992  165.110    8.653
  402.490    0.144    0.380   96.333  166.357    7.851
  402.740    0.105    0.402   99.190  168.628    7.046
  402.990    0.073    0.448  103.624  170.799    6.276
  403.240    0.071    0.467  104.783  172.454    6.198
  403.490    0.181    0.467  101.034  174.829    6.431
  403.740    0.205    0.464   95.043  175.972    6.899
  403.990    0.214    0.455   89.111  174.857    7.607
  404.240    0.229    0.425   81.847  172.512    8.296
  404.490    0.243    0.394   87.371  170.883    8.915
  404.740    0.231    0.384   87.743  169.666    8.803
  404.990    0.228    0.377   88.964  168.449    8.317
  405.240    0.244    0.379   93.578  169.695    7.603
  405.490    0.207    0.424   98.010  170.941    6.860
  405.740    0.216    0.450  101.049  172.905    6.340
  405.990    0.200    0.477   96.815  174.562    6.147
  406.240    0.208    0.482   91.551  175.397    6.262
  406.490    0.226    0.472   88.832  174.898    6.880
  406.740    0.215    0.449   89.749  173.988    7.434
  406.990    0.221    0.430   93.636  172.155    7.989
  407.240    0.236    0.402   95.463  168.270    8.476
  407.490    0.238    0.396   95.896  166.437    8.992
  407.740    0.226    0.398   95.481  166.759    9.297
  407.990    0.209    0.399   95.186  167.491    9.737
  408.240    0.202    0.409   90.103  167.918   10.273
  408.490    0.232    0.405   81.324  167.417   11.244
  408.740    0.237    0.372   75.635  165.995   12.444
  408.990    0.242    0.321   65.704  165.497   17.718
  409.240    0.284    0.299   56.500  165.202   23.224
  409.490    0.336    0.332   43.599  164.296   38.309
  409.740    0.361    0.358   30.820  163.898   56.904
  409.990    0.369    0.370   29.738  163.501   60.591
  410.240    0.356    0.362   31.201  163.413   55.690
  410.490    0.334    0.340   35.331  163.427   47.120
  410.740    0.313    0.338   40.551  163.749   39.286
  410.990    0.269    0.363   44.135  164.072   34.933
  411.240    0.255    0.395   45.598  164.087   35.135
  411.490    0.245    0.413   46.637  164.101   36.798
  411.740    0.254    0.424   47.192  164.115   37.080
  411.990    0.277    0.434   48.352  164.436   36.614
  412.240    0.293    0.413   50.784  164.453   35.692
  412.490    0.308    0.389   55.156  164.773   32.565
  412.740    0.302    0.389   60.558  165.609   28.428
  412.990    0.275    0.403   67.537  166.752   23.356
  413.240    0.259    0.406   75.181  167.998   18.125
  413.490    0.257    0.398   82.038  168.730   14.170
  413.740    0.252    0.391   89.137  169.565   12.462
  413.990    0.222    0.403   94.237  170.195   11.081
  414.240    0.200    0.417   96.124  168.773    9.907
  414.490    0.204    0.409   94.618  167.763    9.361
  414.740    0.226    0.400   91.838  167.673    8.828
  414.990    0.237    0.399   89.907  169.227    8.159
  415.240    0.236    0.395   91.915  170.985    7.430
  415.490    0.196    0.395   97.560  172.847    6.595
  415.740    0.201    0.411  105.508  173.067    5.165
  415.990    0.179    0.449  112.063  172.568    4.298
  416.240    0.171    0.526  113.101  172.481    3.794
  416.490    0.184    0.535  113.959  173.212    3.462
  416.740    0.200    0.524  116.816  174.357    3.325
  416.990    0.208    0.511  121.126  175.397    3.259
  417.240    0.192    0.521  126.590  176.333    3.242
  417.490    0.189    0.541  126.961  176.554    3.267
  417.740    0.210    0.559  126.546  176.670    3.403
  417.990    0.222    0.542  124.857  177.198    3.738
  418.240    0.218    0.518  120.744  177.520    4.153
  418.490    0.215    0.491  116.389  177.230    4.681
  418.740    0.216    0.475  114.276  177.142    5.306
  418.990    0.228    0.466  113.375  177.054    6.486
  419.240    0.239    0.449  113.808  177.169    7.034
  419.490    0.237    0.442  113.938  177.182    7.127
  419.740    0.223    0.456  114.128  177.094    6.859
  419.990    0.227    0.450  115.591  177.620    6.552
  420.240    0.212    0.446  115.418  177.635    6.530
  420.490    0.209    0.452  114.153  177.546    6.689
  420.740    0.213    0.485  108.647  174.174    6.993
  420.990    0.228    0.485   97.806  170.905    7.529
  421.240    0.251    0.431   87.088  167.736    8.378
  421.490    0.262    0.425   82.430  165.289    8.840
  421.740    0.254    0.415   86.681  164.378    8.826
  421.990    0.253    0.410   90.446  164.701    8.763
  422.240    0.240    0.437   96.515  165.026    8.749
  422.490    0.247    0.448   92.948  165.552    9.096
  422.740    0.266    0.429   86.472  165.667    9.757
  422.990    0.287    0.422   80.662  165.682   10.428
  423.240    0.302    0.410   77.823  165.593   10.354
  423.490    0.315    0.407   77.042  165.403   10.224
  423.740    0.275    0.424   79.234  166.238    9.677
  423.990    0.252    0.429   81.787  168.921    8.993
  424.240    0.244    0.440   88.280  170.885    8.404
  424.490    0.225    0.469   90.410  170.488    8.468
  424.740    0.246    0.478   89.812  168.758    8.820
  424.990    0.277    0.475   90.972  166.412    9.255
  425.240    0.294    0.472   94.435  163.655    9.533
  425.490    0.292    0.471   99.534  163.567    9.588
  425.740    0.294    0.475  104.088  164.814    9.076
  425.990    0.274    0.478  109.188  168.214    8.512
  426.240    0.244    0.468  114.529  172.127    7.882
  426.490    0.228    0.460  117.931  175.323    7.488
  426.740    0.224    0.458  110.667  176.158    7.127
  426.990    0.235    0.458   98.736  174.736    6.709
  427.240    0.240    0.459   90.079  171.775    6.457
  427.490    0.256    0.461   84.875  169.633    6.364
  427.740    0.265    0.467   85.186  169.545    6.377
  427.990    0.243    0.483   89.013  171.510    6.450
  428.240    0.246    0.531   90.658  171.318    6.523
  428.490    0.292    0.539   86.424  168.152    6.695
  428.740    0.288    0.519   86.250  165.600    6.986
  428.990    0.265    0.505   87.411  163.151    7.576
  429.240    0.260    0.506   83.540  162.036    9.092
  429.490    0.266    0.486   79.548  161.538   10.850
  429.740    0.272    0.473   78.284  161.860   12.619
  429.990    0.266    0.469   77.686  162.387   14.409
  430.240    0.254    0.466   76.603  162.504   16.606
  430.490    0.231    0.437   73.097  163.135   18.311
  430.740    0.193    0.326   68.197  163.559   19.822
  430.990    0.094    0.258   59.053  164.293   20.684
  431.240    0.036    0.232   59.061  163.896   20.842
  431.490    0.090    0.289   66.403  162.987   20.169
  431.740    0.146    0.337   77.684  161.667   18.469
  431.990    0.212    0.402   82.784  160.552   16.005
  432.240    0.239    0.490   81.701  160.361   13.642
  432.490    0.276    0.480   77.952  160.580   12.401
