~VERSION INFORMATION
 VERS.                 2.0:   CWLS LOG ASCII STANDARD -VERSION 2.0
 WRAP.                  NO:   ONE LINE PER DEPTH STEP
~WELL INFORMATION BLOCK
#MNEM.UNIT           DATA                    DESCRIPTION OF MNEMONIC
#---------    -------------------            -------------------------------
# Generated from Intellog Unique Number	CS_77_79/WELL/1025
WELL.         CWWE THORNBURY                 : Well_name    - WELL
LOC .         00/16-18-079-13W4/0            : Location     - LOCATION
UWI .         00/16-18-079-13W4/0            : Uwi          - UNIQUE WELL ID
ENTR.         JHS                            : Entered      - ENTERED BY
SRVC.         SCHLUMBERGER                   : Scn          - SERVICE COMPANY
STRT.M        250                            : top_depth    - START DEPTH
STOP.M        510                            : bot_depth    - STOP DEPTH
STEP.M        0.25                           : increment    - STEP LENGTH
 NULL. -999.2500:NULL Value
~CURVE INFORMATION BLOCK
#MNEM UNIT       ERCB CURVE CODE    CURVE DESCRIPTION
#-----------   ------------------   ----------------------------------
DEPT.M        00 001 00 00         : DEPTH        - DEPTH
DPHI.V/V      00 890 00 00         : PHID         - DENSITY POROSITY (LIMESTONE)
NPHI.V/V      00 330 00 00         : PHIN         - NEUTRON POROSITY (LIMESTONE)
GR  .API      00 310 00 00         : GR           - GAMMA RAY
ILD .OHMM     00 120 00 00         : RESD         - DEEP RESISTIVITY (DIL)
RHOB.KG/M3    00 350 00 00         : DENS         - BULK DENSITY
~PARAMETER INFORMATION
#MNEM.UNIT           DATA             DESCRIPTION OF MNEMONIC
#---------         -----------     ------------------------------
GL  .M        681.78               : gl           - GROUND LEVEL ELEVATION
EREF.M        684.88               : kb           - ELEVATION OF DEPTH REFERENCE
DATM.M        684.88               : datum        - DATUM ELEVATION
TDD .M        523                  : tdd          - TOTAL DEPTH DRILLER
RUN .         ONE                  : Run          - RUN NUMBER
ENG .         BILL                 : Engineer     - RECORDING ENGINEER
WIT .         JIM                  : Witness      - WITNESSED BY
MUD .         GEL                  : Mud_type     - MUD TYPE
MATR.         LIMESTONE            : Logunit      - NEUTRON MATRIX
TMAX.C        21                   : BHT          - MAXIMUM RECORDED TEMPERATURE
BHTD.M        523                  : BHTDEP       - MAXIMUM RECORDED TEMPERATURE
MATR.         1                    : LOGUNIT      - NEUTRON MATRIX
RMT .C        25                   : MDTP         - TEMPERATURE OF MUD
NEUT.         1                    : NEUTRON      - NEUTRON TYPE
RESI.         0                    : RESIST       - RESISTIVITY TYPE
RMC .OHMM     0.25                 : RMC          - RESISTIVITY OF MUD CAKE
RMF .OHMM     0.25                 : RMF          - RESISTIVITY OF MUD FILTRATE
SUFT.C        15                   : SUFT         - SURFACE TEMPERATURE
~A  DEPTH     PHID     PHIN       GR     RESD     DENS
# ...
  432.500    0.280    0.513   97.974    2.386 2231.540
  432.750    0.276    0.553   94.267    2.174 2237.770
  433.000    0.276    0.550   93.013    2.135 2237.670
  433.250    0.275    0.550   96.050    2.177 2239.680
  433.500    0.268    0.539   98.488    2.263 2252.210
  433.750    0.241    0.512   99.692    2.308 2298.280
  434.000    0.220    0.496   97.209    2.686 2333.860
  434.250    0.207    0.433   92.263    3.009 2356.850
  434.500    0.207    0.420   95.920    3.568 2356.790
  434.750    0.212    0.432   98.971    4.231 2348.310
  435.000    0.202    0.435  101.403    4.741 2365.000
  435.250    0.190    0.399   98.920    5.212 2385.900
  435.500    0.183    0.387   92.131    5.953 2396.320
  435.750    0.197    0.376   91.490    6.671 2373.140
  436.000    0.211    0.369   95.154    6.802 2350.000
  436.250    0.211    0.381  105.577    5.969 2349.930
  436.500    0.195    0.413  108.621    5.140 2377.110
  436.750    0.165    0.434  103.674    4.863 2427.380
  437.000    0.140    0.446   98.732    5.052 2471.360
  437.250    0.109    0.414   92.562    5.451 2523.730
  437.500    0.103    0.384   90.072    5.996 2534.130
  437.750    0.142    0.383   94.349    5.888 2466.930
  438.000    0.199    0.404   96.161    5.466 2370.340
  438.250    0.215    0.428   97.375    4.620 2342.980
  438.500    0.221    0.437  105.946    4.288 2332.380
  438.750    0.223    0.454  108.376    3.906 2328.130
  439.000    0.231    0.506  108.968    3.626 2315.460
  439.250    0.232    0.463  108.944    3.431 2313.270
  439.500    0.228    0.442  106.458    3.308 2319.500
  439.750    0.219    0.463  103.360    3.309 2336.210
  440.000    0.198    0.493  103.334    3.506 2371.780
  440.250    0.179    0.480  106.380    3.712 2403.180
  440.500    0.178    0.454  107.581    3.857 2405.170
  440.750    0.194    0.448  111.855    3.861 2377.820
  441.000    0.202    0.457  111.832    3.793 2365.180
  441.250    0.200    0.486  105.046    4.017 2367.190
  441.500    0.171    0.505  104.399    4.254 2417.460
  441.750    0.151    0.453  114.212    4.506 2450.950
  442.000    0.169    0.421  123.408    4.594 2421.490
  442.250    0.201    0.433  125.222    4.687 2366.870
  442.500    0.220    0.461  121.511    4.692 2333.210
  442.750    0.211    0.473  114.722    4.694 2349.930
  443.000    0.185    0.478  105.477    4.787 2393.900
  443.250    0.173    0.375   87.010    5.073 2414.790
  443.500    0.182    0.343   79.607    5.076 2397.930
  443.750    0.219    0.347   89.413    5.080 2334.920
  444.000    0.234    0.422   90.618    5.585 2309.650
  444.250    0.256    0.417   93.664    7.008 2271.810
  444.500    0.273    0.397   99.170    8.958 2242.370
  444.750    0.251    0.391   99.760   11.451 2280.040
  445.000    0.227    0.369   91.126   14.098 2321.930
  445.250    0.206    0.318   85.567   15.214 2357.520
  445.500    0.202    0.302   83.701   15.811 2363.730
  445.750    0.214    0.320   78.752   16.433 2344.770
  446.000    0.246    0.287   67.665   18.412 2290.150
  446.250    0.185    0.253   53.500   21.429 2392.860
  446.500    0.141    0.230   51.010   22.691 2468.300
  446.750    0.138    0.229   58.979   21.876 2474.520
  447.000    0.171    0.290   68.175   21.080 2417.790
  447.250    0.211    0.382   77.983   17.157 2348.480
  447.500    0.218    0.384   77.955   14.771 2337.910
  447.750    0.200    0.373   79.775   12.958 2367.190
  448.000    0.175    0.369  103.720   10.748 2411.160
  448.250    0.163    0.366  117.822   11.169 2432.060
  448.500    0.165    0.374  119.029   12.280 2427.790
  448.750    0.186    0.390  117.157   15.118 2392.050
  449.000    0.225    0.404  112.218   19.692 2324.830
  449.250    0.258    0.415   91.905   24.249 2268.120
  449.500    0.267    0.388   83.890   26.166 2253.340
  449.750    0.271    0.352   80.793   26.686 2246.970
  450.000    0.241    0.348   91.827   25.724 2297.240
  450.250    0.208    0.358   95.487   22.149 2353.790
  450.500    0.201    0.356  100.379   19.804 2366.310
  450.750    0.202    0.367  103.425   18.384 2364.110
  451.000    0.197    0.385   99.093   17.718 2372.430
  451.250    0.189    0.380   94.767   17.404 2387.040
  451.500    0.185    0.370   92.899   19.137 2393.260
  451.750    0.195    0.367   88.568   21.849 2376.390
  452.000    0.223    0.350   80.554   24.953 2328.060
  452.250    0.230    0.357   72.535   26.424 2317.490
  452.500    0.226    0.371   71.282   26.445 2323.710
  452.750    0.233    0.361   83.546   24.555 2311.040
  453.000    0.221    0.361   90.283   22.791 2331.940
  453.250    0.205    0.366   90.862   20.385 2359.130
  453.500    0.206    0.360   88.378   20.402 2356.940
  453.750    0.222    0.348   85.284   20.803 2329.580
  454.000    0.234    0.353   85.254   20.052 2310.640
  454.250    0.202    0.344   89.534   18.968 2365.090
  454.500    0.185    0.339   94.427   17.279 2394.370
  454.750    0.176    0.348   99.317   17.295 2408.990
  455.000    0.177    0.354  102.361   17.977 2406.820
  455.250    0.206    0.365   91.275   17.658 2358.490
  455.500    0.241    0.401   79.567   15.786 2297.570
  455.750    0.239    0.379   94.909   12.843 2301.680
  456.000    0.212    0.353  120.695    8.822 2347.750
  456.250    0.197    0.381  129.877    6.060 2372.860
  456.500    0.192    0.425  127.400    5.953 2381.140
  456.750    0.198    0.448  102.794    7.610 2370.590
  457.000    0.251    0.424   76.951   13.910 2280.310
  457.250    0.349    0.156   53.568   23.583 2112.390
  457.500    0.379    0.134   40.635   60.481 2061.960
  457.750    0.370    0.142   40.606  149.406 2076.560
  458.000    0.372    0.136   41.193  248.576 2074.380
  458.250    0.386    0.126   37.481  329.942 2049.140
  458.500    0.382    0.120   33.146  413.963 2057.450
  458.750    0.360    0.117   31.276  463.795 2095.120
  459.000    0.353    0.120   31.869  491.211 2105.540
  459.250    0.365    0.152   37.374  415.045 2086.550
  459.500    0.367    0.197   41.651  264.440 2082.310
  459.750    0.343    0.233   41.626  188.639 2124.180
  460.000    0.316    0.281   40.986  175.137 2170.240
  460.250    0.297    0.303   37.879  178.585 2201.630
  460.500    0.295    0.256   36.005  211.728 2205.760
  460.750    0.323    0.153   34.759  270.650 2157.420
  461.000    0.359    0.116   31.044  326.991 2096.510
  461.250    0.394    0.117   30.394  387.800 2035.590
  461.500    0.380    0.167   30.985  410.659 2060.670
  461.750    0.371    0.133   30.340  418.857 2075.290
  462.000    0.396    0.119   29.701  451.963 2033.230
  462.250    0.399    0.119   32.139  525.888 2026.870
  462.500    0.382    0.136   33.341  600.414 2056.140
  462.750    0.375    0.126   32.700  711.910 2068.660
  463.000    0.387    0.114   30.217  782.843 2047.610
  463.250    0.401    0.111   28.958  798.381 2024.450
  463.500    0.397    0.115   28.931  278.525 2030.650
  463.750    0.386    0.126   28.899   39.374 2049.450
  464.000    0.370    0.167   28.884   20.014 2076.650
  464.250    0.348    0.220   30.693   12.752 2114.320
  464.500    0.336    0.320   30.054    9.807 2135.240
  464.750    0.306    0.340   31.259    8.604 2187.580
  465.000    0.308    0.352   31.851    9.273 2183.290
  465.250    0.310    0.372   29.977   10.997 2179.040
  465.500    0.315    0.374   28.722   16.358 2170.560
  465.750    0.327    0.361   31.155   24.793 2151.590
  466.000    0.330    0.351   32.975   41.297 2145.240
  466.250    0.323    0.359   32.334  102.256 2157.720
  466.500    0.322    0.397   29.226  173.568 2159.770
  466.750    0.328    0.405   29.820  454.797 2149.190
  467.000    0.344    0.410   34.097  560.127 2121.830
  467.250    0.365    0.473   42.669  627.732 2086.100
  467.500    0.355    0.432   40.801  703.536 2102.790
  467.750    0.334    0.404   34.628  818.809 2138.390
  468.000    0.315    0.391   32.142  935.188 2171.850
  468.250    0.312    0.392   30.891 1009.370 2175.980
  468.500    0.299    0.366   29.022 1109.850 2198.970
  468.750    0.294    0.358   30.217 1316.230 2207.290
