~VERSION INFORMATION
 VERS.                 2.0:   CWLS LOG ASCII STANDARD -VERSION 2.0
 WRAP.                  NO:   ONE LINE PER DEPTH STEP
~WELL INFORMATION BLOCK
#MNEM.UNIT           DATA                    DESCRIPTION OF MNEMONIC
#---------    -------------------            -------------------------------
# Generated from Intellog Unique Number	CN_91_93/WELL/3069
WELL.         CANADIAN SUPERIOR OIL LTD.     : Well_name    - WELL
LOC .         00/12-23-092-21W4/0            : Location     - LOCATION
UWI .         00/12-23-092-21W4/0            : Uwi          - UNIQUE WELL ID
ENTR.         JOETTE                         : Entered      - ENTERED BY
SRVC.         SCHLUMBERGER                   : Scn          - SERVICE COMPANY
DATE.         04/10/92                       : Date         - LOG DATE
STRT.M        50                             : top_depth    - START DEPTH
STOP.M        252                            : bot_depth    - STOP DEPTH
STEP.M        0.25                           : increment    - STEP LENGTH
 NULL. -999.2500:NULL Value
~CURVE INFORMATION BLOCK
#MNEM UNIT       ERCB CURVE CODE    CURVE DESCRIPTION
#-----------   ------------------   ----------------------------------
DEPT.M        00 001 00 00         : DEPTH        - DEPTH
CALI.MM       00 280 01 00         : CAL          - CALIPER
GR  .API      00 310 00 00         : GR           - GAMMA RAY
NPHI.V/V      00 330 00 00         : PHIN         - NEUTRON POROSITY (SANDSTONE)
DPHI.V/V      00 890 00 00         : PHID         - DENSITY POROSITY (SANDSTONE)
ILD .OHMM     00 120 00 00         : RESD         - DEEP RESISTIVITY (DIL)
~PARAMETER INFORMATION
#MNEM.UNIT           DATA             DESCRIPTION OF MNEMONIC
#---------         -----------     ------------------------------
GL  .M        534.92               : gl           - GROUND LEVEL ELEVATION
EREF.M        538.77               : kb           - ELEVATION OF DEPTH REFERENCE
DATM.M        538.77               : datum        - DATUM ELEVATION
TDD .M        253.1                : tdd          - TOTAL DEPTH DRILLER
RUN .         ONE                  : Run          - RUN NUMBER
ENG .         BILL                 : Engineer     - RECORDING ENGINEER
WIT .         JIM                  : Witness      - WITNESSED BY
MUD .         GEL                  : Mud_type     - MUD TYPE
MATR.         SANDSTONE            : Logunit      - NEUTRON MATRIX
TMAX.C        20                   : BHT          - MAXIMUM RECORDED TEMPERATURE
BHTD.M        253.1                : BHTDEP       - MAXIMUM RECORDED TEMPERATURE
RMT .C        14                   : MDTP         - TEMPERATURE OF MUD
MUDD.KG/M     1120                 : MWT          - MUD DENSITY
NEUT.         1                    : NEUTRON      - NEUTRON TYPE
RESI.         0                    : RESIST       - RESISTIVITY TYPE
RM  .OHMM     5.11                 : RM           - RESISTIVITY OF MUD
RMC .OHMM     3.3                  : RMC          - RESISTIVITY OF MUD CAKE
RMF .OHMM     3.3                  : RMF          - RESISTIVITY OF MUD FILTRATE
SUFT.C        4                    : SUFT         - SURFACE TEMPERATURE
~A  DEPTH      CAL       GR     PHIN     PHID     RESD
# ...
  159.500  261.071   97.338    0.477    0.231    6.511
  159.750  261.039   94.171    0.480    0.224    6.143
  160.000  261.008   96.022    0.450    0.228    6.135
  160.250  260.946   97.878    0.455    0.225    6.129
  160.500  260.915  100.355    0.475    0.217    5.892
  160.750  260.863  100.970    0.467    0.216    5.666
  161.000  260.842  100.945    0.474    0.212    5.347
  161.250  260.779   92.768    0.501    0.212    5.043
  161.500  260.748   88.353    0.526    0.208    4.850
  161.750  260.696   86.441    0.489    0.188    4.846
  162.000  260.665   85.162    0.450    0.187    5.637
  162.250  260.624   81.368    0.447    0.222    6.812
  162.500  260.582   77.580    0.465    0.241    7.627
  162.750  260.540   75.053    0.458    0.225    8.222
  163.000  260.488   78.791    0.435    0.150    8.532
  163.250  260.447   84.410    0.416    0.066    8.851
  163.500  260.416   90.022    0.418    0.047    8.842
  163.750  260.374   92.512    0.455    0.073    8.663
  164.000  260.322   96.876    0.467    0.152    8.496
  164.250  259.246   98.733    0.470    0.158    7.567
  164.500  259.204  100.589    0.490    0.157    7.006
  164.750  259.142  103.693    0.483    0.167    6.609
  165.000  259.111  104.922    0.473    0.182    6.232
  165.250  256.979  103.643    0.525    0.193    6.228
  165.500  255.892  100.483    0.519    0.211    6.106
  165.750  257.920   99.204    0.504    0.179    6.100
  166.000  257.878  101.054    0.512    0.147    6.091
  166.250  257.858   97.894    0.522    0.155    5.970
  166.500  257.806   99.750    0.509    0.160    5.965
  166.750  258.809  101.606    0.501    0.162    5.845
  167.000  260.858  101.587    0.499    0.177    5.727
  167.250  261.872  105.952    0.480    0.180    5.508
  167.500  261.830  109.062    0.558    0.183    5.398
  167.750  260.723   99.631    0.567    0.237    5.497
  168.000  260.691   95.217    0.550    0.235    5.811
  168.250  260.650   89.536    0.492    0.236    6.032
  168.500  260.598   76.975    0.438    0.264    6.503
  168.750  260.546   73.182    0.432    0.291    7.859
  169.000  260.525   71.909    0.439    0.291   10.247
  169.250  260.463   70.630    0.429    0.275   12.146
  169.500  260.431   66.836    0.427    0.288   12.604
  169.750  260.390   64.309    0.454    0.303   12.835
  170.000  260.348   56.747    0.476    0.290   13.572
  170.250  260.317   52.338    0.387    0.232   13.821
  170.500  259.210   51.053    0.354    0.142   14.614
  170.750  259.178   56.678    0.334    0.169   15.456
  171.000  259.126   63.551    0.355    0.178   15.736
  171.250  259.074   69.170    0.379    0.177   15.724
  171.500  259.043   65.382    0.418    0.227   15.407
  171.750  259.012   65.984    0.443    0.278   14.811
  172.000  260.005   70.349    0.423    0.287   14.251
  172.250  261.019   72.826    0.400    0.270   13.963
  172.500  262.023   70.920    0.395    0.256   14.764
  172.750  263.006   75.291    0.355    0.210   15.320
  173.000  264.019   88.434    0.385    0.184   14.182
  173.250  262.943   97.189    0.413    0.205   12.884
  173.500  262.891   91.520    0.431    0.207   11.053
  173.750  261.804   87.733    0.415    0.222    9.298
  174.000  259.641   86.454    0.404    0.239    9.293
  174.250  258.575   88.931    0.419    0.217    9.640
  174.500  257.499   91.414    0.435    0.203    9.630
  174.750  257.447   92.643    0.456    0.203    9.086
  175.000  257.406   88.850    0.450    0.207    7.944
  175.250  257.354   83.814    0.446    0.207    7.211
  175.500  257.322   78.773    0.461    0.203    7.072
  175.750  258.316   73.731    0.461    0.187    7.623
  176.000  258.295   69.317    0.443    0.143    9.038
  176.250  259.278   66.144    0.418    0.160   10.918
  176.500  259.246   64.237    0.408    0.194   11.995
  176.750  258.139   62.331    0.431    0.268   12.690
  177.000  258.118   60.425    0.433    0.282   13.421
  177.250  258.076   56.632    0.431    0.285   13.664
  177.500  258.035   54.738    0.426    0.297   14.176
  177.750  256.938   52.205    0.413    0.283   14.436
  178.000  256.896   53.434    0.429    0.198   15.852
  178.250  256.865   59.679    0.415    0.210   16.148
  178.500  255.757   54.632    0.381    0.146   16.437
  178.750  255.726   61.511    0.333    0.072   15.220
  179.000  255.674   75.909    0.316    0.154   10.998
  179.250  255.654   84.663    0.401    0.204    8.416
  179.500  255.612   89.021    0.466    0.238    5.968
  179.750  254.515   87.115    0.494    0.210    4.311
  180.000  254.473   84.582    0.483    0.207    4.560
  180.250  256.512   86.438    0.470    0.208    5.011
  180.500  257.515   88.288    0.463    0.203    6.290
  180.750  258.519   91.405    0.454    0.203    9.192
  181.000  259.512   93.882    0.436    0.184    9.727
  181.250  259.491   90.728    0.430    0.176   10.485
  181.500  259.439   85.686    0.415    0.188   11.738
  181.750  259.387   84.407    0.423    0.203   12.650
  182.000  259.366   83.122    0.408    0.214   13.130
  182.250  259.314   82.470    0.389    0.213   13.621
  182.500  259.262   81.824    0.389    0.183   14.135
  182.750  258.165   77.403    0.397    0.157   14.391
  183.000  258.144   71.735    0.381    0.093   14.648
  183.250  258.092   67.320    0.354    0.034   14.640
  183.500  258.051   67.289    0.336    0.020   14.625
  183.750  257.999   69.778    0.376    0.102   14.886
  184.000  257.978   77.278    0.396    0.170   14.874
  184.250  257.926   77.881    0.422    0.192   14.854
  184.500  258.940   75.974    0.438    0.183   14.558
  184.750  258.898   76.577    0.433    0.204   13.736
  185.000  259.902   80.941    0.438    0.212   13.209
  185.250  259.850   80.916    0.436    0.226   12.698
  185.500  258.753   72.106    0.446    0.253   12.688
  185.750  257.666   63.302    0.451    0.241   12.671
  186.000  257.625   46.346    0.369    0.050   12.661
  186.250  257.593   45.067    0.250    0.123   12.644
  186.500  258.576   52.567    0.247    0.200   13.895
  186.750  258.545   65.710    0.307    0.226   17.109
  187.000  259.559   80.108    0.385    0.223   15.842
  187.250  259.507   79.456    0.420    0.230   14.117
  187.500  259.476   78.804    0.419    0.229   12.343
  187.750  260.479   80.033    0.421    0.206   11.210
  188.000  260.427   82.517    0.416    0.186   10.182
  188.250  260.375   86.248    0.399    0.193    9.604
  188.500  260.354   88.731    0.410    0.209    8.723
  188.750  260.313   91.221    0.426    0.226    7.773
  189.000  260.251   93.077    0.444    0.234    6.668
  189.250  260.209   96.181    0.466    0.229    5.942
  189.500  260.178   95.529    0.484    0.229    4.814
  189.750  260.136   93.623    0.501    0.233    4.289
  190.000  260.095   87.955    0.531    0.251    4.711
  190.250  260.043   79.151    0.505    0.238    5.176
  190.500  259.991   69.719    0.466    0.220    6.376
  190.750  258.914   69.061    0.426    0.205    8.637
  191.000  258.883   70.918    0.445    0.242    9.492
  191.250  258.821   74.661    0.427    0.294   11.469
  191.500  258.790   73.370    0.432    0.276   12.127
  191.750  258.727   73.345    0.433    0.272   11.662
  192.000  258.696   75.828    0.436    0.267   11.214
  192.250  260.734   76.430    0.436    0.235   11.202
  192.500  261.759   75.772    0.436    0.185   11.402
  192.750  262.762   75.132    0.412    0.118   11.390
  193.000  261.675   75.107    0.410    0.169   11.163
  193.250  259.533   77.591    0.430    0.209   10.738
  193.500  257.391   75.058    0.436    0.241   10.131
  193.750  257.370   64.372    0.426    0.225    9.558
  194.000  256.252   51.799    0.403    0.120   10.304
  194.250  256.242   44.243    0.351    0.072   12.934
  194.500  256.200   46.100    0.266    0.038   16.235
  194.750  256.138   48.589    0.240    0.028   19.618
  195.000  256.107   53.581    0.239    0.033   26.573
  195.250  256.044   57.946    0.244    0.051   32.727
  195.500  256.024   63.564    0.255    0.069   28.075
  195.750  255.961   70.431    0.316    0.099   22.747
