~VERSION INFORMATION
 VERS.                 2.0:   CWLS LOG ASCII STANDARD -VERSION 2.0
 WRAP.                  NO:   ONE LINE PER DEPTH STEP
~WELL INFORMATION BLOCK
#MNEM.UNIT           DATA                    DESCRIPTION OF MNEMONIC
#---------    -------------------            -------------------------------
# Generated from Intellog Unique Number	CW_82_90/WELL/2595
WELL.         13-20-082-03W5                 : Well_name    - WELL
LOC .         00/13-20-082-03W5/0            : Location     - LOCATION
UWI .         00/13-20-082-03W5/0            : Uwi          - UNIQUE WELL ID
ENTR.         JJ                             : Entered      - ENTERED BY
SRVC.         SCHLUMBERGER                   : Scn          - SERVICE COMPANY
DATE.         24 JAN 72                      : Date         - LOG DATE
STRT.M        352.958                        : top_depth    - START DEPTH
STOP.M        480.458                        : bot_depth    - STOP DEPTH
STEP.M        0.25                           : increment    - STEP LENGTH
 NULL. -999.2500:NULL Value
~CURVE INFORMATION BLOCK
#MNEM UNIT       ERCB CURVE CODE    CURVE DESCRIPTION
#-----------   ------------------   ----------------------------------
DEPT.M        00 001 00 00         : DEPTH        - DEPTH
DELT.US/F     00 520 00 00         : DELT         - SONIC TRAVEL TIME
GR  .API      00 310 00 00         : GR           - GAMMA RAY
DPHI.V/V      00 890 00 00         : PHID         - DENSITY POROSITY (LIMESTONE)
ILD .OHMM     00 120 00 00         : RESD         - DEEP RESISTIVITY (DIL)
~PARAMETER INFORMATION
#MNEM.UNIT           DATA             DESCRIPTION OF MNEMONIC
#---------         -----------     ------------------------------
GL  .M        583.875              : gl           - GROUND LEVEL ELEVATION
EREF.M        588.264              : kb           - ELEVATION OF DEPTH REFERENCE
DATM.M        588.264              : datum        - DATUM ELEVATION
TDD .M        664.464              : tdd          - TOTAL DEPTH DRILLER
RUN .         ONE                  : Run          - RUN NUMBER
ENG .         MCLEAN               : Engineer     - RECORDING ENGINEER
WIT .         CLARK & ROTA         : Witness      - WITNESSED BY
BASE.         EDM                  : Branch       - HOME BASE OF LOGGING UNIT
MUD .         GEL                  : Mud_type     - MUD TYPE
MATR.         LIMESTONE            : Logunit      - NEUTRON MATRIX
TMAX.C        27.7778              : BHT          - MAXIMUM RECORDED TEMPERATURE
BHTD.M        664.464              : BHTDEP       - MAXIMUM RECORDED TEMPERATURE
RMT .C        14.4444              : MDTP         - TEMPERATURE OF MUD
MUDD.KG/M     1200                 : MWT          - MUD DENSITY
NEUT.         1                    : NEUTRON      - NEUTRON TYPE
RESI.         0                    : RESIST       - RESISTIVITY TYPE
RM  .OHMM     5.22                 : RM           - RESISTIVITY OF MUD
RMC .OHMM     0                    : RMC          - RESISTIVITY OF MUD CAKE
RMF .OHMM     5.19                 : RMF          - RESISTIVITY OF MUD FILTRATE
SUFT.C        5                    : SUFT         - SURFACE TEMPERATURE
~A  DEPTH     DELT       GR     PHID     RESD
# ...
  439.958  128.753   66.290    0.104    6.832
  440.208  172.555   83.632    0.172    7.235
  440.458  190.739   81.989    0.202    8.082
  440.708  132.195   77.413    0.170    8.749
  440.958   87.257   70.945    0.124    9.454
  441.208   83.537   65.577    0.112    9.632
  441.458  116.322   63.139    0.109    8.581
  441.708  151.895   68.026    0.150    6.809
  441.958  169.747   71.754    0.162    6.553
  442.208  180.828   73.407    0.149    6.738
  442.458  179.497   75.975    0.126    7.188
  442.708   79.071   72.621    0.118    7.473
  442.958   53.248   62.063    0.135    7.586
  443.208   92.804   62.067    0.107    7.248
  443.458  141.121   69.579    0.089    6.637
  443.708  184.791   75.384    0.175    5.763
  443.958  197.134   78.257    0.183    5.297
  444.208  200.847   79.237    0.147    4.789
  444.458  184.582   80.768    0.102    4.609
  444.708  176.814   78.329    0.074    4.347
  444.958  180.395   77.478    0.087    4.078
  445.208  185.503   79.680    0.142    3.990
  445.458  191.739   80.294    0.156    3.991
  445.708  190.209   73.216    0.132    4.104
  445.958  148.723   67.847    0.092    4.298
  446.208  137.436   68.156    0.052    4.452
  446.458  147.521   73.716    0.130    4.724
  446.708  162.253   81.412    0.177    4.911
  446.958  167.228   85.934    0.169    5.268
  447.208  172.203   89.479    0.133    5.527
  447.458  179.368   91.497    0.160    5.810
  447.708  167.351   93.515    0.172    6.119
  447.958  150.091   91.200    0.155    6.258
  448.208  134.291   84.793    0.130    6.012
  448.458  131.301   82.355    0.121    5.828
  448.708  140.856   78.390    0.149    5.527
  448.958  158.044   78.883    0.157    5.251
  449.208  156.314   77.482    0.149    5.008
  449.458  156.378   73.335    0.133    4.758
  449.708  165.402   72.606    0.104    4.357
  449.958  158.827   75.112    0.125    4.155
  450.208  167.718   79.512    0.146    3.855
  450.458  181.388   82.386    0.142    3.656
  450.708  193.066   83.244    0.133    3.505
  450.958  199.900   85.262    0.151    3.506
  451.208  184.963   94.058    0.119    3.625
  451.458  166.243   91.497    0.107    3.868
  451.708  164.514   84.358    0.135    4.328
  451.958  189.533   91.321    0.143    4.626
  452.208  218.336   97.858    0.127    4.568
  452.458  227.095   97.618    0.122    4.569
  452.708  232.136   97.072    0.155    5.011
  452.958  236.513  100.006    0.177    5.796
  453.208  212.284   89.510    0.200    7.431
  453.458  201.329   92.688    0.212    9.286
  453.708  185.728   79.078    0.265   12.767
  453.958  175.703   55.271    0.290   19.602
  454.208  182.536   36.228    0.309   23.435
  454.458  180.675   23.715    0.322   23.617
  454.708  186.379   25.491    0.303   23.322
  454.958  186.111   29.645    0.275   23.413
  455.208  192.744   36.365    0.260   23.899
  455.458  195.264   39.971    0.282   25.781
  455.708  189.553   36.861    0.295   27.551
  455.958  194.860   34.484    0.300   29.016
  456.208  209.990   33.205    0.311   28.288
  456.458  219.810   32.660    0.316   25.765
  456.708  217.616   33.946    0.327   23.422
  456.958  214.029   34.743    0.324   21.330
  457.208  211.504   36.701    0.308   19.286
  457.458  210.505   37.987    0.299   18.154
  457.708  212.028   34.511    0.308   16.323
  457.958  209.569   31.645    0.321   14.252
  458.208  210.164   30.672    0.328   13.051
  458.458  211.621   30.309    0.288   11.930
  458.708  212.149   30.925    0.295   10.707
  458.958  211.615   31.538    0.303    9.211
  459.208  203.779   31.237    0.310    8.146
  459.458  203.842   31.058    0.324    7.047
  459.708  205.963   32.282    0.332    5.963
  459.958  208.881   35.950    0.334    5.225
  460.208  209.607   38.212    0.293    4.724
  460.458  208.410   34.736    0.284    4.447
  460.708  205.420   29.490    0.304    4.319
  460.958  201.169   25.952    0.309    4.119
  461.208  195.524   25.101    0.307    3.957
  461.458  202.424   28.707    0.295    3.893
  461.708  202.221   25.659    0.312    4.100
  461.958  198.037   25.174    0.319    4.334
  462.208  192.459   26.093    0.328    5.297
  462.458  184.823   28.539    0.322    6.369
  462.708  189.134   36.785    0.308    7.871
  462.958  206.122   48.877    0.297    9.762
  463.208  205.854   65.975    0.288   11.503
  463.458  191.514   67.321    0.279   12.498
  463.708  189.453   54.200    0.273   13.407
  463.958  189.052   52.189    0.265   14.328
  464.208  181.947   51.767    0.259   15.427
  464.458  177.231   51.831    0.247   15.012
  464.708  177.891   52.689    0.280   12.402
  464.958  180.676   52.937    0.275    9.679
  465.208  160.562   53.184    0.253    7.348
  465.458  132.682   53.494    0.230    6.116
  465.708  108.187   49.651    0.213    5.261
  465.958  136.924   53.013    0.212    4.765
  466.208  207.210   66.570    0.214    4.404
  466.458  215.835   82.203    0.200    3.968
  466.708  212.580   88.739    0.186    3.904
  466.958  204.679   82.760    0.169    4.134
  467.208  176.334   70.859    0.154    4.550
  467.458  158.543   69.642    0.189    5.101
  467.708  168.960   73.797    0.236    6.076
  467.958  199.953   70.199    0.244    6.900
  468.208  224.177   69.348    0.235    8.011
  468.458  183.022   77.044    0.238    8.981
  468.708  167.089   69.539    0.251    9.886
  468.958  143.922   61.850    0.242   10.316
  469.208  126.396   66.372    0.223   10.395
  469.458  117.764   62.957    0.235    8.764
  469.708  105.548   58.077    0.248    7.651
  469.958  104.218   55.455    0.242    6.854
  470.208  132.822   54.788    0.200    6.743
  470.458  156.447   57.355    0.214    7.194
  470.708  180.206   61.694    0.241    8.398
  470.958  197.327   65.300    0.258    9.968
  471.208  191.881   68.783    0.207   11.278
  471.458  176.878   72.267    0.168   12.345
  471.708  137.781   70.989    0.141   13.713
  471.958  112.091   60.798    0.125   13.793
  472.208   79.565   55.184    0.136   11.353
  472.458   49.694   41.635    0.124    8.339
  472.708   28.252   41.517    0.130    7.307
  472.958   72.786   54.891    0.169    7.242
  473.208   94.420   64.968    0.199    8.165
  473.458  126.476   72.420    0.231    9.036
  473.708  137.358   66.868    0.250    9.891
  473.958  138.948   60.034    0.274   10.987
  474.208  112.528   52.835    0.232   10.970
  474.458   94.537   46.733    0.207   10.308
  474.708   69.445   45.882    0.193    9.388
  474.958  114.643   49.244    0.186    9.186
  475.208  128.246   52.056    0.225    9.534
  475.458  133.022   55.844    0.253    9.875
  475.708  136.005   58.901    0.270    9.988
  475.958  141.910   62.019    0.274    9.613
  476.208  152.194   59.458    0.264    9.133
  476.458  152.191   53.784    0.257    8.741
  476.708  148.603   51.895    0.241    7.903
  476.958  142.361   53.121    0.234    7.426
  477.208  126.429   56.911    0.230    7.095
  477.458  119.788   59.480    0.209    6.791
  477.708  119.453   60.336    0.190    6.669
  477.958  112.083   60.706    0.172    6.671
  478.208  109.491   51.186    0.156    6.809
  478.458  129.599   57.661    0.145    7.118
  478.708  135.835   64.197    0.165    7.374
  478.958  141.938   71.893    0.201    6.704
  479.208  151.427   80.200    0.177    6.583
  479.458  133.503   85.027    0.147    6.946
  479.708  149.562   91.014    0.150    7.603
  479.958  168.276   98.100    0.186    8.292
  480.208  134.688   95.112    0.191    8.895
  480.458  123.468   70.085    0.109   10.138
