~VERSION INFORMATION
 VERS.                 2.0:   CWLS LOG ASCII STANDARD -VERSION 2.0
 WRAP.                  NO:   ONE LINE PER DEPTH STEP
~WELL INFORMATION BLOCK
#MNEM.UNIT           DATA                    DESCRIPTION OF MNEMONIC
#---------    -------------------            -------------------------------
# Generated from Intellog Unique Number	CS_67_68/WELL/2214
WELL.         GEOG et al HYLO                : Well_name    - WELL
LOC .         00/13-18-067-14W4/0            : Location     - LOCATION
UWI .         00/13-18-067-14W4/0            : Uwi          - UNIQUE WELL ID
ENTR.         SP                             : Entered      - ENTERED BY
SRVC.         SCHLUMBERGER                   : Scn          - SERVICE COMPANY
STRT.M        300                            : top_depth    - START DEPTH
STOP.M        491                            : bot_depth    - STOP DEPTH
STEP.M        0.25                           : increment    - STEP LENGTH
 NULL. -999.2500:NULL Value
~CURVE INFORMATION BLOCK
#MNEM UNIT       ERCB CURVE CODE    CURVE DESCRIPTION
#-----------   ------------------   ----------------------------------
DEPT.M        00 001 00 00         : DEPTH        - DEPTH
ILD .OHMM     00 120 00 00         : RESD         - DEEP RESISTIVITY (DIL)
DPHI.V/V      00 890 00 00         : PHID         - DENSITY POROSITY (LIMESTONE)
NPHI.V/V      00 330 00 00         : PHIN         - NEUTRON POROSITY (LIMESTONE)
GR  .API      00 310 00 00         : GR           - GAMMA RAY
CALI.MM       00 280 01 00         : CAL          - CALIPER
~PARAMETER INFORMATION
#MNEM.UNIT           DATA             DESCRIPTION OF MNEMONIC
#---------         -----------     ------------------------------
GL  .M        563                  : gl           - GROUND LEVEL ELEVATION
EREF.M        565.7                : kb           - ELEVATION OF DEPTH REFERENCE
DATM.M        563                  : datum        - DATUM ELEVATION
TDD .M        493                  : tdd          - TOTAL DEPTH DRILLER
RUN .         ONE                  : Run          - RUN NUMBER
ENG .         BILL                 : Engineer     - RECORDING ENGINEER
WIT .         JIM                  : Witness      - WITNESSED BY
MUD .         GEL                  : Mud_type     - MUD TYPE
MATR.         LIMESTONE            : Logunit      - NEUTRON MATRIX
TMAX.C        30                   : BHT          - MAXIMUM RECORDED TEMPERATURE
BHTD.M        490                  : BHTDEP       - MAXIMUM RECORDED TEMPERATURE
MATR.         1                    : LOGUNIT      - NEUTRON MATRIX
RMT .C        25                   : MDTP         - TEMPERATURE OF MUD
NEUT.         1                    : NEUTRON      - NEUTRON TYPE
RESI.         0                    : RESIST       - RESISTIVITY TYPE
RMC .OHMM     0.25                 : RMC          - RESISTIVITY OF MUD CAKE
RMF .OHMM     0.25                 : RMF          - RESISTIVITY OF MUD FILTRATE
SUFT.C        15                   : SUFT         - SURFACE TEMPERATURE
~A  DEPTH     RESD     PHID     PHIN       GR      CAL
  300.000    2.591    0.232    0.530  110.198  187.068
  300.250    2.635    0.224    0.523  109.238  208.588
  300.500    2.762    0.233    0.522  110.649  210.332
  300.750    2.884    0.238    0.533  113.704  210.557
  301.000    2.989    0.234    0.548  113.047  205.101
  301.250    3.051    0.249    0.531  113.122  194.269
  301.500    3.091    0.242    0.499  113.741  182.930
  301.750    3.011    0.207    0.467  114.483  182.647
  302.000    2.916    0.186    0.480  113.947  191.287
  302.250    2.793    0.188    0.495  111.406  199.420
  302.500    2.664    0.197    0.491  109.956  205.425
  302.750    2.566    0.229    0.480  110.333  195.811
  303.000    2.518    0.228    0.492  112.292  199.890
  303.250    2.490    0.235    0.494  109.080  208.224
  303.500    2.494    0.246    0.508  105.746  211.489
  303.750    2.551    0.236    0.518  106.062  224.288
  304.000    2.619    0.237    0.500  110.516  206.359
  304.250    2.649    0.220    0.472  111.320  201.510
  304.500    2.684    0.224    0.477  113.827  205.385
  304.750    2.720    0.234    0.484  116.881  198.614
  305.000    2.684    0.225    0.502  114.339  194.880
  305.250    2.619    0.230    0.511  110.578  227.150
  305.500    2.556    0.214    0.522  106.941  224.333
  305.750    2.490    0.196    0.540  105.492  211.876
  306.000    2.357    0.237    0.539  106.598  200.436
  306.250    2.262    0.227    0.533  105.271  205.835
  306.500    2.191    0.214    0.543   99.443  204.636
  306.750    2.106    0.224    0.541   97.568  192.081
  307.000    2.028    0.245    0.552   99.347  179.019
  307.250    1.983    0.230    0.562  101.123  182.588
  307.500    1.920    0.258    0.544  101.195  192.446
  307.750    1.853    0.307    0.558   99.808  200.073
  308.000    1.794    0.325    0.577   93.857  197.560
  308.250    1.768    0.325    0.520   87.481  187.741
  308.500    1.804    0.315    0.474   80.190  155.105
  308.750    1.860    0.283    0.423   72.354  149.244
  309.000    1.888    0.284    0.412   67.072  151.904
  309.250    1.853    0.284    0.411   63.738  155.877
  309.500    1.804    0.281    0.398   62.289  159.855
  309.750    1.748    0.297    0.391   62.240  157.440
  310.000    1.683    0.283    0.385   59.697  154.824
  310.250    1.615    0.268    0.394   54.538  155.960
  310.500    1.597    0.289    0.405   52.480  161.356
  310.750    1.597    0.303    0.388   56.205  164.924
  311.000    1.588    0.290    0.384   58.043  165.555
  311.250    1.579    0.299    0.401   59.393  163.240
  311.500    1.567    0.290    0.407   60.927  163.769
  311.750    1.567    0.286    0.404   62.095  164.601
  312.000    1.618    0.274    0.402   63.205  164.925
  312.250    1.680    0.279    0.398   63.520  164.439
  312.500    1.699    0.275    0.386   62.742  164.868
  312.750    1.658    0.266    0.373   64.456  165.595
  313.000    1.609    0.272    0.390   68.303  166.730
  313.250    1.567    0.270    0.399   70.444  160.062
  313.500    1.529    0.265    0.392   69.726  157.035
  313.750    1.500    0.266    0.393   66.148  157.769
  314.000    1.481    0.283    0.410   60.258  161.339
  314.250    1.483    0.297    0.422   58.384  163.892
  314.500    1.503    0.297    0.429   58.459  166.144
  314.750    1.534    0.300    0.430   59.384  165.657
  315.000    1.575    0.305    0.429   61.040  163.651
  315.250    1.654    0.311    0.402   62.937  162.656
  315.500    1.814    0.313    0.387   65.565  162.678
  315.750    1.934    0.315    0.392   68.072  162.901
  316.000    2.097    0.306    0.405   70.761  163.428
  316.250    2.244    0.305    0.412   76.859  164.059
  316.500    2.465    0.273    0.395   81.497  164.583
  316.750    2.718    0.243    0.389   84.490  164.806
  317.000    3.014    0.239    0.404   86.205  164.423
  317.250    3.214    0.248    0.411   90.964  163.733
  317.500    3.171    0.232    0.407   95.966  163.042
  317.750    2.812    0.205    0.403  101.091  163.569
  318.000    2.512    0.186    0.398  105.546  166.327
  318.250    2.214    0.180    0.403  109.451  168.987
  318.500    2.061    0.227    0.416  113.052  169.817
  318.750    2.008    0.291    0.437  113.858  192.858
  319.000    1.996    0.305    0.502  113.444  210.222
  319.250    2.034    0.295    0.560  111.142  224.034
  319.500    2.214    0.428    0.576  108.964  239.063
  319.750    2.405    0.307    0.513  104.109  260.381
  320.000    2.540    0.223    0.484  101.139  179.068
  320.250    2.540    0.214    0.459   98.839  166.308
  320.500    2.502    0.242    0.437   98.609  164.707
  320.750    2.464    0.261    0.419   99.228  163.512
  321.000    2.455    0.275    0.408   94.251  162.721
  321.250    2.488    0.266    0.417   89.701  163.249
  321.500    2.525    0.256    0.418   87.460  164.287
  321.750    2.593    0.245    0.407   84.735  165.217
  322.000    2.642    0.254    0.412   82.983  166.352
  322.250    2.662    0.264    0.415   84.031  167.084
  322.500    2.697    0.263    0.402   88.059  167.001
  322.750    2.733    0.255    0.405   91.842  165.803
  323.000    2.811    0.241    0.419   92.951  163.897
  323.250    2.902    0.230    0.434   93.814  163.514
  323.500    3.065    0.225    0.450   95.469  163.129
  323.750    3.213    0.237    0.440   96.820  162.842
  324.000    3.431    0.230    0.445   97.197  162.661
  324.250    3.623    0.216    0.457   95.323  162.584
  324.500    3.769    0.194    0.457   96.614  162.500
  324.750    3.798    0.225    0.443   98.390  163.537
  325.000    3.658    0.242    0.444   98.464  165.481
  325.250    3.450    0.222    0.438   97.077  167.630
  325.500    3.329    0.214    0.445   95.811  169.678
  325.750    3.194    0.216    0.457   97.831  167.774
  326.000    3.176    0.217    0.462  101.921  166.374
  326.250    3.218    0.219    0.464  105.644  165.176
  326.500    3.267    0.213    0.453  111.256  165.197
  326.750    3.298    0.200    0.444  115.891  164.203
  327.000    3.367    0.185    0.473  122.172  166.963
  327.250    3.483    0.195    0.509  129.364  171.850
  327.500    3.609    0.228    0.493  135.460  219.234
  327.750    3.609    0.243    0.475  138.393  210.936
  328.000    3.535    0.239    0.457  136.581  175.461
  328.250    3.386    0.214    0.446  127.892  162.907
  328.500    3.254    0.210    0.442  119.080  162.523
  328.750    3.116    0.218    0.438  112.034  161.831
  329.000    3.024    0.215    0.426  107.728  161.649
  329.250    2.934    0.210    0.412  105.792  161.471
  329.500    2.869    0.225    0.396  103.919  161.994
  329.750    2.837    0.231    0.405  102.225  162.929
  330.000    2.789    0.224    0.420  101.872  164.265
  330.250    2.732    0.225    0.429  104.502  164.793
  330.500    2.671    0.235    0.442  105.974  165.222
  330.750    2.577    0.243    0.433  101.484  165.038
  331.000    2.553    0.248    0.437   97.723  164.552
  331.250    2.606    0.250    0.447   96.883  163.763
  331.500    2.395    0.242    0.435  101.278  162.768
  331.750    1.980    0.236    0.432  104.636  161.976
  332.000    1.796    0.239    0.456  105.013  162.096
  332.250    1.681    0.246    0.474  106.243  163.337
  332.500    1.628    0.268    0.472  104.248  164.171
  332.750    1.707    0.296    0.475  100.915  164.693
  333.000    1.816    0.316    0.461   99.403  165.425
  333.250    2.006    0.328    0.458  117.427  165.955
  333.500    2.229    0.308    0.452  129.853  166.178
  333.750    2.472    0.272    0.450  142.157  166.196
  334.000    2.716    0.251    0.478  169.185  166.925
  334.250    2.857    0.236    0.517  207.411  167.149
  334.500    2.961    0.218    0.554  222.088  166.968
  334.750    3.040    0.189    0.503  229.282  166.888
  335.000    3.069    0.141    0.459  223.513  166.908
  335.250    3.063    0.173    0.424  220.360  166.927
  335.500    2.984    0.198    0.380  225.180  166.643
  335.750    2.825    0.230    0.419  234.927  166.561
  336.000    2.700    0.245    0.454  236.766  166.381
  336.250    2.675    0.263    0.457  235.195  166.403
