~V
VERS. 2.00: Ver 2.00
WRAP. NO:
VEND. PRIZM:GeoGraphix
~W
STRT.M 97.5000:START DEPTH
STOP.M 344.5000:STOP DEPTH
STEP.M 0.2500:STEP
NULL. -999.2500:NULL VALUE
WELL. 00/10-19-083-05W4/0 :WELL
COMP. :COMPANY
UWI. 00_10-19-083-05W4_0:UNIQUE WELL ID
FLD. :FIELD
CNTY. :COUNTY
STAT. :STATE
CTRY. :COUNTRY
PDAT. :PERMANENT DATUM
LMF. :LOG MEASURED FROM
DMF. :DRILLING MEASURED FROM
LOC1. :LOCATION LINE 1
LOC2. :LOCATION LINE 2
LOC3. :LOCATION LINE 3
SEC. :SECTION
TWP. :TOWNSHIP
RAN. :RANGE
SRVC. :Logging Company
BASE. :Logging Unit Location
ENG. :Logging Engineer
WITN. :Witnessed By
RUN. :Run No.
MUD_TYPE. :Type Fluid in Hole
MUDS. :Source of Mud Sample
RMFS. :Source of Mud Filtrate
RMCS. :Source of Mud Cake
LOC. :LOCATION
DATE. :LOG DATE
~C
DEPT.M :DEPTH
NPHI. :NPHI
GR.API :GR
DPHI. :Created by graphical digitiser entry.
ILD.Ohmm :ILD
~P
EKB. -999.2500:ELEVATION OF KELLY BUSHING
EDF. -999.2500:ELEVATION OF DRILLING FLOOR
EGL. -999.2500:ELEVATION OF GROUND LEVEL
EPD. -999.2500:ELEVATION OF PERMANENT DATUM
APD. -999.2500:LMF DISTANCE ABOVE PERMANENT DATUM
LAT. -999.2500:LATITUDE OF WELL LOCATION
LONG. -999.2500:LONGITUDE OF WELL LOCATION
TDD. -999.2500:Total Depth Driller
TDL. -999.2500:Total Depth Logger
LCSG1. -999.2500:Depth of Casing from Logger
CSIZE. -999.2500:Casing Size
CWT. -999.2500:Casing Weight
BS. -999.2500:Bit Size
TLI. 97.5000:Top Logged Interval
BLI. 344.4000:Bottom Logged Interval
MRT. 0.0000:Maximum Recorded Temperature
WMUD. -999.2500:Drilling Mud Density
DFV. -999.2500:Drilling Mud Viscosity
PH. -999.2500:Drilling Mud pH
DFL. -999.2500:Drilling Mud Fluid Loss
RM. -999.2500:Resistivity of Drilling Fluid
RMT. -999.2500:Measured Temp. of Drilling Fluid
RMF. -999.2500:Resistivity of Drilling Fluid Filtrate
RMFT. -999.2500:Measured Temp. of Drilling Fluid Filtrate
RMC. -999.2500:Resistivity of Mud Cake
RMCT. -999.2500:Measured Temp. of Mud Cake
PHImax.V/V 0.3900:Maximum allowable Porosity
RwBnd.OHMM 0.1500:Bound Water Resistivity
RhoHy.KG/MT 1000.0000:Hydrocarbon Bulk density
SwCutoff.V/V 0.7000:Water Saturation Cutoff
PHINsh.V/V 0.4800:New Description
Rw.OHMM 1.0000:Formation Water Resistivity
Rshl.OHMM 5.0000:Resistivity shale
Trw.DEGC 25.0000:Rw measured at Lab conditions
ShaleCutoff.V/V 0.4000:New Description
GRcln.API 45.0000:Gamma Ray clean
RhoM.KG/MT 2650.0000:Bulk Density Matrix
GRshl.API 90.0000:Gamma Ray shale
m. 2.0000:Archie "m"
n. 2.0000:Archie "n"
GasTol.V/V 0.0500:Gas Tollerance
BHTemp.DEGC 25.0000:Bottom Hole Temperature
BHTDepth.M 1000.0000:Bottom Hole Depth
PHIDsh.US/MT 0.1800:New Description
a. 1.0000:Archie "a"
Gas Tol.V/V 0.0500:Gas Tollerance
RhoF.KG/MT 1000.0000:Bulk Density Fluid
RhoShl.KG/MT 2300.0000:Bulk Density Shale
TarCutoff.V/V 0.0300:New Description
SurfTemp.DEGC 10.0000:New Description
HIshl.V/V 0.4000:Neutron Hydrogen Index shale
NULL. -999.2500:
~A
# ...
  133.2500     0.5274    64.4719     0.3538    24.3466 
  133.5000     0.5249    62.3417     0.3560    24.9019 
  133.7500     0.5335    58.2294     0.3442    25.4469 
  134.0000     0.5354    60.6623     0.3476    25.7861 
  134.2500     0.5388    62.8046     0.3450    25.9127 
  134.5000     0.5453    59.4062     0.3350    25.9309 
  134.7500     0.5530    50.1778     0.3302    25.8602 
  135.0000     0.5592    43.1655     0.3516    25.4402 
  135.2500     0.4832    44.0016     0.3456    25.0202 
  135.5000     0.4573    44.7683     0.3498    24.4593 
  135.7500     0.4512    46.2395     0.3495    23.8144 
  136.0000     0.4473    48.0342     0.3451    23.1370 
  136.2500     0.4420    49.1084     0.3445    22.4684 
  136.5000     0.4463    48.2469     0.3555    21.8356 
  136.7500     0.4525    48.0938     0.3473    21.2178 
  137.0000     0.4570    50.3823     0.3329    20.6001 
  137.2500     0.4587    54.6446     0.3081    19.9971 
  137.5000     0.4603    59.5876     0.2973    19.4161 
  137.7500     0.4651    64.1596     0.3130    18.9213 
  138.0000     0.4745    68.6168     0.3142    18.6986 
  138.2500     0.4835    71.5191     0.3180    19.3216 
  138.5000     0.4766    73.7985     0.3093    19.6617 
  138.7500     0.4594    75.1273     0.3160    19.5878 
  139.0000     0.4444    75.4652     0.3269    19.0036 
  139.2500     0.4349    75.7694     0.3237    18.0672 
  139.5000     0.4086    78.7049     0.3123    17.4129 
  139.7500     0.4024    84.1257     0.3049    16.8189 
  140.0000     0.4163    86.3828     0.3083    16.2226 
  140.2500     0.4351    85.6727     0.3011    16.1547 
  140.5000     0.4433    82.8517     0.2826    16.8448 
  140.7500     0.4336    79.0293     0.2654    18.2164 
  141.0000     0.4150    75.1626     0.2687    19.8820 
  141.2500     0.4140    66.1933     0.2733    21.4795 
  141.5000     0.4118    57.8431     0.2811    22.5576 
  141.7500     0.4071    53.4158     0.2916    22.8585 
  142.0000     0.4052    52.7579     0.3072    22.6189 
  142.2500     0.4110    54.1261     0.3268    22.1498 
  142.5000     0.4216    56.0545     0.3401    21.4158 
  142.7500     0.4342    58.1429     0.3509    20.6574 
  143.0000     0.4472    58.2862     0.3324    19.4920 
  143.2500     0.4581    57.8312     0.3187    18.2228 
  143.5000     0.4645    59.9154     0.3239    16.9496 
  143.7500     0.4662    65.9603     0.3358    15.7932 
  144.0000     0.4672    72.1646     0.3115    15.1187 
  144.2500     0.4731    73.8972     0.3031    15.0817 
  144.5000     0.4765    74.4555     0.2988    15.2115 
  144.7500     0.4780    76.5011     0.3063    15.3829 
  145.0000     0.4769    77.7024     0.3107    15.3749 
  145.2500     0.4743    75.9442     0.3005    15.0887 
  145.5000     0.4751    74.5377     0.2929    14.7674 
  145.7500     0.4862    75.4419     0.2767    13.8611 
  146.0000     0.4931    77.8250     0.2818    12.7237 
  146.2500     0.4915    81.3665     0.2860    11.3610 
  146.5000     0.4879    86.4723     0.2838     9.8946 
  146.7500     0.4877    93.3292     0.2743     8.5373 
  147.0000     0.4835   100.9592     0.2500     7.5681 
  147.2500     0.4755   102.7286     0.2488     7.5823 
  147.5000     0.4798   103.4507     0.2414     7.7143 
  147.7500     0.4887   104.5712     0.2325     8.1039 
  148.0000     0.4988   106.6342     0.2290     8.7848 
  148.2500     0.5092   108.9988     0.2310     9.6746 
  148.5000     0.5189   109.5565     0.2224    10.5644 
  148.7500     0.5208   108.3756     0.2346    11.1864 
  149.0000     0.4986   106.8567     0.2311    11.7425 
  149.2500     0.4703   104.9666     0.2332    12.2822 
  149.5000     0.4538   101.2755     0.2404    12.5463 
  149.7500     0.4563    95.3924     0.2466    12.3312 
  150.0000     0.4630    90.3990     0.2570    11.8529 
  150.2500     0.4739    94.8902     0.2695    11.3746 
  150.5000     0.4858   100.9988     0.2718    10.9878 
  150.7500     0.4956   106.6465     0.2594    10.6350 
  151.0000     0.5024   108.6884     0.2479    10.6370 
  151.2500     0.5079   105.9763     0.2512    11.2345 
  151.5000     0.5153   102.4212     0.2595    12.1279 
  151.7500     0.5275   101.1649     0.2497    13.0600 
  152.0000     0.5407    99.6157     0.2518    14.0133 
  152.2500     0.5403    97.1574     0.2660    14.9720 
  152.5000     0.5272    93.6017     0.2895    15.6308 
  152.7500     0.5114    89.9224     0.3118    15.7513 
  153.0000     0.5053    88.9901     0.3103    15.5170 
  153.2500     0.5028    85.7482     0.3115    15.2827 
  153.5000     0.4918    83.7551     0.3131    15.0643 
  153.7500     0.4689    83.3544     0.3092    14.9339 
  154.0000     0.4506    83.6680     0.2990    14.8594 
  154.2500     0.4502    83.6585     0.2854    14.8632 
  154.5000     0.4549    83.1912     0.2746    15.1805 
  154.7500     0.4576    81.8134     0.2731    16.0030 
  155.0000     0.4616    76.6728     0.2723    16.8255 
  155.2500     0.4634    72.7010     0.2624    17.6052 
  155.5000     0.4575    70.5574     0.2578    18.3524 
  155.7500     0.4468    67.0649     0.2705    19.0935 
  156.0000     0.4521    55.6471     0.2825    19.8348 
  156.2500     0.4719    46.7347     0.3207    19.5660 
  156.5000     0.4813    45.5220     0.3333    18.9636 
  156.7500     0.4792    46.2750     0.3300    18.1234 
  157.0000     0.4735    47.1521     0.3217    17.1294 
  157.2500     0.4727    48.1742     0.3157    16.2546 
  157.5000     0.4769    49.1965     0.3100    16.1626 
  157.7500     0.4813    49.9258     0.2959    16.5569 
  158.0000     0.4853    49.9769     0.2660    17.3714 
  158.2500     0.4839    48.6754     0.2600    18.5455 
  158.5000     0.4781    46.5460     0.2772    19.8893 
  158.7500     0.4715    44.4059     0.3009    21.1593 
  159.0000     0.4682    42.4577     0.3251    22.1341 
  159.2500     0.4669    41.0070     0.3314    22.6909 
  159.5000     0.4678    40.2506     0.3412    23.2476 
  159.7500     0.4681    40.5930     0.3456    23.7528 
  160.0000     0.4639    41.9067     0.3407    23.6081 
  160.2500     0.4557    44.1186     0.3294    22.5402 
  160.5000     0.4535    47.7981     0.3231    21.4724 
  160.7500     0.4699    52.0266     0.3253    20.1512 
  161.0000     0.4881    57.3263     0.3218    18.3974 
  161.2500     0.4909    63.3640     0.3037    16.4597 
  161.5000     0.4848    69.8868     0.2813    14.6127 
  161.7500     0.4809    75.4751     0.2689    13.2538 
  162.0000     0.4771    76.2956     0.2690    12.9997 
  162.2500     0.4732    72.6590     0.2491    13.7046 
  162.5000     0.4693    68.0016     0.2264    14.4095 
  162.7500     0.4665    63.4479     0.1894    15.1143 
  163.0000     0.4691    60.2714     0.1634    15.5308 
  163.2500     0.4786    59.7483     0.1773    15.4631 
  163.5000     0.4877    63.0103     0.2297    15.1880 
  163.7500     0.4809    67.8885     0.2734    14.4669 
  164.0000     0.4649    69.2835     0.2765    13.2384 
  164.2500     0.4489    68.5175     0.2764    11.9636 
  164.5000     0.4378    68.2806     0.2842    10.7764 
  164.7500     0.4341    70.2717     0.2945     9.6646 
  165.0000     0.4399    72.8391     0.2964     8.6509 
  165.2500     0.4429    75.1151     0.2924     7.8192 
  165.5000     0.4421    76.6144     0.2853     7.0406 
  165.7500     0.4428    77.9695     0.2745     6.3615 
  166.0000     0.4424    79.3978     0.2645     5.8537 
  166.2500     0.4359    80.9964     0.2622     5.5429 
  166.5000     0.4222    83.0356     0.2753     5.3376 
  166.7500     0.4098    82.4599     0.2743     5.3636 
  167.0000     0.4122    80.9628     0.2770     5.7133 
  167.2500     0.4180    78.7782     0.2815     6.2471 
  167.5000     0.4228    75.2549     0.2867     7.1284 
  167.7500     0.4260    69.8821     0.2912     8.5156 
  168.0000     0.4280    63.3162     0.2910    10.2527 
  168.2500     0.4260    58.6800     0.3163    13.8006 
  168.5000     0.4210    55.1817     0.3311    18.4122 
  168.7500     0.4252    51.3825     0.3300    21.2330 
