~VERSION INFORMATION
 VERS.                 2.0:   CWLS LOG ASCII STANDARD -VERSION 2.0
 WRAP.                  NO:   ONE LINE PER DEPTH STEP
~WELL INFORMATION BLOCK
#MNEM.UNIT           DATA                    DESCRIPTION OF MNEMONIC
#---------    -------------------            -------------------------------
# Generated from Intellog Unique Number	CS_77_79/WELL/1004
WELL.         MAYNARD ET AL THORNBURY        : Well_name    - WELL
LOC .         00/11-31-079-11W4/0            : Location     - LOCATION
UWI .         00/11-31-079-11W4/0            : Uwi          - UNIQUE WELL ID
ENTR.         JHS                            : Entered      - ENTERED BY
SRVC.         SCHLUMBERGER                   : Scn          - SERVICE COMPANY
STRT.M        225                            : top_depth    - START DEPTH
STOP.M        495                            : bot_depth    - STOP DEPTH
STEP.M        0.25                           : increment    - STEP LENGTH
 NULL. -999.2500:NULL Value
~CURVE INFORMATION BLOCK
#MNEM UNIT       ERCB CURVE CODE    CURVE DESCRIPTION
#-----------   ------------------   ----------------------------------
DEPT.M        00 001 00 00         : DEPTH        - DEPTH
DPHI.V/V      00 890 00 00         : PHID         - DENSITY POROSITY (LIMESTONE)
NPHI.V/V      00 330 00 00         : PHIN         - NEUTRON POROSITY (LIMESTONE)
GR  .API      00 310 00 00         : GR           - GAMMA RAY
ILD .OHMM     00 120 00 00         : RESD         - DEEP RESISTIVITY (DIL)
~PARAMETER INFORMATION
#MNEM.UNIT           DATA             DESCRIPTION OF MNEMONIC
#---------         -----------     ------------------------------
GL  .M        688.32               : gl           - GROUND LEVEL ELEVATION
EREF.M        691.52               : kb           - ELEVATION OF DEPTH REFERENCE
DATM.M        691.52               : datum        - DATUM ELEVATION
TDD .M        500                  : tdd          - TOTAL DEPTH DRILLER
RUN .         ONE                  : Run          - RUN NUMBER
ENG .         BILL                 : Engineer     - RECORDING ENGINEER
WIT .         JIM                  : Witness      - WITNESSED BY
MUD .         GEL                  : Mud_type     - MUD TYPE
MATR.         LIMESTONE            : Logunit      - NEUTRON MATRIX
TMAX.C        20                   : BHT          - MAXIMUM RECORDED TEMPERATURE
BHTD.M        500                  : BHTDEP       - MAXIMUM RECORDED TEMPERATURE
MATR.         1                    : LOGUNIT      - NEUTRON MATRIX
RMT .C        25                   : MDTP         - TEMPERATURE OF MUD
NEUT.         1                    : NEUTRON      - NEUTRON TYPE
RESI.         0                    : RESIST       - RESISTIVITY TYPE
RMC .OHMM     0.25                 : RMC          - RESISTIVITY OF MUD CAKE
RMF .OHMM     0.25                 : RMF          - RESISTIVITY OF MUD FILTRATE
SUFT.C        15                   : SUFT         - SURFACE TEMPERATURE
~A  DEPTH     PHID     PHIN       GR     RESD
# ...
  355.500    0.239    0.458   91.043    5.621
  355.750    0.216    0.456   84.297    5.458
  356.000    0.208    0.466   83.721    4.966
  356.250    0.214    0.491   87.469    4.226
  356.500    0.215    0.513   93.066    3.241
  356.750    0.233    0.532  101.133    2.913
  357.000    0.223    0.540  109.827    2.586
  357.250    0.212    0.546  112.347    2.505
  357.500    0.221    0.553  113.004    2.672
  357.750    0.224    0.570  113.038    2.756
  358.000    0.223    0.581  111.233    2.840
  358.250    0.226    0.585  110.039    2.924
  358.500    0.233    0.569  112.547    3.008
  358.750    0.237    0.558  111.975    3.010
  359.000    0.219    0.556  110.782    3.012
  359.250    0.201    0.557  115.143    2.931
  359.500    0.198    0.561  116.427    2.933
  359.750    0.205    0.566  118.937    2.853
  360.000    0.220    0.567  120.218    2.854
  360.250    0.239    0.561  117.180    2.856
  360.500    0.232    0.553  111.661    2.940
  360.750    0.232    0.529  109.858    3.107
  361.000    0.270    0.504  107.432    3.273
  361.250    0.267    0.496  108.090    3.440
  361.500    0.246    0.489  105.670    3.688
  361.750    0.218    0.490  106.326    4.019
  362.000    0.213    0.492  106.367    4.598
  362.250    0.223    0.494  103.947    4.763
  362.500    0.231    0.492  102.127    5.094
  362.750    0.231    0.484   99.084    5.425
  363.000    0.224    0.470   97.895    5.839
  363.250    0.221    0.460   95.474    6.334
  363.500    0.227    0.454   92.426    6.747
  363.750    0.228    0.455   87.535    6.749
  364.000    0.222    0.461   86.348    6.504
  364.250    0.216    0.469   89.469    6.094
  364.500    0.230    0.482   96.302    5.108
  364.750    0.245    0.487  100.667    4.452
  365.000    0.254    0.491  105.041    3.877
  365.250    0.240    0.494  105.691    3.386
  365.500    0.233    0.504  105.732    3.305
  365.750    0.229    0.512  108.865    3.389
  366.000    0.235    0.522  110.755    3.556
  366.250    0.232    0.530  113.276    3.722
  366.500    0.230    0.529  114.548    3.806
  366.750    0.216    0.539  113.365    3.890
  367.000    0.206    0.536  111.551    3.728
  367.250    0.196    0.534  110.357    3.647
  367.500    0.199    0.539  111.021    3.567
  367.750    0.219    0.526  111.057    3.403
  368.000    0.250    0.524  109.260    3.241
  368.250    0.265    0.523  107.442    3.160
  368.500    0.255    0.506  106.249    3.079
  368.750    0.240    0.496  105.055    2.917
  369.000    0.228    0.486  105.105    2.754
  369.250    0.215    0.487  105.141    2.591
  369.500    0.211    0.496  105.200    2.428
  369.750    0.222    0.508  104.002    2.512
  370.000    0.219    0.514  101.582    2.761
  370.250    0.225    0.504   99.760    3.174
  370.500    0.237    0.493   96.728    3.670
  370.750    0.241    0.481   97.378    4.330
  371.000    0.234    0.473   95.576    4.825
  371.250    0.229    0.481   92.527    4.992
  371.500    0.237    0.504   89.496    5.076
  371.750    0.228    0.533   90.761    5.078
  372.000    0.218    0.533   95.753    4.668
  372.250    0.213    0.526   98.878    4.258
  372.500    0.214    0.513  102.023    3.931
  372.750    0.241    0.506  102.679    3.768
  373.000    0.258    0.497  102.703    3.688
  373.250    0.262    0.490  100.286    3.854
  373.500    0.254    0.487   99.087    4.102
  373.750    0.243    0.492   99.746    4.516
  374.000    0.236    0.491  102.891    4.600
  374.250    0.229    0.477  103.536    4.767
  374.500    0.218    0.467  105.432    4.851
  374.750    0.221    0.458  104.260    4.770
  375.000    0.263    0.468  108.121    4.509
  375.250    0.276    0.474  107.472    4.674
  375.500    0.277    0.468  104.356    4.840
  375.750    0.282    0.456  101.231    5.252
  376.000    0.263    0.441   98.119    5.909
  376.250    0.269    0.430   94.378    7.305
  376.500    0.276    0.422   91.276    7.798
  376.750    0.282    0.406   86.317    8.046
  377.000    0.271    0.411   83.811    8.048
  377.250    0.191    0.417   84.988    8.132
  377.500    0.134    0.412   83.111    8.380
  377.750    0.104    0.354   76.305    8.873
  378.000    0.130    0.322   71.957    9.531
  378.250    0.178    0.314   71.304    9.779
  378.500    0.211    0.371   83.542    9.699
  378.750    0.230    0.390   94.555    9.291
  379.000    0.234    0.418  100.655    8.883
  379.250    0.244    0.437  104.913    8.229
  379.500    0.247    0.449  102.411    7.657
  379.750    0.243    0.449   98.061    7.413
  380.000    0.232    0.450   94.951    7.333
  380.250    0.228    0.437   92.445    7.171
  380.500    0.245    0.427   91.788    7.009
  380.750    0.234    0.427   92.359    6.601
  381.000    0.225    0.429   92.927    6.439
  381.250    0.214    0.433   95.339    6.523
  381.500    0.203    0.435   97.755    6.688
  381.750    0.219    0.436  102.011    6.773
  382.000    0.206    0.440  103.811    6.856
  382.250    0.221    0.448  104.373    6.776
  382.500    0.235    0.456  101.868    6.696
  382.750    0.239    0.467   98.752    6.534
  383.000    0.224    0.463   96.249    6.290
  383.250    0.220    0.460   96.215    5.882
  383.500    0.211    0.466   99.233    5.310
  383.750    0.227    0.477  104.107    4.820
  384.000    0.224    0.487  110.204    4.166
  384.250    0.233    0.501  115.074    3.512
  384.500    0.239    0.513  118.091    3.186
  384.750    0.236    0.522  117.453    3.106
  385.000    0.232    0.513  113.093    3.108
  385.250    0.236    0.511  110.605    3.274
  385.500    0.246    0.494  105.648    3.522
  385.750    0.263    0.463  100.063    4.097
  386.000    0.250    0.437   96.339    4.509
  386.250    0.236    0.425   94.442    5.085
  386.500    0.219    0.433   95.633    5.332
  386.750    0.220    0.444  101.113    5.498
  387.000    0.219    0.455  103.522    5.500
  387.250    0.232    0.458  102.873    5.420
  387.500    0.232    0.439   97.295    5.586
  387.750    0.236    0.426   97.250    5.834
  388.000    0.247    0.428   95.973    6.081
  388.250    0.265    0.430   95.312    6.493
  388.500    0.272    0.435   97.121    7.069
  388.750    0.250    0.437   97.693    7.398
  389.000    0.227    0.427   96.413    7.893
  389.250    0.202    0.410   98.217    8.222
  389.500    0.184    0.395  100.627    8.551
  389.750    0.184    0.393  102.429    9.127
  390.000    0.160    0.384  100.528    9.457
  390.250    0.139    0.371   96.805   10.033
  390.500    0.143    0.364   97.373   10.280
  390.750    0.159    0.370   97.331   10.119
  391.000    0.196    0.379  100.364    9.629
  391.250    0.216    0.402  106.466    8.893
  391.500    0.211    0.418  107.026    7.911
  391.750    0.220    0.432  105.751    6.765
  392.000    0.224    0.438  103.867    6.357
  392.250    0.236    0.443  101.977    6.278
  392.500    0.232    0.450  100.703    6.362
  392.750    0.211    0.445   99.430    6.527
  393.000    0.205    0.432   97.548    6.692
  393.250    0.214    0.413   94.423    7.351
  393.500    0.214    0.397   92.543    7.844
  393.750    0.207    0.388   90.659    8.337
  394.000    0.203    0.387   91.232    8.832
  394.250    0.217    0.390   91.178    9.325
  394.500    0.243    0.386   88.670    9.491
  394.750    0.278    0.378   87.398    9.821
  395.000    0.292    0.371   87.980   10.150
  395.250    0.295    0.367   86.087   10.152
  395.500    0.285    0.368   90.957   10.072
  395.750    0.259    0.378   92.761    9.582
  396.000    0.240    0.394   94.560    9.010
  396.250    0.237    0.409   95.744    8.111
  396.500    0.245    0.416   93.242    7.620
  396.750    0.254    0.431   93.181    7.049
  397.000    0.240    0.444   94.379    6.887
  397.250    0.234    0.446   96.793    6.888
  397.500    0.234    0.441   98.587    6.972
  397.750    0.243    0.435   96.089    7.056
  398.000    0.250    0.432   90.515    7.222
  398.250    0.243    0.436   83.709    7.470
  398.500    0.238    0.446   82.432    7.635
  398.750    0.238    0.448   81.166    8.047
