~VERSION INFORMATION
 VERS.                 2.0:   CWLS LOG ASCII STANDARD -VERSION 2.0
 WRAP.                  NO:   ONE LINE PER DEPTH STEP
~WELL INFORMATION BLOCK
#MNEM.UNIT           DATA                    DESCRIPTION OF MNEMONIC
#---------    -------------------            -------------------------------
# Generated from Intellog Unique Number	CS_71_72/WELL/3326
WELL.         ALBERTA ENERGY CO.LTD.         : Well_name    - WELL
LOC .         00/10-32-072-03W4/0            : Location     - LOCATION
UWI .         00/10-33-067-11W4/0            : Uwi          - UNIQUE WELL ID
ENTR.         JOETTE                         : Entered      - ENTERED BY
SRVC.         SCHLUMBERGER                   : Scn          - SERVICE COMPANY
DATE.         05/13/92                       : Date         - LOG DATE
STRT.M        325                            : top_depth    - START DEPTH
STOP.M        560                            : bot_depth    - STOP DEPTH
STEP.M        0.25                           : increment    - STEP LENGTH
 NULL. -999.2500:NULL Value
~CURVE INFORMATION BLOCK
#MNEM UNIT       ERCB CURVE CODE    CURVE DESCRIPTION
#-----------   ------------------   ----------------------------------
DEPT.M        00 001 00 00         : DEPTH        - DEPTH
CALI.MM       00 280 01 00         : CAL          - CALIPER
GR  .API      00 310 00 00         : GR           - GAMMA RAY
NPHI.V/V      00 330 00 00         : PHIN         - NEUTRON POROSITY (SANDSTONE)
DPHI.V/V      00 890 00 00         : PHID         - DENSITY POROSITY (SANDSTONE)
ILD .OHMM     00 120 00 00         : RESD         - DEEP RESISTIVITY (DIL)
~PARAMETER INFORMATION
#MNEM.UNIT           DATA             DESCRIPTION OF MNEMONIC
#---------         -----------     ------------------------------
GL  .M        695.31               : gl           - GROUND LEVEL ELEVATION
EREF.M        698.91               : kb           - ELEVATION OF DEPTH REFERENCE
DATM.M        698.91               : datum        - DATUM ELEVATION
TDD .M        566                  : tdd          - TOTAL DEPTH DRILLER
RUN .         ONE                  : Run          - RUN NUMBER
ENG .         BILL                 : Engineer     - RECORDING ENGINEER
WIT .         JIM                  : Witness      - WITNESSED BY
MUD .         GEL                  : Mud_type     - MUD TYPE
MATR.         SANDSTONE            : Logunit      - NEUTRON MATRIX
TMAX.C        32                   : BHT          - MAXIMUM RECORDED TEMPERATURE
BHTD.M        566                  : BHTDEP       - MAXIMUM RECORDED TEMPERATURE
MATR.         1                    : LOGUNIT      - NEUTRON MATRIX
RMT .C        12                   : MDTP         - TEMPERATURE OF MUD
NEUT.         1                    : NEUTRON      - NEUTRON TYPE
RESI.         0                    : RESIST       - RESISTIVITY TYPE
RMC .OHMM     2.5                  : RMC          - RESISTIVITY OF MUD CAKE
RMF .OHMM     2.3                  : RMF          - RESISTIVITY OF MUD FILTRATE
SUFT.C        4                    : SUFT         - SURFACE TEMPERATURE
~A  DEPTH      CAL       GR     PHIN     PHID     RESD
# ...
  398.000  153.137   65.071    0.480    0.345   20.240
  398.250  153.190   67.526    0.486    0.334   19.162
  398.500  152.460   68.180    0.484    0.315   18.483
  398.750  152.531   64.657    0.448    0.291   17.829
  399.000  152.603   64.083    0.427    0.272   19.248
  399.250  151.873   64.150    0.428    0.294   20.767
  399.500  151.944   65.991    0.432    0.290   22.827
  399.750  152.051   70.274    0.421    0.286   24.620
  400.000  151.303   71.515    0.404    0.294   27.573
  400.250  151.410   63.762    0.390    0.303   33.285
  400.500  151.481   54.195    0.385    0.312   37.265
  400.750  151.534   45.242    0.378    0.318   35.957
  401.000  151.605   44.094    0.378    0.319   20.559
  401.250  151.658   51.353    0.386    0.322   20.973
  401.500  151.747   62.227    0.408    0.282   23.054
  401.750  151.836   68.885    0.429    0.268   27.306
  402.000  151.889   69.539    0.447    0.261   39.727
  402.250  151.160   63.588    0.440    0.297   47.054
  402.500  151.248   58.251    0.431    0.318   52.698
  402.750  151.284   55.889    0.431    0.342   52.782
  403.000  150.572   54.741    0.435    0.336   49.972
  403.250  150.643   55.408    0.435    0.335   51.955
  403.500  149.914   55.462    0.440    0.339   53.983
  403.750  149.967   54.901    0.447    0.341   55.071
  404.000  149.273   55.555    0.439    0.341   49.299
  404.250  149.344   57.409    0.440    0.341   40.187
  404.500  148.597   53.260    0.446    0.341   36.653
  404.750  148.668   47.922    0.447    0.342   36.033
  405.000  148.739   51.565    0.457    0.345   39.608
  405.250  148.810   58.236    0.469    0.349   43.538
  405.500  148.899   63.106    0.454    0.346   47.874
  405.750  148.952   60.144    0.421    0.338   51.651
  406.000  149.859   52.392    0.406    0.332   52.691
  406.250  149.912   50.057    0.406    0.335   51.783
  406.500  149.965   52.512    0.432    0.340   49.041
  406.750  150.090   54.353    0.446    0.343   48.165
  407.000  150.108   56.821    0.442    0.346   48.242
  407.250  150.179   58.075    0.448    0.348   53.012
  407.500  150.250   59.316    0.461    0.348   59.389
  407.750  150.338   62.985    0.457    0.348   62.890
  408.000  150.427   63.626    0.447    0.348   60.702
  408.250  150.498   52.871    0.431    0.346   60.741
  408.500  150.587   49.922    0.419    0.345   64.321
  408.750  150.622   49.976    0.420    0.344   72.059
  409.000  150.693   51.230    0.424    0.344   76.282
  409.250  151.583   46.493    0.425    0.341   67.024
  409.500  151.672   47.747    0.416    0.337   33.017
  409.750  151.707   49.588    0.409    0.338   34.964
  410.000  151.796   46.666    0.415    0.334   40.660
  410.250  151.867   46.092    0.424    0.332   46.394
  410.500  151.938   46.746    0.433    0.336   50.039
  410.750  151.991   47.426    0.435    0.338   51.079
  411.000  152.062   46.279    0.406    0.338   50.167
  411.250  152.133   46.932    0.394    0.335   30.346
  411.500  152.222   47.586    0.398    0.336   17.030
  411.750  152.293   46.438    0.408    0.336   15.542
  412.000  152.364   51.282    0.438    0.333   15.270
  412.250  152.435   56.739    0.462    0.324   15.294
  412.500  152.524   63.410    0.474    0.311   15.592
  412.750  152.577   70.069    0.512    0.300   17.803
  413.000  152.666   71.923    0.505    0.308   19.938
  413.250  152.737   67.173    0.486    0.330   22.329
  413.500  152.808   58.820    0.466    0.344   24.083
  413.750  152.897   51.681    0.459    0.354   26.980
  414.000  152.932   51.748    0.454    0.355   27.524
  414.250  153.021   52.375    0.444    0.347   29.137
  414.500  153.074   53.042    0.427    0.338   31.446
  414.750  153.181   54.296    0.430    0.334   31.486
  415.000  153.234   54.349    0.433    0.334   29.258
  415.250  153.323   54.389    0.431    0.340   24.757
  415.500  153.359   55.043    0.432    0.338   21.351
  415.750  153.483   56.297    0.438    0.332   18.072
  416.000  153.518   58.152    0.462    0.320   17.121
  416.250  152.789   55.803    0.457    0.323   17.460
  416.500  152.077   62.475    0.460    0.317   18.843
  416.750  152.166   65.543    0.473    0.300   19.217
  417.000  151.401   63.782    0.483    0.307   20.363
  417.250  151.507   60.833    0.477    0.318   20.766
  417.500  151.543   62.087    0.471    0.335   20.408
  417.750  152.468   62.154    0.466    0.331   18.608
  418.000  152.521   61.607    0.462    0.331   13.315
  418.250  152.574   64.649    0.459    0.329   11.058
  418.500  151.863   69.506    0.467    0.297    9.187
  418.750  151.115   76.778    0.477    0.279    7.635
  419.000  150.368   81.047    0.479    0.285    7.095
  419.250  149.638   82.288    0.476    0.277    6.970
  419.500  149.709   84.143    0.478    0.255    6.723
  419.750  149.798   85.397    0.481    0.250    6.250
  420.000  150.670   89.653    0.472    0.249    6.142
  420.250  151.559   89.106    0.462    0.246    6.036
  420.500  151.612   84.956    0.457    0.244    5.822
  420.750  152.484   82.621    0.461    0.238    5.722
  421.000  152.573   83.888    0.467    0.229    5.623
  421.250  152.644   86.931    0.463    0.223    5.426
  421.500  152.715   88.185    0.463    0.219    5.334
  421.750  152.768   84.635    0.464    0.223    5.339
  422.000  152.839   81.099    0.449    0.235    5.247
  422.250  152.127   79.338    0.441    0.250    5.256
  422.500  152.198   75.802    0.443    0.259    5.259
  422.750  152.287   72.239    0.448    0.270    5.267
  423.000  152.323   68.090    0.451    0.307    5.276
  423.250  152.394   68.730    0.455    0.307    5.281
  423.500  154.884   73.000    0.456    0.290    5.286
  423.750  154.955   70.664    0.457    0.290    5.293
  424.000  155.044   69.517    0.459    0.299    5.299
  424.250  153.532   71.358    0.470    0.298    5.308
  424.500  151.984   83.420    0.481    0.263    5.313
  424.750  151.236   84.074    0.494    0.259    4.937
  425.000  150.507   78.136    0.498    0.260    4.937
  425.250  150.613   72.772    0.497    0.267    5.240
  425.500  151.450   67.421    0.497    0.283    5.051
  425.750  151.521   65.073    0.495    0.302    5.059
  426.000  152.392   68.142    0.489    0.309    5.064
  426.250  152.481   65.193    0.482    0.306    5.074
  426.500  152.534   64.045    0.481    0.305    4.985
  426.750  152.605   65.900    0.481    0.305    4.989
  427.000  153.477   68.355    0.475    0.298    4.814
  427.250  151.947   69.609    0.470    0.297    4.644
  427.500  149.652   69.062    0.473    0.300    4.481
  427.750  148.904   69.115    0.483    0.302    4.319
  428.000  148.157   70.970    0.451    0.301    4.014
  428.250  147.463   72.224    0.477    0.294    3.731
  428.500  147.516   72.277    0.538    0.255    3.532
  428.750  146.787   78.935    0.554    0.244    3.671
  429.000  146.875   86.807    0.573    0.247    4.037
  429.250  146.128   92.878    0.606    0.252    4.274
  429.500  146.217   95.320    0.594    0.262    4.440
  429.750  146.270   94.172    0.546    0.277    4.794
  430.000  146.341   85.219    0.469    0.289    4.887
  430.250  146.412   75.652    0.452    0.288    4.986
  430.500  146.483   67.299    0.442    0.284    5.088
  430.750  146.572   68.553    0.445    0.282    5.190
  431.000  146.625   71.035    0.448    0.282    5.200
  431.250  146.714   69.874    0.444    0.285    5.301
  431.500  146.803   67.526    0.458    0.286    5.310
  431.750  146.856   69.394    0.496    0.282    5.315
  432.000  146.909   71.835    0.497    0.262    5.223
  432.250  146.998   73.089    0.500    0.251    5.042
  432.500  147.087   76.745    0.509    0.246    5.045
  432.750  147.140   78.626    0.533    0.244    4.958
  433.000  147.211   78.666    0.528    0.244    4.874
  433.250  148.083   76.932    0.523    0.247    4.701
  433.500  148.955   76.958    0.525    0.239    4.369
  433.750  150.627   78.213    0.541    0.237    4.060
  434.000  151.516   83.096    0.538    0.243    3.844
  434.250  151.569   82.549    0.530    0.245    3.776
