~VERSION INFORMATION
 VERS.                 2.0:   CWLS LOG ASCII STANDARD -VERSION 2.0
 WRAP.                  NO:   ONE LINE PER DEPTH STEP
~WELL INFORMATION BLOCK
#MNEM.UNIT           DATA                    DESCRIPTION OF MNEMONIC
#---------    -------------------            -------------------------------
# Generated from Intellog Unique Number	CS_67_68/WELL/2198
WELL.         10-29-067-08W4                 : Well_name    - WELL
LOC .         00/10-29-067-08W4/0            : Location     - LOCATION
UWI .         00/10-29-067-08W4/0            : Uwi          - UNIQUE WELL ID
ENTR.         SP                             : Entered      - ENTERED BY
SRVC.         SCHLUMBERGER                   : Scn          - SERVICE COMPANY
STRT.M        330                            : top_depth    - START DEPTH
STOP.M        555                            : bot_depth    - STOP DEPTH
STEP.M        0.25                           : increment    - STEP LENGTH
 NULL. -999.2500:NULL Value
~CURVE INFORMATION BLOCK
#MNEM UNIT       ERCB CURVE CODE    CURVE DESCRIPTION
#-----------   ------------------   ----------------------------------
DEPT.M        00 001 00 00         : DEPTH        - DEPTH
ILD .OHMM     00 120 00 00         : RESD         - DEEP RESISTIVITY (DIL)
DPHI.V/V      00 890 00 00         : PHID         - DENSITY POROSITY (LIMESTONE)
NPHI.V/V      00 330 00 00         : PHIN         - NEUTRON POROSITY (LIMESTONE)
GR  .API      00 310 00 00         : GR           - GAMMA RAY
CALI.MM       00 280 01 00         : CAL          - CALIPER
~PARAMETER INFORMATION
#MNEM.UNIT           DATA             DESCRIPTION OF MNEMONIC
#---------         -----------     ------------------------------
GL  .M        639.4                : gl           - GROUND LEVEL ELEVATION
EREF.M        643.6                : kb           - ELEVATION OF DEPTH REFERENCE
DATM.M        643.6                : datum        - DATUM ELEVATION
TDD .M        560                  : tdd          - TOTAL DEPTH DRILLER
RUN .         ONE                  : Run          - RUN NUMBER
ENG .         BILL                 : Engineer     - RECORDING ENGINEER
WIT .         JIM                  : Witness      - WITNESSED BY
MUD .         GEL                  : Mud_type     - MUD TYPE
MATR.         LIMESTONE            : Logunit      - NEUTRON MATRIX
TMAX.C        23                   : BHT          - MAXIMUM RECORDED TEMPERATURE
BHTD.M        560.2                : BHTDEP       - MAXIMUM RECORDED TEMPERATURE
MATR.         1                    : LOGUNIT      - NEUTRON MATRIX
RMT .C        25                   : MDTP         - TEMPERATURE OF MUD
NEUT.         1                    : NEUTRON      - NEUTRON TYPE
RESI.         0                    : RESIST       - RESISTIVITY TYPE
RMC .OHMM     0.25                 : RMC          - RESISTIVITY OF MUD CAKE
RMF .OHMM     0.25                 : RMF          - RESISTIVITY OF MUD FILTRATE
SUFT.C        15                   : SUFT         - SURFACE TEMPERATURE
~A  DEPTH     RESD     PHID     PHIN       GR      CAL
  330.000    2.705    0.241    0.334  105.267  190.152
  330.250    2.565    0.244    0.362  104.817  188.697
  330.500    2.423    0.241    0.384  102.463  190.815
  330.750    2.338    0.252    0.400   98.948  192.830
  331.000    2.289    0.252    0.413   96.780  191.259
  331.250    2.428    0.248    0.395  101.364  188.980
  331.500    2.489    0.242    0.376  104.414  185.057
  331.750    2.498    0.238    0.357  104.575  182.675
  332.000    2.498    0.240    0.341  104.680  180.903
  332.250    2.517    0.242    0.329  104.966  180.153
  332.500    2.585    0.243    0.315  105.254  180.326
  332.750    2.665    0.244    0.336  105.665  183.977
  333.000    2.680    0.241    0.364  104.236  185.684
  333.250    2.670    0.232    0.352  100.162  185.444
  333.500    2.650    0.232    0.388   98.304  183.267
  333.750    2.591    0.235    0.414   96.320  182.514
  334.000    2.561    0.237    0.438   99.984  183.914
  334.250    2.499    0.237    0.422  107.757  186.545
  334.500    2.388    0.227    0.405  106.512  186.718
  334.750    2.343    0.239    0.427  102.380  184.638
  335.000    2.312    0.251    0.466  103.405  183.686
  335.250    2.366    0.261    0.405  105.534  185.186
  335.500    2.533    0.265    0.348   99.622  185.869
  335.750    2.656    0.245    0.336   93.281  184.612
  336.000    2.806    0.227    0.382   86.322  176.596
  336.250    2.993    0.236    0.422   82.191  170.531
  336.500    3.216    0.244    0.455   90.151  170.189
  336.750    3.457    0.249    0.485   96.088  171.284
  337.000    3.645    0.255    0.403   86.800  171.149
  337.250    3.888    0.260    0.382   79.475  168.761
  337.500    4.123    0.251    0.410   73.749  166.275
  337.750    3.993    0.272    0.439   71.212  165.937
  338.000    3.985    0.287    0.394   69.597  167.124
  338.250    4.046    0.284    0.370   77.556  167.816
  338.500    4.203    0.270    0.384   87.543  168.497
  338.750    4.449    0.274    0.410   88.074  168.467
  339.000    4.754    0.285    0.433   82.716  168.436
  339.250    5.168    0.295    0.468   78.582  168.199
  339.500    5.481    0.303    0.392   76.171  167.857
  339.750    5.586    0.290    0.354   72.776  167.927
  340.000    5.398    0.292    0.333   73.860  168.098
  340.250    5.409    0.294    0.317   75.067  169.194
  340.500    5.682    0.282    0.405   76.092  170.592
  340.750    5.947    0.298    0.449   73.434  170.666
  341.000    6.259    0.306    0.493   68.746  170.018
  341.250    6.765    0.293    0.443   65.104  168.856
  341.500    7.107    0.269    0.400   62.264  167.905
  341.750    7.452    0.309    0.397   58.992  167.871
  342.000    7.799    0.333    0.420   56.273  168.452
  342.250    7.994    0.352    0.439   56.806  169.443
  342.500    7.994    0.362    0.397   60.468  170.336
  342.750    7.313    0.361    0.364   56.767  170.917
  343.000    6.565    0.363    0.416   50.177  170.266
  343.250    5.983    0.354    0.451   46.475  169.522
  343.500    5.350    0.336    0.403   57.876  168.672
  343.750    4.703    0.315    0.404   74.122  167.820
  344.000    4.174    0.299    0.357   77.539  167.275
  344.250    3.804    0.278    0.315   80.590  166.630
  344.500    3.628    0.260    0.319   89.101  166.395
  344.750    3.480    0.269    0.347   95.710  166.049
  345.000    3.376    0.287    0.359  100.541  166.937
  345.250    3.338    0.301    0.373  110.772  167.415
  345.500    3.481    0.291    0.407  116.891  168.003
  345.750    3.615    0.302    0.432  113.494  166.845
  346.000    3.812    0.301    0.397  109.483  167.321
  346.250    3.834    0.321    0.359  106.521  168.930
  346.500    3.805    0.349    0.382   96.005  173.604
  346.750    3.720    0.300    0.412   89.416  179.604
  347.000    3.534    0.253    0.417  103.516  184.993
  347.250    3.333    0.245    0.372   99.627  188.234
  347.500    3.197    0.266    0.400   96.109  185.954
  347.750    3.090    0.278    0.430   95.233  176.610
  348.000    3.038    0.290    0.414   90.977  170.033
  348.250    3.043    0.298    0.377   85.556  165.084
  348.500    3.049    0.299    0.383   82.896  164.136
  348.750    3.131    0.301    0.367   78.888  163.693
  349.000    3.240    0.318    0.337   73.652  163.355
  349.250    3.265    0.328    0.310   70.748  163.120
  349.500    3.156    0.297    0.347   73.123  163.291
  349.750    3.067    0.270    0.373   78.443  163.459
  350.000    2.987    0.267    0.397   82.719  163.733
  350.250    2.914    0.285    0.400   77.668  164.112
  350.500    2.849    0.296    0.368   73.044  164.588
  350.750    2.748    0.300    0.395   69.957  165.272
  351.000    2.666    0.320    0.382   67.789  165.244
  351.250    2.611    0.332    0.365   65.559  165.510
  351.500    2.567    0.341    0.354   64.987  165.382
  351.750    2.558    0.341    0.349   68.036  165.044
  352.000    2.543    0.327    0.333   66.725  164.911
  352.250    2.515    0.311    0.322   64.555  164.981
  352.500    2.440    0.331    0.371   66.566  165.047
  352.750    2.353    0.349    0.397   72.255  164.403
  353.000    2.336    0.355    0.379   69.781  164.262
  353.250    2.349    0.351    0.361   66.753  164.337
  353.500    2.363    0.340    0.343   66.059  164.506
  353.750    2.394    0.337    0.389   66.713  164.173
  354.000    2.403    0.345    0.416   69.027  163.930
  354.250    2.426    0.352    0.414   71.587  163.391
  354.500    2.436    0.356    0.387   73.409  162.334
  354.750    2.454    0.347    0.360   72.101  161.998
  355.000    2.450    0.339    0.375   67.907  162.577
  355.250    2.464    0.325    0.408   80.715  164.387
  355.500    2.506    0.302    0.397   94.999  167.220
  355.750    2.511    0.280    0.358  104.921  174.451
  356.000    2.506    0.265    0.336  107.664  177.895
  356.250    2.492    0.250    0.343  113.047  179.502
  356.500    2.436    0.235    0.350  114.071  182.331
  356.750    2.395    0.231    0.372  113.558  184.961
  357.000    2.400    0.234    0.393  115.321  186.354
  357.250    2.460    0.233    0.399  118.924  186.225
  357.500    2.594    0.237    0.342  123.690  184.450
  357.750    2.777    0.274    0.314  116.367  183.706
  358.000    2.973    0.293    0.357  109.106  178.763
  358.250    3.077    0.287    0.357  101.536  172.285
  358.500    3.244    0.280    0.341   94.212  167.546
  358.750    3.351    0.278    0.383   89.283  165.674
  359.000    3.396    0.271    0.409   88.465  165.845
  359.250    3.357    0.252    0.399   91.698  166.016
  359.500    3.190    0.232    0.412   92.539  165.063
  359.750    3.095    0.265    0.454   87.549  164.112
  360.000    3.066    0.301    0.455   82.432  163.364
  360.250    3.048    0.323    0.388   79.100  163.023
  360.500    3.037    0.326    0.370   74.536  162.785
  360.750    3.101    0.319    0.394   70.407  162.652
  361.000    3.245    0.308    0.383   72.349  162.311
  361.250    3.555    0.295    0.362   75.277  162.179
  361.500    4.036    0.286    0.364   78.328  162.037
  361.750    4.679    0.278    0.377   83.829  162.009
  362.000    5.634    0.287    0.218   90.133  162.386
  362.250    6.836    0.135    0.158   88.703  162.661
  362.500    7.674    0.088    0.138   78.803  162.937
  362.750    8.582    0.036    0.123   69.943  164.328
  363.000    6.824    0.000    0.109   64.708  164.812
  363.250    5.324    0.011    0.194   58.917  164.784
  363.500    4.498    0.243    0.325   68.473  164.440
  363.750    3.850    0.280    0.363   72.321  164.002
  364.000    3.563    0.309    0.379   73.530  163.558
  364.250    3.411    0.300    0.389   71.975  163.427
  364.500    3.315    0.289    0.402   75.269  163.493
  364.750    3.290    0.272    0.416   84.029  163.765
  365.000    3.341    0.265    0.373   89.472  163.841
  365.250    3.431    0.268    0.320   89.392  164.316
  365.500    3.550    0.259    0.310   92.319  164.897
  365.750    3.523    0.249    0.384   97.086  166.399
  366.000    3.451    0.243    0.412   94.549  167.496
  366.250    3.392    0.256    0.408   92.874  168.383
