~VERSION INFORMATION
 VERS.                 2.0:   CWLS LOG ASCII STANDARD -VERSION 2.0
 WRAP.                  NO:   ONE LINE PER DEPTH STEP
~WELL INFORMATION BLOCK
#MNEM.UNIT           DATA                    DESCRIPTION OF MNEMONIC
#---------    -------------------            -------------------------------
# Generated from Intellog Unique Number	CS_71_72/WELL/904
WELL.         HUDSON'S BAY OIL & GAS         : Well_name    - WELL
LOC .         00/11-25-071-12W4/0            : Location     - LOCATION
UWI .         00/11-25-071-12W4/0            : Uwi          - UNIQUE WELL ID
ENTR.         SP                             : Entered      - ENTERED BY
SRVC.         SCHLUMBERGER                   : Scn          - SERVICE COMPANY
STRT.M        260                            : top_depth    - START DEPTH
STOP.M        480                            : bot_depth    - STOP DEPTH
STEP.M        0.25                           : increment    - STEP LENGTH
 NULL. -999.2500:NULL Value
~CURVE INFORMATION BLOCK
#MNEM UNIT       ERCB CURVE CODE    CURVE DESCRIPTION
#-----------   ------------------   ----------------------------------
DEPT.M        00 001 00 00         : DEPTH        - DEPTH
ILD .OHMM     00 120 00 00         : RESD         - DEEP RESISTIVITY (DIL)
DPHI.V/V      00 890 00 00         : PHID         - DENSITY POROSITY (LIMESTONE)
NPHI.V/V      00 330 00 00         : PHIN         - NEUTRON POROSITY (LIMESTONE)
GR  .API      00 310 00 00         : GR           - GAMMA RAY
~PARAMETER INFORMATION
#MNEM.UNIT           DATA             DESCRIPTION OF MNEMONIC
#---------         -----------     ------------------------------
GL  .M        599.3                : gl           - GROUND LEVEL ELEVATION
EREF.M        602.9                : kb           - ELEVATION OF DEPTH REFERENCE
DATM.M        599.3                : datum        - DATUM ELEVATION
TDD .M        486                  : tdd          - TOTAL DEPTH DRILLER
RUN .         ONE                  : Run          - RUN NUMBER
ENG .         BILL                 : Engineer     - RECORDING ENGINEER
WIT .         JIM                  : Witness      - WITNESSED BY
MUD .         GEL                  : Mud_type     - MUD TYPE
MATR.         LIMESTONE            : Logunit      - NEUTRON MATRIX
TMAX.C        18                   : BHT          - MAXIMUM RECORDED TEMPERATURE
BHTD.M        486                  : BHTDEP       - MAXIMUM RECORDED TEMPERATURE
MATR.         1                    : LOGUNIT      - NEUTRON MATRIX
RMT .C        25                   : MDTP         - TEMPERATURE OF MUD
NEUT.         1                    : NEUTRON      - NEUTRON TYPE
RESI.         0                    : RESIST       - RESISTIVITY TYPE
RMC .OHMM     0.25                 : RMC          - RESISTIVITY OF MUD CAKE
RMF .OHMM     0.25                 : RMF          - RESISTIVITY OF MUD FILTRATE
SUFT.C        15                   : SUFT         - SURFACE TEMPERATURE
~A  DEPTH     RESD     PHID     PHIN       GR
# ...
  434.000    7.009    0.200    0.313   83.839
  434.250    6.739    0.212    0.318   85.825
  434.500    6.479    0.220    0.338   84.653
  434.750    6.310    0.228    0.371   83.731
  435.000    6.135    0.206    0.402   84.926
  435.250    6.076    0.205    0.343   91.582
  435.500    6.062    0.220    0.305   98.541
  435.750    6.208    0.231    0.312  101.132
  436.000    6.080    0.223    0.329   86.499
  436.250    6.055    0.211    0.342   74.598
  436.500    6.030    0.203    0.333   77.494
  436.750    5.994    0.194    0.334   87.968
  437.000    5.914    0.186    0.345   96.563
  437.250    5.868    0.201    0.359  109.587
  437.500    5.832    0.227    0.121  111.692
  437.750    9.135    0.253    0.108   93.847
  438.000    9.319    0.267    0.121   79.337
  438.250    8.943    0.260    0.128   66.465
  438.500    8.163    0.254    0.121   57.352
  438.750    7.382    0.249    0.054   55.213
  439.000    6.953    0.256    0.042   58.653
  439.250    7.107    0.256    0.063   66.279
  439.500    7.567    0.307    0.098   71.235
  439.750    8.361    0.303    0.145   74.249
  440.000    9.052    0.281    0.162   76.418
  440.250    9.566    0.253    0.164   78.041
  440.500    9.886    0.248    0.180   65.106
  440.750    9.919    0.241    0.207   55.085
  441.000    9.788    0.237    0.241   53.128
  441.250    9.586    0.234    0.250   57.962
  441.500    9.337    0.232    0.244   59.707
  441.750    9.127    0.230    0.266   58.838
  442.000    8.890    0.226    0.283   62.585
  442.250    8.233    0.215    0.294   68.753
  442.500    8.111    0.208    0.285   73.105
  442.750    7.915    0.212    0.280   77.818
  443.000    7.525    0.219    0.291   79.865
  443.250    7.221    0.214    0.307   79.847
  443.500    6.778    0.232    0.309   79.406
  443.750    6.396    0.261    0.297   77.265
  444.000    6.161    0.288    0.286   64.640
  444.250    5.978    0.307    0.325   49.826
  444.500    5.909    0.283    0.386   43.261
  444.750    5.919    0.268    0.405   46.578
  445.000    5.872    0.252    0.378   50.990
  445.250    5.752    0.232    0.356   56.676
  445.500    5.458    0.213    0.346   63.876
  445.750    5.209    0.183    0.372   76.474
  446.000    4.907    0.161    0.411   88.223
  446.250    4.717    0.150    0.400   97.667
  446.500    4.586    0.133    0.409  109.355
  446.750    4.525    0.113    0.441  105.396
  447.000    4.608    0.029    0.457   99.256
  447.250    4.798    0.039    0.424   91.053
  447.500    4.868    0.095    0.397   99.709
  447.750    4.705    0.229    0.383  110.245
  448.000    4.400    0.270    0.421   82.939
  448.250    3.827    0.291    0.408   66.125
  448.500    3.354    0.304    0.364   54.466
  448.750    2.988    0.307    0.360   48.264
  449.000    2.673    0.305    0.407   47.217
  449.250    2.417    0.302    0.402   47.866
  449.500    2.350    0.298    0.361   47.670
  449.750    2.362    0.297    0.353   46.501
  450.000    2.450    0.295    0.388   43.635
  450.250    2.618    0.298    0.395   46.226
  450.500    2.829    0.299    0.378   54.458
  450.750    3.001    0.284    0.363   59.657
  451.000    3.148    0.272    0.384   61.763
  451.250    3.290    0.262    0.383   64.352
  451.500    3.413    0.255    0.367   65.004
  451.750    3.640    0.254    0.375   64.627
  452.000    4.228    0.265    0.356   62.791
  452.250    4.403    0.264    0.372   66.108
  452.500    4.965    0.254    0.375   72.765
  452.750    5.257    0.238    0.374   77.843
  453.000    5.515    0.224    0.368   77.403
  453.250    5.850    0.211    0.329   80.843
  453.500    5.583    0.195    0.335   84.829
  453.750    5.845    0.180    0.340   84.327
  454.000    6.120    0.193    0.342   81.279
  454.250    6.221    0.195    0.342   80.415
  454.500    6.138    0.185    0.366   98.834
  454.750    6.113    0.180    0.368  105.611
  455.000    6.460    0.178    0.401  107.475
  455.250    6.865    0.172    0.433  103.091
  455.500    7.082    0.188    0.403   93.797
  455.750    7.172    0.219    0.354   72.071
  456.000    7.235    0.226    0.332   64.839
  456.250    7.300    0.169    0.304   74.039
  456.500    7.517    0.150    0.282   84.151
  456.750    7.770    0.187    0.294   85.530
  457.000    7.941    0.232    0.327   65.198
  457.250    8.071    0.266    0.363   56.510
  457.500    8.204    0.218    0.417   59.284
  457.750    8.401    0.177    0.323   67.637
  458.000    8.715    0.220    0.315   79.871
  458.250    8.631    0.255    0.310   90.468
  458.500    7.835    0.318    0.219   37.509
  458.750    6.386    0.406    0.262   28.822
  459.000    5.138    0.387    0.305   29.957
  459.250    4.251    0.350    0.338   33.152
  459.500    3.636    0.321    0.365   34.897
  459.750    3.356    0.306    0.384   36.640
  460.000    3.293    0.294    0.404   35.715
  460.250    3.467    0.285    0.420   36.305
  460.500    3.705    0.275    0.354   40.167
  460.750    4.139    0.268    0.340   45.188
  461.000    4.548    0.262    0.344   45.717
  461.250    5.119    0.277    0.335   57.466
  461.500    5.370    0.315    0.463   84.012
  461.750    5.644    0.313    0.522   90.182
  462.000    5.769    0.272    0.529   82.099
  462.250    5.831    0.241    0.324   69.227
  462.500    5.721    0.207    0.322   59.326
  462.750    5.501    0.165    0.333   72.046
  463.000    5.438    0.146    0.338  103.868
  463.250    5.486    0.136    0.361   93.602
  463.500    5.102    0.148    0.392   67.326
  463.750    4.454    0.235    0.318   58.215
  464.000    3.760    0.273    0.341   48.193
  464.250    3.295    0.297    0.367   55.025
  464.500    2.914    0.307    0.394   58.106
  464.750    2.710    0.312    0.387   46.629
  465.000    2.577    0.322    0.384   33.817
  465.250    2.472    0.328    0.410   32.889
  465.500    2.467    0.320    0.430   33.842
  465.750    2.526    0.317    0.443   35.220
  466.000    2.665    0.319    0.435   38.052
  466.250    2.928    0.322    0.416   42.893
  466.500    3.326    0.313    0.411   52.095
  466.750    3.615    0.299    0.422   48.622
  467.000    4.245    0.288    0.401   64.192
  467.250    4.656    0.250    0.384   75.516
  467.500    4.995    0.172    0.360   82.413
  467.750    5.337    0.170    0.284   98.650
  468.000    5.465    0.165    0.284  100.332
  468.250    5.402    0.155    0.288  105.227
  468.500    5.301    0.149    0.278  106.606
  468.750    4.956    0.165    0.293   93.371
  469.000    4.864    0.181    0.299   78.496
  469.250    4.325    0.211    0.320   69.989
  469.500    4.182    0.240    0.330   63.242
  469.750    3.853    0.253    0.337   57.585
  470.000    3.609    0.233    0.339   48.305
  470.250    3.325    0.230    0.339   43.095
  470.500    3.132    0.262    0.324   37.886
  470.750    2.775    0.292    0.314   32.551
  471.000    2.723    0.319    0.352   28.809
  471.250    2.499    0.348    0.402   24.881
  471.500    2.426    0.355    0.470   21.503
  471.750    2.289    0.335    0.450   22.455
  472.000    2.205    0.321    0.412   25.597
  472.250    2.131    0.316    0.395   27.219
  472.500    2.111    0.316    0.422   26.708
  472.750    2.106    0.318    0.447   40.772
  473.000    2.137    0.319    0.445   45.316
  473.250    2.196    0.322    0.405   46.762
  473.500    2.312    0.324    0.404   48.806
  473.750    2.485    0.325    0.403   50.918
  474.000    2.751    0.305    0.405   58.762
  474.250    3.213    0.274    0.426   64.716
  474.500    3.782    0.199    0.411   72.805
  474.750    4.784    0.073    0.282   68.875
  475.000    6.143    0.027    0.247   58.420
  475.250    7.714   -0.008    0.210   54.371
  475.500    8.213   -0.018    0.196   54.467
  475.750    8.457    0.004    0.200   55.299
  476.000    8.329    0.048    0.217   56.797
  476.250    8.203    0.056    0.200   66.471
  476.500    8.154    0.061    0.195   68.154
  476.750    8.350    0.056    0.204   62.640
  477.000    8.825    0.047    0.212   59.627
  477.250    9.732    0.041    0.217   59.845
