~VERSION INFORMATION
 VERS.                 2.0:   CWLS LOG ASCII STANDARD -VERSION 2.0
 WRAP.                  NO:   ONE LINE PER DEPTH STEP
~WELL INFORMATION BLOCK
#MNEM.UNIT           DATA                    DESCRIPTION OF MNEMONIC
#---------    -------------------            -------------------------------
# Generated from Intellog Unique Number	CX_WELLS/WELL/2955
WELL.         ATCOR HANGINGSTONE             : Well_name    - WELL
LOC .         00/12-07-082-10W4/0            : Location     - LOCATION
UWI .         00/12-07-082-10W400            : Uwi          - UNIQUE WELL ID
ENTR.         T                              : Entered      - ENTERED BY
SRVC.         SCHLUMBERGER                   : Scn          - SERVICE COMPANY
STRT.M        260                            : top_depth    - START DEPTH
STOP.M        480                            : bot_depth    - STOP DEPTH
STEP.M        0.25                           : increment    - STEP LENGTH
 NULL. -999.2500:NULL Value
~CURVE INFORMATION BLOCK
#MNEM UNIT       ERCB CURVE CODE    CURVE DESCRIPTION
#-----------   ------------------   ----------------------------------
DEPT.M        00 001 00 00         : DEPTH        - DEPTH
GR  .API      00 310 00 00         : GR           - GAMMA RAY
NPHI.V/V      00 330 00 00         : PHIN         - NEUTRON POROSITY (SANDSTONE)
DPHI.V/V      00 890 00 00         : PHID         - DENSITY POROSITY (SANDSTONE)
ILD .OHMM     00 120 00 00         : RESD         - DEEP RESISTIVITY (OTHER)
~PARAMETER INFORMATION
#MNEM.UNIT           DATA             DESCRIPTION OF MNEMONIC
#---------         -----------     ------------------------------
GL  .M        702                  : gl           - GROUND LEVEL ELEVATION
EREF.M        706                  : kb           - ELEVATION OF DEPTH REFERENCE
DATM.M        706                  : datum        - DATUM ELEVATION
TDD .M        490                  : tdd          - TOTAL DEPTH DRILLER
RUN .         ONE                  : Run          - RUN NUMBER
ENG .         BILL                 : Engineer     - RECORDING ENGINEER
WIT .         JIM                  : Witness      - WITNESSED BY
MUD .         GEL                  : Mud_type     - MUD TYPE
MATR.         SANDSTONE            : Logunit      - NEUTRON MATRIX
TMAX.C        24                   : BHT          - MAXIMUM RECORDED TEMPERATURE
BHTD.M        490                  : BHTDEP       - MAXIMUM RECORDED TEMPERATURE
MATR.         1                    : LOGUNIT      - NEUTRON MATRIX
RMT .C        24                   : MDTP         - TEMPERATURE OF MUD
NEUT.         1                    : NEUTRON      - NEUTRON TYPE
RESI.         7                    : RESIST       - RESISTIVITY TYPE
RMC .OHMM     8.6                  : RMC          - RESISTIVITY OF MUD CAKE
RMF .OHMM     8.6                  : RMF          - RESISTIVITY OF MUD FILTRATE
SUFT.C        4                    : SUFT         - SURFACE TEMPERATURE
~A  DEPTH       GR     PHIN     PHID     RESD
# ...
  434.000   57.623    0.342    0.243   21.330
  434.250   69.181    0.340    0.225   18.473
  434.500   76.127    0.339    0.214   15.999
  434.750   81.346    0.349    0.204   13.856
  435.000   89.453    0.362    0.194   12.224
  435.250   94.097    0.377    0.218   12.460
  435.500   84.358    0.382    0.257   14.687
  435.750   82.684    0.362    0.244   15.533
  436.000   83.876    0.354    0.213   15.552
  436.250   85.643    0.346    0.197   14.487
  436.500   88.551    0.349    0.187   13.482
  436.750   94.356    0.360    0.182   12.555
  437.000   97.264    0.373    0.187   12.571
  437.250   95.035    0.373    0.189   14.034
  437.500   93.906    0.372    0.192   17.164
  437.750   91.070    0.369    0.198   23.384
  438.000   87.650    0.361    0.231   27.068
  438.250   73.318    0.357    0.254   38.963
  438.500   62.429    0.348    0.276   53.097
  438.750   57.857    0.344    0.306   88.361
  439.000   50.995    0.337    0.319  116.128
  439.250   48.735    0.327    0.323  127.310
  439.500   52.249    0.331    0.325  139.569
  439.750   53.996    0.336    0.320  158.709
  440.000   61.517    0.347    0.315  153.300
  440.250   74.226    0.356    0.317  135.155
  440.500   63.326    0.362    0.318  110.856
  440.750   59.340    0.367    0.321   81.527
  441.000   54.779    0.379    0.321   68.093
  441.250   51.368    0.388    0.314   53.862
  441.500   66.954    0.389    0.304   44.987
  441.750   73.900    0.384    0.289   39.687
  442.000   72.790    0.372    0.288   39.011
  442.250   60.750    0.354    0.289   44.361
  442.500   55.038    0.344    0.295   45.230
  442.750   47.025    0.344    0.303   44.474
  443.000   42.454    0.348    0.314   42.187
  443.250   42.506    0.343    0.293   40.710
  443.500   46.010    0.340    0.283   37.240
  443.750   51.219    0.337    0.275   34.045
  444.000   58.739    0.332    0.272   29.485
  444.250   62.808    0.336    0.262   25.078
  444.500   68.038    0.339    0.247   20.945
  444.750   72.692    0.339    0.237   18.140
  445.000   76.751    0.339    0.220   15.151
  445.250   81.970    0.345    0.200   12.886
  445.500   89.501    0.372    0.200   10.763
  445.750   94.731    0.400    0.206   11.175
  446.000   91.310    0.359    0.177   11.818
  446.250   83.297    0.328    0.167   12.266
  446.500   79.312    0.358    0.142   12.061
  446.750   84.531    0.385    0.150   10.835
  447.000   91.476    0.399    0.219    9.905
  447.250   98.422    0.398    0.237    9.393
  447.500  103.076    0.398    0.239    9.408
  447.750  103.704    0.404    0.244    9.767
  448.000   99.707    0.409    0.250   10.708
  448.250   95.146    0.381    0.248   10.918
  448.500   92.311    0.355    0.234   10.735
  448.750   94.664    0.350    0.224   10.180
  449.000   99.874    0.342    0.215    9.830
  449.250  105.668    0.351    0.209    9.321
  449.500  111.473    0.375    0.205    8.842
  449.750  111.536    0.377    0.199    9.015
  450.000  109.830    0.377    0.192    9.708
  450.250  106.995    0.373    0.187   10.449
  450.500  105.311    0.376    0.197   10.845
  450.750  103.061    0.403    0.218   11.889
  451.000   99.641    0.434    0.247   14.276
  451.250   87.035    0.446    0.273   15.937
  451.500   75.550    0.464    0.302   17.797
  451.750   54.869    0.396    0.327   17.813
  452.000   48.017    0.352    0.304   17.516
  452.250   50.925    0.351    0.281   16.913
  452.500   64.209    0.351    0.260   16.043
  452.750   78.634    0.351    0.236   15.770
  453.000   78.675    0.352    0.254   15.237
  453.250   72.964    0.352    0.261   15.247
  453.500   67.838    0.351    0.256   15.266
  453.750   66.728    0.348    0.253   16.145
  454.000   66.770    0.340    0.255   17.081
  454.250   66.822    0.337    0.254   17.723
  454.500   69.730    0.341    0.253   18.081
  454.750   72.648    0.344    0.251   18.430
  455.000   76.716    0.346    0.251   18.791
  455.250   80.220    0.343    0.249   18.815
  455.500   80.251    0.341    0.249   18.168
  455.750   80.293    0.339    0.249   17.538
  456.000   80.920    0.338    0.249   17.538
  456.250   81.537    0.338    0.250   17.283
  456.500   82.740    0.340    0.251   17.283
  456.750   83.356    0.344    0.250   17.332
  457.000   83.388    0.352    0.249   16.425
  457.250   80.563    0.359    0.248   16.145
  457.500   78.868    0.358    0.248   16.166
  457.750   76.608    0.348    0.249   16.186
  458.000   77.225    0.346    0.251   16.217
  458.250   80.164    0.344    0.251   16.233
  458.500   81.335    0.339    0.250   16.545
  458.750   85.415    0.343    0.248   16.880
  459.000   84.881    0.346    0.253   17.206
  459.250   81.470    0.346    0.260   17.543
  459.500   79.200    0.340    0.261   17.892
  459.750   78.091    0.335    0.260   18.576
  460.000   81.605    0.332    0.255   18.940
  460.250   80.496    0.332    0.255   19.318
  460.500   78.226    0.338    0.261   19.684
  460.750   75.391    0.352    0.266   19.715
  461.000   70.830    0.358    0.269   19.734
  461.250   67.995    0.355    0.277   20.488
  461.500   66.310    0.352    0.289   21.279
  461.750   65.776    0.346    0.295   21.313
  462.000   66.979    0.348    0.284   21.326
  462.250   69.897    0.350    0.275   20.970
  462.500   72.229    0.352    0.265   20.619
  462.750   74.583    0.356    0.255   20.652
  463.000   75.200    0.358    0.249   20.307
  463.250   74.666    0.357    0.248   19.973
  463.500   73.546    0.351    0.252   20.005
  463.750   72.447    0.342    0.253   20.018
  464.000   72.489    0.336    0.253   20.050
  464.250   72.530    0.334    0.254   20.069
  464.500   74.308    0.331    0.254   20.101
  464.750   73.775    0.331    0.253   20.501
  465.000   72.655    0.331    0.253   20.896
  465.250   70.971    0.334    0.253   21.305
  465.500   70.437    0.350    0.260   22.127
  465.750   69.338    0.370    0.266   22.568
  466.000   68.229    0.369    0.269   22.590
  466.250   65.383    0.356    0.272   23.032
  466.500   63.123    0.345    0.275   23.491
  466.750   62.600    0.336    0.280   23.936
  467.000   62.652    0.344    0.280   24.405
  467.250   63.258    0.351    0.277   24.883
  467.500   63.300    0.352    0.280   24.923
  467.750   62.776    0.352    0.278   24.962
  468.000   62.222    0.352    0.276   24.986
  468.250   62.284    0.356    0.275   25.018
  468.500   62.305    0.361    0.284   25.050
  468.750   61.782    0.364    0.287   25.090
  469.000   62.409    0.361    0.288   25.113
  469.250   62.450    0.355    0.288   24.694
  469.500   63.057    0.351    0.288   24.749
  469.750   63.098    0.346    0.284   24.756
  470.000   62.575    0.352    0.278   24.788
  470.250   62.031    0.362    0.272   24.827
  470.500   60.922    0.364    0.275   24.875
  470.750   58.672    0.371    0.282   24.891
  471.000   56.402    0.358    0.288   24.930
  471.250   54.142    0.348    0.297   24.946
  471.500   53.619    0.354    0.300   25.435
  471.750   55.962    0.364    0.292   25.009
  472.000   57.729    0.372    0.291   22.878
  472.250   57.760    0.375    0.296   20.170
  472.500   56.096    0.376    0.304   17.155
  472.750   54.967    0.373    0.302   13.326
  473.000   52.717    0.368    0.297   10.541
  473.250   52.748    0.358    0.287    9.816
  473.500   55.677    0.345    0.282    8.982
  473.750   55.718    0.345    0.279    8.826
  474.000   55.781    0.338    0.267    8.681
  474.250   55.801    0.325    0.254    8.690
  474.500   57.569    0.326    0.248    8.706
  474.750   59.912    0.331    0.248    8.712
  475.000   63.415    0.333    0.251    8.885
  475.250   64.053    0.340    0.255    9.062
  475.500   64.084    0.346    0.258    9.237
  475.750   64.136    0.335    0.246    9.593
  476.000   63.581    0.315    0.034    9.778
  476.250   61.897    0.307    0.006    9.973
  476.500   63.089    0.300   -0.001   10.354
  476.750   71.760    0.290    0.016   10.554
  477.000   71.812    0.283    0.031   11.574
  477.250   70.118    0.277    0.040   13.153
