~VERSION INFORMATION
 VERS.                 2.0:   CWLS LOG ASCII STANDARD -VERSION 2.0
 WRAP.                  NO:   ONE LINE PER DEPTH STEP
~WELL INFORMATION BLOCK
#MNEM.UNIT           DATA                    DESCRIPTION OF MNEMONIC
#---------    -------------------            -------------------------------
# Generated from Intellog Unique Number	CS_73_76/WELL/819
WELL.         NEWPORT PETROLEUMS LTD         : Well_name    - WELL
LOC .         00/10-14-073-10W4/0            : Location     - LOCATION
UWI .         00/10-14-073-10W4/0            : Uwi          - UNIQUE WELL ID
ENTR.         SP                             : Entered      - ENTERED BY
SRVC.         SCHLUMBERGER                   : Scn          - SERVICE COMPANY
STRT.M        300                            : top_depth    - START DEPTH
STOP.M        490                            : bot_depth    - STOP DEPTH
STEP.M        0.25                           : increment    - STEP LENGTH
 NULL. -999.2500:NULL Value
~CURVE INFORMATION BLOCK
#MNEM UNIT       ERCB CURVE CODE    CURVE DESCRIPTION
#-----------   ------------------   ----------------------------------
DEPT.M        00 001 00 00         : DEPTH        - DEPTH
GR  .API      00 310 00 00         : GR           - GAMMA RAY
NPHI.V/V      00 330 00 00         : PHIN         - NEUTRON POROSITY (LIMESTONE)
DPHI.V/V      00 890 00 00         : PHID         - DENSITY POROSITY (LIMESTONE)
ILD .OHMM     00 120 00 00         : RESD         - DEEP RESISTIVITY (DIL)
~PARAMETER INFORMATION
#MNEM.UNIT           DATA             DESCRIPTION OF MNEMONIC
#---------         -----------     ------------------------------
GL  .M        660.4                : gl           - GROUND LEVEL ELEVATION
EREF.M        663.8                : kb           - ELEVATION OF DEPTH REFERENCE
DATM.M        660.4                : datum        - DATUM ELEVATION
TDD .M        610                  : tdd          - TOTAL DEPTH DRILLER
RUN .         ONE                  : Run          - RUN NUMBER
ENG .         BILL                 : Engineer     - RECORDING ENGINEER
WIT .         JIM                  : Witness      - WITNESSED BY
MUD .         GEL                  : Mud_type     - MUD TYPE
MATR.         LIMESTONE            : Logunit      - NEUTRON MATRIX
TMAX.C        23.8                 : BHT          - MAXIMUM RECORDED TEMPERATURE
BHTD.M        610                  : BHTDEP       - MAXIMUM RECORDED TEMPERATURE
MATR.         1                    : LOGUNIT      - NEUTRON MATRIX
RMT .C        25                   : MDTP         - TEMPERATURE OF MUD
NEUT.         1                    : NEUTRON      - NEUTRON TYPE
RESI.         0                    : RESIST       - RESISTIVITY TYPE
RMC .OHMM     0.25                 : RMC          - RESISTIVITY OF MUD CAKE
RMF .OHMM     0.25                 : RMF          - RESISTIVITY OF MUD FILTRATE
SUFT.C        15                   : SUFT         - SURFACE TEMPERATURE
~A  DEPTH       GR     PHIN     PHID     RESD
  300.000   93.749    0.500    0.222    3.559
  300.250   94.956    0.506    0.226    3.244
  300.500   94.348    0.493    0.231    3.014
  300.750   94.346    0.489    0.225    2.960
  301.000   94.948    0.478    0.220    3.074
  301.250   93.132    0.494    0.232    3.195
  301.500   91.315    0.501    0.230    3.257
  301.750   90.707    0.482    0.225    3.384
  302.000   93.125    0.480    0.217    3.449
  302.250   96.751    0.492    0.212    3.451
  302.500   98.563    0.510    0.215    3.454
  302.750   96.142    0.492    0.220    3.457
  303.000   92.510    0.467    0.233    3.460
  303.250   90.693    0.470    0.239    3.594
  303.500   94.320    0.493    0.241    3.664
  303.750   95.528    0.511    0.233    3.806
  304.000   92.501    0.495    0.236    4.030
  304.250   91.289    0.481    0.229    4.032
  304.500   90.681    0.474    0.220    4.034
  304.750   89.470    0.517    0.220    3.963
  305.000   85.838    0.544    0.231    3.892
  305.250   87.650    0.528    0.240    4.276
  305.500   90.067    0.503    0.239    5.159
  305.750   90.670    0.481    0.233    5.666
  306.000   90.062    0.463    0.222    7.365
  306.250   94.899    0.441    0.218    9.571
  306.500   96.106    0.420    0.247   11.121
  306.750   77.959    0.441    0.262   12.682
  307.000   63.440    0.469    0.267   15.297
  307.250   53.761    0.420    0.285   19.154
  307.500   41.662    0.375    0.306   23.101
  307.750   31.982    0.362    0.319   26.838
  308.000   28.955    0.348    0.329   31.778
  308.250   27.139    0.346    0.330   33.628
  308.500   25.926    0.348    0.334   34.940
  308.750   24.714    0.351    0.335   35.624
  309.000   24.107    0.354    0.325   34.988
  309.250   23.499    0.367    0.317   33.107
  309.500   22.893    0.349    0.311   31.323
  309.750   27.124    0.342    0.308   29.093
  310.000   39.219    0.332    0.292   27.022
  310.250   53.127    0.379    0.280   26.536
  310.500   58.568    0.396    0.262   25.584
  310.750   60.985    0.370    0.218   25.128
  311.000   66.426    0.352    0.228   25.147
  311.250   70.658    0.381    0.286   25.650
  311.500   71.865    0.388    0.297   25.666
  311.750   75.491    0.373    0.296   25.685
  312.000   77.909    0.375    0.287   25.225
  312.250   78.511    0.386    0.268   23.872
  312.500   83.347    0.374    0.253   23.007
  312.750   89.392    0.370    0.241   21.376
  313.000   92.415    0.381    0.227   20.992
  313.250   92.412    0.393    0.227   21.006
  313.500   86.361    0.402    0.240   21.023
  313.750   84.545    0.397    0.253   21.033
  314.000   82.728    0.393    0.258   21.055
  314.250   84.540    0.403    0.247   20.678
  314.500   85.748    0.413    0.253   21.480
  314.750   74.254    0.403    0.273   24.502
  315.000   59.735    0.401    0.294   26.414
  315.250   47.031    0.412    0.325   30.695
  315.500   34.932    0.382    0.347   33.724
  315.750   31.299    0.362    0.330   37.047
  316.000   30.088    0.346    0.311   39.945
  316.250   29.482    0.336    0.306   41.510
  316.500   36.736    0.336    0.308   42.308
  316.750   38.549    0.365    0.312   41.562
  317.000   41.571    0.382    0.326   40.825
  317.250   43.383    0.396    0.336   40.100
  317.500   43.986    0.392    0.328   39.385
  317.750   45.193    0.379    0.320   38.686
  318.000   43.376    0.356    0.316   38.717
  318.250   33.697    0.350    0.316   38.742
  318.500   26.436    0.337    0.317   38.788
  318.750   24.014    0.327    0.319   38.808
  319.000   29.454    0.330    0.324   38.111
  319.250   30.057    0.341    0.316   38.138
  319.500   30.056    0.340    0.310   38.160
  319.750   29.448    0.345    0.305   37.494
  320.000   29.446    0.367    0.310   35.471
  320.250   36.096    0.370    0.313   30.011
  320.500   41.538    0.355    0.299   26.350
  320.750   53.632    0.340    0.284   21.473
  321.000   63.912    0.352    0.254   15.073
  321.250   76.611    0.378    0.239   11.191
  321.500   93.543    0.418    0.209    9.825
  321.750  102.614    0.437    0.170    8.468
  322.000   98.377    0.460    0.145    7.719
  322.250  106.843    0.503    0.190    6.907
  322.500  107.446    0.540    0.220    5.844
  322.750   99.580    0.557    0.211    5.326
  323.000  105.626    0.535    0.212    4.765
  323.250  109.857    0.523    0.232    4.343
  323.500  106.226    0.531    0.246    5.047
  323.750  100.780    0.509    0.261    6.319
  324.000   94.124    0.474    0.254   10.275
  324.250   85.654    0.461    0.243   14.661
  324.500   79.604    0.453    0.256   18.015
  324.750   82.020    0.439    0.271   20.544
  325.000   82.019    0.428    0.262   22.154
  325.250   81.411    0.418    0.246   22.588
  325.500   87.456    0.411    0.234   22.190
  325.750   89.269    0.422    0.257   22.202
  326.000   81.403    0.435    0.271   21.807
  326.250   77.772    0.447    0.266   21.422
  326.500   78.375    0.440    0.257   21.043
  326.750   80.792    0.440    0.263   19.542
  327.000   86.837    0.431    0.269   16.848
  327.250   89.860    0.422    0.259   15.355
  327.500   94.091    0.411    0.228   12.990
  327.750   98.927    0.405    0.188   11.620
  328.000  104.369    0.428    0.156    9.471
  328.250  109.204    0.462    0.172    8.013
  328.500  111.017    0.481    0.186    7.303
  328.750  111.619    0.456    0.188    6.782
  329.000  113.432    0.441    0.187    6.183
  329.250  116.453    0.436    0.176    6.073
  329.500  120.685    0.459    0.179    6.429
  329.750  123.102    0.473    0.197    6.931
  330.000  117.655    0.483    0.211    7.614
  330.250  114.025    0.467    0.218    8.848
  330.500  106.160    0.453    0.226   10.090
  330.750  100.713    0.435    0.234   11.506
  331.000   98.896    0.416    0.231   16.120
  331.250   98.289    0.418    0.245   17.704
  331.500   97.077    0.417    0.283   20.188
  331.750   94.656    0.408    0.305   21.776
  332.000   92.234    0.395    0.312   22.198
  332.250   91.022    0.402    0.283   22.213
  332.500   91.019    0.410    0.267   17.772
  332.750   92.831    0.408    0.251   15.900
  333.000   94.644    0.402    0.244   14.765
  333.250   97.060    0.413    0.245   13.975
  333.500   98.267    0.452    0.251   13.722
  333.750   98.871    0.438    0.281   15.364
  334.000   86.166    0.425    0.302   16.566
  334.250   78.301    0.396    0.310   17.530
  334.500   75.275    0.388    0.310   18.907
  334.750   78.901    0.374    0.298   19.636
  335.000   81.923    0.369    0.285   20.788
  335.250   84.340    0.368    0.273   21.194
  335.500   85.548    0.383    0.267   20.049
  335.750   90.383    0.386    0.266   16.962
  336.000   93.404    0.397    0.257   14.352
  336.250   94.008    0.393    0.221   13.327
  336.500   95.215    0.380    0.200   11.925
  336.750   94.608    0.390    0.198   11.077
  337.000   95.210    0.408    0.202   11.081
  337.250   95.208    0.411    0.209   11.091
  337.500   99.439    0.402    0.222   12.186
  337.750   90.968    0.412    0.244   13.137
  338.000   87.942    0.447    0.260   15.271
  338.250   83.102    0.467    0.266   15.564
  338.500   80.680    0.460    0.264   16.473
  338.750   82.492    0.446    0.259   17.112
  339.000   87.933    0.434    0.254   14.755
  339.250   91.560    0.444    0.251   13.450
  339.500   87.928    0.452    0.250   12.726
  339.750   84.901    0.455    0.251   12.043
  340.000   87.924    0.446    0.242   11.396
  340.250   92.760    0.445    0.241   11.193
  340.500   93.968    0.450    0.248   11.200
  340.750   95.174    0.464    0.255   11.415
  341.000   92.752    0.480    0.259   12.085
  341.250   90.936    0.458    0.266   12.555
  341.500   89.724    0.445    0.272   13.041
  341.750   88.512    0.452    0.262   13.047
  342.000   86.090    0.454    0.253   13.058
  342.250   88.506    0.445    0.248   12.827
  342.500   91.529    0.438    0.252   12.598
  342.750   93.946    0.433    0.258   12.607
  343.000   95.153    0.440    0.248   12.382
  343.250   91.521    0.411    0.252   11.942
