~VERSION INFORMATION
 VERS.                 2.0:   CWLS LOG ASCII STANDARD -VERSION 2.0
 WRAP.                  NO:   ONE LINE PER DEPTH STEP
~WELL INFORMATION BLOCK
#MNEM.UNIT           DATA                    DESCRIPTION OF MNEMONIC
#---------    -------------------            -------------------------------
# Generated from Intellog Unique Number	CW_76_78/WELL/2582
WELL.         BAYSEL WILLOW R                : Well_name    - WELL
LOC .         00/11-25-078-03W5/0            : Location     - LOCATION
UWI .         00/11-25-078-03W5/0            : Uwi          - UNIQUE WELL ID
ENTR.         MAX                            : Entered      - ENTERED BY
SRVC.         SCHLUMBERGER                   : Scn          - SERVICE COMPANY
STRT.M        347.472                        : top_depth    - START DEPTH
STOP.M        609.722                        : bot_depth    - STOP DEPTH
STEP.M        0.25                           : increment    - STEP LENGTH
 NULL. -999.2500:NULL Value
~CURVE INFORMATION BLOCK
#MNEM UNIT       ERCB CURVE CODE    CURVE DESCRIPTION
#-----------   ------------------   ----------------------------------
DEPT.M        00 001 00 00         : DEPTH        - DEPTH
ILD .OHMM     00 120 00 00         : RESD         - DEEP RESISTIVITY (DIL)
NPHI.V/V      00 330 00 00         : PHIN         - NEUTRON POROSITY (SANDSTONE)
DPHI.V/V      00 890 00 00         : PHID         - DENSITY POROSITY (SANDSTONE)
CALI.MM       00 280 01 00         : CAL          - CALIPER
GR  .API      00 310 00 00         : GR           - GAMMA RAY
~PARAMETER INFORMATION
#MNEM.UNIT           DATA             DESCRIPTION OF MNEMONIC
#---------         -----------     ------------------------------
GL  .M        649.102              : gl           - GROUND LEVEL ELEVATION
EREF.M        653.308              : kb           - ELEVATION OF DEPTH REFERENCE
DATM.M        649.102              : datum        - DATUM ELEVATION
TDD .M        619.963              : tdd          - TOTAL DEPTH DRILLER
RUN .         ONE                  : Run          - RUN NUMBER
ENG .         BILL                 : Engineer     - RECORDING ENGINEER
WIT .         JIM                  : Witness      - WITNESSED BY
MUD .         GEL                  : Mud_type     - MUD TYPE
MATR.         SANDSTONE            : Logunit      - NEUTRON MATRIX
TMAX.C        27.2222              : BHT          - MAXIMUM RECORDED TEMPERATURE
BHTD.M        619.963              : BHTDEP       - MAXIMUM RECORDED TEMPERATURE
RMT .C        12.2222              : MDTP         - TEMPERATURE OF MUD
MUDD.KG/M     9100                 : MWT          - MUD DENSITY
NEUT.         1                    : NEUTRON      - NEUTRON TYPE
RESI.         0                    : RESIST       - RESISTIVITY TYPE
RM  .OHMM     0.25                 : RM           - RESISTIVITY OF MUD
RMC .OHMM     0.25                 : RMC          - RESISTIVITY OF MUD CAKE
RMF .OHMM     1.3                  : RMF          - RESISTIVITY OF MUD FILTRATE
SUFT.C        -15                  : SUFT         - SURFACE TEMPERATURE
~A  DEPTH     RESD     PHIN     PHID      CAL       GR
# ...
  420.472   13.928    0.491    0.307  150.474   54.190
  420.722   13.661    0.504    0.308  149.937   54.474
  420.972   13.397    0.518    0.307  150.925   56.846
  421.222   13.258    0.512    0.299  152.408   58.919
  421.472   12.997    0.497    0.284  154.403   58.008
  421.722   12.982    0.480    0.253  156.402   57.988
  421.972   12.960    0.377    0.146  159.406   59.164
  422.222   13.407    0.290    0.091  159.379   61.540
  422.472   14.764    0.246    0.060  158.336   66.303
  422.722   15.276    0.257    0.074  158.312   77.040
  422.972   13.463    0.311    0.122  158.787   85.388
  423.222   11.867    0.378    0.208  158.756   89.551
  423.472   10.368    0.448    0.227  156.702   86.550
  423.722    8.818    0.492    0.223  154.654   82.647
  423.972    7.172    0.524    0.215  153.106   84.421
  424.222    6.667    0.545    0.226  154.094   88.291
  424.472    6.366    0.567    0.230  155.584   90.063
  424.722    6.300    0.563    0.226  157.070   89.448
  424.972    6.289    0.549    0.220  157.548   89.135
  425.222    6.338    0.535    0.215  158.027   88.820
  425.472    6.441    0.510    0.215  159.004   89.098
  425.722    6.488    0.499    0.221  159.988   89.385
  425.972    6.488    0.513    0.221  160.972   88.466
  426.222    6.467    0.545    0.220  161.450   87.857
  426.472    6.287    0.549    0.213  161.922   91.423
  426.722    6.112    0.555    0.211  162.403   93.796
  426.972    5.889    0.573    0.203  163.384   93.780
  427.222    5.522    0.561    0.196  163.859   93.764
  427.472    5.369    0.555    0.202  163.814   93.745
  427.722    5.220    0.556    0.204  163.804   95.221
  427.972    5.120    0.542    0.209  164.286   96.700
  428.222    5.066    0.551    0.198  164.248   99.669
  428.472    5.057    0.549    0.203  164.227  100.250
  428.722    5.005    0.519    0.215  162.169   97.541
  428.972    4.997    0.493    0.213  160.624   93.942
  429.222    4.945    0.495    0.218  160.095   89.740
  429.472    4.893    0.503    0.237  160.064   88.231
  429.722    5.017    0.526    0.224  160.538   86.424
  429.972    5.330    0.550    0.221  159.503   82.224
  430.222    5.616    0.554    0.235  157.448   77.727
  430.472    6.183    0.560    0.247  154.379   74.126
  430.722    6.629    0.555    0.254  152.328   73.507
  430.972    6.981    0.545    0.263  150.278   74.988
  431.222    7.225    0.527    0.291  149.242   78.253
  431.472    7.541    0.515    0.269  149.211   79.432
  431.722    7.800    0.505    0.253  151.713   80.312
  431.972    7.859    0.471    0.224  155.222   79.103
  432.222    7.987    0.406    0.198  159.245   75.799
  432.472    7.975    0.370    0.159  163.260   75.484
  432.722    7.614    0.357    0.115  162.218   81.143
  432.972    7.272    0.360    0.134  160.669   88.592
  433.222    7.008    0.379    0.196  160.115   93.055
  433.472    6.632    0.522    0.210  159.602   91.543
  433.722    6.109    0.541    0.216  159.572   90.033
  433.972    6.047    0.485    0.223  159.018   88.822
  434.222    6.039    0.495    0.233  158.505   87.912
  434.472    6.135    0.518    0.250  157.466   87.296
  434.722    6.461    0.527    0.255  156.423   89.667
  434.972    6.685    0.544    0.243  156.423   89.653
  435.222    6.794    0.549    0.235  154.837   88.739
  435.472    6.786    0.539    0.229  152.796   86.631
  435.722    6.776    0.504    0.235  152.263   84.821
  435.972    6.763    0.498    0.239  152.745   85.699
  436.222    6.694    0.513    0.235  153.725   85.682
  436.472    6.622    0.516    0.228  155.714   86.861
  436.722    6.553    0.497    0.232  157.211   88.932
  436.972    6.542    0.498    0.229  157.679   88.621
  437.222    6.591    0.498    0.240  154.107   87.706
  437.472    6.641    0.499    0.251  151.052   85.599
  437.722    6.748    0.505    0.262  149.507   79.907
  437.972    6.859    0.487    0.255  147.958   78.993
  438.222    7.096    0.499    0.259  150.457   80.169
  438.472    7.406    0.510    0.245  155.487   80.452
  438.722    7.663    0.492    0.219  157.483   81.332
  438.972    7.998    0.510    0.242  157.961   82.803
  439.222    8.203    0.526    0.244  157.961   83.689
  439.472    8.118    0.503    0.240  157.397   85.762
  439.722    7.821    0.489    0.221  156.351   89.330
  439.972    7.469    0.512    0.201  155.319   89.907
  440.222    7.069    0.528    0.209  154.785   89.592
  440.472    6.691    0.541    0.210  156.268   88.976
  440.722    6.390    0.555    0.205  159.279   89.860
  440.972    6.100    0.573    0.203  162.283   92.228
  441.222    5.983    0.569    0.197  162.249   94.008
  441.472    5.868    0.556    0.192  162.228   93.392
  441.722    5.910    0.553    0.192  163.209   91.285
  441.972    6.009    0.547    0.189  163.683   89.175
  442.222    6.052    0.530    0.195  162.644   88.261
  442.472    6.150    0.507    0.209  160.590   89.141
  442.722    6.252    0.514    0.218  160.590   91.815
  442.972    6.355    0.520    0.220  160.019   92.992
  443.222    6.400    0.528    0.219  159.496   91.776
  443.472    6.448    0.509    0.210  158.962   91.163
  443.722    6.494    0.504    0.230  159.437   91.445
  443.972    6.426    0.500    0.247  160.421   91.427
  444.222    6.416    0.507    0.234  161.402   91.713
  444.472    6.351    0.521    0.217  160.869   91.098
  444.722    6.284    0.533    0.210  160.335   90.781
  444.972    6.274    0.543    0.222  160.308   91.360
  445.222    6.265    0.528    0.216  161.292   91.344
  445.472    6.254    0.534    0.211  162.273   93.418
  445.722    6.356    0.542    0.210  161.230   93.103
  445.972    6.576    0.564    0.211  160.700   91.594
  446.222    6.926    0.580    0.220  158.639   90.679
  446.472    7.425    0.566    0.248  157.607   88.275
  446.722    7.961    0.576    0.245  157.576   86.463
  446.972    8.613    0.574    0.247  157.042   86.745
  447.222    9.740    0.586    0.236  157.011   84.638
  447.472   10.441    0.575    0.243  157.490   83.128
  447.722   10.150    0.508    0.237  158.973   84.008
  447.972    9.606    0.497    0.228  159.960   86.377
  448.222    8.851    0.467    0.216  160.948   89.948
  448.472    8.156    0.455    0.200  160.917   91.126
  448.722    7.584    0.501    0.188  160.917   86.329
  448.972    6.990    0.522    0.175  160.356   74.663
  449.222    6.676    0.508    0.164  158.801   66.281
  449.472    7.157    0.474    0.124  157.768   61.483
  449.722    7.881    0.419    0.032  157.232   55.192
  449.972    9.073    0.250    0.020  156.695   56.372
  450.222   10.540    0.225    0.034  156.158   69.798
  450.472   10.807    0.262    0.054  156.134   75.457
  450.722    9.697    0.380    0.167  156.103   84.400
  450.972    8.619    0.458    0.228  156.585   84.384
  451.222    8.162    0.471    0.219  157.565   82.573
  451.472    7.586    0.485    0.210  158.040   84.047
  451.722    7.181    0.496    0.209  157.992   84.928
  451.972    6.919    0.504    0.217  157.985   86.406
  452.222    6.666    0.497    0.211  157.954   88.781
  452.472    6.478    0.479    0.195  158.436   87.863
  452.722    6.470    0.494    0.178  160.425   86.058
  452.972    6.459    0.509    0.192  161.409   84.845
  453.222    6.448    0.499    0.170  160.872   85.426
  453.472    6.448    0.480    0.182  159.830   89.887
  453.722    6.482    0.484    0.205  159.805   89.870
  453.972    6.419    0.496    0.212  159.778   90.752
  454.222    6.409    0.475    0.218  159.750   91.628
  454.472    6.341    0.470    0.211  159.719   91.313
  454.722    6.332    0.496    0.208  160.194   90.998
  454.972    6.320    0.517    0.222  160.163   90.385
  455.222    6.311    0.513    0.216  159.637   89.771
  455.472    6.246    0.524    0.207  159.599   90.053
  455.722    6.125    0.516    0.196  159.575   90.632
  455.972    6.116    0.508    0.191  159.551   88.226
  456.222    6.160    0.511    0.200  159.520   85.520
  456.472    6.372    0.501    0.196  155.948   84.010
  456.722    6.711    0.475    0.215  152.886   82.200
