~VERSION INFORMATION
 VERS.                 2.0:   CWLS LOG ASCII STANDARD -VERSION 2.0
 WRAP.                  NO:   ONE LINE PER DEPTH STEP
~WELL INFORMATION BLOCK
#MNEM.UNIT           DATA                    DESCRIPTION OF MNEMONIC
#---------    -------------------            -------------------------------
# Generated from Intellog Unique Number	CW_76_78/WELL/2809
WELL.         UNO-TEX MARTEN HILLS 10-25     : Well_name    - WELL
LOC .         00/10-25-076-02W5/0            : Location     - LOCATION
UWI .         00/10-25-076-02W5/0            : Uwi          - UNIQUE WELL ID
ENTR.         JJ                             : Entered      - ENTERED BY
SRVC.         SCHLUMBERGER                   : Scn          - SERVICE COMPANY
DATE.         10 FEB 64                      : Date         - LOG DATE
STRT.M        609.6                          : top_depth    - START DEPTH
STOP.M        746.85                         : bot_depth    - STOP DEPTH
STEP.M        0.25                           : increment    - STEP LENGTH
 NULL. -999.2500:NULL Value
~CURVE INFORMATION BLOCK
#MNEM UNIT       ERCB CURVE CODE    CURVE DESCRIPTION
#-----------   ------------------   ----------------------------------
DEPT.M        00 001 00 00         : DEPTH        - DEPTH
ILD .OHMM     00 120 00 00         : RESD         - DEEP RESISTIVITY (DIL)
CALI.MM       00 280 01 00         : CAL          - CALIPER
GR  .API      00 310 00 00         : GR           - GAMMA RAY
DELT.US/F     00 520 00 00         : DELT         - SONIC TRAVEL TIME
~PARAMETER INFORMATION
#MNEM.UNIT           DATA             DESCRIPTION OF MNEMONIC
#---------         -----------     ------------------------------
GL  .M        801.929              : gl           - GROUND LEVEL ELEVATION
EREF.M        805.891              : kb           - ELEVATION OF DEPTH REFERENCE
DATM.M        805.891              : datum        - DATUM ELEVATION
TDD .M        994.258              : tdd          - TOTAL DEPTH DRILLER
RUN .         ONE                  : Run          - RUN NUMBER
ENG .         HARRISON             : Engineer     - RECORDING ENGINEER
WIT .         PASHAK               : Witness      - WITNESSED BY
BASE.         EDMONTON             : Branch       - HOME BASE OF LOGGING UNIT
MUD .         GEL                  : Mud_type     - MUD TYPE
MATR.         SANDSTONE            : Logunit      - NEUTRON MATRIX
TMAX.C        27.7778              : BHT          - MAXIMUM RECORDED TEMPERATURE
BHTD.M        993.953              : BHTDEP       - MAXIMUM RECORDED TEMPERATURE
RMT .C        15.5556              : MDTP         - TEMPERATURE OF MUD
MUDD.KG/M     1092                 : MWT          - MUD DENSITY
NEUT.         1                    : NEUTRON      - NEUTRON TYPE
RESI.         0                    : RESIST       - RESISTIVITY TYPE
RM  .OHMM     6.01                 : RM           - RESISTIVITY OF MUD
RMC .OHMM     4.3                  : RMC          - RESISTIVITY OF MUD CAKE
RMF .OHMM     1.44                 : RMF          - RESISTIVITY OF MUD FILTRATE
SUFT.C        5                    : SUFT         - SURFACE TEMPERATURE
~A  DEPTH     RESD      CAL       GR     DELT
# ...
  653.100   19.930  207.631   73.820  329.196
  653.350   22.326  206.319   73.847  287.799
  653.600   22.112  204.906   68.186  251.399
  653.850   20.961  203.909   68.064  238.237
  654.100   18.972  203.530   72.881  232.188
  654.350   17.109  203.601   71.760  250.852
  654.600   15.712  204.502   71.438  354.003
  654.850   14.276  205.081   73.261  315.476
  655.100   13.042  207.254   69.146  232.932
  655.350   11.381  209.741   70.223  240.340
  655.600   10.413  211.267   73.794  314.530
  655.850    9.914  205.519   75.314  345.638
  656.100    9.843  211.178   74.749  358.110
  656.350   10.505  212.284   75.875  353.798
  656.600   11.719  207.803   77.744  362.738
  656.850   12.322  214.934   81.463  364.886
  657.100   12.432  210.664   83.034  350.655
  657.350   12.097  204.076   77.576  306.529
  657.600   11.191  200.849   71.911  210.872
  657.850   10.121  204.291   74.887  252.038
  658.100    9.417  208.466   80.848  356.788
  658.350    9.081  210.423   85.814  343.690
  658.600    9.010  211.218   81.853  346.105
  658.850    9.041  210.340   79.633  360.370
  659.100    9.051  209.435   82.903  346.004
  659.350    9.024  205.474   82.828  355.279
  659.600    8.952  203.313   81.114  356.957
  659.850    8.839  207.398   80.898  316.230
  660.100    8.708  211.354   81.469  317.846
  660.350    8.718  215.524   82.540  358.014
  660.600    8.727  217.388   83.666  362.493
  660.850    8.943  217.126   85.036  364.038
  661.100    9.604  217.499   81.422  349.146
  661.350   10.779  217.872   69.327  361.414
  661.600   11.521  217.502   66.358  374.411
  661.850   12.326  211.016   75.019  352.328
  662.100   13.377  207.900   79.933  331.633
  662.350   13.204  208.067   77.765  322.203
  662.600   11.747  205.273   79.341  342.660
  662.850    9.983  203.215   82.460  282.358
  663.100    8.589  203.695   78.347  244.757
  663.350    7.885  212.727   78.624  375.073
  663.600    7.100  221.451   84.486  367.765
  663.850    6.276  226.254   93.494  379.434
  664.100    5.961  231.391   92.774  374.526
  664.350    6.114  229.545   91.855  359.099
  664.600    6.695  228.972   91.782  364.842
  664.850    7.377  233.142   90.710  378.042
  665.100    8.406  222.741   87.942  313.279
  665.350    9.436  218.258   88.070  318.421
  665.600   10.467  221.483   86.250  382.491
  665.850   11.578  204.857   78.344  310.470
  666.100   12.342  210.193   75.227  292.176
  666.350   12.027  210.672   75.254  329.280
  666.600   11.282  200.061   75.731  222.435
  666.850   10.947  208.991   75.160  385.310
  667.100   10.795  216.339   77.782  407.695
  667.350   10.866  206.361   81.055  300.790
  667.600   11.875  211.386   82.726  342.817
  667.850   11.947  216.193   85.397  371.662
  668.100   11.286  206.108   81.886  279.601
  668.350   10.583  209.334   76.668  338.878
  668.600    9.777  211.823   76.499  362.267
  668.850    9.605  208.715   80.615  317.806
  669.100   10.166  213.203   83.735  355.578
  669.350   10.807  213.364   85.011  349.134
  669.600   12.082  209.525   80.399  338.763
  669.850   13.458  206.302   77.031  239.643
  670.100   14.202  202.243   69.822  230.276
  670.350   13.968  205.360   63.663  294.542
  670.600   12.940  208.370   67.584  368.600
  670.850   11.810  208.640   68.408  351.439
  671.100   10.780  207.957   69.083  353.389
  671.350   10.282  209.915   72.206  361.797
  671.600   10.188  213.464   74.775  346.103
  671.850   10.220  215.630   74.405  364.695
  672.100   10.291  212.097   74.933  333.750
  672.350   10.383  210.675   77.452  356.673
  672.600   10.393  209.358   78.077  338.849
  672.850   10.485  207.626   78.853  350.915
  673.100   10.170  210.105   79.678  367.980
  673.350    9.630  210.481   73.318  334.105
  673.600    9.295  207.474   67.709  333.195
  673.850    9.346  210.598   78.363  350.654
  674.100    9.560  211.075   84.230  340.821
  674.350   10.019  203.952   87.100  344.632
  674.600   10.763  202.426   89.770  356.701
  674.850   12.118  206.288   84.108  353.524
  675.100   13.963  197.260   76.654  330.768
  675.350   17.928  189.830   72.388  345.102
  675.600   21.914  192.407   70.070  343.985
  675.850   25.064  197.218   70.903  306.521
  676.100   27.339  202.133   70.024  275.042
  676.350   28.224  202.092   65.614  240.578
  676.600   28.846  198.347   61.196  253.643
  676.850   27.778  193.974   56.486  273.632
  677.100   25.789  191.807   54.166  254.611
  677.350   24.414  195.147   62.626  261.087
  677.600   23.733  198.266   68.542  284.877
  677.850   23.722  197.571   64.132  284.480
  678.100   23.875  192.679   61.162  280.249
  678.350   23.987  190.722   58.444  295.517
  678.600   24.120  190.475   55.926  310.713
  678.850   23.560  191.373   56.052  305.205
  679.100   22.326  192.902   61.966  297.433
  679.350   21.318  196.126   63.593  298.251
  679.600   20.758  199.034   60.177  284.751
  679.850   20.360  199.518   59.405  261.667
  680.100   20.024  198.512   59.631  276.000
  680.350   19.790  195.507   59.962  317.765
  680.600   19.333  196.942   60.687  306.464
  680.850   19.099  199.640   61.511  270.261
  681.100   19.149  198.321   62.033  319.284
  681.350   19.589  194.573   61.464  311.510
  681.600   20.169  194.849   62.541  301.541
  681.850   20.852  198.507   64.808  274.660
  682.100   21.638  202.035   64.986  287.462
  682.350   22.138  203.897   63.766  312.648
  682.600   22.392  202.361   64.992  310.399
  682.850   22.422  201.581   66.913  238.113
  683.100   21.455  202.481   64.047  277.346
  683.350   19.632  203.285   61.636  287.950
  683.600   18.418  203.865   60.908  283.104
  683.850   17.125  203.806   59.838  280.129
  684.100   16.116  202.387   58.966  297.193
  684.350   15.412  201.290   61.188  319.780
  684.600   14.122  202.518   65.957  312.675
  684.850   13.598  203.733   65.238  287.191
  685.100   12.712  204.410   63.723  329.422
  685.350   12.030  205.002   64.391  342.958
  685.600   11.632  204.632   67.362  335.916
  685.850   11.787  203.324   71.631  324.750
  686.100   11.960  201.369   75.004  317.975
  686.350   11.889  200.269   74.727  284.371
  686.600   10.880  199.795   70.863  278.261
  686.850    9.892  199.954   65.952  321.292
  687.100    9.576  201.703   69.974  328.568
  687.350    9.406  204.402   73.838  333.512
  687.600    9.314  208.151   80.301  333.596
  687.850    9.139  212.013   79.689  339.003
  688.100    8.925  209.849   79.310  314.059
  688.350    8.610  203.677   75.991  303.287
  688.600    8.376  202.682   71.977  295.050
  688.850    8.161  209.181   78.744  344.138
  689.100    8.113  212.087   82.312  341.956
  689.350    8.264  210.769   83.489  340.713
  689.600    8.621  208.934   82.862  319.758
  689.850    9.467  209.408   83.840  346.939
  690.100   10.988  210.844   85.966  348.623
  690.350   12.504  210.578   88.183  333.725
  690.600   14.717  213.283   90.356  362.839
  690.850   17.195  212.386   90.385  318.314
  691.100   20.813  208.851   88.413  313.473
  691.350   27.264  206.057   85.398  316.488
  691.600   32.350  203.577   80.734  312.909
  691.850   37.191  200.887   71.781  273.911
  692.100   38.691  200.421   62.230  202.952
  692.350   38.803  200.580   56.167  210.495
  692.600   37.264  201.694   51.156  193.201
  692.850   35.809  202.925   51.284  199.740
  693.100   35.104  203.606   54.455  272.734
  693.350   33.505  202.613   57.926  284.537
  693.600   30.906  200.453   60.894  218.771
  693.850   25.270  199.140   58.229  214.061
  694.100   23.201  199.925   55.660  204.094
  694.350   17.504  201.467   58.236  237.331
  694.600   15.842  204.061   62.051  314.453
  694.850   14.305  207.069   69.960  331.113
  695.100   14.029  209.661   79.218  325.545
  695.350   14.264  210.785   84.885  324.289
  695.600   14.297  210.742   90.449  322.116
  695.850   14.164  211.210   87.882  320.404
  696.100   13.930  211.902   81.872  321.087
  696.350   13.248  211.963   77.158  311.782
