~VERSION INFORMATION
 VERS.                 2.0:   CWLS LOG ASCII STANDARD -VERSION 2.0
 WRAP.                  NO:   ONE LINE PER DEPTH STEP
~WELL INFORMATION BLOCK
#MNEM.UNIT           DATA                    DESCRIPTION OF MNEMONIC
#---------    -------------------            -------------------------------
# Generated from Intellog Unique Number	CC_84_87/WELL/2353
NULL.         -999.25                        : NULL_VALUE
WELL.         PETROREP ET AL HOUSE            : Well_name    - WELL              
LOC .         15-31-084-14W4                 : Location     - LOCATION          
UWI .         00/15-31-084-14W400            : Uwi          - UNIQUE WELL ID    
ENTR.         JHS                            : Entered      - ENTERED BY        
SRVC.         COMPUTALOG                     : Scn          - SERVICE COMPANY   
DATE.         07 JAN 85                      : Date         - LOG DATE
STRT.M        96                             : top_depth    - START DEPTH       
STOP.M        251.102                        : bot_depth    - STOP DEPTH        
STEP.M        0.3                            : increment    - STEP LENGTH       
~CURVE INFORMATION BLOCK
#MNEM UNIT       ERCB CURVE CODE    CURVE DESCRIPTION
#-----------   ------------------   ----------------------------------
DEPT.M        00 001 00 00         : DEPTH        - DEPTH                       
DPHI.V/V      00 890 00 00         : PHID         - DENSITY POROSITY (LIMESTONE)
NPHI.V/V      00 330 00 00         : PHIN         - NEUTRON POROSITY (LIMESTONE)
GR  .API      00 310 00 00         : GR           - GAMMA RAY                   
ILD .OHMM     00 120 00 00         : RESD         - DEEP RESISTIVITY (DIL)      
~PARAMETER INFORMATION       
#MNEM.UNIT           DATA             DESCRIPTION OF MNEMONIC
#---------         -----------     ------------------------------
GL  .M        531.17               : gl           - GROUND LEVEL ELEVATION      
EREF.M        534.67               : kb           - ELEVATION OF DEPTH REFERENCE
DATM.M        534.67               : datum        - DATUM ELEVATION             
TDD .M        254                  : tdd          - TOTAL DEPTH DRILLER         
RUN .         ONE                  : Run          - RUN NUMBER                  
ENG .         BILL                 : Engineer     - RECORDING ENGINEER          
WIT .         JIM                  : Witness      - WITNESSED BY                
MUD .         GEL                  : Mud_type     - MUD TYPE                    
MATR.         LIMESTONE            : Logunit      - NEUTRON MATRIX              
TMAX.C        22                   : BHT          - MAXIMUM RECORDED TEMPERATURE
BHTD.M        254                  : BHTDEP       - MAXIMUM RECORDED TEMPERATURE
MATR.         1                    : LOGUNIT      - NEUTRON MATRIX              
RMT .C        25                   : MDTP         - TEMPERATURE OF MUD          
NEUT.         1                    : NEUTRON      - NEUTRON TYPE                
RESI.         0                    : RESIST       - RESISTIVITY TYPE            
RMC .OHMM     0.25                 : RMC          - RESISTIVITY OF MUD CAKE     
RMF .OHMM     0.25                 : RMF          - RESISTIVITY OF MUD FILTRATE 
SUFT.C        15                   : SUFT         - SURFACE TEMPERATURE         
~A  DEPTH     PHID     PHIN       GR     RESD
   96.000    0.200    0.458  110.657    6.239
   96.300    0.233    0.469  116.811    5.572
   96.600    0.222    0.483  119.890    4.977
   96.900    0.200    0.478  119.282    5.269
   97.200    0.179    0.440  118.673    5.473
   97.500    0.208    0.445  119.294    5.272
   97.800    0.232    0.471  120.528    4.983
   98.100    0.236    0.515  124.838    4.536
   98.400    0.234    0.532  125.459    4.051
   98.700    0.246    0.519  123.005    3.687
   99.000    0.268    0.477  126.084    3.759
   99.300    0.286    0.452  121.787    4.627
   99.600    0.315    0.331  112.572    6.625
   99.900    0.390    0.313   87.988    8.963
  100.200    0.398    0.332   79.387   12.833
  100.500    0.385    0.376   79.393   15.799
  100.800    0.355    0.400   84.931   14.933
  101.100    0.319    0.414   89.856   12.604
  101.400    0.292    0.405  102.771   10.639
  101.700    0.265    0.398  105.852    9.867
  102.000    0.250    0.414  105.857    8.814
  102.300    0.256    0.427  105.863    8.490
  102.600    0.273    0.436  105.870    8.492
  102.900    0.282    0.427  104.031    9.161
  103.200    0.298    0.324   96.045   11.278
  103.500    0.373    0.261   95.436   14.973
  103.800    0.414    0.223  108.351   21.436
  104.100    0.442    0.202  103.439   28.461
  104.400    0.464    0.262   72.707   23.573
  104.700    0.463    0.399   62.878   18.800
  105.000    0.425    0.367   74.564   16.792
  105.300    0.370    0.277   74.570   17.117
  105.600    0.400    0.211   62.895   18.120
  105.900    0.428    0.194   57.983   21.889
  106.200    0.429    0.192   56.145   47.472
  106.500    0.417    0.200   57.381   53.177
  106.800    0.402    0.251   59.845   49.328
  107.100    0.379    0.294   69.072   31.966
  107.400    0.368    0.283   70.923   21.109
  107.700    0.379    0.205   66.626   20.721
  108.000    0.399    0.183   62.330   26.996
  108.300    0.395    0.201   61.720   46.679
  108.600    0.376    0.209   61.726   76.269
  108.900    0.385    0.226   61.117   95.684
  109.200    0.390    0.257   61.122   90.449
  109.500    0.380    0.274   59.285   80.784
  109.800    0.257    0.209   56.216   76.362
  110.100    0.028    0.117   48.845   90.523
  110.400    0.000    0.094   42.704  111.447
  110.700    0.000    0.099   42.709  127.224
  111.000    0.015    0.109   44.560  127.262
  111.300    0.010    0.129   41.492  109.453
  111.600    0.020    0.161   43.342   70.930
  111.900    0.159    0.297   51.954   39.525
  112.200    0.367    0.360   58.108   28.684
  112.500    0.369    0.406   62.418   24.211
  112.800    0.360    0.404   61.808   22.038
  113.100    0.349    0.419   58.741   21.228
  113.400    0.364    0.427   61.206   20.839
  113.700    0.371    0.398   64.285   20.844
  114.000    0.370    0.392   63.676   20.460
  114.300    0.367    0.412   61.838   20.082
  114.600    0.370    0.434   60.000   20.089
  114.900    0.372    0.438   58.776   20.094
  115.200    0.369    0.398   60.012   19.356
  115.500    0.357    0.407   61.862   18.644
  115.800    0.355    0.428   59.409   17.294
  116.100    0.345    0.437   57.572   16.346
  116.400    0.329    0.433   56.961   16.350
  116.700    0.253    0.393   55.738   17.639
  117.000    0.159    0.313   51.441   18.322
  117.300    0.158    0.293   50.831   17.984
  117.600    0.158    0.296   53.911   15.180
  117.900    0.191    0.267   61.910   11.658
  118.200    0.272    0.338   70.522    9.475
  118.500    0.318    0.413   78.519    8.150
  118.800    0.323    0.426   81.599    7.418
  119.100    0.312    0.430   79.762    6.881
  119.400    0.298    0.445   80.996    6.382
  119.700    0.303    0.448   82.232    6.265
  120.000    0.308    0.450   79.778    6.508
  120.300    0.304    0.462   77.325    6.760
  120.600    0.299    0.454   79.176    7.156
  120.900    0.292    0.419   82.870    7.158
  121.200    0.291    0.414   81.032    7.160
  121.500    0.296    0.420   77.349    7.438
  121.800    0.307    0.414   74.281    8.176
  122.100    0.305    0.382   76.131    8.988
  122.400    0.308    0.393   77.367   10.069
  122.700    0.314    0.399   82.906   11.068
  123.000    0.323    0.405   87.830   11.716
  123.300    0.339    0.403   85.376   12.170
  123.600    0.336    0.393   84.768   11.723
  123.900    0.341    0.441   78.626   11.081
  124.200    0.398    0.475   70.025   10.278
  124.500    0.377    0.449   73.106   10.089
  124.800    0.352    0.405   68.193   10.284
  125.100    0.325    0.405   58.978   10.684
  125.400    0.343    0.426   63.287   11.097
  125.700    0.341    0.423   66.367   11.746
  126.000    0.342    0.395   61.455   12.671
  126.300    0.348    0.395   60.847   13.163
  126.600    0.341    0.409   63.926   12.921
  126.900    0.326    0.496   68.849   12.446
  127.200    0.325    0.500   67.627   11.765
  127.500    0.321    0.485   61.484   11.548
  127.800    0.317    0.459   66.408   12.457
  128.100    0.319    0.438   67.029   12.698
  128.400    0.326    0.395   58.428   12.231
  128.700    0.315    0.415   65.811   11.561
  129.000    0.311    0.410   67.662   10.326
  129.300    0.301    0.394   71.971    8.881
  129.600    0.290    0.403   80.583    7.219
  129.900    0.279    0.429   85.507    6.824
  130.200    0.277    0.438   81.825    6.825
  130.500    0.279    0.464   75.068    7.225
  130.800    0.288    0.467   74.459    7.942
  131.100    0.296    0.438   70.776    8.407
  131.400    0.295    0.435   68.324    8.733
  131.700    0.289    0.427   72.633    8.573
  132.000    0.295    0.422   71.409    8.103
  132.300    0.290    0.433   75.104    7.805
  132.600    0.287    0.433   78.798    7.956
  132.900    0.300    0.448   75.116    8.265
  133.200    0.310    0.443   70.204    8.749
  133.500    0.316    0.421   68.365    9.617
  133.800    0.311    0.402   68.372   10.774
  134.100    0.302    0.418   67.148   12.300
  134.400    0.310    0.433   62.850   12.775
  134.700    0.353    0.434   58.553   11.851
  135.000    0.343    0.446   59.173   10.786
  135.300    0.332    0.451   65.327    9.454
  135.600    0.311    0.438   72.710    8.444
  135.900    0.293    0.439   75.790    7.832
  136.200    0.301    0.454   77.026    7.404
  136.500    0.295    0.475   78.260    7.267
  136.800    0.298    0.465   79.496    7.269
  137.100    0.311    0.444   76.428    7.410
  137.400    0.307    0.435   72.131    7.553
  137.700    0.290    0.436   75.211    7.276
  138.000    0.271    0.461   80.134    7.278
  138.300    0.292    0.458   78.296    7.704
  138.600    0.315    0.468   66.621    8.155
  138.900    0.329    0.452   65.399    7.708
  139.200    0.333    0.435   69.093    7.016
  139.500    0.303    0.471   79.549    7.152
  139.800    0.297    0.471   80.171    7.862
  140.100    0.312    0.435   71.570    8.807
  140.400    0.334    0.410   66.043   10.054
  140.700    0.344    0.419   63.590    9.869
  141.000    0.339    0.432   64.210    9.154
  141.300    0.330    0.441   68.519    8.653
  141.600    0.328    0.429   69.140    8.821
  141.900    0.340    0.425   64.843    9.697
  142.200    0.351    0.439   64.234   10.659
  142.500    0.358    0.447   59.937   11.940
  142.800    0.353    0.451   60.557   13.126
  143.100    0.353    0.427   61.178   14.159
  143.400    0.361    0.403   56.881   15.564
  143.700    0.362    0.383   56.272   17.110
  144.000    0.348    0.395   55.663   17.116
  144.300    0.344    0.420   53.211   16.486
  144.600    0.358    0.433   52.601   13.915
  144.900    0.355    0.421   56.910   11.098
  145.201    0.339    0.441   64.293    9.020
  145.501    0.319    0.474   74.136    7.906
  145.801    0.324    0.473   69.223    7.761
  146.101    0.338    0.452   63.696    8.061
  146.401    0.343    0.427   60.628    8.862
  146.701    0.350    0.419   61.864    9.927
  147.001    0.362    0.415   58.796   10.708
  147.301    0.364    0.405   53.885   11.552
  147.601    0.361    0.394   55.120   11.776
  147.901    0.354    0.399   59.428   12.232
