~VERSION INFORMATION
 VERS.                 2.0:   CWLS LOG ASCII STANDARD -VERSION 2.0
 WRAP.                  NO:   ONE LINE PER DEPTH STEP
~WELL INFORMATION BLOCK
#MNEM.UNIT           DATA                    DESCRIPTION OF MNEMONIC
#---------    -------------------            -------------------------------
# Generated from Intellog Unique Number	CW_76_78/WELL/1032
WELL.         CHIEFCO MCMULLEN               : Well_name    - WELL
LOC .         00/11-34-077-25W4/0            : Location     - LOCATION
UWI .         00/11-34-077-25W4/0            : Uwi          - UNIQUE WELL ID
ENTR.         JAYE                           : Entered      - ENTERED BY
SRVC.         WESTERN ATLAS                  : Scn          - SERVICE COMPANY
DATE.         27 FEB 75                      : Date         - LOG DATE
STRT.M        423.672                        : top_depth    - START DEPTH
STOP.M        603.422                        : bot_depth    - STOP DEPTH
STEP.M        0.25                           : increment    - STEP LENGTH
 NULL. -999.2500:NULL Value
~CURVE INFORMATION BLOCK
#MNEM UNIT       ERCB CURVE CODE    CURVE DESCRIPTION
#-----------   ------------------   ----------------------------------
DEPT.M        00 001 00 00         : DEPTH        - DEPTH
DPHI.V/V      00 890 00 00         : PHID         - DENSITY POROSITY (SANDSTONE)
NPHI.V/V      00 330 00 00         : PHIN         - NEUTRON POROSITY (SANDSTONE)
GR  .API      00 310 00 00         : GR           - GAMMA RAY
CALI.MM       00 280 01 00         : CAL          - CALIPER
ILD .OHMM     00 120 00 00         : RESD         - DEEP RESISTIVITY (DIL)
~PARAMETER INFORMATION
#MNEM.UNIT           DATA             DESCRIPTION OF MNEMONIC
#---------         -----------     ------------------------------
GL  .M        638.251              : gl           - GROUND LEVEL ELEVATION
EREF.M        641.604              : kb           - ELEVATION OF DEPTH REFERENCE
DATM.M        638.251              : datum        - DATUM ELEVATION
TDD .M        608.076              : tdd          - TOTAL DEPTH DRILLER
RUN .         ONE                  : Run          - RUN NUMBER
ENG .         CLARK                : Engineer     - RECORDING ENGINEER
WIT .         GARDENER             : Witness      - WITNESSED BY
BASE.         V.V.                 : Branch       - HOME BASE OF LOGGING UNIT
MUD .         GEL CHEM             : Mud_type     - MUD TYPE
MATR.         SANDSTONE            : Logunit      - NEUTRON MATRIX
TMAX.C        26.1111              : BHT          - MAXIMUM RECORDED TEMPERATURE
BHTD.M        608.076              : BHTDEP       - MAXIMUM RECORDED TEMPERATURE
RMT .C        18.3333              : MDTP         - TEMPERATURE OF MUD
MUDD.KG/M     1140                 : MWT          - MUD DENSITY
NEUT.         1                    : NEUTRON      - NEUTRON TYPE
RESI.         0                    : RESIST       - RESISTIVITY TYPE
RM  .OHMM     4.6                  : RM           - RESISTIVITY OF MUD
RMC .OHMM     0                    : RMC          - RESISTIVITY OF MUD CAKE
RMF .OHMM     3.3                  : RMF          - RESISTIVITY OF MUD FILTRATE
SUFT.C        4.5                  : SUFT         - SURFACE TEMPERATURE
~A  DEPTH     PHID     PHIN       GR      CAL     RESD
# ...
  533.172    0.349    0.524   24.842  174.315   53.178
  533.422    0.351    0.531   24.952  174.394   51.747
  533.672    0.354    0.528   24.878  174.786   50.541
  533.922    0.358    0.529   24.743  174.971   48.557
  534.172    0.361    0.533   24.488  175.053   46.990
  534.422    0.358    0.535   24.897  175.440   45.226
  534.672    0.348    0.526   25.129  175.317   43.131
  534.922    0.341    0.518   25.543  175.294   41.283
  535.172    0.350    0.523   26.016  175.374   39.154
  535.422    0.346    0.520   26.489  175.352   37.135
  535.672    0.341    0.515   26.294  175.328   35.806
  535.922    0.334    0.511   26.280  175.102   33.897
  536.172    0.339    0.517   26.450  174.979   32.032
  536.422    0.350    0.523   26.741  174.957   29.991
  536.672    0.353    0.526   26.728  175.036   27.825
  536.922    0.349    0.527   26.715  175.223   25.439
  537.172    0.336    0.511   26.701  174.891   23.215
  537.422    0.340    0.524   26.386  174.768   21.616
  537.672    0.347    0.523   24.975  174.332   19.403
  537.922    0.340    0.514   25.995  173.589   16.943
  538.172    0.331    0.510   29.325  173.568   14.420
  538.422    0.324    0.508   35.451  173.855   12.477
  538.672    0.313    0.499   39.875  174.141   11.097
  538.922    0.303    0.490   44.481  174.328   10.165
  539.172    0.293    0.479   48.541  174.408    9.570
  539.422    0.268    0.453   52.174  174.900    8.993
  539.672    0.217    0.399   53.191  175.188    8.592
  539.922    0.206    0.394   51.053  175.677    8.315
  540.172    0.198    0.388   44.538  176.071    8.211
  540.422    0.192    0.475   35.529  176.353    8.109
  540.672    0.299    0.482   34.543  176.438    8.052
  540.922    0.283    0.466   33.133  176.517    8.055
  541.172    0.266    0.450   32.208  177.012    8.056
  541.422    0.250    0.429   31.891  177.710    8.223
  541.672    0.234    0.384   31.393  178.097    8.804
  541.922    0.222    0.234   31.562  178.384    9.287
  542.172    0.212    0.289   31.671  178.980    9.709
  542.422    0.205    0.330   32.084  179.165    9.747
  542.672    0.317    0.465   32.617  179.346    9.210
  542.922    0.318    0.494   32.908  179.631    8.405
  543.172    0.333    0.516   33.139  179.818    7.656
  543.422    0.353    0.520   33.793  180.107    7.369
  543.672    0.356    0.518   34.815  180.292    7.224
  543.922    0.354    0.524   35.347  181.607    7.160
  544.172    0.351    0.533   35.092  182.716    7.123
  544.422    0.349    0.530   35.991  183.314    7.111
  544.672    0.352    0.523   38.045  184.114    7.113
  544.922    0.351    0.524   39.308  185.016    7.141
  545.172    0.348    0.527   40.632  185.717    7.209
  545.422    0.348    0.529   42.199  186.208    7.265
  545.672    0.346    0.522   43.524  186.598    7.293
  545.922    0.341    0.510   44.909  186.579    7.349
  546.172    0.334    0.499   46.657  186.146    7.460
  546.422    0.323    0.485   47.861  185.815    7.614
  546.672    0.309    0.472   48.456  185.896    7.901
  546.922    0.293    0.457   49.109  185.768    8.275
  547.172    0.275    0.407   50.193  185.852    8.762
  547.422    0.253    0.266   55.466  186.136    9.415
  547.672    0.075    0.245   61.166  186.321   10.303
  547.922    0.039    0.256   63.587  186.400   11.235
  548.172    0.065    0.311   62.419  186.379   12.139
  548.422    0.256    0.441   63.437  186.559   12.345
  548.672    0.240    0.372   66.829  186.747   12.213
  548.922    0.200    0.346   76.663  186.830   11.907
  549.172    0.151    0.356   86.436  186.907   11.354
  549.422    0.148    0.352   91.406  186.785   10.136
  549.672    0.147    0.345   97.047  186.860    9.684
  549.922    0.153    0.344   95.392  187.048    9.407
  550.172    0.164    0.365   93.555  187.027    9.238
  550.422    0.188    0.384   92.753  186.903    9.140
  550.672    0.200    0.398   90.490  186.879    9.227
  550.922    0.197    0.388   85.191  186.655    9.417
  551.172    0.178    0.367   72.779  186.426    9.612
  551.422    0.235    0.421   52.890  186.607   10.481
  551.672    0.246    0.438   54.029  186.588   11.856
  551.922    0.303    0.490   55.964  186.564   13.761
  552.172    0.295    0.477   60.145  186.544   15.710
  552.422    0.282    0.464   62.867  186.522   17.967
  552.672    0.272    0.458   61.273  186.295   20.587
  552.922    0.293    0.482   57.797  186.377   22.163
  553.172    0.303    0.484   54.621  186.251   23.168
  553.422    0.269    0.454   54.366  186.125   24.085
  553.672    0.229    0.163   54.536  186.208   24.583
  553.922    0.043    0.206   56.285  186.187   24.771
  554.172    0.033    0.267   58.279  186.164   23.666
  554.422    0.160    0.402   60.150  186.038   20.934
  554.672    0.211    0.406   60.502  185.912   19.493
  554.922    0.192    0.387   60.672  186.096   18.319
  555.172    0.168    0.366   60.962  186.280   17.663
  555.422    0.140    0.146   61.312  186.153   17.188
  555.672    0.071    0.172   61.666  186.342   16.213
  555.922    0.009    0.243   62.379  186.727   14.499
  556.172    0.059    0.357   62.734  186.808   12.708
  556.422    0.148    0.352   64.422  186.787   11.596
  556.672    0.098    0.203   67.388  187.069   10.108
  556.922    0.037    0.208   71.751  187.159    9.292
  557.172    0.005    0.260   81.646  187.342    8.558
  557.422    0.074    0.387   86.495  187.212    8.042
  557.672    0.128    0.376   84.294  187.296    7.797
  557.922    0.167    0.365   63.251  187.273    7.491
  558.172    0.170    0.355   55.032  187.151    7.343
  558.422    0.277    0.587   46.450  186.923    7.373
  558.672    0.232    0.564   50.144  186.694    7.456
  558.922    0.229    0.508   61.072  186.466    7.852
  559.172    0.116    0.515   68.474  185.928    8.103
  559.422    0.045    0.553   74.843  186.010    8.180
  559.672   -0.000    0.447   76.956  185.987    8.108
  559.922   -0.005    0.460   75.486  186.173    7.962
  560.172    0.009    0.458   73.344  186.356    6.991
  560.422    0.034    0.446   71.995  186.335    6.510
  560.672    0.186    0.423   72.225  186.417    6.174
  560.922    0.263    0.397   76.527  186.702    5.888
  561.172    0.061    0.379   81.621  186.991    5.585
  561.422   -0.024    0.353   86.531  186.969    5.455
  561.672   -0.059    0.373   85.543  187.256    5.406
  561.922   -0.054    0.400   85.531  187.232    5.388
  562.172   -0.033    0.430   86.856  187.417    5.389
  562.422    0.063    0.485   87.755  187.498    5.531
  562.672    0.114    0.464   87.316  187.477    5.878
  562.922    0.097    0.141   85.116  187.455    6.398
  563.172    0.102    0.462   80.484  187.635    6.913
  563.422    0.120    0.466   81.686  187.618    7.253
  563.672    0.133    0.468   84.893  187.391    7.498
  563.922    0.138    0.468   87.980  187.058    7.584
  564.172    0.122    0.291   92.649  186.418    7.712
  564.422    0.111    0.282   87.591  185.574    8.062
  564.672    0.098    0.386   75.058  184.214    8.552
  564.922    0.205    0.416   67.387  183.676    9.257
  565.172    0.231    0.434   72.053  183.451   10.094
  565.422    0.261    0.444   77.753  183.529   10.866
  565.672    0.280    0.452   81.873  184.227   11.297
  565.922    0.296    0.460   84.718  184.927   11.383
  566.172    0.314    0.492   82.881  185.626   11.097
  566.422    0.314    0.507   69.801  186.529   10.760
  566.672    0.290    0.496   71.793  187.125   10.509
  566.922    0.277    0.473   77.066  187.826   10.283
  567.172    0.265    0.451   80.702  188.211   10.098
  567.422    0.255    0.469   82.695  188.292    9.990
  567.672    0.233    0.456   81.586  188.376    9.994
  567.922    0.222    0.436   79.813  188.045   10.070
  568.172    0.207    0.405   77.246  187.611   10.297
  568.422    0.291    0.471   74.256  187.282   10.627
  568.672    0.222    0.470   65.247  187.258   11.545
  568.922    0.186    0.195   53.079  186.930   13.824
  569.172    0.136    0.130   57.501  185.979   16.075
  569.422    0.116    0.112   63.871  185.445   18.150
