~VERSION INFORMATION
 VERS.                 2.0:   CWLS LOG ASCII STANDARD -VERSION 2.0
 WRAP.                  NO:   ONE LINE PER DEPTH STEP
~WELL INFORMATION BLOCK
#MNEM.UNIT           DATA                    DESCRIPTION OF MNEMONIC
#---------    -------------------            -------------------------------
# Generated from Intellog Unique Number	CS_77_79/WELL/960
WELL.         CDN. SUP. THORNBURY            : Well_name    - WELL
LOC .         00/10-22-078-14W4/0            : Location     - LOCATION
UWI .         00/10-22-078-14W4/0            : Uwi          - UNIQUE WELL ID
ENTR.         JHS                            : Entered      - ENTERED BY
SRVC.         SCHLUMBERGER                   : Scn          - SERVICE COMPANY
STRT.M        275                            : top_depth    - START DEPTH
STOP.M        518.25                         : bot_depth    - STOP DEPTH
STEP.M        0.25                           : increment    - STEP LENGTH
 NULL. -999.2500:NULL Value
~CURVE INFORMATION BLOCK
#MNEM UNIT       ERCB CURVE CODE    CURVE DESCRIPTION
#-----------   ------------------   ----------------------------------
DEPT.M        00 001 00 00         : DEPTH        - DEPTH
NPHI.V/V      00 330 00 00         : PHIN         - NEUTRON POROSITY (LIMESTONE)
GR  .API      00 310 00 00         : GR           - GAMMA RAY
ILD .OHMM     00 120 00 00         : RESD         - DEEP RESISTIVITY (DIL)
DPHI.V/V      00 890 00 00         : PHID         - DENSITY POROSITY (LIMESTONE)
~PARAMETER INFORMATION
#MNEM.UNIT           DATA             DESCRIPTION OF MNEMONIC
#---------         -----------     ------------------------------
GL  .M        685.4                : gl           - GROUND LEVEL ELEVATION
EREF.M        689.9                : kb           - ELEVATION OF DEPTH REFERENCE
DATM.M        689.9                : datum        - DATUM ELEVATION
TDD .M        665                  : tdd          - TOTAL DEPTH DRILLER
RUN .         ONE                  : Run          - RUN NUMBER
ENG .         BILL                 : Engineer     - RECORDING ENGINEER
WIT .         JIM                  : Witness      - WITNESSED BY
MUD .         GEL                  : Mud_type     - MUD TYPE
MATR.         LIMESTONE            : Logunit      - NEUTRON MATRIX
TMAX.C        19                   : BHT          - MAXIMUM RECORDED TEMPERATURE
BHTD.M        665                  : BHTDEP       - MAXIMUM RECORDED TEMPERATURE
MATR.         1                    : LOGUNIT      - NEUTRON MATRIX
RMT .C        25                   : MDTP         - TEMPERATURE OF MUD
NEUT.         1                    : NEUTRON      - NEUTRON TYPE
RESI.         0                    : RESIST       - RESISTIVITY TYPE
RMC .OHMM     0.25                 : RMC          - RESISTIVITY OF MUD CAKE
RMF .OHMM     0.25                 : RMF          - RESISTIVITY OF MUD FILTRATE
SUFT.C        15                   : SUFT         - SURFACE TEMPERATURE
~A  DEPTH     PHIN       GR     RESD     PHID
# ...
  318.500    0.435  130.696    4.170    0.204
  318.750    0.427  131.945    4.332    0.213
  319.000    0.445  131.337    4.948    0.212
  319.250    0.430  123.945    5.984    0.218
  319.500    0.414  117.166    7.516    0.217
  319.750    0.409  111.626    8.586    0.223
  320.000    0.387  109.788    9.996    0.220
  320.250    0.346  111.652   10.584    0.215
  320.500    0.338  112.901   10.789    0.202
  320.750    0.328  111.677   10.195    0.200
  321.000    0.317  104.282    9.633    0.219
  321.250    0.323  108.001    8.763    0.260
  321.500    0.368  116.655    7.822    0.226
  321.750    0.393  124.694    7.116    0.198
  322.000    0.425  129.646    6.984    0.174
  322.250    0.440  130.893    7.119    0.177
  322.500    0.433  126.585    7.538    0.190
  322.750    0.428  122.276    8.611    0.203
  323.000    0.418  118.586    9.837    0.204
  323.250    0.396  115.514   11.026    0.221
  323.500    0.395  112.442   11.455    0.221
  323.750    0.394  109.368   11.901    0.224
  324.000    0.400  103.827   11.904    0.221
  324.250    0.389   98.282   11.684    0.232
  324.500    0.396   98.295   11.466    0.236
  324.750    0.383  102.631   11.043    0.235
  325.000    0.385  106.964   10.838    0.232
  325.250    0.391  113.767   10.636    0.246
  325.500    0.384  116.250   10.638    0.230
  325.750    0.405  116.880   10.642    0.229
  326.000    0.401  110.105   11.055    0.225
  326.250    0.394  101.474   11.486    0.230
  326.500    0.416   85.438   12.161    0.243
  326.750    0.400   75.576   12.878    0.273
  327.000    0.409   72.502   13.379    0.269
  327.250    0.415   69.430   13.639    0.245
  327.500    0.385   68.826   13.385    0.220
  327.750    0.367   73.776   12.890    0.221
  328.000    0.345   81.814   12.179    0.231
  328.250    0.325   86.765   11.292    0.223
  328.500    0.347   87.397   10.875    0.227
  328.750    0.349   86.176   10.672    0.232
  329.000    0.360   83.722   10.474    0.226
  329.250    0.372   83.733   10.476    0.223
  329.500    0.364   84.366   10.479    0.231
  329.750    0.371   83.144   10.482    0.248
  330.000    0.381   81.919   10.685    0.255
  330.250    0.377   81.933   10.688    0.259
  330.500    0.381   80.710   10.896    0.268
  330.750    0.413   78.254   11.107    0.273
  331.000    0.433   75.802   11.322    0.273
  331.250    0.439   73.961   11.325    0.263
  331.500    0.422   72.740   11.545    0.260
  331.750    0.399   73.991   11.547    0.265
  332.000    0.389   75.852   11.334    0.245
  332.250    0.392   78.952   11.123    0.235
  332.500    0.409   82.669   10.711    0.248
  332.750    0.396   88.237   10.315    0.233
  333.000    0.383   93.807    9.933    0.204
  333.250    0.402   98.140    9.386    0.193
  333.500    0.402  102.475    9.212    0.199
  333.750    0.417  105.575    8.871    0.229
  334.000    0.412  107.440    8.543    0.241
  334.250    0.400  106.835    8.072    0.229
  334.500    0.400  102.530    7.922    0.211
  334.750    0.440   96.988    8.075    0.203
  335.000    0.439   89.592    8.882    0.210
  335.250    0.434   78.493    9.768    0.264
  335.500    0.405   65.543   10.743    0.292
  335.750    0.379   66.791   11.593    0.300
  336.000    0.369   74.213   12.045    0.287
  336.250    0.369   76.076   12.278    0.282
  336.500    0.379   71.770   12.051    0.286
  336.750    0.420   73.017   11.826    0.285
  337.000    0.421   76.120   11.389    0.280
  337.250    0.414   76.133   10.761    0.278
  337.500    0.407   74.292   10.169    0.288
  337.750    0.385   82.331    9.608    0.283
  338.000    0.379   87.283    9.078    0.257
  338.250    0.412   89.763    8.578    0.246
  338.500    0.406   91.627    8.419    0.241
  338.750    0.427   95.961    8.262    0.226
  339.000    0.422   97.828    8.584    0.226
  339.250    0.452   90.432    9.264    0.211
  339.500    0.443   71.309   10.383    0.184
  339.750    0.440   62.681   11.419    0.184
  340.000    0.432   58.990   12.800    0.228
  340.250    0.420   58.390   13.552    0.315
  340.500    0.422   59.634   14.350    0.335
  340.750    0.443   60.882   14.355    0.333
  341.000    0.437   62.747   14.088    0.341
  341.250    0.438   63.996   14.091    0.344
  341.500    0.410   62.157   13.830    0.346
  341.750    0.385   57.234   13.832    0.339
  342.000    0.457   54.776   13.576    0.339
  342.250    0.515   52.943   13.073    0.345
  342.500    0.516   52.339   13.327    0.349
  342.750    0.481   52.963   13.331    0.339
  343.000    0.428   54.211   13.589    0.331
  343.250    0.426   56.078   14.389    0.332
  343.500    0.421   57.327   14.668    0.334
  343.750    0.414   57.337   14.952    0.332
  344.000    0.430   56.732   15.244    0.335
  344.250    0.420   57.365   14.961    0.345
  344.500    0.453   57.997   14.963    0.351
  344.750    0.465   57.394   14.687    0.342
  345.000    0.460   56.788   14.689    0.328
  345.250    0.448   55.570   14.416    0.322
  345.500    0.427   56.196   14.421    0.323
  345.750    0.423   56.825   14.424    0.331
  346.000    0.435   59.309   14.427    0.347
  346.250    0.419   59.938   14.431    0.387
  346.500    0.412   57.487   14.435    0.385
  346.750    0.404   56.880   14.714    0.351
  347.000    0.387   56.277   14.718    0.333
  347.250    0.372   56.906   14.722    0.326
  347.500    0.397   57.535   14.726    0.326
  347.750    0.418   57.551   14.730    0.333
  348.000    0.461   56.944   14.456    0.352
  348.250    0.475   56.343   14.460    0.348
  348.500    0.464   56.358   14.191    0.338
  348.750    0.452   55.136   13.928    0.333
  349.000    0.447   55.765   13.669    0.332
  349.250    0.471   58.863   13.672    0.334
  349.500    0.488   60.727   13.676    0.340
  349.750    0.484   61.358   13.941    0.345
  350.000    0.488   59.520   13.945    0.340
  350.250    0.466   58.916   13.948    0.333
  350.500    0.440   57.695   13.952    0.340
  350.750    0.425   55.855   13.955    0.350
  351.000    0.412   54.634   13.958    0.339
  351.250    0.402   55.266   13.700    0.330
  351.500    0.412   55.896   13.703    0.329
  351.750    0.447   55.292   13.448    0.330
  352.000    0.452   57.776   13.452    0.334
  352.250    0.479   58.404   13.456    0.339
  352.500    0.461   54.715   13.206    0.336
  352.750    0.457   54.111   13.208    0.335
  353.000    0.462   54.743   13.211    0.335
  353.250    0.454   55.371   13.214    0.339
  353.500    0.447   56.618   13.219    0.343
  353.750    0.446   56.018   13.221    0.341
  354.000    0.449   55.410   13.478    0.340
  354.250    0.464   52.955   13.740    0.342
  354.500    0.462   52.350   14.006    0.344
  354.750    0.478   52.364   14.277    0.339
  355.000    0.279   52.377   14.833    0.342
  355.250    0.196   53.007   16.314    0.347
  355.500    0.157   51.169   18.993    0.289
  355.750    0.137   49.329   22.113    0.230
  356.000    0.130   46.872   26.740    0.068
  356.250    0.130   44.419   31.728    0.050
  356.500    0.148   43.815   39.103    0.069
  356.750    0.158   42.593   41.402    0.078
  357.000    0.179   41.373   36.956    0.070
  357.250    0.310   43.854   30.002    0.078
  357.500    0.382   47.571   23.006    0.233
  357.750    0.499   51.909   18.676    0.323
  358.000    0.460   53.151   15.748    0.352
  358.250    0.445   53.784   14.326    0.346
  358.500    0.430   53.795   13.537    0.345
  358.750    0.435   53.809   13.286    0.354
  359.000    0.439   56.298   13.543    0.354
  359.250    0.459   56.925   13.547    0.357
  359.500    0.510   56.320   13.810    0.362
  359.750    0.474   54.481   13.813    0.348
  360.000    0.433   52.642   14.081    0.339
  360.250    0.419   50.183   14.354    0.332
  360.500    0.406   48.963   14.088    0.327
  360.750    0.395   48.359   14.091    0.326
  361.000    0.426   48.373   13.829    0.333
  361.250    0.414   48.386   13.573    0.334
  361.500    0.447   49.016   13.321    0.340
  361.750    0.424   50.272   13.075    0.344
