~VERSION INFORMATION
 VERS.                 2.0:   CWLS LOG ASCII STANDARD -VERSION 2.0
 WRAP.                  NO:   ONE LINE PER DEPTH STEP
~WELL INFORMATION BLOCK
#MNEM.UNIT           DATA                    DESCRIPTION OF MNEMONIC
#---------    -------------------            -------------------------------
# Generated from Intellog Unique Number	CS_67_68/WELL/2197
WELL.         10-29-067-02W4                 : Well_name    - WELL
LOC .         00/10-29-067-02W4/0            : Location     - LOCATION
UWI .         00/10-29-067-02W4/0            : Uwi          - UNIQUE WELL ID
ENTR.         SP                             : Entered      - ENTERED BY
SRVC.         SCHLUMBERGER                   : Scn          - SERVICE COMPANY
STRT.M        375                            : top_depth    - START DEPTH
STOP.M        638                            : bot_depth    - STOP DEPTH
STEP.M        0.25                           : increment    - STEP LENGTH
 NULL. -999.2500:NULL Value
~CURVE INFORMATION BLOCK
#MNEM UNIT       ERCB CURVE CODE    CURVE DESCRIPTION
#-----------   ------------------   ----------------------------------
DEPT.M        00 001 00 00         : DEPTH        - DEPTH
ILD .OHMM     00 120 00 00         : RESD         - DEEP RESISTIVITY (DIL)
DPHI.V/V      00 890 00 00         : PHID         - DENSITY POROSITY (LIMESTONE)
NPHI.V/V      00 330 00 00         : PHIN         - NEUTRON POROSITY (LIMESTONE)
GR  .API      00 310 00 00         : GR           - GAMMA RAY
CALI.MM       00 280 01 00         : CAL          - CALIPER
~PARAMETER INFORMATION
#MNEM.UNIT           DATA             DESCRIPTION OF MNEMONIC
#---------         -----------     ------------------------------
GL  .M        707.5                : gl           - GROUND LEVEL ELEVATION
EREF.M        710.7                : kb           - ELEVATION OF DEPTH REFERENCE
DATM.M        710.7                : datum        - DATUM ELEVATION
TDD .M        645                  : tdd          - TOTAL DEPTH DRILLER
RUN .         ONE                  : Run          - RUN NUMBER
ENG .         BILL                 : Engineer     - RECORDING ENGINEER
WIT .         JIM                  : Witness      - WITNESSED BY
MUD .         GEL                  : Mud_type     - MUD TYPE
MATR.         LIMESTONE            : Logunit      - NEUTRON MATRIX
TMAX.C        20.5                 : BHT          - MAXIMUM RECORDED TEMPERATURE
BHTD.M        645                  : BHTDEP       - MAXIMUM RECORDED TEMPERATURE
MATR.         1                    : LOGUNIT      - NEUTRON MATRIX
RMT .C        25                   : MDTP         - TEMPERATURE OF MUD
NEUT.         1                    : NEUTRON      - NEUTRON TYPE
RESI.         0                    : RESIST       - RESISTIVITY TYPE
RMC .OHMM     0.25                 : RMC          - RESISTIVITY OF MUD CAKE
RMF .OHMM     0.25                 : RMF          - RESISTIVITY OF MUD FILTRATE
SUFT.C        15                   : SUFT         - SURFACE TEMPERATURE
~A  DEPTH     RESD     PHID     PHIN       GR      CAL
# ...
  448.000    7.546    0.292    0.428   76.877  153.541
  448.250    7.201    0.283    0.421   79.950  153.531
  448.500    6.898    0.279    0.429   81.680  153.521
  448.750    6.558    0.275    0.434   81.884  153.918
  449.000    6.412    0.264    0.440   80.318  154.111
  449.250    6.390    0.258    0.459   76.617  153.795
  449.500    6.524    0.280    0.475   74.129  151.856
  449.750    6.637    0.294    0.474   71.099  151.339
  450.000    6.738    0.303    0.439   68.309  151.125
  450.250    6.906    0.310    0.434   70.959  150.915
  450.500    7.012    0.313    0.457   73.235  150.496
  450.750    7.106    0.308    0.475   75.701  150.591
  451.000    7.148    0.304    0.461   76.755  151.091
  451.250    7.149    0.299    0.451   69.938  151.899
  451.500    7.204    0.293    0.446   62.876  153.110
  451.750    7.260    0.297    0.448   58.745  153.612
  452.000    7.288    0.310    0.430   56.262  154.418
  452.250    7.317    0.315    0.418   57.564  154.919
  452.500    7.360    0.319    0.409   56.976  155.321
  452.750    7.445    0.323    0.409   54.003  155.209
  453.000    7.488    0.324    0.409   52.986  154.590
  453.250    7.560    0.326    0.409   53.066  154.071
  453.500    7.561    0.328    0.409   51.012  153.757
  453.750    7.563    0.329    0.408   47.247  153.543
  454.000    7.564    0.328    0.405   49.099  153.638
  454.250    7.565    0.330    0.400   51.500  153.527
  454.500    7.567    0.337    0.425   52.009  153.517
  454.750    7.554    0.332    0.429   51.419  152.997
  455.000    7.513    0.327    0.429   52.904  152.684
  455.250    7.472    0.325    0.447   54.392  152.167
  455.500    7.459    0.329    0.448   53.798  151.445
  455.750    7.418    0.330    0.431   50.768  150.620
  456.000    7.392    0.331    0.417   48.833  150.001
  456.250    7.338    0.334    0.429   46.718  149.584
  456.500    7.339    0.339    0.441   49.060  149.677
  456.750    7.313    0.342    0.438   53.476  149.669
  457.000    7.246    0.339    0.428   55.935  149.457
  457.250    7.233    0.338    0.432   55.956  149.346
  457.500    7.194    0.340    0.426   50.911  149.235
  457.750    7.182    0.344    0.415   49.892  148.817
  458.000    7.156    0.347    0.432   51.201  148.708
  458.250    7.117    0.349    0.450   51.401  148.598
  458.500    7.091    0.350    0.451   51.541  148.790
  458.750    7.053    0.347    0.444   51.376  148.987
  459.000    7.028    0.344    0.454   51.642  149.182
  459.250    7.029    0.349    0.459   53.557  149.276
  459.500    7.017    0.348    0.451   55.531  149.471
  459.750    7.018    0.344    0.440   56.283  149.256
  460.000    7.046    0.348    0.432   53.617  149.554
  460.250    7.073    0.342    0.426   51.803  149.445
  460.500    7.128    0.339    0.426   51.399  149.437
  460.750    7.197    0.335    0.432   51.845  149.121
  461.000    7.252    0.332    0.426   51.804  148.806
  461.250    7.268    0.332    0.421   50.543  148.697
  461.500    7.337    0.331    0.431   49.038  148.482
  461.750    7.352    0.328    0.424   47.897  148.271
  462.000    7.326    0.324    0.409   47.369  148.161
  462.250    7.341    0.321    0.396   48.914  148.354
  462.500    7.342    0.336    0.415   53.086  149.468
  462.750    7.303    0.346    0.441   56.343  150.887
  463.000    7.290    0.339    0.446   56.121  151.590
  463.250    7.264    0.331    0.452   55.407  150.666
  463.500    7.224    0.334    0.438   55.123  147.701
  463.750    7.212    0.321    0.426   55.081  146.775
  464.000    7.146    0.301    0.410   56.811  146.869
  464.250    7.120    0.290    0.423   58.539  146.755
  464.500    6.962    0.284    0.420   60.026  146.747
  464.750    6.707    0.285    0.412   65.112  146.535
  465.000    6.460    0.282    0.402   73.559  146.017
  465.250    6.130    0.268    0.395   79.138  145.908
  465.500    5.861    0.237    0.408   82.940  146.408
  465.750    5.572    0.224    0.434   85.585  147.929
  466.000    5.307    0.222    0.441   83.168  150.061
  466.250    5.131    0.237    0.433   82.696  150.152
  466.500    4.999    0.233    0.449   79.664  150.655
  466.750    4.962    0.242    0.482   74.069  151.562
  467.000    5.001    0.268    0.485   68.898  149.312
  467.250    5.174    0.283    0.475   70.873  147.367
  467.500    5.424    0.270    0.462   74.007  146.951
  467.750    5.622    0.264    0.445   70.792  147.757
  468.000    5.816    0.288    0.446   72.094  148.257
  468.250    5.984    0.302    0.445   74.190  148.858
  468.500    6.075    0.291    0.439   77.324  149.259
  468.750    6.088    0.279    0.446   80.030  149.556
  469.000    5.953    0.269    0.449   79.074  149.650
  469.250    5.702    0.264    0.436   75.863  149.536
  469.500    5.360    0.279    0.447   74.353  149.529
  469.750    5.010    0.295    0.460   72.663  149.521
  470.000    4.845    0.302    0.468   74.395  149.512
  470.250    4.737    0.304    0.485   76.245  149.708
  470.500    4.694    0.294    0.477   79.561  149.802
  470.750    4.730    0.281    0.465   82.512  149.690
  471.000    4.903    0.272    0.457   67.818  149.478
  471.250    5.198    0.307    0.472   60.516  149.671
  471.500    5.594    0.328    0.469   56.381  149.665
  471.750    5.965    0.348    0.458   52.983  149.145
  472.000    6.276    0.342    0.457   57.281  148.934
  472.250    6.642    0.336    0.464   60.167  148.721
  472.500    6.794    0.341    0.459   63.851  149.221
  472.750    6.885    0.346    0.452   64.114  149.825
  473.000    6.925    0.345    0.456   64.562  150.529
  473.250    6.875    0.344    0.442   66.109  150.826
  473.500    6.837    0.344    0.419   68.022  151.224
  473.750    6.813    0.341    0.429   64.015  151.217
  474.000    6.789    0.338    0.438   59.333  151.107
  474.250    6.790    0.340    0.447   56.422  150.384
  474.500    6.817    0.344    0.455   56.869  149.559
  474.750    6.856    0.344    0.460   59.212  148.734
  475.000    6.922    0.344    0.455   59.963  148.422
  475.250    7.015    0.345    0.436   54.612  147.903
  475.500    7.204    0.337    0.442   53.595  147.284
  475.750    7.481    0.325    0.444   54.897  145.542
  476.000    7.842    0.326    0.446   52.719  145.024
  476.250    8.022    0.335    0.446   50.968  146.646
  476.500    8.331    0.340    0.447   53.010  148.777
  476.750    8.555    0.339    0.446   54.429  150.194
  477.000    8.751    0.334    0.445   56.218  150.288
  477.250    8.902    0.330    0.446   54.285  149.974
  477.500    8.988    0.328    0.450   53.086  149.148
  477.750    9.023    0.323    0.460   52.801  147.918
  478.000    9.042    0.322    0.464   52.700  146.480
  478.250    9.027    0.332    0.453   52.840  145.556
  478.500    8.977    0.338    0.471   53.104  145.344
  478.750    8.878    0.336    0.483   52.883  145.538
  479.000    8.797    0.333    0.495   51.562  145.939
  479.250    8.634    0.335    0.477   50.724  146.439
  479.500    8.507    0.338    0.459   52.700  146.735
  479.750    8.350    0.341    0.452   55.098  146.931
  480.000    8.181    0.344    0.461   53.472  147.126
  480.250    8.121    0.348    0.465   51.480  147.219
  480.500    7.971    0.354    0.460   50.217  146.803
  480.750    7.883    0.352    0.455   49.807  146.590
  481.000    7.855    0.345    0.455   50.502  146.276
  481.250    7.724    0.339    0.458   51.740  146.165
  481.500    7.668    0.345    0.461   53.104  146.056
  481.750    7.597    0.354    0.466   53.308  145.843
  482.000    7.556    0.360    0.464   53.146  145.833
  482.250    7.515    0.356    0.464   53.105  146.029
  482.500    7.474    0.355    0.465   53.614  146.020
  482.750    7.433    0.355    0.466   51.805  146.213
  483.000    7.351    0.352    0.468   49.993  146.207
  483.250    7.270    0.358    0.468   50.136  146.298
  483.500    7.176    0.363    0.465   51.928  146.699
  483.750    7.070    0.363    0.475   53.717  148.727
  484.000    6.966    0.363    0.488   55.567  148.923
  484.250    6.902    0.362    0.479   56.258  145.041
