~VERSION INFORMATION
 VERS.                 2.0:   CWLS LOG ASCII STANDARD -VERSION 2.0
 WRAP.                  NO:   ONE LINE PER DEPTH STEP
~WELL INFORMATION BLOCK
#MNEM.UNIT           DATA                    DESCRIPTION OF MNEMONIC
#---------    -------------------            -------------------------------
# Generated from Intellog Unique Number	CC_80_83/WELL/2432
NULL.         -999.25                        : NULL_VALUE
WELL.         PARA ET AL NEWBY               : Well_name
LOC .         12-29-080-05W4                 : Location     - LOCATION          
UWI .         00/12-29-080-05W400            : Uwi          - UNIQUE WELL ID    
ENTR.         DW                             : Entered      - ENTERED BY        
SRVC.         SCHLUMBERGER                   : Scn          - SERVICE COMPANY   
DATE.         17 JAN 82                      : Date         - LOG DATE
STRT.M        105                            : top_depth    - START DEPTH       
STOP.M        270.001                        : bot_depth    - STOP DEPTH        
STEP.M        0.3                            : increment    - STEP LENGTH       
~CURVE INFORMATION BLOCK
#MNEM UNIT       ERCB CURVE CODE    CURVE DESCRIPTION
#-----------   ------------------   ----------------------------------
DEPT.M        00 001 00 00         : DEPTH        - DEPTH                       
DPHI.V/V      00 890 00 00         : PHID         - DENSITY POROSITY (LIMESTONE)
NPHI.V/V      00 330 00 00         : PHIN         - NEUTRON POROSITY (LIMESTONE)
GR  .API      00 310 00 00         : GR           - GAMMA RAY                   
ILD .OHMM     00 120 00 00         : RESD         - DEEP RESISTIVITY (DIL)      
~PARAMETER INFORMATION       
#MNEM.UNIT           DATA             DESCRIPTION OF MNEMONIC
#---------         -----------     ------------------------------
GL  .M        452.33               : gl           - GROUND LEVEL ELEVATION      
EREF.M        455.33               : kb           - ELEVATION OF DEPTH REFERENCE
DATM.M        455.33               : datum        - DATUM ELEVATION             
TDD .M        277                  : tdd          - TOTAL DEPTH DRILLER         
RUN .         ONE                  : Run          - RUN NUMBER                  
ENG .         BILL                 : Engineer     - RECORDING ENGINEER          
WIT .         JIM                  : Witness      - WITNESSED BY                
MUD .         GEL                  : Mud_type     - MUD TYPE                    
MATR.         LIMESTONE            : Logunit      - NEUTRON MATRIX              
TMAX.C        24                   : BHT          - MAXIMUM RECORDED TEMPERATURE
BHTD.M        277                  : BHTDEP       - MAXIMUM RECORDED TEMPERATURE
MATR.         1                    : LOGUNIT      - NEUTRON MATRIX              
RMT .C        25                   : MDTP         - TEMPERATURE OF MUD          
NEUT.         1                    : NEUTRON      - NEUTRON TYPE                
RESI.         0                    : RESIST       - RESISTIVITY TYPE            
RMC .OHMM     0.25                 : RMC          - RESISTIVITY OF MUD CAKE     
RMF .OHMM     0.25                 : RMF          - RESISTIVITY OF MUD FILTRATE 
SUFT.C        15                   : SUFT         - SURFACE TEMPERATURE         
~A  DEPTH     PHID     PHIN       GR     RESD
# ...
  157.201    0.259    0.473   93.645    7.335
  157.501    0.273    0.447   86.724    7.625
  157.801    0.299    0.530   87.968    7.629
  158.101    0.281    0.485   94.228    6.938
  158.401    0.266    0.439   96.728    5.958
  158.701    0.257    0.434   98.599    5.020
  159.001    0.257    0.419  107.370    4.480
  159.301    0.257    0.433  102.960    4.568
  159.601    0.246    0.449  102.950    4.934
  159.901    0.238    0.503  105.447    5.128
  160.201    0.233    0.503  102.294    5.331
  160.501    0.236    0.428  101.653    5.333
  160.801    0.258    0.459  102.896    4.944
  161.101    0.256    0.534  108.530    4.851
  161.401    0.258    0.557  107.888    4.762
  161.701    0.273    0.558   90.303    4.951
  162.001    0.285    0.570   83.384    5.448
  162.301    0.276    0.480   82.742    5.451
  162.601    0.267    0.447   87.749    5.150
  162.901    0.279    0.455   95.897    4.339
  163.201    0.287    0.526  107.178    3.657
  163.501    0.272    0.538  102.772    4.181
  163.801    0.267    0.494   95.227    5.361
  164.101    0.266    0.404   99.608    7.005
  164.401    0.154    0.448  103.359    8.812
  164.701    0.119    0.456   99.580    9.335
  165.001    0.172    0.409   80.110    8.821
  165.301    0.269    0.410   83.232    8.336
  165.601    0.285    0.402   86.359    8.026
  165.901    0.289    0.399   81.322    7.161
  166.201    0.269    0.384   80.055    6.151
  166.501    0.226    0.398   85.689    5.488
  166.801    0.249    0.408   91.324    4.992
  167.101    0.293    0.422   95.076    4.716
  167.401    0.290    0.417  101.341    4.455
  167.701    0.255    0.441  107.603    4.721
  168.001    0.258    0.502   98.175    4.906
  168.301    0.284    0.489   91.257    5.198
  168.601    0.280    0.426   92.499    5.945
  168.901    0.234    0.440  101.270    6.179
  169.201    0.243    0.461  104.396    6.302
  169.501    0.245    0.450  103.752    6.304
  169.801    0.243    0.450   99.972    6.187
  170.101    0.245    0.364   96.196    6.189
  170.401    0.245    0.373   94.928    6.193
  170.701    0.235    0.441  101.818    6.438
  171.001    0.235    0.492  103.059    6.439
  171.301    0.240    0.514  100.534    6.321
  171.601    0.257    0.464  103.658    5.534
  171.901    0.265    0.462  104.271    4.844
  172.201    0.248    0.355  102.376    4.161
  172.501    0.249    0.380   97.338    3.573
  172.801    0.276    0.405   94.817    3.011
  173.101    0.306    0.500   92.293    2.738
  173.401    0.303    0.564   86.630    2.443
  173.701    0.302    0.594   79.712    2.265
  174.001    0.305    0.564   78.440    2.266
  174.301    0.302    0.504   79.687    2.267
  174.601    0.297    0.522   87.200    2.357
  174.901    0.269    0.527   90.955    2.545
  175.201    0.259    0.541   86.549    2.801
  175.501    0.247    0.426   89.044    3.264
  175.801    0.233    0.426   93.423    3.661
  176.101    0.234    0.462   94.666    4.434
  176.401    0.277    0.512   92.771    4.697
  176.701    0.291    0.421   86.481    5.169
  177.001    0.278    0.398   85.840    5.272
  177.301    0.235    0.393   86.450    5.174
  177.601    0.262    0.347   88.951    4.706
  177.901    0.296    0.394  109.647    4.119
  178.201    0.281    0.502   97.080    3.676
  178.501    0.265    0.458   94.557    3.473
  178.801    0.245    0.419   97.055    3.345
  179.101    0.243    0.507  103.317    3.283
  179.401    0.249    0.466   97.656    3.285
  179.701    0.256    0.430   93.872    3.349
  180.001    0.259    0.462   99.510    3.618
  180.301    0.260    0.473   98.239    3.760
  180.601    0.256    0.451   96.971    3.834
  180.901    0.264    0.452  104.490    3.910
  181.201    0.270    0.458  106.983    3.911
  181.501    0.251    0.429  105.718    3.914
  181.801    0.239    0.399  103.822    3.841
  182.101    0.261    0.451   98.786    4.070
  182.401    0.285    0.505   93.124    4.654
  182.701    0.295    0.575   93.739    4.837
  183.001    0.269    0.550   94.981    5.224
  183.301    0.248    0.396   93.711    5.225
  183.601    0.251    0.392   97.461    5.130
  183.901    0.260    0.428   97.450    4.755
  184.201    0.244    0.487   94.299    4.667
  184.501    0.251    0.491   94.910    4.851
  184.801    0.192    0.462   84.857    5.340
  185.101    0.101    0.368   79.193    5.656
  185.401    0.191    0.376   79.809    6.108
  185.701    0.263    0.416   85.444    6.348
  186.001    0.278    0.347   77.897    6.232
  186.301    0.278    0.324   74.747    6.116
  186.601    0.260    0.332   78.499    5.563
  186.901    0.252    0.346   84.132    4.777
  187.201    0.281    0.378   84.743    3.390
  187.501    0.299    0.461   86.617    2.647
  187.801    0.296    0.501   91.624    2.649
  188.101    0.301    0.535   92.236    2.807
  188.401    0.308    0.401   92.849    3.031
  188.701    0.293    0.434   90.951    3.210
  189.001    0.276    0.391   88.430    4.038
  189.301    0.258    0.396   91.554    6.030
  189.601    0.262    0.404   88.402    7.163
  189.901    0.264    0.307   84.623    7.590
  190.201    0.264    0.306   85.237    7.739
  190.501    0.254    0.321   86.477    7.742
  190.801    0.237    0.346   85.839    7.602
  191.101    0.226    0.375   85.198    7.605
  191.401    0.255    0.390   85.184    7.608
  191.701    0.261    0.337   82.032    7.468
  192.001    0.234    0.286   83.270    7.616
  192.301    0.221    0.302   84.516    7.619
  192.601    0.232    0.316   84.499    7.481
  192.901    0.246    0.301   84.483    7.484
  193.201    0.248    0.300   85.100    7.487
  193.501    0.246    0.296   85.716    7.489
  193.801    0.250    0.287   85.702    7.638
  194.101    0.260    0.267   84.433    7.790
  194.401    0.243    0.270   85.047    7.942
  194.701    0.228    0.289   89.424    8.099
  195.001    0.240    0.290   91.296    8.104
  195.301    0.251    0.262   83.124    8.263
  195.601    0.256    0.270   79.342    8.267
  195.901    0.270    0.280   79.959    7.963
  196.201    0.260    0.271   88.102    7.966
  196.501    0.231    0.284   85.577    7.969
  196.801    0.237    0.301   88.703    7.825
  197.101    0.246    0.305   95.594    7.829
  197.401    0.234    0.311   93.696    7.831
  197.701    0.249    0.273   98.705    7.984
  198.001    0.258    0.256  105.591    8.300
  198.301    0.263    0.276  109.344    8.626
  198.601    0.280    0.280  112.470    9.317
  198.901    0.261    0.239  111.201    9.682
  199.201    0.263    0.246  103.657   10.063
  199.501    0.264    0.260   98.621   10.264
  199.801    0.279    0.266   96.726   10.465
  200.101    0.299    0.246   99.850   10.674
  200.401    0.288    0.249  122.429   10.475
  200.701    0.275    0.244  119.907    9.898
  201.001    0.274    0.269  106.711   10.288
  201.301    0.277    0.237  103.562   10.490
  201.601    0.290    0.198   98.525   10.498
  201.901    0.332    0.183   93.492   10.302
  202.201    0.328    0.235   82.182    9.370
  202.501    0.282    0.283   88.444    7.599
  202.801    0.288    0.331   89.058    4.630
  203.101    0.298    0.351   74.610    4.053
  203.401    0.268    0.370   76.479    3.617
  203.701    0.269    0.382   78.974    3.483
  204.001    0.296    0.365   65.781    3.418
  204.301    0.276    0.345   62.001    3.486
  204.601    0.259    0.331   67.638    3.488
  204.901    0.262    0.330   76.410    3.423
  205.201    0.286    0.379   62.589    3.234
  205.501    0.306    0.421   41.864    2.886
  205.801    0.308    0.400   39.965    2.625
  206.101    0.302    0.366   43.093    2.528
  206.401    0.290    0.302   53.120    2.482
  206.701    0.275    0.282   81.349    2.531
  207.001    0.267    0.316   85.729    2.630
  207.301    0.285    0.351   70.024    2.734
  207.601    0.301    0.391   58.714    2.684
  207.901    0.314    0.416   56.190    2.634
  208.201    0.316    0.380   64.963    2.790
  208.501    0.301    0.332   82.521    3.071
  208.801    0.263    0.345   76.860    3.380
  209.101    0.233    0.390   72.449    3.582
