~VERSION INFORMATION
 VERS.                 2.0:   CWLS LOG ASCII STANDARD -VERSION 2.0
 WRAP.                  NO:   ONE LINE PER DEPTH STEP
~WELL INFORMATION BLOCK
#MNEM.UNIT           DATA                    DESCRIPTION OF MNEMONIC
#---------    -------------------            -------------------------------
# Generated from Intellog Unique Number	CS_73_76/WELL/3262
WELL.         W.W. BECKER OIL & GAS LTD.     : Well_name    - WELL
LOC .         00/11-11-075-14W4/0            : Location     - LOCATION
UWI .         00/11-11-075-14W4/0            : Uwi          - UNIQUE WELL ID
ENTR.         SP                             : Entered      - ENTERED BY
SRVC.         SCHLUMBERGER                   : Scn          - SERVICE COMPANY
STRT.M        396.24                         : top_depth    - START DEPTH
STOP.M        630.74                         : bot_depth    - STOP DEPTH
STEP.M        0.25                           : increment    - STEP LENGTH
 NULL. -999.2500:NULL Value
~CURVE INFORMATION BLOCK
#MNEM UNIT       ERCB CURVE CODE    CURVE DESCRIPTION
#-----------   ------------------   ----------------------------------
DEPT.M        00 001 00 00         : DEPTH        - DEPTH
GR  .API      00 310 00 00         : GR           - GAMMA RAY
DPHI.V/V      00 890 00 00         : PHID         - DENSITY POROSITY (SANDSTONE)
NPHI.V/V      00 330 00 00         : PHIN         - NEUTRON POROSITY (SANDSTONE)
ILD .OHMM     00 120 00 00         : RESD         - DEEP RESISTIVITY (DIL)
~PARAMETER INFORMATION
#MNEM.UNIT           DATA             DESCRIPTION OF MNEMONIC
#---------         -----------     ------------------------------
GL  .M        859.231              : gl           - GROUND LEVEL ELEVATION
EREF.M        859.231              : kb           - ELEVATION OF DEPTH REFERENCE
DATM.M        859.231              : datum        - DATUM ELEVATION
TDD .M        634.289              : tdd          - TOTAL DEPTH DRILLER
RUN .         ONE                  : Run          - RUN NUMBER
ENG .         BILL                 : Engineer     - RECORDING ENGINEER
WIT .         JIM                  : Witness      - WITNESSED BY
MUD .         GEL                  : Mud_type     - MUD TYPE
MATR.         SANDSTONE            : Logunit      - NEUTRON MATRIX
TMAX.C        23.8889              : BHT          - MAXIMUM RECORDED TEMPERATURE
BHTD.M        634.289              : BHTDEP       - MAXIMUM RECORDED TEMPERATURE
MATR.         1                    : LOGUNIT      - NEUTRON MATRIX
RMT .C        25                   : MDTP         - TEMPERATURE OF MUD
NEUT.         1                    : NEUTRON      - NEUTRON TYPE
RESI.         0                    : RESIST       - RESISTIVITY TYPE
RMC .OHMM     0.25                 : RMC          - RESISTIVITY OF MUD CAKE
RMF .OHMM     0.25                 : RMF          - RESISTIVITY OF MUD FILTRATE
SUFT.C        15                   : SUFT         - SURFACE TEMPERATURE
~A  DEPTH       GR     PHID     PHIN     RESD
# ...
  526.740   64.294    0.326    0.465    4.926
  526.990   64.340    0.335    0.458    4.923
  527.240   63.712    0.331    0.456    4.924
  527.490   63.062    0.331    0.459    4.924
  527.740   62.567    0.332    0.466    4.924
  527.990   62.496    0.330    0.457    4.922
  528.240   62.475    0.322    0.448    4.917
  528.490   62.439    0.314    0.445    4.831
  528.740   63.551    0.327    0.450    4.835
  528.990   64.898    0.345    0.445    4.836
  529.240   65.822    0.343    0.441    4.834
  529.490   67.465    0.333    0.443    4.811
  529.740   69.636    0.330    0.442    4.748
  529.990   72.461    0.325    0.441    4.749
  530.240   74.363    0.329    0.456    4.749
  530.490   77.489    0.324    0.469    4.750
  530.740   78.959    0.319    0.462    4.752
  530.990   78.051    0.317    0.449    4.761
  531.240   78.072    0.311    0.436    4.844
  531.490   79.721    0.294    0.428    4.879
  531.740   80.656    0.285    0.422    4.932
  531.990   81.478    0.262    0.427    5.015
  532.240   78.079    0.243    0.436    5.131
  532.490   70.264    0.255    0.445    5.499
  532.740   63.594    0.193    0.418    6.215
  532.990   59.342    0.065    0.287    6.817
  533.240   54.065    0.014    0.237    8.001
  533.490   54.886    0.004    0.246    9.020
  533.740   60.142    0.162    0.310    9.967
  533.990   67.993    0.228    0.374    9.785
  534.240   75.963    0.276    0.454    8.376
  534.490   75.509    0.306    0.478    7.131
  534.740   72.592    0.301    0.459    6.010
  534.990   70.560    0.293    0.473    5.176
  535.240   70.268    0.296    0.479    4.838
  535.490   72.969    0.304    0.483    4.748
  535.740   74.106    0.305    0.473    4.759
  535.990   73.849    0.291    0.470    4.670
  536.240   73.858    0.289    0.478    4.670
  536.490   73.925    0.297    0.479    4.668
  536.740   74.989    0.294    0.475    4.668
  536.990   74.808    0.288    0.488    4.669
  537.240   73.069    0.289    0.495    4.668
  537.490   72.022    0.288    0.484    4.676
  537.740   72.628    0.282    0.492    4.576
  537.990   73.263    0.275    0.502    4.584
  538.240   73.929    0.292    0.485    4.593
  538.490   72.304    0.311    0.488    4.494
  538.740   71.367    0.313    0.482    4.502
  538.990   72.451    0.314    0.490    4.494
  539.240   72.713    0.314    0.473    4.594
  539.490   73.178    0.307    0.470    4.586
  539.740   73.183    0.305    0.479    4.586
  539.990   73.245    0.303    0.487    4.586
  540.240   74.285    0.299    0.488    4.587
  540.490   75.441    0.294    0.486    4.586
  540.740   78.117    0.305    0.481    4.585
  540.990   79.526    0.300    0.473    4.656
  541.240   79.048    0.293    0.461    4.670
  541.490   78.005    0.281    0.460    4.672
  541.740   78.981    0.268    0.473    4.673
  541.990   79.831    0.277    0.480    4.673
  542.240   79.776    0.288    0.456    4.673
  542.490   79.810    0.284    0.443    4.667
  542.740   78.890    0.293    0.443    4.792
  542.990   76.847    0.300    0.443    4.769
  543.240   76.181    0.300    0.438    4.813
  543.490   75.588    0.293    0.433    4.859
  543.740   78.236    0.288    0.444    4.943
  543.990   80.010    0.293    0.449    4.979
  544.240   78.645    0.287    0.457    5.026
  544.490   81.153    0.282    0.475    5.100
  544.740   80.153    0.262    0.484    5.112
  544.990   79.133    0.268    0.474    5.218
  545.240   80.658    0.269    0.465    5.225
  545.490   83.032    0.260    0.460    5.113
  545.740   84.468    0.253    0.461    5.122
  545.990   86.074    0.252    0.461    5.069
  546.240   87.700    0.264    0.460    5.037
  546.490   89.799    0.263    0.455    4.950
  546.740   91.717    0.262    0.454    4.951
  546.990   94.368    0.260    0.457    4.845
  547.240   95.677    0.276    0.465    4.850
  547.490   90.984    0.290    0.459    4.816
  547.740   83.676    0.280    0.457    4.765
  547.990   79.619    0.271    0.461    4.753
  548.240   72.453    0.256    0.456    4.848
  548.490   71.187    0.256    0.462    5.031
  548.740   73.914    0.261    0.471    5.314
  548.990   75.248    0.267    0.478    5.587
  549.240   77.215    0.247    0.489    5.917
  549.490   76.659    0.197    0.448    6.410
  549.740   74.596    0.151    0.378    6.798
  549.990   72.920    0.102    0.323    6.993
  550.240   75.487    0.159    0.364    6.806
  550.490   76.600    0.211    0.407    6.006
  550.740   75.477    0.243    0.453    5.491
  550.990   75.230    0.276    0.475    5.009
  551.240   74.171    0.294    0.479    4.765
  551.490   74.501    0.296    0.471    4.616
  551.740   76.330    0.279    0.477    4.598
  551.990   78.920    0.267    0.491    4.596
  552.240   80.923    0.261    0.492    4.596
  552.490   82.962    0.259    0.488    4.596
  552.740   83.395    0.267    0.484    4.597
  552.990   82.079    0.268    0.471    4.596
  553.240   83.801    0.275    0.453    4.594
  553.490   83.707    0.260    0.458    4.668
  553.740   82.709    0.247    0.458    4.701
  553.990   81.462    0.239    0.470    4.956
  554.240   85.945    0.241    0.490    5.105
  554.490   85.538    0.229    0.495    5.292
  554.740   88.632    0.219    0.491    5.519
  554.990   90.021    0.215    0.489    5.627
  555.240   91.223    0.233    0.477    5.603
  555.490   91.664    0.238    0.468    5.429
  555.740   92.002    0.232    0.472    5.268
  555.990   92.305    0.216    0.469    5.111
  556.240   93.370    0.196    0.460    5.037
  556.490   92.848    0.208    0.449    5.032
  556.740   88.361    0.214    0.444    5.145
  556.990   86.519    0.233    0.438    5.299
  557.240   84.847    0.226    0.446    5.451
  557.490   85.618    0.224    0.457    5.732
  557.740   88.302    0.217    0.461    5.788
  557.990   89.446    0.211    0.463    5.950
  558.240   89.201    0.206    0.472    5.942
  558.490   89.385    0.219    0.481    5.944
  558.740   91.860    0.221    0.468    5.954
  558.990   95.511    0.213    0.440    5.747
  559.240   97.607    0.205    0.426    5.679
  559.490   99.628    0.198    0.432    5.620
  559.740  101.636    0.187    0.455    5.434
  559.990  103.901    0.181    0.469    5.379
  560.240  105.515    0.181    0.457    5.437
  560.490  106.205    0.189    0.430    5.507
  560.740  104.377    0.199    0.417    5.737
  560.990  103.046    0.196    0.416    5.945
  561.240  102.985    0.186    0.408    6.024
  561.490  103.703    0.177    0.403    5.914
  561.740  103.636    0.186    0.408    5.646
  561.990  103.690    0.201    0.419    5.318
  562.240  102.930    0.206    0.429    5.019
  562.490  100.918    0.203    0.434    4.878
  562.740   97.911    0.199    0.442    4.725
  562.990   94.945    0.190    0.436    4.684
  563.240   93.892    0.185    0.432    4.542
  563.490   93.927    0.193    0.445    4.431
  563.740   93.931    0.207    0.456    3.883
  563.990   93.536    0.211    0.463    3.185
  564.240   92.472    0.230    0.490    2.658
  564.490   92.103    0.250    0.513    2.305
  564.740   90.563    0.251    0.535    2.128
  564.990   87.056    0.255    0.529    2.014
  565.240   84.428    0.251    0.542    1.923
  565.490   86.399    0.244    0.554    1.862
  565.740   89.878    0.238    0.539    1.852
  565.990   94.464    0.240    0.537    1.910
  566.240   97.501    0.232    0.546    1.968
  566.490   98.775    0.225    0.557    2.028
  566.740   99.379    0.230    0.531    2.083
  566.990   98.216    0.228    0.515    2.255
  567.240   93.830    0.227    0.504    2.388
  567.490   89.876    0.205    0.494    2.689
  567.740   85.839    0.171    0.467    3.101
  567.990   86.433    0.144    0.427    3.430
  568.240   90.779    0.135    0.417    3.834
  568.490   94.126    0.136    0.425    4.256
  568.740   95.695    0.167    0.440    4.587
  568.990   92.442    0.164    0.440    4.867
  569.240   90.519    0.129    0.397    5.163
  569.490   89.189    0.107    0.376    5.250
  569.740   90.088    0.108    0.405    5.125
  569.990   92.138    0.175    0.423    4.678
