~VERSION INFORMATION
 VERS.                 2.0:   CWLS LOG ASCII STANDARD -VERSION 2.0
 WRAP.                  NO:   ONE LINE PER DEPTH STEP
~WELL INFORMATION BLOCK
#MNEM.UNIT           DATA                    DESCRIPTION OF MNEMONIC
#---------    -------------------            -------------------------------
# Generated from Intellog Unique Number	CW_76_78/WELL/2582
WELL.         BAYSEL WILLOW R                : Well_name    - WELL
LOC .         00/11-25-078-03W5/0            : Location     - LOCATION
UWI .         00/11-25-078-03W5/0            : Uwi          - UNIQUE WELL ID
ENTR.         MAX                            : Entered      - ENTERED BY
SRVC.         SCHLUMBERGER                   : Scn          - SERVICE COMPANY
STRT.M        347.472                        : top_depth    - START DEPTH
STOP.M        609.722                        : bot_depth    - STOP DEPTH
STEP.M        0.25                           : increment    - STEP LENGTH
 NULL. -999.2500:NULL Value
~CURVE INFORMATION BLOCK
#MNEM UNIT       ERCB CURVE CODE    CURVE DESCRIPTION
#-----------   ------------------   ----------------------------------
DEPT.M        00 001 00 00         : DEPTH        - DEPTH
ILD .OHMM     00 120 00 00         : RESD         - DEEP RESISTIVITY (DIL)
NPHI.V/V      00 330 00 00         : PHIN         - NEUTRON POROSITY (SANDSTONE)
DPHI.V/V      00 890 00 00         : PHID         - DENSITY POROSITY (SANDSTONE)
CALI.MM       00 280 01 00         : CAL          - CALIPER
GR  .API      00 310 00 00         : GR           - GAMMA RAY
~PARAMETER INFORMATION
#MNEM.UNIT           DATA             DESCRIPTION OF MNEMONIC
#---------         -----------     ------------------------------
GL  .M        649.102              : gl           - GROUND LEVEL ELEVATION
EREF.M        653.308              : kb           - ELEVATION OF DEPTH REFERENCE
DATM.M        649.102              : datum        - DATUM ELEVATION
TDD .M        619.963              : tdd          - TOTAL DEPTH DRILLER
RUN .         ONE                  : Run          - RUN NUMBER
ENG .         BILL                 : Engineer     - RECORDING ENGINEER
WIT .         JIM                  : Witness      - WITNESSED BY
MUD .         GEL                  : Mud_type     - MUD TYPE
MATR.         SANDSTONE            : Logunit      - NEUTRON MATRIX
TMAX.C        27.2222              : BHT          - MAXIMUM RECORDED TEMPERATURE
BHTD.M        619.963              : BHTDEP       - MAXIMUM RECORDED TEMPERATURE
RMT .C        12.2222              : MDTP         - TEMPERATURE OF MUD
MUDD.KG/M     9100                 : MWT          - MUD DENSITY
NEUT.         1                    : NEUTRON      - NEUTRON TYPE
RESI.         0                    : RESIST       - RESISTIVITY TYPE
RM  .OHMM     0.25                 : RM           - RESISTIVITY OF MUD
RMC .OHMM     0.25                 : RMC          - RESISTIVITY OF MUD CAKE
RMF .OHMM     1.3                  : RMF          - RESISTIVITY OF MUD FILTRATE
SUFT.C        -15                  : SUFT         - SURFACE TEMPERATURE
~A  DEPTH     RESD     PHIN     PHID      CAL       GR
  347.472    2.436    0.684    0.252  166.450   97.980
  347.722    2.432    0.669    0.268  165.917  101.246
  347.972    2.472    0.638    0.261  164.372  103.621
  348.222    2.512    0.618    0.254  162.823  106.289
  348.472    2.531    0.613    0.236  162.823  105.680
  348.722    2.527    0.620    0.237  161.743  102.375
  348.972    2.522    0.615    0.230  161.223  100.567
  349.222    2.519    0.616    0.219  161.189   99.653
  349.472    2.560    0.631    0.219  160.655   98.141
  349.722    2.560    0.645    0.221  159.616   96.334
  349.972    2.575    0.603    0.228  157.559   85.264
  350.222    2.736    0.567    0.207  155.511   76.284
  350.472    2.959    0.432    0.210  154.978   69.099
  350.722    3.531    0.418    0.210  154.438   61.613
  350.972    3.786    0.413    0.212  154.417   57.116
  351.222    4.359    0.423    0.207  154.362   59.487
  351.472    5.200    0.406    0.214  154.352   63.056
  351.722    5.828    0.439    0.224  154.331   63.038
  351.972    6.032    0.461    0.194  154.806   58.242
  352.222    6.239    0.474    0.171  156.798   50.457
  352.472    6.511    0.449    0.171  159.809   46.261
  352.722    6.922    0.311    0.070  157.748   43.254
  352.972    7.829    0.252    0.073  155.704   43.237
  353.222    9.679    0.256    0.099  153.653   45.910
  353.472   11.860    0.269    0.174  151.599   46.192
  353.722   13.777    0.350    0.245  150.560   45.877
  353.972   14.901    0.426    0.287  150.023   44.361
  354.222   15.011    0.463    0.293  149.992   43.453
  354.472   14.591    0.468    0.290  149.992   43.138
  354.722   14.314    0.481    0.286  149.940   44.613
  354.972   14.035    0.477    0.280  150.412   47.883
  355.222   14.655    0.463    0.260  150.887   50.555
  355.472   15.435    0.482    0.238  151.874   53.526
  355.722   16.540    0.493    0.227  153.870   57.088
  355.972   17.421    0.500    0.207  155.360   58.868
  356.222   17.553    0.505    0.205  155.831   58.551
  356.472   16.913    0.499    0.213  154.792   60.028
  356.722   15.177    0.534    0.230  153.247   59.713
  356.972   13.139    0.548    0.276  152.208   55.515
  357.222   14.729    0.561    0.296  151.675   49.815
  357.472   17.573    0.571    0.302  151.626   49.506
  357.722   21.533    0.557    0.307  151.110   52.176
  357.972   25.920    0.556    0.316  151.079   53.056
  358.222   30.373    0.547    0.320  151.028   50.051
  358.472   32.270    0.522    0.318  151.021   47.344
  358.722   31.936    0.505    0.326  151.503   44.940
  358.972   31.053    0.485    0.332  151.977   41.636
  359.222   29.645    0.454    0.325  151.950   40.423
  359.472   28.570    0.446    0.317  151.417   42.797
  359.722   27.769    0.468    0.319  150.371   42.776
  359.972   26.986    0.513    0.325  149.328   42.764
  360.222   26.711    0.520    0.334  149.328   43.046
  360.472   26.195    0.515    0.345  148.764   42.727
  360.722   25.924    0.497    0.319  148.234   41.218
  360.972   25.874    0.480    0.327  148.206   40.007
  361.222   25.845    0.471    0.322  148.182   40.588
  361.472   25.781    0.483    0.318  147.645   41.468
  361.722   25.987    0.480    0.324  146.100   42.644
  361.972   25.943    0.491    0.330  144.552   44.117
  362.222   25.903    0.497    0.347  143.995   46.194
  362.472   25.864    0.492    0.339  143.984   48.269
  362.722   25.830    0.481    0.326  144.466   50.341
  362.972   25.101    0.479    0.324  144.941   53.910
  363.222   24.403    0.479    0.329  145.419   51.804
  363.472   23.509    0.472    0.327  145.419   51.487
  363.722   22.859    0.475    0.321  144.844   50.274
  363.972   22.214    0.467    0.316  144.321   48.169
  364.222   22.989    0.436    0.317  143.781   43.670
  364.472   22.746    0.378    0.277  144.263   42.459
  364.722   21.723    0.367    0.277  145.756   44.828
  364.972   20.372    0.449    0.304  147.239   46.606
  365.222   19.809    0.478    0.313  146.197   45.395
  365.472   19.775    0.440    0.284  144.655   43.282
  365.722   20.096    0.403    0.255  143.110   42.374
  365.972   21.360    0.394    0.244  142.068   42.059
  366.222   23.521    0.404    0.259  142.546   43.534
  366.472   25.214    0.423    0.295  144.036   47.100
  366.722   24.948    0.452    0.301  145.526   48.874
  366.972   24.689    0.487    0.313  147.016   48.860
  367.222   24.429    0.485    0.310  147.484   46.452
  367.472   24.176    0.451    0.301  147.463   46.139
  367.722   23.498    0.470    0.286  147.463   47.316
  367.972   22.642    0.508    0.289  146.892   48.789
  368.222   21.619    0.530    0.299  146.871   49.374
  368.472   20.827    0.553    0.302  146.844   52.044
  368.722   20.068    0.531    0.305  146.809   55.612
  368.972   19.333    0.503    0.313  146.782   52.008
  369.222   19.140    0.488    0.312  146.754   50.799
  369.472   18.763    0.476    0.308  147.229   49.886
  369.722   18.738    0.491    0.304  147.205   48.974
  369.972   18.709    0.481    0.305  147.171   47.460
  370.222   18.709    0.510    0.310  146.135   45.054
  370.472   18.639    0.533    0.317  145.089   45.334
  370.722   18.621    0.553    0.334  144.559   46.212
  370.972   18.589    0.525    0.337  144.528   43.510
  371.222   18.554    0.524    0.332  145.515   42.892
  371.472   18.698    0.535    0.314  146.998   44.075
  371.722   18.834    0.545    0.316  146.462   43.160
  371.972   18.798    0.543    0.320  144.913   41.648
  372.222   18.798    0.536    0.313  144.913   41.632
  372.472   18.748    0.520    0.310  144.359   43.105
  372.722   18.550    0.515    0.306  143.819   43.688
  372.972   18.354    0.513    0.298  143.771   43.672
  373.222   18.143    0.500    0.304  143.764   43.955
  373.472   17.972    0.513    0.312  144.242   45.129
  373.722   17.786    0.504    0.311  144.721   46.312
  373.972   17.601    0.498    0.323  144.690   48.086
  374.222   17.416    0.519    0.333  144.659   46.574
  374.472   17.386    0.537    0.338  144.631   44.766
  374.722   17.356    0.524    0.323  144.604   44.152
  374.972   17.330    0.529    0.330  145.078   44.136
  375.222   17.455    0.545    0.321  145.553   44.119
  375.472   17.435    0.538    0.314  145.526   44.400
  375.722   17.389    0.517    0.311  145.495   44.382
  375.972   17.528    0.490    0.324  145.495   44.961
  376.222   17.528    0.475    0.318  144.931   47.635
  376.472   17.627    0.475    0.310  143.895   47.320
  376.722   17.607    0.483    0.304  143.871   47.602
  376.972   17.734    0.506    0.301  143.843   49.376
  377.222   17.863    0.522    0.298  143.805   52.046
  377.472   17.991    0.533    0.294  143.778   54.121
  377.722   18.125    0.511    0.301  143.750   53.211
  377.972   18.256    0.508    0.299  143.726   55.283
  378.222   18.256    0.520    0.296  144.198   57.657
  378.472   18.197    0.538    0.305  144.177   59.729
  378.722   18.176    0.549    0.309  144.648   61.505
  378.972   18.142    0.534    0.307  144.112   59.992
  379.222   18.111    0.506    0.302  143.582   59.380
  379.472   17.930    0.505    0.291  142.539   61.453
  379.722   17.737    0.492    0.284  142.006   61.737
  379.972   17.243    0.467    0.268  142.481   59.032
  380.222   16.174    0.435    0.251  145.488   55.129
  380.472   13.636    0.441    0.239  151.024   51.231
  380.722   10.705    0.420    0.222  150.997   44.639
  380.972    8.180    0.387    0.200  147.931   46.716
  381.222   10.297    0.374    0.226  149.923   47.297
  381.472   14.682    0.447    0.309  146.358   46.084
  381.722   17.358    0.487    0.329  146.358   44.867
  381.972   15.300    0.470    0.305  145.288   44.255
  382.222   13.367    0.462    0.313  145.254   44.536
  382.472   11.268    0.444    0.302  145.732   46.913
  382.722    9.843    0.425    0.259  146.720   45.103
  382.972    8.007    0.401    0.234  149.218   37.022
  383.222    8.211    0.358    0.220  153.237   35.209
  383.472   12.912    0.338    0.234  148.151   36.087
  383.722   12.550    0.411    0.289  145.089   33.980
