~VERSION INFORMATION
 VERS.                 2.0:   CWLS LOG ASCII STANDARD -VERSION 2.0
 WRAP.                  NO:   ONE LINE PER DEPTH STEP
~WELL INFORMATION BLOCK
#MNEM.UNIT           DATA                    DESCRIPTION OF MNEMONIC
#---------    -------------------            -------------------------------
# Generated from Intellog Unique Number	CC_80_83/WELL/2440
NULL.         -999.25                        : NULL_VALUE
WELL.         GULF RESDELN                   : Well_name    - WELL              
LOC .         15-19-083-06W4                 : Location     - LOCATION          
UWI .         00/15-19-083-06W4/0            : Uwi          - UNIQUE WELL ID    
ENTR.         RJA                            : Entered      - ENTERED BY        
SRVC.         SCHLUMBERGER                   : Scn          - SERVICE COMPANY   
DATE.         13 DEC 80                      : Date         - LOG DATE
STRT.M        125                            : top_depth    - START DEPTH       
STOP.M        374.896                        : bot_depth    - STOP DEPTH        
STEP.M        0.3                            : increment    - STEP LENGTH       
~CURVE INFORMATION BLOCK
#MNEM UNIT       ERCB CURVE CODE    CURVE DESCRIPTION
#-----------   ------------------   ----------------------------------
DEPT.M        00 001 00 00         : DEPTH        - DEPTH                       
DPHI.V/V      00 890 00 00         : PHID         - DENSITY POROSITY (LIMESTONE)
NPHI.V/V      00 330 00 00         : PHIN         - NEUTRON POROSITY (LIMESTONE)
GR  .API      00 310 00 00         : GR           - GAMMA RAY                   
ILD .OHMM     00 120 00 00         : RESD         - DEEP RESISTIVITY (DIL)      
~PARAMETER INFORMATION       
#MNEM.UNIT           DATA             DESCRIPTION OF MNEMONIC
#---------         -----------     ------------------------------
GL  .M        588.35               : gl           - GROUND LEVEL ELEVATION      
EREF.M        592.9                : kb           - ELEVATION OF DEPTH REFERENCE
DATM.M        592.9                : datum        - DATUM ELEVATION             
TDD .M        418                  : tdd          - TOTAL DEPTH DRILLER         
RUN .         ONE                  : Run          - RUN NUMBER                  
ENG .         BILL                 : Engineer     - RECORDING ENGINEER          
WIT .         JIM                  : Witness      - WITNESSED BY                
MUD .         GEL                  : Mud_type     - MUD TYPE                    
MATR.         LIMESTONE            : Logunit      - NEUTRON MATRIX              
TMAX.C        20                   : BHT          - MAXIMUM RECORDED TEMPERATURE
BHTD.M        418                  : BHTDEP       - MAXIMUM RECORDED TEMPERATURE
MATR.         1                    : LOGUNIT      - NEUTRON MATRIX              
RMT .C        25                   : MDTP         - TEMPERATURE OF MUD          
NEUT.         1                    : NEUTRON      - NEUTRON TYPE                
RESI.         0                    : RESIST       - RESISTIVITY TYPE            
RMC .OHMM     0.25                 : RMC          - RESISTIVITY OF MUD CAKE     
RMF .OHMM     0.25                 : RMF          - RESISTIVITY OF MUD FILTRATE 
SUFT.C        4                    : SUFT         - SURFACE TEMPERATURE         
~A  DEPTH     PHID     PHIN       GR     RESD
  125.000    0.410    0.605   71.456    3.067
  125.300    0.443    0.618   69.496    2.797
  125.600    0.474    0.625   72.535    2.906
  125.900    0.475    0.609   69.969    3.018
  126.200    0.487    0.553   65.498    3.020
  126.500    0.435    0.586   67.308    2.859
  126.800    0.297    0.524   86.035    2.809
  127.100    0.304    0.543   83.463    2.760
  127.400    0.311    0.576   84.004    2.762
  127.700    0.318    0.589   87.709    2.816
  128.000    0.313    0.540   85.747    2.766
  128.300    0.303    0.559   84.401    2.718
  128.600    0.306    0.570   85.604    2.620
  128.900    0.311    0.580   86.138    2.575
  129.200    0.314    0.586   84.806    2.577
  129.500    0.312    0.584   86.004    2.579
  129.800    0.325    0.568   90.942    2.533
  130.100    0.331    0.549   91.486    2.489
  130.400    0.333    0.555   86.387    2.538
  130.700    0.305    0.566   83.799    2.540
  131.000    0.313    0.574   86.876    2.688
  131.300    0.309    0.597   84.898    2.898
  131.600    0.283    0.604   83.596    3.009
  131.900    0.276    0.583   81.623    3.305
  132.200    0.249    0.492   81.567    3.497
  132.500    0.277    0.497   80.852    3.435
  132.800    0.285    0.513   85.793    3.313
  133.100    0.274    0.512   86.335    3.195
  133.400    0.235    0.544   85.006    3.081
  133.700    0.246    0.569   85.576    3.200
  134.000    0.262    0.564   84.882    3.387
  134.300    0.268    0.475   86.677    3.452
  134.600    0.263    0.499   86.610    3.331
  134.900    0.269    0.529   82.141    3.271
  135.200    0.262    0.547   78.930    3.335
  135.500    0.262    0.536   75.727    3.529
  135.800    0.242    0.514   74.389    4.333
  136.100    0.250    0.521   69.300    4.758
  136.400    0.271    0.471   66.713    4.183
  136.700    0.281    0.478   71.670    3.815
  137.000    0.292    0.517   76.591    3.610
  137.300    0.304    0.547   75.278    3.547
  137.600    0.320    0.568   70.813    3.823
  137.900    0.268    0.577   77.638    5.246
  138.200    0.256    0.488   76.919    7.612
  138.500    0.260    0.396   69.971   10.066
  138.800    0.250    0.399   64.254   10.458
  139.100    0.245    0.420   71.075   10.085
  139.400    0.266    0.434   74.740   10.091
  139.700    0.288    0.441   61.514   11.291
  140.000    0.307    0.447   52.669   12.173
  140.300    0.303    0.413   45.691   12.181
  140.600    0.291    0.430   61.912   12.653
  140.900    0.310    0.459   67.480   13.896
  141.200    0.319    0.479   62.385   15.264
  141.500    0.327    0.422   52.908   17.079
  141.800    0.288    0.442   61.607   18.064
  142.100    0.303    0.455   65.928   20.212
  142.400    0.320    0.464   63.974   21.788
  142.700    0.307    0.475   58.895   21.011
  143.000    0.238    0.457   70.708   16.831
  143.300    0.263    0.467   80.038   15.930
  143.600    0.305    0.465   77.473   15.651
  143.900    0.316    0.429   57.959   17.187
  144.200    0.307    0.428   45.357   20.710
  144.500    0.305    0.388   37.755   23.603
  144.800    0.286    0.359   32.663   19.261
  145.100    0.218    0.344   31.339   16.309
  145.400    0.240    0.414   54.461   14.071
  145.700    0.268    0.432   66.921   13.320
  146.000    0.290    0.444   68.717   13.328
  146.300    0.308    0.445   51.708   15.769
  146.600    0.319    0.413   49.131   17.643
  146.900    0.321    0.435   54.693   17.652
  147.200    0.268    0.425   60.900   15.518
  147.500    0.201    0.371   60.823   14.415
  147.800    0.218    0.456   64.513   12.907
  148.100    0.250    0.498   65.655   11.991
  148.400    0.277    0.510   64.977   11.352
  148.700    0.261    0.469   83.091   10.745
  149.000    0.259    0.450   88.022   10.753
  149.300    0.270    0.473   85.454   10.965
  149.600    0.248    0.486   84.737   10.774
  149.900    0.213    0.488   90.939   10.198
  150.200    0.211    0.471   94.630    9.833
  150.500    0.235    0.463   87.004    9.483
  150.800    0.268    0.465   77.543    9.668
  151.100    0.265    0.442   69.956   10.041
  151.400    0.278    0.418   72.992   10.824
  151.700    0.350    0.455   74.828   11.454
  152.000    0.391    0.485   67.224   12.348
  152.300    0.328    0.525   60.885   13.560
  152.600    0.352    0.570   56.413   16.043
  152.900    0.360    0.418   51.905   17.292
  153.200    0.348    0.414   51.241   17.308
  153.500    0.342    0.420   54.924   17.325
  153.800    0.346    0.447   57.986   17.018
  154.100    0.364    0.469   59.183   16.716
  154.400    0.346    0.491   58.474   17.051
  154.700    0.322    0.473   57.144   17.063
  155.000    0.330    0.450   58.333   17.391
  155.300    0.317    0.457   60.765   16.774
  155.600    0.315    0.461   60.672   15.882
  155.900    0.322    0.461   59.981   15.599
  156.200    0.285    0.458   60.529   14.766
  156.500    0.268    0.441   70.493   13.467
  156.800    0.265    0.430   78.561   11.834
  157.100    0.247    0.455   79.746   10.399
  157.400    0.250    0.465   85.304    9.140
  157.700    0.278    0.471   87.740    9.853
  158.000    0.184    0.473   82.647   13.778
  158.300    0.264    0.461   72.552   16.297
  158.600    0.310    0.397   66.831   18.231
  158.900    0.346    0.419   69.251   17.261
  159.200    0.305    0.431   69.190   16.039
  159.500    0.288    0.446   59.692   15.461
  159.800    0.323    0.462   50.859   16.363
  160.100    0.341    0.474   40.741   19.002
  160.400    0.356    0.465   36.291   21.659
  160.700    0.357    0.466   34.971   22.490
  161.000    0.353    0.403   34.867   22.934
  161.300    0.347    0.403   34.171   21.711
  161.600    0.349    0.412   39.108   19.080
  161.900    0.355    0.424   43.434   17.080
  162.200    0.337    0.441   47.128   14.735
  162.500    0.335    0.447   53.303   13.438
  162.800    0.328    0.418   56.995   12.961
  163.100    0.323    0.437   57.562   13.211
  163.400    0.328    0.462   54.977   14.784
  163.700    0.322    0.469   54.910   16.539
  164.000    0.327    0.446   55.432   17.177
  164.300    0.311    0.426   54.132   14.819
  164.600    0.324    0.436   55.912   11.869
  164.900    0.221    0.456   60.861   10.051
  165.200    0.247    0.467   63.940   10.438
  165.500    0.287    0.465   58.212   12.123
  165.800    0.319    0.488   54.368   14.884
  166.100    0.342    0.461   52.391   16.960
  166.400    0.355    0.459   52.340   21.223
  166.700    0.333    0.454   52.891   20.455
  167.000    0.328    0.453   54.060   19.365
  167.300    0.330    0.462   54.005   19.023
  167.600    0.327    0.461   53.932   19.036
  167.900    0.349    0.471   51.323   19.416
  168.200    0.346    0.474   50.634   19.070
  168.500    0.335    0.451   51.205   18.053
  168.800    0.340    0.466   59.263   16.772
  169.100    0.287    0.453   64.196   14.742
  169.400    0.279    0.426   64.115   13.952
  169.700    0.285    0.459   62.810   14.494
  170.000    0.300    0.474   68.367   15.625
  170.300    0.324    0.452   68.920   17.160
  170.600    0.339    0.434   83.906   18.847
  170.900    0.347    0.451   87.572   19.210
  171.200    0.355    0.467   72.456   21.103
  171.500    0.342    0.445   54.209   21.509
  171.800    0.332    0.444   51.005   21.535
  172.100    0.336    0.445   50.306   20.378
  172.400    0.341    0.444   50.852   18.246
  172.700    0.308    0.461   53.294   16.641
  173.000    0.325    0.455   66.362   16.048
  173.300    0.340    0.452   70.051   16.064
  173.600    0.344    0.476   70.606   15.487
  173.900    0.291    0.433   71.799   14.392
  174.201    0.274    0.442   70.460   14.136
  174.501    0.285    0.483   69.133   14.153
  174.801    0.295    0.469   70.931   14.427
  175.101    0.305    0.441   77.142   14.438
  175.401    0.272    0.424   80.187   15.570
  175.701    0.299    0.418   72.576   16.166
  176.001    0.320    0.428   63.738   17.428
  176.301    0.258    0.436   58.037   18.442
  176.601    0.291    0.442   55.439   19.156
  176.901    0.296    0.424   58.512   16.529
