~VERSION INFORMATION
 VERS.                 2.0:   CWLS LOG ASCII STANDARD -VERSION 2.0
 WRAP.                  NO:   ONE LINE PER DEPTH STEP
~WELL INFORMATION BLOCK
#MNEM.UNIT           DATA                    DESCRIPTION OF MNEMONIC
#---------    -------------------            -------------------------------
# Generated from Intellog Unique Number	CS_73_76/WELL/2022
WELL.         AMOCO CANADA PETROLEUM CO.LTD. : Well_name    - WELL
LOC .         00/10-19-073-04W4/0            : Location     - LOCATION
UWI .         00/10-19-073-04W4/0            : Uwi          - UNIQUE WELL ID
ENTR.         JOETTE                         : Entered      - ENTERED BY
SRVC.         SCHLUMBERGER                   : Scn          - SERVICE COMPANY
DATE.         05/13/92                       : Date         - LOG DATE
STRT.M        300                            : top_depth    - START DEPTH
STOP.M        470                            : bot_depth    - STOP DEPTH
STEP.M        0.25                           : increment    - STEP LENGTH
 NULL. -999.2500:NULL Value
~CURVE INFORMATION BLOCK
#MNEM UNIT       ERCB CURVE CODE    CURVE DESCRIPTION
#-----------   ------------------   ----------------------------------
DEPT.M        00 001 00 00         : DEPTH        - DEPTH
CALI.MM       00 280 01 00         : CAL          - CALIPER
GR  .API      00 310 00 00         : GR           - GAMMA RAY
NPHI.V/V      00 330 00 00         : PHIN         - NEUTRON POROSITY (SANDSTONE)
DPHI.V/V      00 890 00 00         : PHID         - DENSITY POROSITY (SANDSTONE)
ILD .OHMM     00 120 00 00         : RESD         - DEEP RESISTIVITY (DIL)
~PARAMETER INFORMATION
#MNEM.UNIT           DATA             DESCRIPTION OF MNEMONIC
#---------         -----------     ------------------------------
GL  .M        630                  : gl           - GROUND LEVEL ELEVATION
EREF.M        634.4                : kb           - ELEVATION OF DEPTH REFERENCE
DATM.M        634.4                : datum        - DATUM ELEVATION
TDD .M        475.7                : tdd          - TOTAL DEPTH DRILLER
RUN .         ONE                  : Run          - RUN NUMBER
ENG .         BILL                 : Engineer     - RECORDING ENGINEER
WIT .         JIM                  : Witness      - WITNESSED BY
MUD .         GEL                  : Mud_type     - MUD TYPE
MATR.         SANDSTONE            : Logunit      - NEUTRON MATRIX
TMAX.C        20                   : BHT          - MAXIMUM RECORDED TEMPERATURE
BHTD.M        475.7                : BHTDEP       - MAXIMUM RECORDED TEMPERATURE
MATR.         1                    : LOGUNIT      - NEUTRON MATRIX
RMT .C        17                   : MDTP         - TEMPERATURE OF MUD
NEUT.         1                    : NEUTRON      - NEUTRON TYPE
RESI.         0                    : RESIST       - RESISTIVITY TYPE
RMC .OHMM     6.3                  : RMC          - RESISTIVITY OF MUD CAKE
RMF .OHMM     5.3                  : RMF          - RESISTIVITY OF MUD FILTRATE
SUFT.C        15                   : SUFT         - SURFACE TEMPERATURE
~A  DEPTH      CAL       GR     PHIN     PHID     RESD
# ...
  446.000  220.490   74.833    0.467    0.271    2.589
  446.250  219.573   73.056    0.448    0.259    2.851
  446.500  217.698   70.652    0.429    0.245    3.020
  446.750  218.912   68.875    0.420    0.252    3.261
  447.000  222.214   68.351    0.428    0.273    3.589
  447.250  224.472   67.200    0.442    0.288    3.950
  447.500  224.599   65.448    0.450    0.305    4.262
  447.750  224.812   63.044    0.451    0.313    4.775
  448.000  224.982   61.267    0.449    0.326    5.350
  448.250  224.065   60.091    0.447    0.327    6.107
  448.500  224.235   58.940    0.447    0.323    7.238
  448.750  224.405   56.536    0.449    0.332    8.574
  449.000  224.617   56.012    0.455    0.336   10.169
  449.250  224.787   57.367    0.461    0.336   10.785
  449.500  225.000   58.747    0.464    0.331   11.000
  449.750  225.170   59.475    0.465    0.331   11.035
  450.000  224.253   58.926    0.468    0.337   11.056
  450.250  224.423   57.148    0.472    0.339   11.098
  450.500  224.636   54.745    0.478    0.345   11.119
  450.750  223.762   51.715    0.485    0.348   11.140
  451.000  223.932   54.322    0.480    0.350   11.175
  451.250  223.058   56.303    0.474    0.354   11.633
  451.500  223.228   55.779    0.477    0.352   12.795
  451.750  223.440   54.628    0.482    0.351   14.065
  452.000  223.525   54.104    0.476    0.342   17.953
  452.250  223.695   54.206    0.433    0.290   21.280
  452.500  223.865   55.561    0.161    0.032   22.554
  452.750  222.991   55.663    0.139    0.008   23.062
  453.000  223.161   52.006    0.142    0.044   22.667
  453.250  223.373   45.844    0.157    0.145   21.509
  453.500  223.543   42.788    0.255    0.184   19.269
  453.750  222.627   46.725    0.428    0.278   15.754
  454.000  222.839   48.029    0.464    0.323   12.880
  454.250  223.009   48.131    0.460    0.333   10.337
  454.500  223.222   46.980    0.455    0.334   10.173
  454.750  222.305   46.456    0.454    0.339   10.591
  455.000  222.475   47.836    0.456    0.347   11.011
  455.250  222.688   49.817    0.471    0.354   11.463
  455.500  221.771   51.799    0.476    0.358   11.492
  455.750  221.941   51.875    0.477    0.360   11.302
  456.000  222.154   51.351    0.477    0.361   10.738
  456.250  221.237   50.200    0.477    0.361   10.360
  456.500  221.407   50.928    0.477    0.356   10.002
  456.750  221.662   52.935    0.479    0.351    8.487
  457.000  221.747   54.290    0.479    0.347    7.068
  457.250  221.959   53.164    0.479    0.347    5.779
  457.500  222.172   52.039    0.477    0.349    4.900
  457.750  222.299   51.489    0.477    0.356    4.235
  458.000  222.512   52.844    0.476    0.357    3.873
  458.250  222.597   53.547    0.469    0.353    3.882
  458.500  222.894   53.674    0.461    0.351    3.818
  458.750  222.937   52.498    0.454    0.350    3.758
  459.000  223.107   51.347    0.452    0.350    3.502
  459.250  223.277   52.727    0.454    0.355    3.379
  459.500  223.532   55.962    0.456    0.355    2.867
  459.750  223.659   58.569    0.456    0.351    2.478
  460.000  223.872   58.671    0.453    0.344    2.394
  460.250  222.955   56.894    0.452    0.342    2.635
  460.500  223.125   55.117    0.453    0.345    2.791
  460.750  223.295   55.870    0.454    0.350    3.071
  461.000  222.421   56.624    0.448    0.338    3.195
  461.250  221.590   56.675    0.448    0.305    2.976
  461.500  221.759   55.550    0.453    0.302    2.619
  461.750  221.929   55.652    0.464    0.314    2.262
  462.000  222.057   56.380    0.470    0.325    1.995
  462.250  222.269   58.362    0.472    0.334    1.962
  462.500  221.438   59.691    0.473    0.344    1.929
  462.750  221.523   59.818    0.473    0.347    1.900
  463.000  220.691   58.668    0.469    0.354    1.834
  463.250  220.861   58.744    0.467    0.353    1.741
  463.500  221.031   59.498    0.454    0.348    1.650
  463.750  219.113   59.600    0.450    0.346    1.566
  464.000  219.283   60.303    0.449    0.345    1.511
  464.250  218.367   60.456    0.451    0.347    1.544
  464.500  217.493   60.532    0.453    0.348    1.730
  464.750  202.002   55.597    0.452    0.349    2.513
  465.000  219.921   53.820    0.446    0.351    2.667
  465.250  219.132   53.296    0.436    0.340    2.824
  465.500  219.259   52.771    0.424    0.304    2.940
  465.750  219.514   57.910    0.409    0.291    3.001
  466.000  219.684   66.782    0.404    0.276    3.065
  466.250  219.811   76.306    0.411    0.252    3.189
  466.500  218.895   83.298    0.423    0.229    3.712
  466.750  219.150   95.954    0.426    0.214    4.157
  467.000  219.235  102.972    0.415    0.223    5.930
  467.250  220.491  101.821    0.400    0.252    9.633
  467.500  221.705   99.443    0.387    0.262   16.249
  467.750  222.919  102.651    0.376    0.266   18.195
  468.000  223.047  105.885    0.380    0.285   25.482
  468.250  220.127  108.493    0.388    0.325   40.632
  468.500  218.209  106.716    0.387    0.334   41.523
  468.750  218.379  103.059    0.383    0.339   37.919
  469.000  218.549  103.161    0.380    0.343   29.873
  469.250  218.719   90.083    0.378    0.339   23.088
  469.500  218.847   71.994    0.377    0.332   14.553
  469.750  219.059   56.410    0.375    0.325   10.646
  470.000  219.186   45.236    0.375    0.312    8.549
