~VERSION INFORMATION
 VERS.                 2.0:   CWLS LOG ASCII STANDARD -VERSION 2.0
 WRAP.                  NO:   ONE LINE PER DEPTH STEP
~WELL INFORMATION BLOCK
#MNEM.UNIT           DATA                    DESCRIPTION OF MNEMONIC
#---------    -------------------            -------------------------------
# Generated from Intellog Unique Number	CW_76_78/WELL/927
WELL.         10-31-077-03W5                 : Well_name    - WELL
LOC .         00/10-31-077-03W5/0            : Location     - LOCATION
UWI .         00/10-31-077-03W5/0            : Uwi          - UNIQUE WELL ID
ENTR.         JAYE                           : Entered      - ENTERED BY
SRVC.         SCHLUMBERGER                   : Scn          - SERVICE COMPANY
DATE.         7 DEC 73                       : Date         - LOG DATE
STRT.M        362.712                        : top_depth    - START DEPTH
STOP.M        641.962                        : bot_depth    - STOP DEPTH
STEP.M        0.25                           : increment    - STEP LENGTH
 NULL. -999.2500:NULL Value
~CURVE INFORMATION BLOCK
#MNEM UNIT       ERCB CURVE CODE    CURVE DESCRIPTION
#-----------   ------------------   ----------------------------------
DEPT.M        00 001 00 00         : DEPTH        - DEPTH
GR  .API      00 310 00 00         : GR           - GAMMA RAY
CALI.MM       00 280 01 00         : CAL          - CALIPER
DPHI.V/V      00 890 00 00         : PHID         - DENSITY POROSITY (SANDSTONE)
NPHI.V/V      00 330 00 00         : PHIN         - NEUTRON POROSITY (SANDSTONE)
ILD .OHMM     00 120 00 00         : RESD         - DEEP RESISTIVITY (DLL)
~PARAMETER INFORMATION
#MNEM.UNIT           DATA             DESCRIPTION OF MNEMONIC
#---------         -----------     ------------------------------
GL  .M        680.923              : gl           - GROUND LEVEL ELEVATION
EREF.M        683.971              : kb           - ELEVATION OF DEPTH REFERENCE
DATM.M        680.923              : datum        - DATUM ELEVATION
TDD .M        649.529              : tdd          - TOTAL DEPTH DRILLER
RUN .         ONE                  : Run          - RUN NUMBER
MATR.         SANDSTONE            : Logunit      - NEUTRON MATRIX
TMAX.C        35                   : BHT          - MAXIMUM RECORDED TEMPERATURE
BHTD.M        649.529              : BHTDEP       - MAXIMUM RECORDED TEMPERATURE
RMT .C        -3.88889             : MDTP         - TEMPERATURE OF MUD
MUDD.KG/M     0                    : MWT          - MUD DENSITY
NEUT.         0                    : NEUTRON      - NEUTRON TYPE
RESI.         1                    : RESIST       - RESISTIVITY TYPE
RM  .OHMM     1.65                 : RM           - RESISTIVITY OF MUD
RMC .OHMM     0.25                 : RMC          - RESISTIVITY OF MUD CAKE
RMF .OHMM     7.25                 : RMF          - RESISTIVITY OF MUD FILTRATE
SUFT.C        4.5                  : SUFT         - SURFACE TEMPERATURE
~A  DEPTH       GR      CAL     PHID     PHIN     RESD
# ...
  472.212   78.479  162.321    0.288    0.521    8.695
  472.462   80.962  162.977    0.295    0.535    8.465
  472.712   80.735  164.264    0.280    0.537    8.168
  472.962   81.924  165.651    0.264    0.529    7.697
  473.212   83.667  167.036    0.254    0.510    7.253
  473.462   82.022  168.423    0.257    0.481    6.860
  473.712   84.258  169.291    0.251    0.462    6.596
  473.962   90.684  170.052    0.242    0.479    6.374
  474.212   96.557  170.289    0.215    0.505    6.275
  474.462   93.061  170.736    0.207    0.521    6.200
  474.712   92.342  170.976    0.200    0.513    6.215
  474.962   94.145  171.212    0.198    0.494    6.195
  475.212   93.547  171.040    0.199    0.482    6.144
  475.462   92.827  170.855    0.201    0.483    5.938
  475.712   94.326  170.576    0.191    0.506    5.710
  475.962   95.757  170.395    0.179    0.497    5.509
  476.212   91.030  169.799    0.195    0.482    5.355
  476.462   93.021  168.995    0.198    0.474    5.232
  476.712   96.798  168.607    0.201    0.488    5.150
  476.962   95.213  168.121    0.200    0.531    5.144
  477.212   91.535  167.837    0.209    0.522    5.223
  477.462   92.846  167.347    0.202    0.541    5.389
  477.712   95.698  166.641    0.211    0.561    5.531
  477.962   95.225  165.213    0.215    0.549    5.700
  478.212   93.887  164.301    0.206    0.523    5.904
  478.462   92.179  164.544    0.217    0.505    6.104
  478.712   91.826  165.198    0.216    0.491    6.311
  478.962   92.954  166.273    0.237    0.479    6.476
  479.212   95.498  167.138    0.224    0.467    6.576
  479.462   96.810  168.003    0.224    0.458    6.689
  479.712   95.781  168.764    0.221    0.474    6.717
  479.962   93.950  169.318    0.212    0.487    6.661
  480.212   94.278  169.870    0.208    0.462    6.522
  480.462   94.047  170.005    0.217    0.469    6.397
  480.712   91.724  170.243    0.208    0.521    6.319
  480.962   94.207  170.064    0.183    0.537    6.290
  481.212   93.485  168.840    0.205    0.527    6.247
  481.462   91.903  166.157    0.194    0.539    6.273
  481.712   89.762  162.954    0.241    0.572    6.393
  481.962   85.403  160.478    0.271    0.600    6.855
  482.212   81.231  159.468    0.288    0.572    7.748
  482.462   78.168  159.078    0.287    0.562    8.616
  482.712   76.090  159.110    0.281    0.553    9.425
  482.962   74.693  159.558    0.269    0.540    9.959
  483.212   73.723  160.007    0.260    0.544   10.001
  483.462   72.939  160.141    0.277    0.543    9.616
  483.712   72.836  159.963    0.280    0.545    8.881
  483.962   73.038  159.995    0.263    0.530    8.247
  484.212   75.212  160.024    0.247    0.495    7.772
  484.462   80.960  160.260    0.218    0.477    7.337
  484.712   83.074  160.500    0.168    0.437    6.926
  484.962   83.092  160.845    0.153    0.413    6.696
  485.212   84.466  160.874    0.220    0.464    6.544
  485.462   77.828  160.906    0.258    0.469    6.441
  485.712   74.581  160.937    0.262    0.479    6.433
  485.962   78.110  161.069    0.243    0.484    6.402
  486.212   86.140  162.044    0.222    0.519    6.348
  486.462   87.020  163.010    0.169    0.555    6.294
  486.712   82.971  164.187    0.148    0.491    6.265
  486.962   79.293  165.265    0.135    0.426    6.234
  487.212   81.345  165.606    0.217    0.454    6.226
  487.462   83.332  164.591    0.240    0.533    6.241
  487.712   84.029  162.954    0.228    0.542    6.257
  487.962   86.635  162.253    0.216    0.544    6.283
  488.212   86.837  161.973    0.210    0.527    6.287
  488.462   86.734  162.211    0.207    0.523    6.280
  488.712   87.798  162.765    0.204    0.530    6.261
  488.962   89.174  162.895    0.226    0.496    6.254
  489.212   86.293  163.029    0.215    0.453    6.268
  489.462   84.772  163.479    0.204    0.449    6.273
  489.712   85.653  163.720    0.208    0.466    6.277
  489.962   86.778  163.329    0.207    0.493    6.280
  490.212   87.168  163.151    0.194    0.487    6.295
  490.462   87.493  163.493    0.197    0.480    6.312
  490.712   87.141  163.420    0.210    0.470    6.337
  490.962   86.049  163.140    0.227    0.460    6.342
  491.212   85.144  162.960    0.221    0.465    6.322
  491.462   84.546  162.676    0.214    0.474    6.337
  491.712   84.501  162.082    0.217    0.478    6.330
  491.962   87.847  160.966    0.230    0.479    6.335
  492.212   87.063  159.953    0.226    0.486    6.362
  492.462   85.232  159.876    0.232    0.463    6.412
  492.712   80.813  159.907    0.256    0.448    6.486
  492.962   83.420  160.357    0.237    0.485    6.550
  493.212   83.067  160.804    0.228    0.503    6.577
  493.462   82.284  161.250    0.242    0.507    6.546
  493.712   86.370  161.801    0.223    0.500    6.455
  493.962   89.962  161.832    0.208    0.492    6.354
  494.212   89.240  161.241    0.215    0.524    6.301
  494.462   89.013  161.164    0.218    0.527    6.282
  494.712   87.674  161.297    0.227    0.506    6.355
  494.962   86.398  161.123    0.232    0.495    6.452
  495.212   87.463  161.255    0.241    0.515    6.562
  495.462   88.406  161.808    0.247    0.488    6.675
  495.712   87.746  163.193    0.234    0.467    6.776
  495.962   90.045  163.330    0.216    0.456    6.819
  496.212   89.508  162.945    0.230    0.469    6.910
  496.462   88.293  162.450    0.262    0.463    6.978
  496.712   91.329  161.542    0.274    0.462    7.058
  496.962   86.418  160.946    0.268    0.483    7.089
  497.212   83.664  160.665    0.267    0.536    6.978
  497.462   82.695  160.488    0.276    0.546    6.819
  497.712   78.153  160.204    0.282    0.520    6.811
  497.962   78.355  159.814    0.292    0.520    6.902
  498.212   74.675  159.745    0.291    0.519    7.021
  498.462   74.693  159.875    0.285    0.501    7.166
  498.712   75.388  159.908    0.281    0.506    7.263
  498.962   72.573  160.354    0.298    0.495    7.334
  499.212   70.250  160.592    0.303    0.475    7.432
  499.462   69.465  161.147    0.299    0.473    7.519
  499.712   69.544  161.278    0.291    0.482    7.592
  499.962   70.240  161.104    0.285    0.489    7.651
  500.212   74.203  160.713    0.278    0.478    7.713
  500.462   73.729  160.432    0.264    0.460    7.718
  500.712   72.328  160.463    0.273    0.467    7.625
  500.962   76.721  160.387    0.274    0.501    7.411
  501.212   83.457  160.316    0.261    0.481    6.746
  501.462   87.358  160.450    0.254    0.478    6.009
  501.712   89.224  160.688    0.260    0.510    5.381
  501.962   86.285  160.926    0.256    0.498    4.925
  502.212   83.343  161.376    0.257    0.502    4.582
  502.462   80.835  161.614    0.283    0.481    4.644
  502.712   81.716  161.960    0.284    0.482    5.016
  502.962   82.473  162.094    0.274    0.516    5.588
  503.212   81.628  162.225    0.283    0.503    6.112
  503.462   80.228  162.154    0.306    0.493    6.365
  503.712   79.383  161.973    0.301    0.559    6.461
  503.962   80.018  161.483    0.281    0.555    6.455
  504.212   81.762  161.200    0.266    0.544    6.412
  504.462   85.600  160.602    0.252    0.546    6.301
  504.712   83.276  160.322    0.258    0.587    6.202
  504.962   80.768  159.620    0.272    0.574    6.137
  505.212   78.691  159.651    0.293    0.556    6.131
  505.462   76.921  159.682    0.301    0.545    6.146
  505.712   77.924  160.337    0.292    0.535    6.195
  505.962   80.778  160.993    0.284    0.523    6.243
  506.212   83.816  161.443    0.272    0.514    6.283
  506.462   83.834  161.788    0.280    0.495    6.286
  506.712   81.632  161.923    0.279    0.498    6.324
  506.962   79.987  161.846    0.272    0.518    6.351
  507.212   78.156  161.047    0.268    0.522    6.471
  507.462   76.017  160.345    0.270    0.508    6.752
  507.712   70.858  159.641    0.267    0.454    7.414
  507.962   66.069  159.153    0.252    0.435    8.596
  508.212   62.945  159.184    0.051    0.313   10.777
  508.462   60.744  159.211    0.011    0.187   14.880
