~VERSION INFORMATION
 VERS.                 2.0:   CWLS LOG ASCII STANDARD -VERSION 2.0
 WRAP.                  NO:   ONE LINE PER DEPTH STEP
~WELL INFORMATION BLOCK
#MNEM.UNIT           DATA                    DESCRIPTION OF MNEMONIC
#---------    -------------------            -------------------------------
# Generated from Intellog Unique Number	CC_84_87/WELL/2331
NULL.         -999.25                        : NULL_VALUE
WELL.         COSEKA ET AL SALESKI           : Well_name    - WELL              
LOC .         11-24-087-17W4                 : Location     - LOCATION          
UWI .         00/11-24-087-17W400            : Uwi          - UNIQUE WELL ID    
ENTR.         JHS                            : Entered      - ENTERED BY        
SRVC.         COMPUTALOG                     : Scn          - SERVICE COMPANY   
DATE.         02 FEB 82                      : Date         - LOG DATE
STRT.M        100                            : top_depth    - START DEPTH       
STOP.M        217.901                        : bot_depth    - STOP DEPTH        
STEP.M        0.3                            : increment    - STEP LENGTH       
~CURVE INFORMATION BLOCK
#MNEM UNIT       ERCB CURVE CODE    CURVE DESCRIPTION
#-----------   ------------------   ----------------------------------
DEPT.M        00 001 00 00         : DEPTH        - DEPTH                       
ILD .OHMM     00 120 00 00         : RESD         - DEEP RESISTIVITY (DIL)      
GR  .API      00 310 00 00         : GR           - GAMMA RAY                   
NPHI.V/V      00 330 00 00         : PHIN         - NEUTRON POROSITY (LIMESTONE)
DPHI.V/V      00 890 00 00         : PHID         - DENSITY POROSITY (LIMESTONE)
~PARAMETER INFORMATION       
#MNEM.UNIT           DATA             DESCRIPTION OF MNEMONIC
#---------         -----------     ------------------------------
GL  .M        510.2                : gl           - GROUND LEVEL ELEVATION      
EREF.M        513.7                : kb           - ELEVATION OF DEPTH REFERENCE
DATM.M        513.7                : datum        - DATUM ELEVATION             
TDD .M        226                  : tdd          - TOTAL DEPTH DRILLER         
RUN .         ONE                  : Run          - RUN NUMBER                  
ENG .         BILL                 : Engineer     - RECORDING ENGINEER          
WIT .         JIM                  : Witness      - WITNESSED BY                
MUD .         GEL                  : Mud_type     - MUD TYPE                    
MATR.         LIMESTONE            : Logunit      - NEUTRON MATRIX              
TMAX.C        24                   : BHT          - MAXIMUM RECORDED TEMPERATURE
BHTD.M        226                  : BHTDEP       - MAXIMUM RECORDED TEMPERATURE
MATR.         1                    : LOGUNIT      - NEUTRON MATRIX              
RMT .C        25                   : MDTP         - TEMPERATURE OF MUD          
NEUT.         1                    : NEUTRON      - NEUTRON TYPE                
RESI.         0                    : RESIST       - RESISTIVITY TYPE            
RMC .OHMM     0.25                 : RMC          - RESISTIVITY OF MUD CAKE     
RMF .OHMM     0.25                 : RMF          - RESISTIVITY OF MUD FILTRATE 
SUFT.C        15                   : SUFT         - SURFACE TEMPERATURE         
~A  DEPTH     RESD       GR     PHIN     PHID
  100.000   19.630   67.497    0.446    0.313
  100.300   18.896   64.371    0.369    0.323
  100.600   15.916   64.370    0.350    0.311
  100.900   11.507   73.743    0.401    0.271
  101.200    7.420   79.366    0.410    0.250
  101.500    6.370   82.489    0.455    0.252
  101.800    6.016   83.738    0.506    0.275
  102.100    6.619   87.486    0.450    0.283
  102.400    7.283   94.359    0.456    0.266
  102.700    8.984   94.983    0.511    0.241
  103.000   11.737   87.481    0.502    0.239
  103.300   16.868   77.480    0.468    0.242
  103.600   18.559   68.104    0.371    0.260
  103.900   18.210   63.727    0.332    0.288
  104.200   18.211   63.725    0.373    0.309
  104.500   18.564   66.224    0.394    0.306
  104.800   17.871   64.972    0.381    0.277
  105.100   16.559   65.596    0.366    0.266
  105.400   15.343   68.094    0.373    0.270
  105.700   15.055   69.968    0.419    0.261
  106.000   14.772   70.591    0.478    0.262
  106.300   14.773   67.465    0.476    0.272
  106.600   14.495   69.963    0.409    0.276
  106.900   14.496   69.337    0.399    0.276
  107.200   16.256   66.210    0.421    0.265
  107.500   21.237   67.458    0.330    0.212
  107.800   35.556   64.957    0.225    0.134
  108.100   39.121   53.706    0.186    0.030
  108.400   35.563   52.454    0.140    0.037
  108.700   23.373   57.452    0.176    0.169
  109.000   14.506   64.951    0.328    0.227
  109.300   13.700   68.699    0.443    0.288
  109.600   13.702   64.322    0.434    0.312
  109.900   14.236   66.820    0.437    0.316
  110.200   14.791   71.819    0.410    0.293
  110.500   14.239   73.067    0.405    0.292
  110.800   15.968   71.191    0.411    0.286
  111.100   18.251   66.815    0.478    0.268
  111.400   23.392   60.563    0.230    0.082
  111.700   26.738   52.437    0.138    0.040
  112.000   25.741   52.435    0.118    0.012
  112.300   22.957   59.308    0.118    0.027
  112.600   16.285   63.682    0.152    0.097
  112.900   14.250   66.180    0.225    0.190
  113.200   13.982   66.178    0.370    0.261
  113.500   15.680   64.302    0.398    0.297
  113.800   15.983   61.175    0.400    0.301
  114.100   15.682   61.799    0.394    0.299
  114.400   14.531   64.297    0.364    0.306
  114.700   12.960   68.045    0.349    0.309
  115.000   12.240   69.919    0.359    0.307
  115.300   12.011   69.292    0.400    0.307
  115.600   12.012   60.541    0.486    0.309
  115.900   12.244   63.039    0.498    0.301
  116.200   12.245   69.287    0.432    0.288
  116.500   12.482   77.411    0.360    0.289
  116.800   12.016   80.534    0.344    0.291
  117.100   11.790   76.158    0.349    0.291
  117.400   11.791   67.406    0.368    0.287
  117.700   11.569   64.905    0.363    0.296
  118.000   11.794   65.528    0.407    0.312
  118.300   12.022   65.527    0.422    0.311
  118.600   12.491   64.900    0.426    0.299
  118.900   12.492   65.524    0.404    0.299
  119.200   11.798   69.272    0.407    0.301
  119.500   12.494   73.645    0.425    0.284
  119.800   14.837   74.268    0.427    0.216
  120.100   16.015   71.142    0.424    0.145
  120.400   17.287   60.516    0.348    0.089
  120.700   14.015   63.014    0.360    0.163
  121.000   12.500   72.387    0.415    0.248
  121.300   11.582   74.261    0.451    0.280
  121.600   11.807   73.009    0.475    0.273
  121.900   11.585   71.133    0.470    0.270
  122.200   11.809   67.381    0.437    0.280
  122.500   11.368   70.504    0.445    0.287
  122.800   11.369   71.127    0.476    0.283
  123.100   11.155   74.876    0.445    0.280
  123.400   10.739   75.500    0.352    0.275
  123.700   10.946   75.498    0.374    0.281
  124.000   11.373   75.496    0.396    0.272
  124.300   11.594   76.745    0.400    0.255
  124.600   13.252   80.493    0.437    0.255
  124.900   14.305   75.492    0.458    0.258
  125.200   14.863   69.865    0.415    0.252
  125.500   14.864   74.864    0.375    0.239
  125.800   12.283   69.862    0.291    0.219
  126.100   11.824   62.986    0.303    0.220
  126.400   11.601   66.734    0.342    0.252
  126.700   12.523   74.857    0.320    0.276
  127.000   13.011   76.731    0.318    0.267
  127.300   13.263   78.604    0.338    0.261
  127.600   13.521   80.478    0.380    0.267
  127.900   13.266   82.351    0.421    0.270
  128.200   12.292   81.724    0.436    0.256
  128.500   11.390   74.223    0.398    0.241
  128.800   10.554   72.346    0.390    0.229
  129.100   10.966   72.344    0.410    0.226
  129.400   11.393   74.843    0.451    0.237
  129.700    7.488   79.842    0.410    0.239
  130.000    7.072   90.465    0.398    0.224
  130.300    6.679  100.463    0.426    0.226
  130.600    6.429  100.461    0.385    0.230
  130.900    6.809   98.584    0.391    0.234
  131.200    6.431   94.833    0.412    0.239
  131.500    6.073   92.957    0.439    0.239
  131.800    5.846   94.830    0.395    0.243
  132.100    6.943   99.828    0.424    0.240
  132.400    8.245   99.202    0.457    0.262
  132.700    9.071   89.826    0.508    0.283
  133.000    9.072   82.324    0.471    0.262
  133.300    8.901   85.447    0.348    0.194
  133.600    8.092   92.321    0.370    0.225
  133.900    7.642  104.819    0.462    0.236
  134.200    7.357   98.567    0.590    0.280
  134.500    7.499   97.316    0.559    0.280
  134.800    7.792  106.064    0.411    0.268
  135.100    7.220  112.312    0.435    0.237
  135.400    6.950   89.186    0.512    0.143
  135.700    7.360   87.935    0.349    0.168
  136.000    8.413  102.933    0.390    0.198
  136.300   11.202  105.431    0.406    0.234
  136.600   14.358   91.680    0.357    0.234
  136.900   16.102   92.303    0.349    0.234
  137.200   16.413   91.052    0.344    0.227
  137.500   15.800   78.550    0.329    0.229
  137.800   15.503   81.049    0.340    0.231
  138.100   15.803   85.422    0.348    0.242
  138.400   17.059   87.921    0.389    0.247
  138.700   17.390   86.668    0.421    0.239
  139.000   17.391   86.042    0.473    0.232
  139.300   17.727   85.416    0.429    0.239
  139.600   17.393   86.664    0.354    0.242
  139.900   16.428   86.663    0.364    0.251
  140.200   17.397   86.661    0.368    0.245
  140.500   18.424   86.659    0.360    0.241
  140.800   19.511   86.033    0.393    0.253
  141.100   19.889   79.782    0.427    0.239
  141.400   19.515   76.655    0.393    0.196
  141.700   17.076   77.903    0.409    0.193
  142.000   14.383   88.527    0.400    0.214
  142.300   12.114  112.899    0.394    0.250
  142.600   11.013  104.773    0.380    0.256
  142.900   11.014  103.521    0.393    0.220
  143.200   11.227  106.645    0.420    0.205
  143.500   11.890  102.893    0.432    0.219
  143.800   12.592  104.141    0.384    0.222
  144.100   12.355  106.640    0.390    0.221
  144.400   11.668  108.513    0.427    0.225
  144.700   11.670  109.137    0.380    0.217
  145.000   11.895  107.260    0.342    0.204
  145.300   12.840   92.259    0.375    0.195
  145.600   13.341   81.008    0.409    0.227
  145.900   13.342   71.631    0.400    0.258
  146.200   13.091   72.880    0.338    0.278
  146.500   11.676   79.753    0.361    0.266
  146.800   11.457   85.376    0.390    0.193
  147.100   11.903   82.250    0.415    0.196
  147.400   12.606   76.623    0.466    0.222
  147.700   13.608   75.372    0.453    0.224
  148.000   14.139   74.745    0.409    0.246
  148.300   14.412   75.994    0.401    0.281
  148.600   14.413   75.992    0.386    0.286
  148.900   12.612   75.366    0.383    0.286
  149.201   11.465   79.739    0.340    0.273
  149.501   11.249   87.237    0.378    0.211
  149.801   12.143   92.861    0.405    0.186
  150.101   12.617   92.859    0.398    0.175
  150.401   12.861   87.233    0.386    0.178
  150.701   12.380   78.481    0.447    0.227
  151.001    9.662   79.104    0.419    0.253
  151.301    8.952   81.603    0.383    0.211
  151.601    8.784   89.101    0.380    0.185
  151.901    9.482   94.725    0.448    0.211
