~VERSION INFORMATION
 VERS.                 2.0:   CWLS LOG ASCII STANDARD -VERSION 2.0
 WRAP.                  NO:   ONE LINE PER DEPTH STEP
~WELL INFORMATION BLOCK
#MNEM.UNIT           DATA                    DESCRIPTION OF MNEMONIC
#---------    -------------------            -------------------------------
# Generated from Intellog Unique Number	CN_94_101/WELL/3714
WELL.         PACIFIC PETROLEUMS LTD.        : Well_name    - WELL
LOC .         00/10-06-096-21W4/0            : Location     - LOCATION
UWI .         00/10-06-096-21W4/0            : Uwi          - UNIQUE WELL ID
ENTR.         JOETTE                         : Entered      - ENTERED BY
SRVC.         COMPUTALOG                     : Scn          - SERVICE COMPANY
DATE.         08/10/92                       : Date         - LOG DATE
STRT.M        400                            : top_depth    - START DEPTH
STOP.M        570                            : bot_depth    - STOP DEPTH
STEP.M        0.25                           : increment    - STEP LENGTH
 NULL. -999.2500:NULL Value
~CURVE INFORMATION BLOCK
#MNEM UNIT       ERCB CURVE CODE    CURVE DESCRIPTION
#-----------   ------------------   ----------------------------------
DEPT.M        00 001 00 00         : DEPTH        - DEPTH
ILD .OHMM     00 120 00 00         : RESD         - DEEP RESISTIVITY (DIL)
GR  .API      00 310 00 00         : GR           - GAMMA RAY
NPHI.V/V      00 330 00 00         : PHIN         - NEUTRON POROSITY (SANDSTONE)
DPHI.V/V      00 890 00 00         : PHID         - DENSITY POROSITY (SANDSTONE)
~PARAMETER INFORMATION
#MNEM.UNIT           DATA             DESCRIPTION OF MNEMONIC
#---------         -----------     ------------------------------
GL  .M        819.4                : gl           - GROUND LEVEL ELEVATION
EREF.M        822.9                : kb           - ELEVATION OF DEPTH REFERENCE
DATM.M        822.9                : datum        - DATUM ELEVATION
TDD .M        566.4                : tdd          - TOTAL DEPTH DRILLER
RUN .         ONE                  : Run          - RUN NUMBER
ENG .         BILL                 : Engineer     - RECORDING ENGINEER
WIT .         JIM                  : Witness      - WITNESSED BY
MUD .         GEL                  : Mud_type     - MUD TYPE
MATR.         SANDSTONE            : Logunit      - NEUTRON MATRIX
TMAX.C        25                   : BHT          - MAXIMUM RECORDED TEMPERATURE
BHTD.M        566.4                : BHTDEP       - MAXIMUM RECORDED TEMPERATURE
RMT .C        14                   : MDTP         - TEMPERATURE OF MUD
MUDD.KG/M     1402                 : MWT          - MUD DENSITY
NEUT.         1                    : NEUTRON      - NEUTRON TYPE
RESI.         0                    : RESIST       - RESISTIVITY TYPE
RM  .OHMM     7.8                  : RM           - RESISTIVITY OF MUD
RMC .OHMM     7.8                  : RMC          - RESISTIVITY OF MUD CAKE
RMF .OHMM     7.8                  : RMF          - RESISTIVITY OF MUD FILTRATE
SUFT.C        4                    : SUFT         - SURFACE TEMPERATURE
~A  DEPTH     RESD       GR     PHIN     PHID
  400.000    5.188   61.218    0.500    0.223
  400.250    5.288   66.697    0.494    0.223
  400.500    5.297   71.570    0.485    0.215
  400.750    5.203   63.723    0.453    0.199
  401.000    4.924   61.924    0.436    0.208
  401.250    4.748   60.138    0.439    0.221
  401.500    4.493   64.398    0.426    0.232
  401.750    4.098   71.089    0.510    0.235
  402.000    3.950   72.932    0.549    0.236
  402.250    3.602   66.291    0.555    0.230
  402.500    3.410   68.141    0.563    0.222
  402.750    3.349   68.772    0.532    0.217
  403.000    3.171   63.337    0.461    0.204
  403.250    3.114   60.332    0.545    0.207
  403.500    3.002   67.023    0.572    0.223
  403.750    2.898   69.484    0.591    0.213
  404.000    2.846   64.655    0.600    0.209
  404.250    2.848   64.074    0.573    0.221
  404.500    2.799   65.917    0.559    0.237
  404.750    2.855   66.548    0.573    0.247
  405.000    2.912   66.573    0.528    0.248
  405.250    2.969   74.483    0.571    0.243
  405.500    3.144   68.441    0.599    0.238
  405.750    3.522   60.595    0.569    0.233
  406.000    3.799   63.038    0.566    0.221
  406.250    4.174   66.099    0.520    0.232
  406.500    5.134   64.300    0.486    0.224
  406.750    5.643   60.083    0.448    0.228
  407.000    6.564   55.260    0.419    0.228
  407.250    6.817   52.867    0.431    0.233
  407.500    7.495   55.316    0.395    0.239
  407.750    7.938   57.759    0.389    0.223
  408.000    8.096   62.638    0.394    0.224
  408.250    8.102   65.087    0.385    0.228
  408.500    8.108   63.288    0.367    0.228
  408.750    7.971   59.071    0.369    0.225
  409.000    7.829   56.072    0.384    0.220
  409.250    7.696   57.922    0.395    0.212
  409.500    7.557   60.364    0.388    0.210
  409.750    7.565   62.208    0.369    0.215
  410.000    7.718   57.391    0.356    0.219
  410.250    7.870   54.992    0.350    0.215
  410.500    8.178   54.411    0.370    0.217
  410.750    8.827   55.036    0.390    0.223
  411.000    9.170   56.273    0.401    0.237
  411.250    9.351   48.420    0.370    0.240
  411.500    9.537   50.869    0.363    0.229
  411.750    9.370   56.960    0.375    0.234
  412.000    9.038   58.803    0.392    0.239
  412.250    8.395   58.828    0.420    0.241
  412.500    8.096   57.029    0.442    0.243
  412.750    7.958   54.630    0.430    0.243
  413.000    7.962   55.268    0.371    0.239
  413.250    7.827   48.627    0.368    0.239
  413.500    7.546   51.675    0.412    0.244
  413.750    6.881   65.039    0.453    0.253
  414.000    6.512   68.094    0.448    0.250
  414.250    6.278   60.247    0.451    0.240
  414.500    5.832   61.484    0.466    0.229
  414.750    5.416   62.121    0.489    0.226
  415.000    4.758   62.746    0.512    0.231
  415.250    4.256   62.771    0.515    0.237
  415.500    3.669   59.760    0.489    0.241
  415.750    3.105   55.543    0.488    0.241
  416.000    3.050   53.757    0.522    0.241
  416.250    3.230   54.994    0.535    0.244
  416.500    3.618   57.443    0.551    0.249
  416.750    3.975   59.286    0.527    0.243
  417.000    5.267   62.334    0.525    0.242
  417.250    5.684   67.214    0.530    0.232
  417.500    6.367   58.749    0.492    0.239
  417.750    6.613   49.684    0.405    0.254
  418.000    7.138   53.957    0.419    0.271
  418.250    7.276   49.734    0.430    0.272
  418.500    7.149   43.705    0.437    0.300
  418.750    6.897   46.760    0.432    0.293
  419.000    6.775   49.209    0.425    0.278
  419.250    6.531   49.840    0.426    0.268
  419.500    6.067   45.017    0.416    0.264
  419.750    5.850   45.042    0.421    0.258
  420.000    5.967   48.710    0.459    0.246
  420.250    6.090   49.941    0.494    0.248
  420.500    6.095   48.760    0.468    0.256
  420.750    5.662   48.785    0.463    0.263
  421.000    5.357   48.204    0.481    0.255
  421.250    4.884   47.617    0.483    0.243
  421.500    4.290   46.430    0.480    0.230
  421.750    4.137   48.273    0.540    0.236
  422.000    4.065   54.970    0.543    0.241
  422.250    4.305   54.383    0.497    0.244
  422.500    4.471   51.378    0.441    0.245
  422.750    4.916   53.827    0.419    0.245
  423.000    5.304   55.676    0.484    0.248
  423.250    5.409   53.277    0.540    0.238
  423.500    5.517   50.879    0.524    0.249
  423.750    5.731   46.056    0.513    0.267
  424.000    6.184   52.141    0.496    0.278
  424.250    6.307   52.772    0.444    0.272
  424.500    6.082   52.191    0.428    0.267
  424.750    5.442   56.458    0.417    0.274
  425.000    5.151   61.337    0.487    0.283
  425.250    4.967   61.962    0.535    0.251
  425.500    5.066   54.109    0.581    0.244
  425.750    5.568   51.110    0.601    0.254
  426.000    6.236   49.929    0.531    0.253
  426.250    7.388   49.336    0.478    0.252
  426.500    8.120   51.791    0.471    0.257
  426.750    8.439   51.204    0.372    0.262
  427.000    8.771   46.993    0.268    0.221
  427.250    8.781   45.194    0.232    0.164
  427.500    8.467   48.249    0.242    0.055
  427.750    7.865   56.765    0.269    0.146
  428.000    7.306   59.820    0.293    0.220
  428.250    7.043   54.997    0.414    0.253
  428.500    6.792   54.416    0.409    0.238
  428.750    6.549   51.411    0.397    0.232
  429.000    6.199   46.588    0.385    0.234
  429.250    5.445   46.007    0.396    0.249
  429.500    4.605   50.880    0.435    0.259
  429.750    3.896   56.965    0.447    0.252
  430.000    3.235   60.020    0.431    0.261
  430.250    2.951   53.985    0.519    0.216
  430.500    2.953   52.192    0.556    0.172
  430.750    3.245   48.588    0.567    0.154
  431.000    3.634   52.855    0.586    0.192
  431.250    3.921   54.691    0.513    0.241
  431.500    3.853   48.050    0.472    0.268
  431.750    3.579   45.658    0.444    0.281
  432.000    3.386   45.077    0.473    0.290
  432.250    3.147   44.496    0.483    0.284
  432.500    2.924   44.521    0.489    0.260
  432.750    2.872   48.182    0.496    0.255
  433.000    2.822   50.025    0.544    0.264
  433.250    2.773   49.444    0.589    0.269
  433.500    2.775   54.317    0.566    0.260
  433.750    2.778   56.772    0.560    0.250
  434.000    2.833   53.155    0.557    0.242
  434.250    3.001   56.816    0.587    0.234
  434.500    3.177   62.295    0.600    0.239
  434.750    3.363   62.320    0.596    0.243
  435.000    3.696   55.679    0.568    0.237
  435.250    4.139   52.681    0.536    0.232
  435.500    4.637   55.123    0.499    0.248
  435.750    4.910   56.967    0.487    0.260
  436.000    5.101   56.992    0.464    0.251
  436.250    5.203   55.199    0.468    0.240
  436.500    5.112   53.406    0.450    0.178
  436.750    4.663   47.371    0.418    0.113
  437.000    4.495   38.912    0.417    0.143
  437.250    4.334   51.063    0.466    0.241
  437.500    4.258   52.306    0.537    0.240
  437.750    4.263   57.779    0.572    0.235
  438.000    4.268   59.629    0.550    0.221
  438.250    4.352   58.442    0.544    0.229
  438.500    4.357   58.460    0.539    0.226
  438.750    4.281   54.243    0.515    0.222
  439.000    4.286   54.875    0.584    0.220
  439.250    4.211   57.930    0.554    0.223
  439.500    4.061   59.779    0.532    0.234
  439.750    3.703   58.592    0.521    0.242
  440.000    3.313   56.799    0.499    0.240
  440.250    3.020   55.006    0.441    0.242
  440.500    2.754   51.995    0.436    0.249
  440.750    2.756   56.874    0.451    0.261
  441.000    2.973   57.505    0.478    0.251
  441.250    3.207   55.719    0.518    0.241
  441.500    3.661   55.750    0.543    0.234
  441.750    4.022   57.587    0.559    0.228
  442.000    4.104   61.847    0.551    0.233
  442.250    3.741   68.545    0.519    0.233
  442.500    3.475   70.381    0.532    0.236
  442.750    3.352   66.777    0.527    0.230
  443.000    3.292   64.378    0.532    0.218
  443.250    3.298   60.155    0.544    0.209
