~VERSION INFORMATION
 VERS.                 2.0:   CWLS LOG ASCII STANDARD -VERSION 2.0
 WRAP.                  NO:   ONE LINE PER DEPTH STEP
~WELL INFORMATION BLOCK
#MNEM.UNIT           DATA                    DESCRIPTION OF MNEMONIC
#---------    -------------------            -------------------------------
# Generated from Intellog Unique Number	CW_73_75/WELL/2742
WELL.         SUNCOR MITSUE 10-20            : Well_name    - WELL
LOC .         00/10-20-073-04W5/0            : Location     - LOCATION
UWI .         00/10-20-073-04W5/0            : Uwi          - UNIQUE WELL ID
ENTR.         JAYE                           : Entered      - ENTERED BY
SRVC.         SCHLUMBERGER                   : Scn          - SERVICE COMPANY
DATE.         28 JAN 81                      : Date         - LOG DATE
STRT.M        350                            : top_depth    - START DEPTH
STOP.M        565                            : bot_depth    - STOP DEPTH
STEP.M        0.25                           : increment    - STEP LENGTH
 NULL. -999.2500:NULL Value
~CURVE INFORMATION BLOCK
#MNEM UNIT       ERCB CURVE CODE    CURVE DESCRIPTION
#-----------   ------------------   ----------------------------------
DEPT.M        00 001 00 00         : DEPTH        - DEPTH
DPHI.V/V      00 890 00 00         : PHID         - DENSITY POROSITY (SANDSTONE)
NPHI.V/V      00 330 00 00         : PHIN         - NEUTRON POROSITY (SANDSTONE)
GR  .API      00 310 00 00         : GR           - GAMMA RAY
CALI.MM       00 280 01 00         : CAL          - CALIPER
ILD .OHMM     00 120 00 00         : RESD         - DEEP RESISTIVITY (DIL)
~PARAMETER INFORMATION
#MNEM.UNIT           DATA             DESCRIPTION OF MNEMONIC
#---------         -----------     ------------------------------
GL  .M        582.23               : gl           - GROUND LEVEL ELEVATION
EREF.M        586.56               : kb           - ELEVATION OF DEPTH REFERENCE
DATM.M        582.23               : datum        - DATUM ELEVATION
TDD .M        1628                 : tdd          - TOTAL DEPTH DRILLER
RUN .         ONE                  : Run          - RUN NUMBER
MUD .         GEL CHEM             : Mud_type     - MUD TYPE
MATR.         SANDSTONE            : Logunit      - NEUTRON MATRIX
TMAX.C        46.4                 : BHT          - MAXIMUM RECORDED TEMPERATURE
BHTD.M        1626.5               : BHTDEP       - MAXIMUM RECORDED TEMPERATURE
RMT .C        15                   : MDTP         - TEMPERATURE OF MUD
MUDD.KG/M     0                    : MWT          - MUD DENSITY
NEUT.         1                    : NEUTRON      - NEUTRON TYPE
RESI.         0                    : RESIST       - RESISTIVITY TYPE
RM  .OHMM     1.7                  : RM           - RESISTIVITY OF MUD
RMC .OHMM     0                    : RMC          - RESISTIVITY OF MUD CAKE
RMF .OHMM     1.28                 : RMF          - RESISTIVITY OF MUD FILTRATE
SUFT.C        0                    : SUFT         - SURFACE TEMPERATURE
~A  DEPTH     PHID     PHIN       GR      CAL     RESD
  350.000    0.241    0.494  102.772  247.881    2.074
  350.250    0.244    0.461  102.666  243.447    2.136
  350.500    0.253    0.459   99.632  488.718    2.159
  350.750    0.261    0.465   95.789  479.509    2.173
  351.000    0.260    0.463   92.446  469.675    2.150
  351.250    0.259    0.456   93.650  458.389    2.136
  351.500    0.266    0.454   96.600  449.178    2.159
  351.750    0.276    0.474   93.693  469.573    2.203
  352.000    0.268    0.475   90.535  491.107    2.277
  352.250    0.255    0.460   91.427  482.213    2.323
  352.500    0.243    0.409   92.633  497.617    2.378
  352.750    0.227    0.424   92.840  508.662    2.449
  353.000    0.223    0.446   94.357  483.560    2.513
  353.250    0.235    0.453   95.437  454.928    2.511
  353.500    0.258    0.464   95.708  458.391    2.522
  353.750    0.298    0.492   90.744  483.353    2.598
  354.000    0.336    0.538   83.845  476.636    2.700
  354.250    0.346    0.492   81.998  450.495    2.818
  354.500    0.301    0.447   84.198  448.454    2.897
  354.750    0.272    0.408   89.454  461.368    2.944
  355.000    0.229    0.428   92.717  457.456    2.881
  355.250    0.228    0.448   93.547  476.290    2.808
  355.500    0.283    0.457   88.645  497.102    2.753
  355.750    0.354    0.476   82.932  510.951    2.756
  356.000    0.393    0.584   74.478  530.823    2.887
  356.250    0.609    0.600   70.199  520.679    3.036
  356.500    0.569    0.618   74.831  468.674    3.156
  356.750    0.488    0.558   75.786  359.022    3.232
  357.000    0.439    0.509   75.308  320.107    3.216
  357.250    0.324    0.483   80.814  304.560    3.024
  357.500    0.261    0.459   86.942  293.898    2.647
  357.750    0.250    0.472   94.441  297.983    2.392
  358.000    0.255    0.516   98.638  336.034    2.622
  358.250    0.270    0.540   87.566  313.218    2.874
  358.500    0.257    0.454   78.987  294.867    3.316
  358.750    0.233    0.394   71.280  314.845    3.914
  359.000    0.250    0.370   68.558  319.346    4.406
  359.250    0.268    0.376   67.644  310.763    4.767
  359.500    0.286    0.373   63.738  304.044    5.080
  359.750    0.291    0.351   60.458  298.365    5.342
  360.000    0.270    0.325   63.407  291.128    5.532
  360.250    0.260    0.340   64.237  299.786    5.486
  360.500    0.241    0.356   65.504  281.851    5.307
  360.750    0.226    0.373   68.393  271.293    5.038
  361.000    0.272    0.393   75.330  263.122    4.553
  361.250    0.303    0.451   82.893  266.794    4.090
  361.500    0.318    0.462   82.602  276.276    3.980
  361.750    0.297    0.439   76.951  284.414    4.354
  362.000    0.261    0.450   71.864  271.880    4.702
  362.250    0.271    0.444   64.842  269.214    5.165
  362.500    0.282    0.408   70.971  268.941    5.597
  362.750    0.273    0.397   74.357  269.283    6.010
  363.000    0.226    0.372   71.884  274.511    5.726
  363.250    0.175    0.339   72.092  284.310    5.049
  363.500    0.209    0.376   79.031  275.827    4.528
  363.750    0.251    0.457   77.555  267.033    4.524
  364.000    0.260    0.461   72.903  263.851    4.377
  364.250    0.275    0.446   70.678  265.549    4.077
  364.500    0.291    0.426   79.176  270.150    3.712
  364.750    0.312    0.453   85.303  305.915    3.291
  365.000    0.330    0.485   94.547  440.255    2.783
  365.250    0.306    0.492  100.614  418.166    2.845
  365.500    0.274    0.476  100.324  393.583    3.377
  365.750    0.259    0.442   88.939  333.060    4.032
  366.000    0.279    0.415   78.428  298.507    4.634
  366.250    0.322    0.433   65.611  277.767    5.287
  366.500    0.345    0.360   52.917  268.350    5.762
  366.750    0.348    0.313   46.394  258.729    6.234
  367.000    0.328    0.341   48.783  249.204    6.408
  367.250    0.309    0.368   47.060  244.463    6.342
  367.500    0.305    0.369   40.225  246.990    6.170
  367.750    0.337    0.355   37.815  250.867    5.936
  368.000    0.334    0.353   43.633  252.667    5.754
  368.250    0.319    0.361   48.392  253.431    5.565
  368.500    0.307    0.357   48.598  253.988    5.334
  368.750    0.301    0.359   46.252  253.917    5.199
  369.000    0.298    0.374   44.090  253.326    5.155
  369.250    0.293    0.390   42.617  252.426    5.209
  369.500    0.294    0.381   40.081  251.219    5.314
  369.750    0.304    0.365   38.232  250.210    5.463
  370.000    0.305    0.349   42.490  249.728    5.541
  370.250    0.320    0.358   48.619  250.283    5.599
  370.500    0.311    0.356   53.252  253.123    5.531
  370.750    0.297    0.342   64.242  260.115    5.422
  371.000    0.284    0.360   71.367  270.535    5.315
  371.250    0.260    0.415   78.555  286.358    5.331
  371.500    0.232    0.432   84.621  286.705    5.408
  371.750    0.214    0.415   84.206  274.068    5.527
  372.000    0.204    0.398   80.736  266.107    5.735
  372.250    0.259    0.388   78.451  263.340    5.773
  372.500    0.253    0.373   76.792  262.020    5.878
  372.750    0.241    0.382   74.693  260.079    6.042
  373.000    0.263    0.405   71.472  254.401    6.379
  373.250    0.286    0.379   66.631  250.387    6.531
  373.500    0.317    0.347   64.097  247.306    6.625
  373.750    0.339    0.380   69.414  247.755    6.619
  374.000    0.412    0.481   72.614  281.027    6.343
  374.250    0.717    0.572   74.195  349.407    5.699
  374.500    0.714    0.566   75.401  431.916    4.544
  374.750    0.691    0.564   76.665  452.515    3.315
  375.000    0.630    0.590   79.054  460.029    2.782
  375.250    0.472    0.570   82.941  459.338    2.597
  375.500    0.340    0.498   85.330  431.326    3.048
  375.750    0.270    0.377   87.531  253.954    3.743
  376.000    0.224    0.354   89.919  263.752    4.495
  376.250    0.195    0.364   87.821  271.991    5.305
  376.500    0.255    0.373   59.921  249.071    5.927
  376.750    0.308    0.373   39.315  236.434    6.232
  377.000    0.322    0.366   38.275  232.003    6.358
  377.250    0.324    0.357   40.105  230.067    6.328
  377.500    0.318    0.347   43.431  229.060    6.192
  377.750    0.306    0.334   50.491  228.058    5.991
  378.000    0.285    0.328   60.047  227.574    5.828
  378.250    0.248    0.356   69.043  226.672    5.681
  378.500    0.240    0.395   77.290  224.008    5.730
  378.750    0.243    0.399   77.685  219.573    5.890
  379.000    0.248    0.386   71.472  217.634    5.986
  379.250    0.256    0.370   64.576  220.370    6.003
  379.500    0.286    0.373   68.212  235.363    5.907
  379.750    0.363    0.547   71.972  263.233    5.492
  380.000    0.583    0.555   68.690  304.194    4.796
  380.250    0.547    0.538   67.341  274.832    4.837
  380.500    0.424    0.503   68.918  246.824    5.194
  380.750    0.401    0.474   62.334  220.995    5.608
  381.000    0.371    0.453   58.054  201.606    5.853
  381.250    0.349    0.438   58.138  199.874    6.062
  381.500    0.332    0.445   62.646  199.918    6.267
  381.750    0.328    0.440   65.968  200.466    6.357
  382.000    0.326    0.444   60.755  202.367    6.220
  382.250    0.344    0.448   53.421  204.275    6.063
  382.500    0.343    0.449   50.638  205.035    6.057
  382.750    0.348    0.445   53.527  205.177    6.168
  383.000    0.353    0.432   57.037  205.216    6.292
  383.250    0.345    0.420   55.313  205.245    6.468
  383.500    0.333    0.417   56.331  204.864    6.635
  383.750    0.323    0.420   61.151  204.274    6.859
  384.000    0.320    0.429   60.924  203.271    7.090
  384.250    0.329    0.436   60.944  202.163    7.233
  384.500    0.325    0.429   64.328  201.366    7.199
  384.750    0.317    0.419   66.594  201.506    7.058
  385.000    0.303    0.407   68.486  202.577    6.688
  385.250    0.293    0.426   70.750  206.559    6.055
  385.500    0.382    0.541   72.451  213.243    5.597
  385.750    0.407    0.525   72.973  222.832    5.213
  386.000    0.389    0.499   70.999  231.592    5.024
  386.250    0.355    0.464   65.847  217.292    4.963
