~VERSION INFORMATION
 VERS.                 2.0:   CWLS LOG ASCII STANDARD -VERSION 2.0
 WRAP.                  NO:   ONE LINE PER DEPTH STEP
~WELL INFORMATION BLOCK
#MNEM.UNIT           DATA                    DESCRIPTION OF MNEMONIC
#---------    -------------------            -------------------------------
# Generated from Intellog Unique Number	CW_79_81/WELL/879
WELL.         PARAMOUNT ET AL HORIZON        : Well_name    - WELL
LOC .         00/10-35-079-19W4/0            : Location     - LOCATION
UWI .         00/10-35-079-19W4/0            : Uwi          - UNIQUE WELL ID
ENTR.         MAX                            : Entered      - ENTERED BY
SRVC.         COMPUTALOG                     : Scn          - SERVICE COMPANY
STRT.M        198.12                         : top_depth    - START DEPTH
STOP.M        367.62                         : bot_depth    - STOP DEPTH
STEP.M        0.25                           : increment    - STEP LENGTH
 NULL. -999.2500:NULL Value
~CURVE INFORMATION BLOCK
#MNEM UNIT       ERCB CURVE CODE    CURVE DESCRIPTION
#-----------   ------------------   ----------------------------------
DEPT.M        00 001 00 00         : DEPTH        - DEPTH
ILD .OHMM     00 120 00 00         : RESD         - DEEP RESISTIVITY (DIL)
NPHI.V/V      00 330 00 00         : PHIN         - NEUTRON POROSITY (SANDSTONE)
DPHI.V/V      00 890 00 00         : PHID         - DENSITY POROSITY (SANDSTONE)
CALI.MM       00 280 01 00         : CAL          - CALIPER
GR  .API      00 310 00 00         : GR           - GAMMA RAY
~PARAMETER INFORMATION
#MNEM.UNIT           DATA             DESCRIPTION OF MNEMONIC
#---------         -----------     ------------------------------
GL  .M        563.88               : gl           - GROUND LEVEL ELEVATION
EREF.M        566.928              : kb           - ELEVATION OF DEPTH REFERENCE
DATM.M        563.88               : datum        - DATUM ELEVATION
TDD .M        368.198              : tdd          - TOTAL DEPTH DRILLER
RUN .         ONE                  : Run          - RUN NUMBER
ENG .         BILL                 : Engineer     - RECORDING ENGINEER
WIT .         JIM                  : Witness      - WITNESSED BY
MUD .         GEL                  : Mud_type     - MUD TYPE
MATR.         SANDSTONE            : Logunit      - NEUTRON MATRIX
TMAX.C        16.1111              : BHT          - MAXIMUM RECORDED TEMPERATURE
BHTD.M        368.198              : BHTDEP       - MAXIMUM RECORDED TEMPERATURE
RMT .C        15                   : MDTP         - TEMPERATURE OF MUD
MUDD.KG/M     9800                 : MWT          - MUD DENSITY
NEUT.         1                    : NEUTRON      - NEUTRON TYPE
RESI.         0                    : RESIST       - RESISTIVITY TYPE
RM  .OHMM     1.35                 : RM           - RESISTIVITY OF MUD
RMC .OHMM     0                    : RMC          - RESISTIVITY OF MUD CAKE
RMF .OHMM     1.05                 : RMF          - RESISTIVITY OF MUD FILTRATE
SUFT.C        -20.5556             : SUFT         - SURFACE TEMPERATURE
~A  DEPTH     RESD     PHIN     PHID      CAL       GR
# ...
  307.620   11.892    0.161    0.181  154.752   87.007
  307.870   10.343    0.221    0.209  154.783   94.114
  308.120    9.470    0.361    0.235  155.311   96.790
  308.370    9.192    0.374    0.244  155.342   98.583
  308.620    9.113    0.371    0.248  155.370  100.667
  308.870    9.193    0.381    0.246  155.901   99.795
  309.120    9.392    0.387    0.240  157.930   96.857
  309.370    9.432    0.395    0.239  158.451   95.691
  309.620    9.353    0.387    0.238  158.979   96.003
  309.870    9.154    0.382    0.238  159.511   96.024
  310.120    9.036    0.385    0.236  160.535   98.400
  310.370    8.917    0.381    0.238  161.063  101.666
  310.620    8.878    0.369    0.234  161.595  102.866
  310.870    8.838    0.354    0.227  162.130   99.630
  311.120    8.799    0.356    0.232  162.651   97.287
  311.370    8.760    0.397    0.232  162.682   98.483
  311.620    8.720    0.402    0.230  162.706  102.931
  311.870    8.760    0.389    0.225  163.237  111.220
  312.120    8.880    0.387    0.220  162.761  106.809
  312.370    9.039    0.382    0.215  162.289  109.482
  312.620    9.079    0.406    0.215  162.320  111.565
  312.870    9.119    0.394    0.225  161.847  105.081
  313.120    9.279    0.390    0.237  162.875   97.711
  313.370    9.597    0.386    0.238  162.903   97.139
  313.620    9.875    0.377    0.241  162.431  101.291
  313.870   10.194    0.384    0.228  161.461  103.080
  314.120   10.472    0.387    0.222  160.985  100.142
  314.370   10.631    0.383    0.216  161.020   94.248
  314.620   10.632    0.380    0.212  161.544   92.196
  314.870   10.553    0.387    0.218  161.572   97.532
  315.120   10.156    0.408    0.236  162.096  101.685
  315.370   10.156    0.400    0.240  162.127  103.179
  315.620   10.117    0.389    0.240  162.152  103.199
  315.870    9.998    0.395    0.237  162.183  101.438
  316.120   10.038    0.390    0.235  162.210  102.341
  316.370   10.039    0.393    0.231  162.238  108.269
  316.620    9.920    0.384    0.222  162.266  111.240
  316.870    9.921    0.380    0.224  161.790  113.324
  317.120    9.841    0.377    0.231  161.824  118.659
  317.370    9.723    0.388    0.222  162.352  113.948
  317.620    9.564    0.382    0.217  162.376  108.055
  317.870    9.247    0.383    0.212  162.407  106.299
  318.120    9.048    0.380    0.205  162.932  109.269
  318.370    8.969    0.394    0.200  163.964  108.992
  318.620    8.851    0.384    0.200  164.492  107.529
  318.870    8.891    0.369    0.205  164.019  109.909
  319.120    8.812    0.360    0.205  164.043  109.928
  319.370    8.653    0.372    0.206  164.071  110.537
  319.620    8.375    0.388    0.216  164.071  114.392
  319.870    8.217    0.389    0.215  164.140  117.068
  320.120    8.178    0.395    0.210  164.658  113.541
  320.370    8.178    0.400    0.209  166.687  113.850
  320.620    8.298    0.396    0.217  168.219  115.641
  320.870    8.497    0.392    0.205  167.249  106.201
  321.120    8.854    0.373    0.181  164.271   96.763
  321.370    9.054    0.353    0.162  162.802  102.395
  321.620    8.974    0.353    0.212  163.323  112.457
  321.870    8.736    0.367    0.216  164.851  114.837
  322.120    8.379    0.371    0.211  165.386  116.626
  322.370    8.181    0.373    0.208  165.911  114.867
  322.620    8.062    0.352    0.208  165.935  107.793
  322.870    8.063    0.337    0.205  165.462  111.061
  323.120    8.301    0.347    0.199  164.993  108.714
  323.370    9.176    0.337    0.194  166.525  101.637
  323.620   10.328    0.328    0.173  165.556   96.042
  323.870   11.441    0.310    0.152  163.082   88.374
  324.120   12.196    0.196    0.118  161.605   75.095
  324.370   13.150    0.342    0.125  161.129   74.816
  324.620   12.793    0.334    0.187  160.663   79.855
  324.870   11.840    0.329    0.238  160.187   78.694
  325.120   10.331    0.323    0.230  159.715   80.778
  325.370    9.616    0.344    0.232  159.242   86.406
  325.620    9.259    0.343    0.239  159.266   89.086
  325.870    9.061    0.340    0.242  159.294   87.327
  326.120    9.061    0.342    0.248  158.821   89.414
  326.370    9.141    0.349    0.249  158.856   91.790
  326.620    9.578    0.339    0.220  158.883   97.717
  326.870    9.896    0.331    0.215  159.415   96.254
  327.120   10.135    0.325    0.192  159.436   89.771
  327.370   10.175    0.334    0.205  159.967   93.632
  327.620   10.255    0.350    0.252  159.501   90.987
  327.870   10.494    0.342    0.236  159.022   92.481
  328.120   11.011    0.340    0.223  159.053   88.954
  328.370   11.448    0.326    0.217  159.074   90.445
  328.620   11.528    0.319    0.213  159.101   88.689
  328.870   11.568    0.342    0.224  159.132   81.910
  329.120   11.568    0.333    0.228  159.160   76.608
  329.370   11.569    0.325    0.232  159.188   73.670
  329.620   11.609    0.319    0.237  159.215   72.506
  329.870   11.689    0.333    0.245  159.743   75.773
  330.120   11.729    0.324    0.248  159.771   76.085
  330.370   11.690    0.326    0.245  160.803   77.281
  330.620   11.650    0.330    0.246  160.827   77.001
  330.870   11.611    0.340    0.239  160.858   74.363
  331.120   11.492    0.334    0.236  160.886   74.375
  331.370   11.413    0.336    0.230  160.910   78.532
  331.620   11.294    0.332    0.229  160.945   77.069
  331.870   11.255    0.322    0.240  160.969   70.885
  332.120   11.216    0.315    0.237  160.996   71.783
  332.370   11.216    0.307    0.236  161.524   73.868
  332.620   11.217    0.310    0.236  161.559   79.797
  332.870   11.296    0.316    0.236  161.583   76.562
  333.120   11.535    0.318    0.233  161.607   75.989
  333.370   11.893    0.314    0.225  161.635   74.231
  333.620   12.489    0.298    0.211  161.666   71.293
  333.870   14.595    0.234    0.174  161.697   69.241
  334.120   16.780    0.156    0.127  161.718   63.346
  334.370   16.820    0.116    0.086  162.246   64.251
  334.620   16.185    0.159    0.159  162.774   68.401
  334.870   14.120    0.323    0.197  162.802   74.035
  335.120   12.889    0.328    0.214  162.836   77.004
  335.370   11.670    0.334    0.237  159.189   74.567
  335.620   11.090    0.353    0.233  158.862   71.681
  335.870   10.634    0.336    0.238  158.556   68.820
  336.120   10.448    0.321    0.249  158.207   71.591
  336.370   10.302    0.343    0.250  157.902   80.896
  336.620   10.200    0.337    0.253  158.099   81.308
  336.870   10.137    0.339    0.257  158.252   81.115
  337.120   10.108    0.328    0.255  158.557   82.700
  337.370    9.925    0.347    0.250  158.601   85.201
  337.620    9.666    0.353    0.239  158.776   81.425
  337.870    9.598    0.350    0.225  159.453   77.378
  338.120    9.574    0.340    0.229  159.649   81.631
  338.370    9.588    0.351    0.226  159.802   85.897
  338.620    9.604    0.355    0.240  159.497   83.616
  338.870    9.658    0.358    0.250  159.693   84.016
  339.120    9.708    0.349    0.239  159.825   94.519
  339.370    9.884    0.330    0.227  160.043  102.058
  339.620    9.935    0.336    0.222  159.716  100.976
  339.870    9.991    0.339    0.217  159.367  101.376
  340.120   10.005    0.382    0.203  158.516  105.023
  340.370    9.904    0.391    0.194  158.691  107.227
  340.620    9.716    0.362    0.174  158.887  109.109
  340.870    9.452    0.361    0.192  159.084  113.065
  341.120    8.836    0.356    0.216  159.215  126.249
  341.370    8.452    0.385    0.216  159.412  124.561
  341.620    7.915    0.385    0.218  160.088  122.602
  341.870    7.811    0.390    0.214  160.743  120.012
  342.120    7.827    0.356    0.211  160.940  115.952
  342.370    7.827    0.336    0.207  161.115  114.277
  342.620    7.895    0.389    0.200  161.268  115.862
  342.870    8.304    0.361    0.203  161.966  115.695
  343.120    8.634    0.347    0.200  162.141  113.994
  343.370    9.161    0.327    0.198  161.312  109.651
  343.620   10.164    0.325    0.186  160.003  106.481
  343.870   11.723    0.282    0.163  159.130  101.532
