~VERSION INFORMATION
 VERS.                 2.0:   CWLS LOG ASCII STANDARD -VERSION 2.0
 WRAP.                  NO:   ONE LINE PER DEPTH STEP
~WELL INFORMATION BLOCK
#MNEM.UNIT           DATA                    DESCRIPTION OF MNEMONIC
#---------    -------------------            -------------------------------
# Generated from Intellog Unique Number	CW_79_81/WELL/3696
WELL.         EAGLE RESOURCES LTD.           : Well_name    - WELL
LOC .         00/15-23-079-22W4/0            : Location     - LOCATION
UWI .         00/15-23-079-22W4/0            : Uwi          - UNIQUE WELL ID
ENTR.         JOETTE                         : Entered      - ENTERED BY
SRVC.         COMPUTALOG                     : Scn          - SERVICE COMPANY
DATE.         08-26-92                       : Date         - LOG DATE
STRT.M        175                            : top_depth    - START DEPTH
STOP.M        450                            : bot_depth    - STOP DEPTH
STEP.M        0.25                           : increment    - STEP LENGTH
 NULL. -999.2500:NULL Value
~CURVE INFORMATION BLOCK
#MNEM UNIT       ERCB CURVE CODE    CURVE DESCRIPTION
#-----------   ------------------   ----------------------------------
DEPT.M        00 001 00 00         : DEPTH        - DEPTH
NPHI.V/V      00 330 00 00         : PHIN         - NEUTRON POROSITY (SANDSTONE)
GR  .API      00 310 00 00         : GR           - GAMMA RAY
DPHI.V/V      00 890 00 00         : PHID         - DENSITY POROSITY (SANDSTONE)
ILD .OHMM     00 120 00 00         : RESD         - DEEP RESISTIVITY (DIL)
~PARAMETER INFORMATION
#MNEM.UNIT           DATA             DESCRIPTION OF MNEMONIC
#---------         -----------     ------------------------------
GL  .M        575.8                : gl           - GROUND LEVEL ELEVATION
EREF.M        579.42               : kb           - ELEVATION OF DEPTH REFERENCE
DATM.M        579.42               : datum        - DATUM ELEVATION
TDD .M        449                  : tdd          - TOTAL DEPTH DRILLER
RUN .         ONE                  : Run          - RUN NUMBER
ENG .         BILL                 : Engineer     - RECORDING ENGINEER
WIT .         JIM                  : Witness      - WITNESSED BY
MUD .         GEL                  : Mud_type     - MUD TYPE
MATR.         SANDSTONE            : Logunit      - NEUTRON MATRIX
TMAX.C        22                   : BHT          - MAXIMUM RECORDED TEMPERATURE
BHTD.M        449                  : BHTDEP       - MAXIMUM RECORDED TEMPERATURE
MATR.         1                    : LOGUNIT      - NEUTRON MATRIX
RMT .C        20                   : MDTP         - TEMPERATURE OF MUD
NEUT.         1                    : NEUTRON      - NEUTRON TYPE
RESI.         0                    : RESIST       - RESISTIVITY TYPE
RMC .OHMM     3.1                  : RMC          - RESISTIVITY OF MUD CAKE
RMF .OHMM     4.5                  : RMF          - RESISTIVITY OF MUD FILTRATE
SUFT.C        15                   : SUFT         - SURFACE TEMPERATURE
~A  DEPTH     PHIN       GR     PHID     RESD
  175.000    0.493  116.278    0.237    3.322
  175.250    0.486  117.513    0.234    3.389
  175.500    0.479  118.151    0.239    3.456
  175.750    0.480  114.550    0.241    3.524
  176.000    0.482  110.352    0.237    3.595
  176.250    0.476  111.587    0.236    3.598
  176.500    0.471  115.857    0.235    3.602
  176.750    0.475  120.127    0.231    3.540
  177.000    0.486  122.589    0.231    3.478
  177.250    0.493  121.418    0.235    3.417
  177.500    0.493  119.020    0.242    3.296
  177.750    0.496  121.482    0.247    3.299
  178.000    0.504  119.705    0.249    3.428
  178.250    0.512  119.116    0.253    3.837
  178.500    0.496  120.964    0.249    4.459
  178.750    0.462  124.023    0.242    6.124
  179.000    0.443  119.817    0.231    6.246
  179.250    0.435  113.795    0.221    6.137
  179.500    0.430  107.167    0.201    5.704
  179.750    0.413  101.758    0.184    5.398
  180.000    0.432  105.414    0.201    5.017
  180.250    0.457  112.712    0.213    4.838
  180.500    0.481  116.982    0.219    4.844
  180.750    0.481  118.225    0.225    4.848
  181.000    0.491  116.440    0.231    5.133
  181.250    0.499  119.508    0.226    7.885
  181.500    0.481  112.266    0.260    8.660
  181.750    0.414   92.318    0.288   14.063
  182.000    0.355   42.695    0.298   23.707
  182.250    0.326   30.610    0.306   33.796
  182.500    0.310   23.990    0.312   39.272
  182.750    0.299   21.593    0.306   43.956
  183.000    0.302   20.422    0.302   43.203
  183.250    0.317   20.453    0.297   41.658
  183.500    0.328   24.118    0.278   37.998
  183.750    0.330   28.994    0.255   36.639
  184.000    0.329   32.674    0.260   34.687
  184.250    0.323   32.085    0.274   34.733
  184.500    0.319   24.852    0.291   35.413
  184.750    0.315   20.056    0.299   36.126
  185.000    0.308   18.861    0.304   36.164
  185.250    0.304   17.698    0.314   36.193
  185.500    0.300   18.320    0.325   36.231
  185.750    0.298   20.789    0.366   36.289
  186.000    0.298   21.419    0.332   36.318
  186.250    0.298   22.048    0.310   35.695
  186.500    0.298   21.475    0.313   35.056
  186.750    0.298   19.698    0.309   32.593
  187.000    0.300   18.511    0.304   30.840
  187.250    0.308   17.938    0.302   27.612
  187.500    0.319   20.408    0.312   22.949
  187.750    0.330   22.248    0.322   18.376
  188.000    0.339   24.088    0.332   15.277
  188.250    0.341   27.761    0.331   14.738
  188.500    0.349   31.426    0.338   14.746
  188.750    0.359   34.485    0.346   14.494
  189.000    0.365   34.517    0.342   13.975
  189.250    0.365   33.959    0.341   12.987
  189.500    0.362   37.616    0.347   11.413
  189.750    0.377   41.273    0.350    9.845
  190.000    0.397   52.211    0.311    8.034
  190.250    0.411   55.270    0.297    7.326
  190.500    0.418   58.321    0.289    6.808
  190.750    0.415   63.810    0.282    6.693
  191.000    0.406   64.448    0.271    6.952
  191.250    0.398   62.663    0.247    7.640
  191.500    0.401   57.852    0.250    7.936
  191.750    0.405   51.829    0.282    8.243
  192.000    0.408   47.010    0.304    8.407
  192.250    0.408   42.206    0.304    8.261
  192.500    0.404   44.652    0.302    8.117
  192.750    0.397   59.230    0.296    7.404
  193.000    0.389   61.676    0.275    6.507
  193.250    0.384   59.286    0.266    5.826
  193.500    0.390   52.666    0.279    5.622
  193.750    0.402   66.010    0.307    5.522
  194.000    0.418   72.097    0.307    5.530
  194.250    0.416   71.523    0.313    5.533
  194.500    0.411   61.263    0.316    5.047
  194.750    0.416   59.478    0.308    4.518
  195.000    0.455   92.834    0.302    3.826
  195.250    0.470   94.061    0.289    3.554
  195.500    0.480   97.725    0.283    3.365
  195.750    0.472   98.363    0.277    3.307
  196.000    0.460   96.587    0.276    3.373
  196.250    0.438   94.197    0.266    3.706
  196.500    0.434   92.404    0.254    5.092
  196.750    0.428   85.776    0.220    5.389
  197.000    0.410   72.488    0.205    7.131
  197.250    0.404   55.560    0.237    7.690
  197.500    0.397   42.877    0.265   11.171
  197.750    0.393   39.276    0.288   12.270
  198.000    0.399   44.758    0.301   13.484
  198.250    0.392   53.274    0.287   13.495
  198.500    0.389   56.349    0.291   13.019
  198.750    0.390   53.346    0.310   12.793
  199.000    0.365   48.526    0.326   13.541
  199.250    0.370   44.328    0.330   14.070
  199.500    0.377   43.141    0.325   14.619
  199.750    0.385   46.806    0.325   14.905
  200.000    0.386   49.865    0.329   14.650
  200.250    0.386   48.686    0.326   14.391
  200.500    0.389   45.085    0.317   13.377
  200.750    0.395   48.145    0.310   12.201
  201.000    0.401   51.817    0.302   11.129
  201.250    0.404   54.868    0.299    9.964
  201.500    0.408   59.147    0.287    7.268
  201.750    0.415   62.198    0.277    7.014
  202.000    0.418   67.695    0.273    6.761
  202.250    0.420   71.957    0.267    6.403
  202.500    0.428   77.446    0.260    6.179
  202.750    0.438   79.892    0.247    6.068
  203.000    0.436   79.326    0.240    6.188
  203.250    0.430   75.718    0.256    6.428
  203.500    0.424   68.484    0.281    7.332
  203.750    0.418   63.067    0.292    7.907
  204.000    0.413   60.677    0.286    8.217
  204.250    0.415   66.166    0.270    7.924
  204.500    0.424   75.885    0.253    7.094
  204.750    0.431   77.734    0.254    6.350
  205.000    0.443   80.195    0.249    4.721
  205.250    0.435   81.422    0.242    4.552
  205.500    0.431   82.665    0.249    4.154
  205.750    0.434   83.916    0.250    4.080
  206.000    0.444   87.581    0.254    3.936
  206.250    0.442   87.007    0.272    3.867
  206.500    0.433   88.258    0.265    3.799
  206.750    0.438   90.115    0.256    3.804
  207.000    0.463   90.736    0.254    3.739
  207.250    0.491   90.162    0.258    3.742
  207.500    0.499   88.984    0.268    3.677
  207.750    0.479   89.016    0.262    3.612
  208.000    0.475   92.688    0.252    3.486
  208.250    0.466   93.326    0.252    3.361
  208.500    0.473   92.752    0.263    3.125
  208.750    0.481   93.995    0.282    3.014
  209.000    0.511   95.835    0.296    2.960
  209.250    0.528   98.894    0.298    2.803
  209.500    0.517   99.540    0.288    2.754
  209.750    0.511   97.166    0.276    2.656
  210.000    0.518   95.971    0.273    2.611
  210.250    0.525   94.792    0.279    2.612
  210.500    0.533   97.254    0.287    2.568
  210.750    0.540   98.505    0.288    2.522
  211.000    0.534   98.537    0.282    2.526
  211.250    0.535   97.947    0.280    2.481
  211.500    0.536   95.558    0.285    2.483
  211.750    0.526   93.168    0.284    2.483
  212.000    0.581   92.594    0.279    2.311
  212.250    0.590   94.443    0.281    2.492
  212.500    0.565   95.686    0.291    2.494
  212.750    0.553   95.112    0.290    2.496
  213.000    0.540   97.566    0.281    2.499
  213.250    0.525   98.809    0.271    2.549
  213.500    0.517   95.216    0.269    2.648
  213.750    0.538   95.853    0.269    2.752
  214.000    0.558   98.307    0.271    2.806
  214.250    0.564   98.339    0.270    2.863
  214.500    0.561   96.555    0.269    2.865
  214.750    0.550   96.595    0.266    2.869
  215.000    0.531   96.611    0.261    2.820
  215.250    0.516   94.826    0.259    2.821
  215.500    0.525   93.042    0.266    2.878
  215.750    0.532   95.504    0.271    2.936
  216.000    0.532   98.571    0.269    2.992
  216.250    0.521  101.017    0.265    3.168
  216.500    0.512  101.057    0.257    3.230
  216.750    0.505   98.675    0.257    3.356
  217.000    0.505   98.085    0.258    3.423
  217.250    0.508   97.512    0.258    3.493
  217.500    0.511   97.544    0.256    3.496
  217.750    0.523   99.392    0.251    3.435
  218.000    0.528  103.057    0.247    3.438
  218.250    0.520  101.280    0.249    3.380
