~VERSION INFORMATION
 VERS.                 2.0:   CWLS LOG ASCII STANDARD -VERSION 2.0
 WRAP.                  NO:   ONE LINE PER DEPTH STEP
~WELL INFORMATION BLOCK
#MNEM.UNIT           DATA                    DESCRIPTION OF MNEMONIC
#---------    -------------------            -------------------------------
# Generated from Intellog Unique Number	CS_77_79/WELL/1003
WELL.         HOME LEISTER                   : Well_name    - WELL
LOC .         00/11-30-078-06W4/0            : Location     - LOCATION
UWI .         00/11-30-078-06W4/0            : Uwi          - UNIQUE WELL ID
ENTR.         JHS                            : Entered      - ENTERED BY
SRVC.         SCHLUMBERGER                   : Scn          - SERVICE COMPANY
STRT.M        137                            : top_depth    - START DEPTH
STOP.M        384.25                         : bot_depth    - STOP DEPTH
STEP.M        0.25                           : increment    - STEP LENGTH
 NULL. -999.2500:NULL Value
~CURVE INFORMATION BLOCK
#MNEM UNIT       ERCB CURVE CODE    CURVE DESCRIPTION
#-----------   ------------------   ----------------------------------
DEPT.M        00 001 00 00         : DEPTH        - DEPTH
DPHI.V/V      00 890 00 00         : PHID         - DENSITY POROSITY (LIMESTONE)
NPHI.V/V      00 330 00 00         : PHIN         - NEUTRON POROSITY (LIMESTONE)
GR  .API      00 310 00 00         : GR           - GAMMA RAY
ILD .OHMM     00 120 00 00         : RESD         - DEEP RESISTIVITY (DIL)
~PARAMETER INFORMATION
#MNEM.UNIT           DATA             DESCRIPTION OF MNEMONIC
#---------         -----------     ------------------------------
GL  .M        561.09               : gl           - GROUND LEVEL ELEVATION
EREF.M        564.09               : kb           - ELEVATION OF DEPTH REFERENCE
DATM.M        564.09               : datum        - DATUM ELEVATION
TDD .M        386                  : tdd          - TOTAL DEPTH DRILLER
RUN .         ONE                  : Run          - RUN NUMBER
ENG .         BILL                 : Engineer     - RECORDING ENGINEER
WIT .         JIM                  : Witness      - WITNESSED BY
MUD .         GEL                  : Mud_type     - MUD TYPE
MATR.         LIMESTONE            : Logunit      - NEUTRON MATRIX
TMAX.C        27                   : BHT          - MAXIMUM RECORDED TEMPERATURE
BHTD.M        386                  : BHTDEP       - MAXIMUM RECORDED TEMPERATURE
MATR.         1                    : LOGUNIT      - NEUTRON MATRIX
RMT .C        25                   : MDTP         - TEMPERATURE OF MUD
NEUT.         1                    : NEUTRON      - NEUTRON TYPE
RESI.         0                    : RESIST       - RESISTIVITY TYPE
RMC .OHMM     0.25                 : RMC          - RESISTIVITY OF MUD CAKE
RMF .OHMM     0.25                 : RMF          - RESISTIVITY OF MUD FILTRATE
SUFT.C        15                   : SUFT         - SURFACE TEMPERATURE
~A  DEPTH     PHID     PHIN       GR     RESD
# ...
  224.000    0.330    0.504   60.264   24.982
  224.250    0.334    0.492   63.975   24.088
  224.500    0.343    0.440   65.828   23.223
  224.750    0.343    0.434   64.582   22.396
  225.000    0.341    0.451   63.956   21.196
  225.250    0.346    0.458   68.287   20.437
  225.500    0.353    0.464   68.901   20.069
  225.750    0.345    0.466   67.035   18.995
  226.000    0.334    0.470   62.689   17.977
  226.250    0.342    0.476   68.261   16.700
  226.500    0.329    0.502   67.016   16.098
  226.750    0.294    0.463   65.149   15.523
  227.000    0.274    0.480   70.100   15.246
  227.250    0.285    0.488   68.854   15.839
  227.500    0.310    0.493   68.847   16.146
  227.750    0.331    0.459   68.841   17.089
  228.000    0.337    0.457   68.215   17.749
  228.250    0.348    0.475   63.870   18.096
  228.500    0.349    0.479   63.243   18.108
  228.750    0.331    0.496   65.714   16.821
  229.000    0.317    0.490   68.188   14.776
  229.250    0.327    0.454   71.900   12.049
  229.500    0.334    0.432   77.471   10.389
  229.750    0.310    0.502   78.705    9.126
  230.000    0.249    0.475   70.020    8.637
  230.250    0.156    0.387   64.436    8.327
  230.500    0.221    0.359   71.865    8.335
  230.750    0.266    0.474   76.817    8.495
  231.000    0.308    0.492   73.711    8.825
  231.250    0.331    0.424   77.424    8.997
  231.500    0.295    0.409   80.517    9.700
  231.750    0.291    0.434   69.973    9.180
  232.000    0.310    0.447   71.204    7.626
  232.250    0.326    0.440   77.397    6.335
  232.500    0.322    0.420   82.349    6.339
  232.750    0.307    0.460   80.482    6.000
  233.000    0.319    0.487   86.674    5.573
  233.250    0.221    0.508   97.203    6.008
  233.500    0.216    0.463  104.635    6.980
  233.750    0.242    0.450  109.586    7.387
  234.000    0.263    0.426  112.679    7.256
  234.250    0.266    0.388  108.952    6.996
  234.500    0.246    0.397  105.847    6.745
  234.750    0.227    0.419  105.840    6.502
  235.000    0.211    0.413  104.595    6.269
  235.250    0.221    0.392  110.786    6.157
  235.500    0.225    0.378  112.636    5.828
  235.750    0.219    0.414  112.632    5.725
  236.000    0.214    0.451  114.483    5.521
  236.250    0.211    0.484  116.338    5.523
  236.500    0.211    0.473  115.089    5.325
  236.750    0.220    0.499  112.605    4.947
  237.000    0.230    0.480  112.599    4.682
  237.250    0.235    0.457  105.154    4.431
  237.500    0.238    0.478  111.346    4.271
  237.750    0.243    0.527  115.058    4.118
  238.000    0.245    0.523  111.332    3.898
  238.250    0.235    0.485  113.804    3.689
  238.500    0.231    0.472  113.177    3.557
  238.750    0.230    0.469  109.452    3.493
  239.000    0.221    0.477  113.165    3.496
  239.250    0.236    0.544  116.256    3.699
  239.500    0.232    0.564  114.389    4.140
  239.750    0.221    0.506  108.185    4.633
  240.000    0.246    0.476  102.600    4.812
  240.250    0.264    0.460   98.876    4.815
  240.500    0.239    0.470  108.785    4.474
  240.750    0.231    0.467  113.118    4.155
  241.000    0.230    0.456  116.207    3.860
  241.250    0.208    0.435  116.823    3.722
  241.500    0.231    0.426  119.295    3.656
  241.750    0.226    0.433  113.091    3.658
  242.000    0.220    0.451  116.183    3.661
  242.250    0.212    0.465  111.837    3.734
  242.500    0.217    0.481  110.591    3.735
  242.750    0.228    0.498  108.725    3.669
  243.000    0.260    0.481  105.000    3.604
  243.250    0.280    0.462  111.190    3.475
  243.500    0.272    0.475  108.086    3.350
  243.750    0.261    0.472  111.174    3.291
  244.000    0.256    0.465  113.649    3.356
  244.250    0.277    0.471  117.981    3.685
  244.500    0.263    0.564  113.017    4.787
  244.750    0.249    0.549  103.713    5.559
  245.000    0.267    0.549   90.071    7.087
  245.250    0.285    0.498   78.288    8.231
  245.500    0.289    0.405   76.422    8.875
  245.750    0.295    0.423   77.034    8.881
  246.000    0.290    0.460   83.226    8.097
  246.250    0.257    0.414   91.897    7.383
  246.500    0.235    0.378   96.847    6.733
  246.750    0.219    0.387   97.460    6.490
  247.000    0.223    0.433   98.695    6.618
  247.250    0.241    0.457   95.588    6.748
  247.500    0.245    0.443   90.624    7.008
  247.750    0.229    0.439   91.234    7.280
  248.000    0.222    0.446   90.610    7.151
  248.250    0.216    0.421   96.802    6.893
  248.500    0.216    0.436   99.894    6.648
  248.750    0.223    0.485   92.449    6.652
  249.000    0.239    0.502   89.964    6.912
  249.250    0.239    0.505   89.337    7.044
  249.500    0.262    0.476   90.570    7.455
  249.750    0.239    0.455   89.943    8.039
  250.000    0.227    0.481   84.979    8.348
  250.250    0.234    0.463   84.352    8.512
  250.500    0.253    0.408   85.585    8.519
  250.750    0.253    0.393   89.916    8.368
  251.000    0.226    0.408   88.670    8.220
  251.250    0.217    0.410   89.284    7.924
  251.500    0.222    0.394   92.995    7.224
  251.750    0.234    0.383   95.466    6.588
  252.000    0.243    0.416   97.941    5.897
  252.250    0.216    0.440   99.792    5.684
  252.500    0.222    0.441   97.307    4.721
  252.750    0.258    0.441  101.019    3.779
  253.000    0.239    0.479  107.210    3.382
  253.250    0.233    0.473  112.782    3.323
  253.500    0.252    0.468  110.917    3.388
  253.750    0.243    0.498   99.752    3.519
  254.000    0.244    0.561   95.406    3.723
  254.250    0.283    0.580   89.203    4.089
  254.500    0.292    0.462   78.660    4.839
  254.750    0.294    0.441   74.935    5.943
  255.000    0.314    0.442   71.828    7.720
  255.250    0.312    0.467   74.301    9.134
  255.500    0.309    0.452   78.633   10.033
  255.750    0.308    0.441   71.808   10.230
  256.000    0.302    0.422   76.141    9.863
  256.250    0.304    0.436   78.612    9.688
  256.500    0.296    0.451   74.886    9.879
  256.750    0.298    0.420   75.500    9.884
  257.000    0.308    0.401   71.774    9.892
  257.250    0.302    0.413   69.288   10.665
  257.500    0.309    0.471   68.663   13.100
  257.750    0.303    0.491   69.895   14.932
  258.000    0.256    0.227   55.634   17.344
  258.250    0.015    0.147   44.470   18.354
  258.500    0.025    0.159   45.703   17.051
  258.750    0.131    0.209   61.191   14.431
  259.000    0.171    0.257   88.456   12.212
  259.250    0.203    0.325   93.407   10.145
  259.500    0.259    0.522   94.019    8.587
  259.750    0.279    0.572   90.294    8.280
  260.000    0.259    0.548   89.049    8.284
  260.250    0.239    0.422   95.240    8.447
  260.500    0.253    0.394   98.333    8.613
  260.750    0.259    0.417   92.746    8.618
  261.000    0.253    0.448   95.840    8.624
  261.250    0.258    0.499  100.172    8.472
  261.500    0.252    0.538   93.968    8.322
  261.750    0.258    0.472   93.340    8.024
  262.000    0.248    0.426   90.233    7.737
  262.250    0.250    0.412   93.327    7.599
  262.500    0.237    0.433  103.236    7.464
  262.750    0.219    0.464  101.990    7.469
  263.000    0.224    0.434  100.125    7.337
  263.250    0.244    0.418  101.978    7.342
  263.500    0.239    0.459  100.730    7.214
  263.750    0.230    0.486   92.666    7.217
  264.000    0.234    0.437   98.238    6.960
  264.250    0.245    0.351   98.850    6.836
  264.500    0.234    0.328  103.183    6.469
  264.750    0.233    0.368  106.275    6.123
  265.000    0.225    0.451  111.847    5.903
  265.250    0.225    0.508  112.460    5.691
  265.500    0.221    0.514   99.438    5.189
  265.750    0.218    0.474  103.149    4.558
  266.000    0.247    0.390  108.720    3.786
  266.250    0.256    0.379  112.434    3.265
  266.500    0.267    0.420  113.665    2.763
  266.750    0.271    0.485  111.180    2.567
  267.000    0.270    0.571  107.454    2.521
  267.250    0.270    0.521  106.209    2.523
