~VERSION INFORMATION
 VERS.                 2.0:   CWLS LOG ASCII STANDARD -VERSION 2.0
 WRAP.                  NO:   ONE LINE PER DEPTH STEP
~WELL INFORMATION BLOCK
#MNEM.UNIT           DATA                    DESCRIPTION OF MNEMONIC
#---------    -------------------            -------------------------------
# Generated from Intellog Unique Number	CS_71_72/WELL/865
WELL.         ALLIED ET AL WANDER            : Well_name    - WELL
LOC .         00/10-20-072-14W4/0            : Location     - LOCATION
UWI .         00/10-20-072-14W4/0            : Uwi          - UNIQUE WELL ID
ENTR.         SP                             : Entered      - ENTERED BY
SRVC.         SCHLUMBERGER                   : Scn          - SERVICE COMPANY
STRT.M        265.176                        : top_depth    - START DEPTH
STOP.M        487.426                        : bot_depth    - STOP DEPTH
STEP.M        0.25                           : increment    - STEP LENGTH
 NULL. -999.2500:NULL Value
~CURVE INFORMATION BLOCK
#MNEM UNIT       ERCB CURVE CODE    CURVE DESCRIPTION
#-----------   ------------------   ----------------------------------
DEPT.M        00 001 00 00         : DEPTH        - DEPTH
GR  .API      00 310 00 00         : GR           - GAMMA RAY
DPHI.V/V      00 890 00 00         : PHID         - DENSITY POROSITY (SANDSTONE)
NPHI.V/V      00 330 00 00         : PHIN         - NEUTRON POROSITY (SANDSTONE)
ILD .OHMM     00 120 00 00         : RESD         - DEEP RESISTIVITY (DIL)
~PARAMETER INFORMATION
#MNEM.UNIT           DATA             DESCRIPTION OF MNEMONIC
#---------         -----------     ------------------------------
GL  .M        606.095              : gl           - GROUND LEVEL ELEVATION
EREF.M        609.143              : kb           - ELEVATION OF DEPTH REFERENCE
DATM.M        606.095              : datum        - DATUM ELEVATION
TDD .M        534.924              : tdd          - TOTAL DEPTH DRILLER
RUN .         ONE                  : Run          - RUN NUMBER
ENG .         BILL                 : Engineer     - RECORDING ENGINEER
WIT .         JIM                  : Witness      - WITNESSED BY
MUD .         GEL                  : Mud_type     - MUD TYPE
MATR.         SANDSTONE            : Logunit      - NEUTRON MATRIX
TMAX.C        30.5556              : BHT          - MAXIMUM RECORDED TEMPERATURE
BHTD.M        534.924              : BHTDEP       - MAXIMUM RECORDED TEMPERATURE
MATR.         1                    : LOGUNIT      - NEUTRON MATRIX
RMT .C        25                   : MDTP         - TEMPERATURE OF MUD
NEUT.         1                    : NEUTRON      - NEUTRON TYPE
RESI.         0                    : RESIST       - RESISTIVITY TYPE
RMC .OHMM     0.25                 : RMC          - RESISTIVITY OF MUD CAKE
RMF .OHMM     0.25                 : RMF          - RESISTIVITY OF MUD FILTRATE
SUFT.C        15                   : SUFT         - SURFACE TEMPERATURE
~A  DEPTH       GR     PHID     PHIN     RESD
# ...
  439.176  113.510    0.183    0.475    3.388
  439.426  110.460    0.196    0.480    3.516
  439.676  107.749    0.195    0.471    3.647
  439.926  105.388    0.172    0.457    3.827
  440.176  106.238    0.147    0.447    3.983
  440.426  108.150    0.122    0.436    4.113
  440.676  111.153    0.161    0.441    4.180
  440.926  112.693    0.181    0.471    3.951
  441.176  113.648    0.169    0.483    3.968
  441.426  113.497    0.186    0.490    3.834
  441.676  112.486    0.173    0.470    3.895
  441.926  111.913    0.147    0.454    4.168
  442.176  111.699    0.157    0.444    4.360
  442.426  111.350    0.187    0.433    4.678
  442.676  108.178    0.204    0.425    4.968
  442.926  105.758    0.188    0.433    5.201
  443.176  103.764    0.131    0.417    5.388
  443.426  106.249    0.089    0.390    5.087
  443.676  114.195    0.155    0.391    4.823
  443.926  121.166    0.192    0.461    4.393
  444.176  124.740    0.203    0.476    4.128
  444.426  126.020    0.213    0.483    3.776
  444.676  126.792    0.209    0.494    3.558
  444.926  122.143    0.205    0.502    3.864
  445.176  114.103    0.198    0.483    4.717
  445.426  104.891    0.183    0.424    5.828
  445.676   96.809    0.123    0.399    7.235
  445.926   97.701    0.083    0.372    8.072
  446.176   99.808    0.076    0.377    8.851
  446.426   93.493    0.111    0.388    9.624
  446.676   80.993    0.134    0.384   10.186
  446.926   77.176    0.135    0.348   11.042
  447.176   72.788    0.108    0.292   12.754
  447.426   70.127    0.157    0.299   15.570
  447.676   75.401    0.213    0.328   17.105
  447.926   80.351    0.210    0.348   16.711
  448.176   89.020    0.192    0.367   15.381
  448.426   96.399    0.175    0.372   14.347
  448.676  100.856    0.179    0.393   13.701
  448.926  101.079    0.202    0.400   14.247
  449.176   93.058    0.224    0.391   15.919
  449.426   85.478    0.257    0.393   22.839
  449.676   85.534    0.292    0.396   31.097
  449.926   88.653    0.269    0.399   37.194
  450.176   92.332    0.247    0.390   35.433
  450.426   92.403    0.215    0.386   29.906
  450.676   93.286    0.191    0.383   23.394
  450.926   98.347    0.164    0.370   17.973
  451.176  103.698    0.143    0.358   14.469
  451.426  107.632    0.103    0.344   12.832
  451.676  111.621    0.137    0.343   11.296
  451.926  112.560    0.168    0.343   10.242
  452.176  115.194    0.207    0.360    9.575
  452.426  117.276    0.193    0.378    9.074
  452.676  122.178    0.183    0.392    8.622
  452.926  123.068    0.183    0.403    8.238
  453.176  118.614    0.189    0.407    7.956
  453.426  114.097    0.216    0.417    8.143
  453.676  110.340    0.204    0.423    9.271
  453.926  103.082    0.208    0.392   10.938
  454.176   98.597    0.243    0.370   12.745
  454.426   90.609    0.232    0.357   15.558
  454.676   87.587    0.235    0.350   17.186
  454.926   85.983    0.226    0.350   18.157
  455.176   86.063    0.216    0.362   18.817
  455.426   85.340    0.217    0.375   19.120
  455.676   85.414    0.221    0.378   19.167
  455.926   85.654    0.226    0.371   18.800
  456.176   87.292    0.224    0.364   17.656
  456.426   87.731    0.213    0.355   16.621
  456.676   88.717    0.206    0.357   15.811
  456.926   89.663    0.194    0.366   15.193
  457.176   89.606    0.184    0.370   14.602
  457.426   89.241    0.184    0.372   14.272
  457.676   87.242    0.202    0.364   14.257
  457.926   90.430    0.202    0.370   14.793
  458.176   88.966    0.186    0.366   15.324
  458.426   86.065    0.176    0.357   15.589
  458.676   83.629    0.174    0.353   15.484
  458.926   91.680    0.200    0.361   15.287
  459.176   96.079    0.204    0.358   14.214
  459.426   99.753    0.180    0.353   13.364
  459.676  101.845    0.169    0.356   12.322
  459.926  101.733    0.166    0.361   11.692
  460.176  101.676    0.173    0.367   11.027
  460.426  101.661    0.180    0.371   10.476
  460.676  101.718    0.182    0.378   10.335
  460.926  100.876    0.182    0.380   10.450
  461.176   98.568    0.182    0.383   10.667
  461.426   94.348    0.182    0.386   10.902
  461.676   93.686    0.181    0.385   11.187
  461.926   97.457    0.176    0.387   11.449
  462.176   99.222    0.182    0.393   11.630
  462.426   98.675    0.223    0.387   11.515
  462.676   95.436    0.212    0.379   11.313
  462.926   93.249    0.207    0.379   11.073
  463.176   92.675    0.192    0.386   11.275
  463.426   90.139    0.193    0.380   11.807
  463.676   89.071    0.210    0.366   12.146
  463.926   94.387    0.201    0.354   11.571
  464.176   99.599    0.194    0.346   11.260
  464.426  101.020    0.189    0.365   10.874
  464.676  101.182    0.179    0.374   10.572
  464.926  102.211    0.174    0.379   10.232
  465.176  102.378    0.173    0.383   10.021
  465.426  101.874    0.174    0.373   10.173
  465.676   99.276    0.167    0.376   10.346
  465.926   96.441    0.161    0.372   10.494
  466.176   94.964    0.167    0.365   10.556
  466.426   98.516    0.166    0.364   10.623
  466.676  102.062    0.162    0.370   10.482
  466.926  103.908    0.155    0.361   10.294
  467.176  105.495    0.150    0.352   10.085
  467.426  106.096    0.166    0.344   10.007
  467.676  109.435    0.155    0.352    9.923
  467.926  113.048    0.169    0.367   10.037
  468.176  114.457    0.171    0.389   10.245
  468.426  106.921    0.173    0.395   10.869
  468.676  102.144    0.197    0.372   11.466
  468.926   96.275    0.190    0.345   12.646
  469.176   89.453    0.174    0.325   13.416
  469.426   84.545    0.167    0.295   14.471
  469.676   85.593    0.150    0.308   15.582
  469.926   79.433    0.133    0.320   16.594
  470.176   75.447    0.150    0.327   17.680
  470.426   73.116    0.176    0.321   18.749
  470.676   71.476    0.203    0.317   19.838
  470.926   73.255    0.215    0.318   20.406
  471.176   75.749    0.222    0.324   20.010
  471.426   80.064    0.207    0.334   18.910
  471.676   84.528    0.143    0.347   17.581
  471.926   86.520    0.143    0.345   16.573
  472.176   77.201    0.159    0.333   15.774
  472.426   68.568    0.162    0.315   15.589
  472.676   62.724    0.183    0.307   18.810
  472.926   59.381    0.217    0.300   20.616
  473.176   56.861    0.250    0.294   26.657
  473.426   56.887    0.257    0.291   27.480
  473.676   55.773    0.239    0.281   26.965
  473.926   49.089    0.228    0.270   26.729
  474.176   44.789    0.251    0.262   30.113
  474.426   41.077    0.278    0.242   35.573
  474.676   37.820    0.309    0.218   42.416
  474.926   35.205    0.354    0.195   48.606
  475.176   37.360    0.340    0.178   55.108
  475.426   37.952    0.323    0.172   60.404
  475.676   34.881    0.317    0.178   64.633
  475.926   32.437    0.352    0.170   67.201
  476.176   30.914    0.378    0.159   68.146
  476.426   34.096    0.395    0.146   68.033
  476.676   35.319    0.405    0.133   62.514
  476.926   37.942    0.409    0.130   50.138
  477.176   41.172    0.400    0.153   36.062
  477.426   54.138    0.352    0.167   28.251
  477.676   60.293    0.316    0.187   18.999
  477.926   53.174    0.276    0.228   14.958
  478.176   47.280    0.218    0.521   10.873
  478.426   37.782    0.180    0.482   12.024
  478.676   19.520    0.147    0.448   17.377
  478.926   15.720    0.097    0.389   26.903
  479.176   13.604    0.053    0.345   48.921
  479.426   14.213    0.038    0.295  122.576
  479.676   14.535    0.046    0.280  155.256
  479.926   14.899    0.052    0.295  153.303
  480.176   14.509    0.055    0.299  152.201
  480.426   13.506    0.056    0.300  149.513
  480.676   12.527    0.053    0.330  132.922
  480.926   11.866    0.116    0.357  123.115
  481.176   12.857    0.133    0.385  112.854
  481.426   14.307    0.127    0.376  108.177
  481.676   15.214    0.088    0.316  109.405
  481.926   15.472    0.075    0.317  118.571
  482.176   15.540    0.074    0.318  129.342
  482.426   15.862    0.063    0.315  141.351
