~VERSION INFORMATION
 VERS.                 2.0:   CWLS LOG ASCII STANDARD -VERSION 2.0
 WRAP.                  NO:   ONE LINE PER DEPTH STEP
~WELL INFORMATION BLOCK
#MNEM.UNIT           DATA                    DESCRIPTION OF MNEMONIC
#---------    -------------------            -------------------------------
# Generated from Intellog Unique Number	CS_67_68/WELL/2194
WELL.         DOME CDA ATMORE                : Well_name    - WELL
LOC .         00/10-08-067-17W4/0            : Location     - LOCATION
UWI .         00/10-08-067-17W4/0            : Uwi          - UNIQUE WELL ID
ENTR.         SP                             : Entered      - ENTERED BY
SRVC.         SCHLUMBERGER                   : Scn          - SERVICE COMPANY
STRT.M        380                            : top_depth    - START DEPTH
STOP.M        535                            : bot_depth    - STOP DEPTH
STEP.M        0.25                           : increment    - STEP LENGTH
 NULL. -999.2500:NULL Value
~CURVE INFORMATION BLOCK
#MNEM UNIT       ERCB CURVE CODE    CURVE DESCRIPTION
#-----------   ------------------   ----------------------------------
DEPT.M        00 001 00 00         : DEPTH        - DEPTH
ILD .OHMM     00 120 00 00         : RESD         - DEEP RESISTIVITY (DIL)
DPHI.V/V      00 890 00 00         : PHID         - DENSITY POROSITY (LIMESTONE)
NPHI.V/V      00 330 00 00         : PHIN         - NEUTRON POROSITY (LIMESTONE)
GR  .API      00 310 00 00         : GR           - GAMMA RAY
CALI.MM       00 280 01 00         : CAL          - CALIPER
~PARAMETER INFORMATION
#MNEM.UNIT           DATA             DESCRIPTION OF MNEMONIC
#---------         -----------     ------------------------------
GL  .M        606.1                : gl           - GROUND LEVEL ELEVATION
EREF.M        610                  : kb           - ELEVATION OF DEPTH REFERENCE
DATM.M        610                  : datum        - DATUM ELEVATION
TDD .M        582                  : tdd          - TOTAL DEPTH DRILLER
RUN .         ONE                  : Run          - RUN NUMBER
ENG .         BILL                 : Engineer     - RECORDING ENGINEER
WIT .         JIM                  : Witness      - WITNESSED BY
MUD .         GEL                  : Mud_type     - MUD TYPE
MATR.         LIMESTONE            : Logunit      - NEUTRON MATRIX
TMAX.C        22                   : BHT          - MAXIMUM RECORDED TEMPERATURE
BHTD.M        578.1                : BHTDEP       - MAXIMUM RECORDED TEMPERATURE
MATR.         1                    : LOGUNIT      - NEUTRON MATRIX
RMT .C        25                   : MDTP         - TEMPERATURE OF MUD
NEUT.         1                    : NEUTRON      - NEUTRON TYPE
RESI.         0                    : RESIST       - RESISTIVITY TYPE
RMC .OHMM     0.25                 : RMC          - RESISTIVITY OF MUD CAKE
RMF .OHMM     0.25                 : RMF          - RESISTIVITY OF MUD FILTRATE
SUFT.C        15                   : SUFT         - SURFACE TEMPERATURE
~A  DEPTH     RESD     PHID     PHIN       GR      CAL
  380.000    2.733    0.199    0.486  109.211  192.078
  380.250    2.931    0.161    0.450  106.847  188.855
  380.500    2.998    0.135    0.448  106.188  188.061
  380.750    2.999    0.126    0.466  113.056  188.681
  381.000    2.852    0.188    0.474  113.732  191.631
  381.250    2.657    0.193    0.477  112.892  194.378
  381.500    2.462    0.198    0.486  111.323  194.697
  381.750    2.341    0.204    0.474  112.242  194.104
  382.000    2.329    0.211    0.467  108.670  193.510
  382.250    2.428    0.215    0.462  105.582  193.728
  382.500    2.488    0.200    0.473  103.770  194.856
  382.750    2.575    0.191    0.485  102.503  195.174
  383.000    2.664    0.191    0.496  110.647  195.187
  383.250    2.690    0.201    0.484  108.653  194.191
  383.500    2.646    0.202    0.473  108.418  194.914
  383.750    2.612    0.192    0.468  109.762  196.952
  384.000    2.598    0.208    0.496  109.771  197.373
  384.250    2.639    0.215    0.486  107.170  195.666
  384.500    2.684    0.221    0.466  109.243  193.657
  384.750    2.721    0.226    0.475  105.852  191.243
  385.000    2.722    0.211    0.481  103.130  189.133
  385.250    2.697    0.199    0.488  103.381  190.564
  385.500    2.673    0.190    0.503  108.610  192.908
  385.750    2.600    0.213    0.493  104.977  193.428
  386.000    2.491    0.203    0.458  102.133  193.846
  386.250    2.360    0.176    0.490  101.474  197.910
  386.500    2.300    0.169    0.515  104.093  201.463
  386.750    2.489    0.273    0.537  108.047  205.323
  387.000    2.694    0.277    0.439  101.501  196.333
  387.250    2.808    0.259    0.412   92.343  183.094
  387.500    2.747    0.231    0.393   84.156  166.212
  387.750    2.612    0.240    0.398   89.811  155.908
  388.000    2.550    0.282    0.393   95.889  149.650
  388.250    2.614    0.255    0.388   98.448  154.319
  388.500    2.709    0.234    0.384  104.588  157.166
  388.750    2.883    0.220    0.396  110.060  159.812
  389.000    3.074    0.214    0.413  113.407  161.850
  389.250    3.466    0.293    0.425   99.454  162.167
  389.500    4.104    0.314    0.449   86.958  160.766
  389.750    4.663    0.329    0.469   73.795  159.566
  390.000    5.258    0.307    0.357   51.100  158.670
  390.250    5.744    0.262    0.344   50.320  157.877
  390.500    6.101    0.241    0.355   70.057  157.587
  390.750    6.080    0.271    0.383   77.229  158.209
  391.000    5.837    0.313    0.415   62.002  158.731
  391.250    5.667    0.321    0.401   49.748  159.250
  391.500    5.808    0.321    0.389   44.658  159.669
  391.750    5.734    0.322    0.387   42.421  159.887
  392.000    5.263    0.315    0.380   46.132  159.698
  392.250    4.697    0.307    0.372   56.157  155.868
  392.500    4.335    0.296    0.386   63.269  155.883
  392.750    4.031    0.287    0.407   63.763  156.910
  393.000    3.741    0.245    0.390   84.714  157.734
  393.250    3.466    0.211    0.380   92.493  158.861
  393.500    3.290    0.190    0.376   96.083  160.394
  393.750    3.218    0.200    0.398   92.510  162.128
  394.000    3.250    0.210    0.413   90.031  163.863
  394.250    3.306    0.207    0.399   95.565  166.003
  394.500    3.376    0.199    0.390   98.425  168.343
  394.750    3.486    0.199    0.400   97.889  170.686
  395.000    3.580    0.202    0.379   96.136  172.118
  395.250    3.608    0.235    0.363   93.657  172.131
  395.500    3.610    0.287    0.384   90.023  170.123
  395.750    3.611    0.289    0.476   87.179  168.417
  396.000    3.572    0.261    0.459   97.750  166.915
  396.250    3.533    0.243    0.436  102.189  166.626
  396.500    3.475    0.233    0.443  100.438  166.640
  396.750    3.406    0.235    0.457   95.469  165.542
  397.000    3.306    0.228    0.445   92.443  164.038
  397.250    3.168    0.221    0.435   90.327  162.133
  397.500    3.145    0.222    0.433   95.193  160.528
  397.750    3.279    0.222    0.443   90.406  160.543
  398.000    3.437    0.221    0.305   79.428  162.073
  398.250    3.671    0.175    0.288   73.365  162.999
  398.500    3.820    0.112    0.277   70.217  163.520
  398.750    3.750    0.099    0.376   75.811  162.422
  399.000    3.347    0.229    0.414   82.984  159.908
  399.250    3.009    0.264    0.437   86.027  158.101
  399.500    2.710    0.277    0.439   86.885  156.700
  399.750    2.544    0.271    0.434   88.048  156.713
  400.000    2.498    0.264    0.428   88.481  157.436
  400.250    2.522    0.259    0.420   87.397  158.566
  400.500    2.561    0.249    0.420   90.684  159.591
  400.750    2.620    0.239    0.424   90.571  159.808
  401.000    2.587    0.250    0.427   87.608  159.720
  401.250    2.530    0.269    0.424   86.826  159.533
  401.500    2.498    0.278    0.422   87.259  159.649
  401.750    2.643    0.269    0.417   89.757  159.969
  402.000    2.823    0.247    0.413   94.683  160.184
  402.250    3.010    0.230    0.411   98.516  160.401
  402.500    3.191    0.219    0.416  101.742  160.923
  402.750    3.364    0.213    0.430  103.694  161.444
  403.000    3.435    0.218    0.446   99.453  161.660
  403.250    3.436    0.207    0.434   94.243  161.674
  403.500    3.399    0.202    0.426   91.458  161.893
  403.750    3.331    0.209    0.421   94.077  162.110
  404.000    3.320    0.200    0.416  104.345  162.124
  404.250    3.327    0.192    0.418  107.874  162.340
  404.500    3.430    0.192    0.430  101.327  161.949
  404.750    3.528    0.206    0.441  105.403  161.661
  405.000    3.590    0.217    0.437  102.619  161.676
  405.250    3.564    0.195    0.429   98.804  162.499
  405.500    3.480    0.175    0.427   98.145  164.234
  405.750    3.397    0.145    0.430  107.259  168.599
  406.000    3.360    0.182    0.444  118.741  174.381
  406.250    3.374    0.205    0.462  128.340  179.150
  406.500    3.458    0.222    0.447  136.301  180.682
  406.750    3.572    0.224    0.410  139.103  177.966
  407.000    3.744    0.212    0.384  132.313  173.933
  407.250    3.925    0.221    0.391  125.462  170.508
  407.500    4.068    0.226    0.408  119.523  168.904
  407.750    4.186    0.223    0.410  115.038  168.009
  408.000    4.234    0.212    0.401  112.984  167.112
  408.250    4.276    0.204    0.399  113.174  166.823
  408.500    4.301    0.201    0.398  112.151  166.636
  408.750    4.319    0.205    0.398  108.032  166.854
  409.000    4.288    0.209    0.393  110.166  167.172
  409.250    4.226    0.209    0.395  109.749  167.793
  409.500    4.126    0.208    0.403  107.817  168.516
  409.750    4.043    0.206    0.419  107.400  169.137
  410.000    3.925    0.202    0.436  111.051  169.660
  410.250    3.789    0.202    0.424  114.156  170.079
  410.500    3.644    0.200    0.400  118.110  170.396
  410.750    3.499    0.216    0.431  123.157  170.613
  411.000    3.467    0.229    0.453  128.690  172.449
  411.250    3.462    0.232    0.428  132.402  171.756
  411.500    3.457    0.223    0.413  133.564  168.231
  411.750    3.490    0.242    0.409  129.384  166.017
  412.000    3.537    0.249    0.401  124.780  165.324
  412.250    3.619    0.225    0.394  121.571  167.669
  412.500    3.752    0.202    0.389  123.706  169.197
  412.750    3.810    0.188    0.390  124.625  171.135
  413.000    3.782    0.176    0.396  124.208  172.768
  413.250    3.700    0.169    0.401  122.577  175.008
  413.500    3.545    0.164    0.421  124.893  178.161
  413.750    3.334    0.179    0.453  125.752  180.501
  414.000    3.071    0.192    0.480  124.912  180.819
  414.250    2.840    0.208    0.465  124.919  177.596
  414.500    2.762    0.218    0.448  124.867  173.667
  414.750    2.758    0.224    0.452  117.895  171.151
  415.000    2.769    0.236    0.445  110.437  169.244
  415.250    2.791    0.231    0.444  105.408  167.134
  415.500    2.802    0.205    0.434  100.926  166.034
  415.750    2.814    0.207    0.431   98.931  165.443
  416.000    2.831    0.222    0.425   98.940  164.850
  416.250    2.858    0.205    0.437   97.248  164.157
