~VERSION INFORMATION
 VERS.                 2.0:   CWLS LOG ASCII STANDARD -VERSION 2.0
 WRAP.                  NO:   ONE LINE PER DEPTH STEP
~WELL INFORMATION BLOCK
#MNEM.UNIT           DATA                    DESCRIPTION OF MNEMONIC
#---------    -------------------            -------------------------------
# Generated from Intellog Unique Number	CW_76_78/WELL/927
WELL.         10-31-077-03W5                 : Well_name    - WELL
LOC .         00/10-31-077-03W5/0            : Location     - LOCATION
UWI .         00/10-31-077-03W5/0            : Uwi          - UNIQUE WELL ID
ENTR.         JAYE                           : Entered      - ENTERED BY
SRVC.         SCHLUMBERGER                   : Scn          - SERVICE COMPANY
DATE.         7 DEC 73                       : Date         - LOG DATE
STRT.M        362.712                        : top_depth    - START DEPTH
STOP.M        641.962                        : bot_depth    - STOP DEPTH
STEP.M        0.25                           : increment    - STEP LENGTH
 NULL. -999.2500:NULL Value
~CURVE INFORMATION BLOCK
#MNEM UNIT       ERCB CURVE CODE    CURVE DESCRIPTION
#-----------   ------------------   ----------------------------------
DEPT.M        00 001 00 00         : DEPTH        - DEPTH
GR  .API      00 310 00 00         : GR           - GAMMA RAY
CALI.MM       00 280 01 00         : CAL          - CALIPER
DPHI.V/V      00 890 00 00         : PHID         - DENSITY POROSITY (SANDSTONE)
NPHI.V/V      00 330 00 00         : PHIN         - NEUTRON POROSITY (SANDSTONE)
ILD .OHMM     00 120 00 00         : RESD         - DEEP RESISTIVITY (DLL)
~PARAMETER INFORMATION
#MNEM.UNIT           DATA             DESCRIPTION OF MNEMONIC
#---------         -----------     ------------------------------
GL  .M        680.923              : gl           - GROUND LEVEL ELEVATION
EREF.M        683.971              : kb           - ELEVATION OF DEPTH REFERENCE
DATM.M        680.923              : datum        - DATUM ELEVATION
TDD .M        649.529              : tdd          - TOTAL DEPTH DRILLER
RUN .         ONE                  : Run          - RUN NUMBER
MATR.         SANDSTONE            : Logunit      - NEUTRON MATRIX
TMAX.C        35                   : BHT          - MAXIMUM RECORDED TEMPERATURE
BHTD.M        649.529              : BHTDEP       - MAXIMUM RECORDED TEMPERATURE
RMT .C        -3.88889             : MDTP         - TEMPERATURE OF MUD
MUDD.KG/M     0                    : MWT          - MUD DENSITY
NEUT.         0                    : NEUTRON      - NEUTRON TYPE
RESI.         1                    : RESIST       - RESISTIVITY TYPE
RM  .OHMM     1.65                 : RM           - RESISTIVITY OF MUD
RMC .OHMM     0.25                 : RMC          - RESISTIVITY OF MUD CAKE
RMF .OHMM     7.25                 : RMF          - RESISTIVITY OF MUD FILTRATE
SUFT.C        4.5                  : SUFT         - SURFACE TEMPERATURE
~A  DEPTH       GR      CAL     PHID     PHIN     RESD
# ...
  618.212   98.638  160.175    0.083    0.436    4.969
  618.462   92.267  160.809    0.046    0.405    5.340
  618.712   87.674  160.821    0.014    0.338    5.501
  618.962   93.322  160.830    0.158    0.375    5.514
  619.212   97.069  160.218    0.200    0.367    5.517
  619.462   99.529  159.606    0.200    0.346    5.530
  619.712  102.786  159.824    0.175    0.377    5.636
  619.962  107.453  160.459    0.174    0.409    5.678
  620.212  112.426  161.301    0.166    0.431    5.694
  620.462  115.377  161.831    0.176    0.448    5.748
  620.712  114.648  162.050    0.142    0.465    5.784
  620.962  113.734  162.372    0.119    0.461    5.839
  621.212  112.391  162.279    0.127    0.449    6.173
  621.462  109.515  161.356    0.195    0.412    6.921
  621.712   97.134  159.705    0.210    0.400    8.077
  621.962   86.409  160.028    0.225    0.406    8.569
  622.212   89.973  161.182    0.205    0.399    8.480
  622.462   95.804  161.399    0.184    0.380    8.453
  622.712   99.000  161.722    0.182    0.344    8.630
  622.962   95.572  162.044    0.161    0.297    9.223
  623.212   91.413  162.055    0.127    0.293   10.039
  623.462   92.273  162.067    0.116    0.323    9.916
  623.712   97.002  162.077    0.127    0.343    9.672
  623.962  105.287  161.778    0.153    0.375    9.076
  624.212  111.856  161.372    0.183    0.397    8.468
  624.462  111.862  160.865    0.240    0.445    8.108
  624.712   94.513  160.460    0.209    0.515    7.951
  624.962   86.977  160.367    0.179    0.509    7.826
  625.212   92.135  161.002    0.240    0.496    7.659
  625.462  101.647  161.531    0.277    0.491    7.677
  625.712   97.545  161.854    0.326    0.483    7.752
  625.962   95.037  161.864    0.347    0.449    7.547
  626.212   89.279  161.875    0.352    0.389    7.252
  626.462   88.795  161.886    0.342    0.377    6.818
  626.712   98.613  161.586    0.350    0.402    6.224
  626.962  103.709  161.181    0.410    0.422    5.894
  627.212  105.126  160.570    0.390    0.442    5.634
  627.462   97.957  160.372    0.370    0.464    5.413
  627.712   93.181  160.592    0.403    0.473    5.270
  627.962   91.287  160.913    0.390    0.470    5.215
  628.212   91.599  161.237    0.389    0.471    5.452
  628.462   94.243  161.143    0.381    0.469    5.914
  628.712   97.867  161.361    0.354    0.461    6.497
  628.962  101.860  161.996    0.339    0.466    6.767
  629.212  105.117  162.423    0.327    0.459    6.796
  629.462  110.459  162.745    0.320    0.431    6.688
  629.712  111.140  162.755    0.317    0.435    6.463
  629.962  113.231  163.182    0.305    0.432    5.814
  630.212  112.562  163.401    0.300    0.429    5.089
  630.462  118.027  163.205    0.303    0.430    4.503
  630.712  125.086  163.214    0.294    0.474    4.014
  630.962  127.177  163.227    0.312    0.549    3.980
  631.212  136.137  163.236    0.311    0.558    4.300
  631.462  136.879  163.145    0.301    0.521    4.865
  631.712  143.877  163.154    0.333    0.506    5.257
  631.962  151.917  163.167    0.327    0.494    5.567
  632.212  152.352  163.176    0.316    0.486    5.632
  632.462  152.359  164.330    0.296    0.535    5.666
  632.712  149.545  166.106    0.282    0.553    5.805
  632.962  144.400  167.363    0.291    0.576    6.126
  633.212  138.948  168.102    0.327    0.586    6.657
  633.462  135.521  166.451    0.344    0.516    6.167
  633.712  134.362  165.527    0.341    0.491    5.528
  633.962  117.995  165.330    0.338    0.480    5.074
  634.212  121.435  165.965    0.339    0.537    4.666
  634.462  130.518  166.806    0.351    0.724    4.099
  634.712  139.723  167.752    0.355    0.680    3.634
  634.962  145.433  166.724    0.343    0.687    3.461
  635.212  143.232  165.385    0.332    0.675    3.482
  635.462  142.134  163.215    0.323    0.652    3.522
  635.712  140.239  162.501    0.309    0.639    3.750
  635.962  141.779  162.614    0.301    0.674    4.016
  636.212  144.607  162.522    0.334    0.664    4.175
  636.462  136.395  162.324    0.329    0.647    4.169
  636.712  132.845  162.960    0.305    0.640    4.164
  636.962  134.630  163.489    0.292    0.611    4.212
  637.212  132.797  163.812    0.276    0.553    4.324
  637.462  122.072  163.926    0.278    0.506    4.423
  637.712  107.606  164.041    0.303    0.453    4.718
  637.962   83.634  164.259    0.330    0.456    5.184
  638.212   79.716  163.543    0.366    0.491    5.832
  638.462   75.920  160.128    0.373    0.508    6.466
  638.712   70.224  156.504    0.350    0.501    6.625
  638.962   59.253  155.995    0.329    0.406    6.664
  639.212   46.443  157.980    0.295    0.375    6.681
  639.462   25.967  159.446    0.249    0.397    6.720
  639.712   39.342  159.872    0.328    0.485    6.812
  639.962   47.689  160.193    0.341    0.513    6.967
  640.212   43.402  161.346    0.328    0.498    7.100
  640.462   22.865  162.604    0.317    0.549    7.383
  640.712   21.646  163.445    0.318    0.524    7.977
  640.962   23.062  163.352    0.252    0.419    8.605
  641.212   20.064  162.533    0.254    0.414    9.298
  641.462   20.561  162.128    0.277    0.440    9.866
  641.712   20.997  161.101    0.247    0.412   10.719
  641.962   14.196  159.554    0.225    0.405   11.820
