~VERSION INFORMATION
 VERS.                 2.0:   CWLS LOG ASCII STANDARD -VERSION 2.0
 WRAP.                  NO:   ONE LINE PER DEPTH STEP
~WELL INFORMATION BLOCK
#MNEM.UNIT           DATA                    DESCRIPTION OF MNEMONIC
#---------    -------------------            -------------------------------
# Generated from Intellog Unique Number	CS_71_72/WELL/922
WELL.         SULPETRO BRENDA IPIATIK        : Well_name    - WELL
LOC .         00/14-01-072-10W4/0            : Location     - LOCATION
UWI .         00/14-01-072-10W4/0            : Uwi          - UNIQUE WELL ID
ENTR.         SP                             : Entered      - ENTERED BY
SRVC.         SCHLUMBERGER                   : Scn          - SERVICE COMPANY
STRT.M        310.25                         : top_depth    - START DEPTH
STOP.M        510                            : bot_depth    - STOP DEPTH
STEP.M        0.25                           : increment    - STEP LENGTH
 NULL. -999.2500:NULL Value
~CURVE INFORMATION BLOCK
#MNEM UNIT       ERCB CURVE CODE    CURVE DESCRIPTION
#-----------   ------------------   ----------------------------------
DEPT.M        00 001 00 00         : DEPTH        - DEPTH
ILD .OHMM     00 120 00 00         : RESD         - DEEP RESISTIVITY (DIL)
DPHI.V/V      00 890 00 00         : PHID         - DENSITY POROSITY (LIMESTONE)
NPHI.V/V      00 330 00 00         : PHIN         - NEUTRON POROSITY (LIMESTONE)
GR  .API      00 310 00 00         : GR           - GAMMA RAY
~PARAMETER INFORMATION
#MNEM.UNIT           DATA             DESCRIPTION OF MNEMONIC
#---------         -----------     ------------------------------
GL  .M        664.9                : gl           - GROUND LEVEL ELEVATION
EREF.M        667.5                : kb           - ELEVATION OF DEPTH REFERENCE
DATM.M        664.9                : datum        - DATUM ELEVATION
TDD .M        521                  : tdd          - TOTAL DEPTH DRILLER
RUN .         ONE                  : Run          - RUN NUMBER
ENG .         BILL                 : Engineer     - RECORDING ENGINEER
WIT .         JIM                  : Witness      - WITNESSED BY
MUD .         GEL                  : Mud_type     - MUD TYPE
MATR.         LIMESTONE            : Logunit      - NEUTRON MATRIX
TMAX.C        25                   : BHT          - MAXIMUM RECORDED TEMPERATURE
BHTD.M        521                  : BHTDEP       - MAXIMUM RECORDED TEMPERATURE
MATR.         1                    : LOGUNIT      - NEUTRON MATRIX
RMT .C        25                   : MDTP         - TEMPERATURE OF MUD
NEUT.         1                    : NEUTRON      - NEUTRON TYPE
RESI.         0                    : RESIST       - RESISTIVITY TYPE
RMC .OHMM     0.25                 : RMC          - RESISTIVITY OF MUD CAKE
RMF .OHMM     0.25                 : RMF          - RESISTIVITY OF MUD FILTRATE
SUFT.C        15                   : SUFT         - SURFACE TEMPERATURE
~A  DEPTH     RESD     PHID     PHIN       GR
# ...
  397.250   19.590    0.312    0.428   69.481
  397.500   19.602    0.306    0.449   68.885
  397.750   19.613    0.303    0.469   61.005
  398.000   19.625    0.299    0.447   61.021
  398.250   19.286    0.303    0.415   64.677
  398.500   19.297    0.307    0.401   65.901
  398.750   19.309    0.307    0.393   65.304
  399.000   18.964    0.302    0.418   59.249
  399.250   18.974    0.305    0.408   56.832
  399.500   18.985    0.313    0.400   59.886
  399.750   19.001    0.315    0.396   62.931
  400.000   18.660    0.292    0.411   68.413
  400.250   18.673    0.288    0.414   70.849
  400.500   18.003    0.291    0.391   74.509
  400.750   17.685    0.277    0.376   76.342
  401.000   17.051    0.281    0.391   73.320
  401.250   17.059    0.303    0.442   67.863
  401.500   17.073    0.314    0.442   61.802
  401.750   17.081    0.310    0.419   63.031
  402.000   17.094    0.299    0.393   70.943
  402.250   16.791    0.290    0.375   70.346
  402.500   15.891    0.283    0.393   74.004
  402.750   14.765    0.278    0.407   75.835
  403.000   13.975    0.278    0.406   73.421
  403.250   13.724    0.278    0.368   77.685
  403.500   12.991    0.270    0.389   81.340
  403.750   12.758    0.277    0.423   74.675
  404.000   12.533    0.287    0.423   81.979
  404.250   12.308    0.290    0.380   85.023
  404.500   12.090    0.284    0.406   84.430
  404.750   12.101    0.284    0.430   77.155
  405.000   12.106    0.284    0.416   72.916
  405.250   12.116    0.285    0.399   76.576
  405.500   11.901    0.290    0.424   80.837
  405.750   11.908    0.296    0.446   85.708
  406.000   11.697    0.299    0.432   82.684
  406.250   11.701    0.302    0.396   77.237
  406.500   11.495    0.310    0.401   76.635
  406.750   11.290    0.318    0.423   77.865
  407.000   10.886    0.324    0.433   76.663
  407.250   10.496    0.300    0.464   73.640
  407.500   10.310    0.283    0.492   83.979
  407.750   10.126    0.265    0.464   89.454
  408.000    9.946    0.252    0.452   90.687
  408.250    9.770    0.252    0.448   87.659
  408.500    9.597    0.246    0.420   82.210
  408.750    9.605    0.237    0.398   79.183
  409.000    9.608    0.242    0.378   75.552
  409.250    9.616    0.252    0.381   83.458
  409.500    9.621    0.248    0.391   98.046
  409.750    9.628    0.243    0.395  105.954
  410.000    9.456    0.242    0.386   95.646
  410.250    9.463    0.247    0.377   91.404
  410.500    9.468    0.251    0.369   88.380
  410.750    9.303    0.257    0.370   99.326
  411.000    9.135    0.240    0.371  102.982
  411.250    8.975    0.230    0.381   98.138
  411.500    8.817    0.222    0.381   92.688
  411.750    8.820    0.226    0.388   89.661
  412.000    8.664    0.231    0.400   91.498
  412.250    8.670    0.235    0.398   93.329
  412.500    8.674    0.236    0.394   95.775
  412.750    8.681    0.232    0.405   90.933
  413.000    8.688    0.220    0.419   89.117
  413.250    8.691    0.214    0.431   92.775
  413.500    8.537    0.212    0.451   89.148
  413.750    8.542    0.210    0.473   90.373
  414.000    8.393    0.203    0.458   96.461
  414.250    8.396    0.193    0.443  100.114
  414.500    8.403    0.189    0.427  103.769
  414.750    8.256    0.187    0.421  108.646
  415.000    8.110    0.188    0.410  109.868
  415.250    7.966    0.190    0.394  101.988
  415.500    7.967    0.192    0.373   96.533
  415.750    7.685    0.196    0.360   92.902
  416.000    7.690    0.200    0.379  100.812
  416.250    7.554    0.200    0.416   99.001
  416.500    7.014    0.205    0.440   92.337
  416.750    7.020    0.193    0.419  103.885
  417.000    7.023    0.184    0.411  112.400
  417.250    7.029    0.194    0.406  102.702
  417.500    7.164    0.202    0.417  100.282
  417.750    7.170    0.206    0.403  102.724
  418.000    7.173    0.199    0.392   96.665
  418.250    7.313    0.195    0.394   96.675
  418.500    7.317    0.199    0.427   92.445
  418.750    7.325    0.207    0.435   91.236
  419.000    7.330    0.211    0.423  100.366
  419.250    7.333    0.194    0.416  102.193
  419.500    7.202    0.186    0.414  104.033
  419.750    7.209    0.191    0.400  104.041
  420.000    7.213    0.202    0.389   99.199
  420.250    7.217    0.198    0.386  101.641
  420.500    7.089    0.189    0.430  108.940
  420.750    7.092    0.175    0.452  112.595
  421.000    7.096    0.175    0.421  109.571
  421.250    7.372    0.187    0.397  102.904
  421.500    7.375    0.191    0.381  102.310
  421.750    7.379    0.198    0.362  101.718
  422.000    7.249    0.204    0.396   99.907
  422.250    6.989    0.204    0.423  102.349
  422.500    6.614    0.201    0.412  106.008
  422.750    6.145    0.193    0.404  105.409
  423.000    5.708    0.186    0.422  102.387
  423.250    4.658    0.186    0.387  107.257
  423.500    4.247    0.193    0.353  112.128
  423.750    3.530    0.210    0.342  115.788
  424.000    3.159    0.226    0.467  113.977
  424.250    2.776    0.226    0.477  106.093
  424.500    2.627    0.225    0.477  109.752
  424.750    2.581    0.223    0.484  104.301
  425.000    2.680    0.214    0.458  100.667
  425.250    2.889    0.205    0.454  103.109
  425.500    3.292    0.197    0.478   98.874
  425.750    3.548    0.195    0.492   95.240
  426.000    4.119    0.206    0.457   92.823
  426.250    4.523    0.220    0.431   95.267
  426.500    4.785    0.221    0.414   92.244
  426.750    5.063    0.216    0.428   94.076
  427.000    5.160    0.211    0.412  100.165
  427.250    5.360    0.211    0.387  101.998
  427.500    5.464    0.216    0.383  100.188
  427.750    5.466    0.204    0.362   91.703
  428.000    5.573    0.195    0.349   88.677
  428.250    5.682    0.210    0.366   80.188
  428.500    5.792    0.263    0.390   82.021
  428.750    5.795    0.284    0.386   94.787
  429.000    5.798    0.272    0.402  103.304
  429.250    5.912    0.262    0.486  107.566
  429.500    5.917    0.278    0.445   89.362
  429.750    5.811    0.307    0.411   80.263
  430.000    5.814    0.316    0.402   74.204
  430.250    5.928    0.325    0.386   83.326
  430.500    5.931    0.296    0.369   92.450
  430.750    6.047    0.286    0.355   90.641
  431.000    6.162    0.284    0.370   88.223
  431.250    6.282    0.292    0.381   82.775
  431.500    6.405    0.285    0.394   80.355
  431.750    6.530    0.273    0.407   77.332
  432.000    6.532    0.264    0.398   74.306
  432.250    6.785    0.239    0.386   78.572
  432.500    6.791    0.215    0.382   80.405
  432.750    6.922    0.212    0.388   82.852
  433.000    6.925    0.213    0.393   87.112
  433.250    7.061    0.224    0.401   80.447
  433.500    7.064    0.238    0.408   82.281
  433.750    7.071    0.251    0.391   87.153
  434.000    7.074    0.255    0.385   85.343
  434.250    7.080    0.260    0.379   79.284
  434.500    7.082    0.263    0.386   82.939
  434.750    7.088    0.248    0.391   84.773
  435.000    6.963    0.243    0.399   85.397
  435.250    6.838    0.233    0.404   86.619
  435.500    6.716    0.219    0.374   92.709
  435.750    6.598    0.215    0.366   96.363
  436.000    6.480    0.222    0.385   93.952
  436.250    6.248    0.217    0.388   95.176
  436.500    6.023    0.223    0.411   93.972
  436.750    5.808    0.230    0.408   89.128
  437.000    5.600    0.225    0.383   87.927
  437.250    5.401    0.221    0.369   88.545
  437.500    5.303    0.220    0.416   86.738
  437.750    5.209    0.212    0.461   92.832
  438.000    5.213    0.209    0.443   94.661
  438.250    5.215    0.215    0.427   97.099
  438.500    5.219    0.222    0.418   99.543
  438.750    5.421    0.223    0.435   94.092
  439.000    5.527    0.227    0.446   87.422
  439.250    5.633    0.243    0.427   80.753
  439.500    5.741    0.257    0.409   86.232
  439.750    5.745    0.237    0.401   94.139
  440.000    5.968    0.224    0.432  100.835
  440.250    6.083    0.223    0.447   92.345
  440.500    6.201    0.221    0.435   84.460
