~VERSION INFORMATION
 VERS.                 2.0:   CWLS LOG ASCII STANDARD -VERSION 2.0
 WRAP.                  NO:   ONE LINE PER DEPTH STEP
~WELL INFORMATION BLOCK
#MNEM.UNIT           DATA                    DESCRIPTION OF MNEMONIC
#---------    -------------------            -------------------------------
# Generated from Intellog Unique Number	CS_73_76/WELL/4783
WELL.         LANDBANK MINERALS LTD.         : Well_name    - WELL
LOC .         00/11-09-076-02W4/0            : Location     - LOCATION
UWI .         00/11-09-076-02W4/0            : Uwi          - UNIQUE WELL ID
ENTR.         JO                             : Entered      - ENTERED BY
SRVC.         SCHLUMBERGER                   : Scn          - SERVICE COMPANY
DATE.         05/25/92                       : Date         - LOG DATE
STRT.M        285                            : top_depth    - START DEPTH
STOP.M        560                            : bot_depth    - STOP DEPTH
STEP.M        0.25                           : increment    - STEP LENGTH
 NULL. -999.2500:NULL Value
~CURVE INFORMATION BLOCK
#MNEM UNIT       ERCB CURVE CODE    CURVE DESCRIPTION
#-----------   ------------------   ----------------------------------
DEPT.M        00 001 00 00         : DEPTH        - DEPTH
GR  .API      00 310 00 00         : GR           - GAMMA RAY
DELT.US/F     00 520 00 00         : DELT         - SONIC TRAVEL TIME
ILD .OHMM     00 120 00 00         : RESD         - DEEP RESISTIVITY (DIL)
~PARAMETER INFORMATION
#MNEM.UNIT           DATA             DESCRIPTION OF MNEMONIC
#---------         -----------     ------------------------------
GL  .M        654.8                : gl           - GROUND LEVEL ELEVATION
EREF.M        658.5                : kb           - ELEVATION OF DEPTH REFERENCE
DATM.M        658.5                : datum        - DATUM ELEVATION
TDD .M        568                  : tdd          - TOTAL DEPTH DRILLER
RUN .         ONE                  : Run          - RUN NUMBER
ENG .         BILL                 : Engineer     - RECORDING ENGINEER
WIT .         JIM                  : Witness      - WITNESSED BY
MUD .         GEL                  : Mud_type     - MUD TYPE
MATR.         SANDSTONE            : Logunit      - NEUTRON MATRIX
TMAX.C        20                   : BHT          - MAXIMUM RECORDED TEMPERATURE
BHTD.M        568                  : BHTDEP       - MAXIMUM RECORDED TEMPERATURE
MATR.         1                    : LOGUNIT      - NEUTRON MATRIX
RMT .C        12                   : MDTP         - TEMPERATURE OF MUD
NEUT.         1                    : NEUTRON      - NEUTRON TYPE
RESI.         0                    : RESIST       - RESISTIVITY TYPE
RMC .OHMM     3.95                 : RMC          - RESISTIVITY OF MUD CAKE
RMF .OHMM     3.95                 : RMF          - RESISTIVITY OF MUD FILTRATE
SUFT.C        5                    : SUFT         - SURFACE TEMPERATURE
~A  DEPTH       GR     DELT     RESD
# ...
  447.750   82.864  391.611    4.793
  448.000   81.558  387.610    4.879
  448.250   86.571  379.539    5.156
  448.500   92.216  373.105    5.447
  448.750   90.884  367.481    5.754
  449.000   90.211  362.682    6.082
  449.250   88.892  364.373    6.187
  449.500   86.940  365.211    6.182
  449.750   86.228  367.699    6.168
  450.000   86.821  368.565    6.164
  450.250   88.641  367.808    6.039
  450.500   88.615  360.576    5.918
  450.750   88.562  358.197    5.796
  451.000   87.243  358.251    5.787
  451.250   85.898  358.292    5.887
  451.500   85.238  361.632    5.992
  451.750   83.906  362.470    5.986
  452.000   82.587  360.091    6.089
  452.250   81.901  355.292    6.195
  452.500   81.228  352.913    6.188
  452.750   81.162  356.212    6.177
  453.000   82.376  353.009    6.050
  453.250   85.475  345.776    6.046
  453.500   83.523  355.551    5.924
  453.750   86.016  358.850    5.804
  454.000   90.408  356.485    5.687
  454.250   94.154  355.728    5.679
  454.500   87.124  358.229    5.668
  454.750   82.626  361.501    5.765
  455.000   83.839  362.367    5.867
  455.250   85.053  360.015    5.858
  455.500   84.367  359.272    5.851
  455.750   86.213  357.691    5.622
  456.000   85.528  355.298    5.512
  456.250   84.209  359.422    5.502
  456.500   89.234  363.532    5.597
  456.750   93.600  365.222    5.699
  457.000   91.648  365.250    5.799
  457.250   90.316  364.507    5.899
  457.500   89.643  363.750    5.892
  457.750   88.957  362.980    5.769
  458.000   88.258  363.048    5.657
  458.250   90.104  363.913    5.439
  458.500   89.418  364.779    5.132
  458.750   84.947  359.953    4.840
  459.000   82.361  362.454    4.655
  459.250   81.042  364.942    4.473
  459.500   80.990  364.186    4.466
  459.750   80.937  359.373    4.458
  460.000   85.316  361.875    4.454
  460.250   89.062  370.027    4.617
  460.500   89.642  370.893    4.612
  460.750   85.157  360.416    4.691
  461.000   81.293  362.079    4.775
  461.250   78.694  367.000    4.591
  461.500   81.187  358.943    4.585
  461.750   83.034  350.102    4.406
  462.000   81.082  354.185    4.080
  462.250   79.129  368.029    3.923
  462.500   76.544  376.209    4.145
  462.750   77.744  374.641    4.298
  463.000   78.958  362.514    4.293
  463.250   81.438  354.457    4.287
  463.500   83.297  364.259    4.279
  463.750   87.030  369.992    4.274
  464.000   86.344  368.424    4.187
  464.250   84.392  364.423    4.104
  464.500   80.554  370.155    3.944
  464.750   70.990  375.090    3.721
  465.000   61.441  376.753    3.645
  465.250   59.488  375.185    3.573
  465.500   64.487  372.820    3.565
  465.750   66.981  370.427    3.630
  466.000   70.713  368.062    3.694
  466.250   73.206  364.886    3.976
  466.500   73.153  363.290    4.047
  466.750   68.022  359.303    4.040
  467.000   63.524  362.588    3.813
  467.250   65.371  372.390    3.463
  467.500   69.750  382.178    3.266
  467.750   72.876  377.366    3.326
  468.000   74.710  364.442    3.513
  468.250   72.138  365.308    3.644
  468.500   68.286  368.620    3.851
  468.750   65.067  371.919    3.772
  469.000   61.836  376.016    3.492
  469.250   62.416  384.209    3.359
  469.500   60.464  383.439    3.168
  469.750   55.966  380.262    3.222
  470.000   55.293  375.436    3.342
  470.250   57.773  373.057    3.274
  470.500   58.986  379.601    3.209
  470.750   58.934  384.522    3.085
  471.000   63.933  385.401    3.140
  471.250   67.692  381.387    3.253
  471.500   70.172  376.574    3.313
  471.750   66.320  369.328    3.568
  472.000   61.822  367.760    3.841
  472.250   59.250  371.871    4.059
  472.500   57.285  378.414    4.210
  472.750   57.245  383.336    4.282
  473.000   43.237  383.390    4.041
  473.250   46.363  381.822    3.960
  473.500   51.375  379.470    3.664
  473.750   53.222  381.147    3.524
  474.000   48.091  385.244    3.454
  474.250   46.772  387.732    3.385
  474.500   49.898  385.353    3.380
  474.750   54.277  382.163    3.375
  475.000   58.023  383.028    3.434
  475.250   61.769  379.838    3.695
  475.500   64.882  370.159    3.835
  475.750   68.628  363.724    4.129
  476.000   73.007  359.723    4.282
  476.250   72.954  354.113    4.040
  476.500   64.671  359.832    3.533
  476.750   58.919  385.843    3.150
  477.000   53.142  401.323    2.807
  477.250   49.937  398.944    2.700
  477.500   46.085  398.201    2.499
  477.750   35.269  399.877    2.403
  478.000   32.037  403.163    2.266
  478.250   33.871  404.028    2.222
  478.500   37.630  404.083    2.177
  478.750   42.656  405.760    2.172
  479.000   52.100  410.695    2.171
  479.250   59.011  404.246    2.381
  479.500   64.024  392.945    2.565
  479.750   60.159  392.188    2.814
  480.000   67.084  384.131    3.147
  480.250   67.664  367.151    3.327
  480.500   63.799  375.317    3.651
  480.750   59.328  382.672    4.082
  481.000   46.599  387.621    3.710
  481.250   40.215  393.339    3.009
  481.500   33.831  401.505    2.631
  481.750   28.700  397.518    2.578
  482.000   32.446  390.272    2.573
  482.250   35.559  385.459    2.719
  482.500   38.671  383.080    2.768
  482.750   39.898  382.324    2.712
  483.000   36.033  379.945    2.607
  483.250   32.182  378.377    2.604
  483.500   29.583  381.676    2.551
  483.750   32.670  380.906    2.548
  484.000   34.529  359.059    2.640
  484.250   35.136  351.827    2.688
  484.500   36.983  347.001    2.788
  484.750   35.664  342.202    2.888
  485.000   33.712  348.732    2.940
  485.250   32.392  360.156    2.937
  485.500   33.606  360.211    2.987
  485.750   34.806  357.020    2.984
  486.000   34.753  354.641    2.979
  486.250   30.902  353.898    2.974
  486.500   28.303  354.737    2.969
  486.750   28.237  357.238    2.966
  487.000   28.844  359.712    2.960
  487.250   30.031  363.025    2.958
  487.500   30.625  364.702    2.951
  487.750   31.205  364.756    2.948
  488.000   32.418  359.133    2.942
  488.250   32.366  351.887    2.939
  488.500   32.946  345.466    2.990
  488.750   34.159  347.143    3.043
  489.000   36.639  350.428    3.095
  489.250   41.018  351.294    3.210
  489.500   46.044  352.970    3.328
  489.750   52.309  356.283    3.518
  490.000   52.890  362.813    3.789
  490.250   60.448  369.357    4.156
  490.500   68.639  366.180    4.476
  490.750   74.917  353.243    4.471
  491.000   69.786  345.997    4.061
  491.250   65.302  368.777    3.761
  491.500   56.385  382.621    3.482
  491.750   44.289  380.242    3.046
  492.000   36.639  379.499    2.665
  492.250   31.508  377.120    2.514
  492.500   31.442  373.119    2.463
  492.750   33.301  371.537    2.504
  493.000   31.349  371.605    2.502
  493.250   31.310  370.862    2.643
  493.500   33.130  370.889    2.740
  493.750   33.737  370.944    2.738
  494.000   35.557  371.809    2.733
  494.250   37.390  373.500    2.627
  494.500   39.250  375.177    2.479
  494.750   41.743  376.042    2.382
  495.000   45.502  377.733    2.336
  495.250   49.881  380.220    2.332
  495.500   51.728  383.520    2.328
  495.750   49.143  385.196    2.326
  496.000   44.632  386.062    2.321
  496.250   43.959  385.305    2.318
  496.500   41.993  384.535    2.314
  496.750   39.408  386.212    2.311
  497.000   36.203  387.902    2.308
  497.250   33.617  386.334    2.305
  497.500   36.730  381.522    2.300
  497.750   37.311  374.276    2.298
  498.000   30.900  368.639    2.382
  498.250   27.681  362.204    2.471
  498.500   27.629  355.769    2.710
  498.750   28.855  366.382    2.760
  499.000   32.601  368.059    2.971
  499.250   37.601  356.757    3.138
  499.500   41.360  351.931    3.195
  499.750   48.918  345.510    3.314
  500.000   53.297  356.921    3.307
  500.250   49.432  374.009    3.179
  500.500   43.668  368.386    2.943
  500.750   40.463  361.951    2.830
  501.000   35.952  352.272    2.772
  501.250   34.646  345.837    2.770
  501.500   33.340  347.527    2.764
  501.750   32.641  350.826    2.761
