~VERSION INFORMATION
 VERS.                 2.0:   CWLS LOG ASCII STANDARD -VERSION 2.0
 WRAP.                  NO:   ONE LINE PER DEPTH STEP
~WELL INFORMATION BLOCK
#MNEM.UNIT           DATA                    DESCRIPTION OF MNEMONIC
#---------    -------------------            -------------------------------
# Generated from Intellog Unique Number	CW_82_90/WELL/3452
WELL.         COSEKA RES.                    : Well_name    - WELL
LOC .         00/11-22-090-20W4/0            : Location     - LOCATION
UWI .         00/11-22-090-20W4/0            : Uwi          - UNIQUE WELL ID
ENTR.         MAX                            : Entered      - ENTERED BY
SRVC.         SCHLUMBERGER                   : Scn          - SERVICE COMPANY
STRT.M        100                            : top_depth    - START DEPTH
STOP.M        240                            : bot_depth    - STOP DEPTH
STEP.M        0.25                           : increment    - STEP LENGTH
 NULL. -999.2500:NULL Value
~CURVE INFORMATION BLOCK
#MNEM UNIT       ERCB CURVE CODE    CURVE DESCRIPTION
#-----------   ------------------   ----------------------------------
DEPT.M        00 001 00 00         : DEPTH        - DEPTH
ILD .OHMM     00 120 00 00         : RESD         - DEEP RESISTIVITY (DIL)
NPHI.V/V      00 330 00 00         : PHIN         - NEUTRON POROSITY (SANDSTONE)
DPHI.V/V      00 890 00 00         : PHID         - DENSITY POROSITY (SANDSTONE)
CALI.MM       00 280 01 00         : CAL          - CALIPER
GR  .API      00 310 00 00         : GR           - GAMMA RAY
~PARAMETER INFORMATION
#MNEM.UNIT           DATA             DESCRIPTION OF MNEMONIC
#---------         -----------     ------------------------------
GL  .M        517.8                : gl           - GROUND LEVEL ELEVATION
EREF.M        520.7                : kb           - ELEVATION OF DEPTH REFERENCE
DATM.M        517.8                : datum        - DATUM ELEVATION
TDD .M        243                  : tdd          - TOTAL DEPTH DRILLER
RUN .         ONE                  : Run          - RUN NUMBER
ENG .         BILL                 : Engineer     - RECORDING ENGINEER
WIT .         JIM                  : Witness      - WITNESSED BY
MUD .         GEL                  : Mud_type     - MUD TYPE
MATR.         SANDSTONE            : Logunit      - NEUTRON MATRIX
TMAX.C        23.1                 : BHT          - MAXIMUM RECORDED TEMPERATURE
BHTD.M        243                  : BHTDEP       - MAXIMUM RECORDED TEMPERATURE
MATR.         1                    : LOGUNIT      - NEUTRON MATRIX
RMT .C        20                   : MDTP         - TEMPERATURE OF MUD
NEUT.         1                    : NEUTRON      - NEUTRON TYPE
RESI.         0                    : RESIST       - RESISTIVITY TYPE
RMC .OHMM     3.22                 : RMC          - RESISTIVITY OF MUD CAKE
RMF .OHMM     3.22                 : RMF          - RESISTIVITY OF MUD FILTRATE
SUFT.C        -10                  : SUFT         - SURFACE TEMPERATURE
~A  DEPTH     RESD     PHIN     PHID      CAL       GR
# ...
  136.500    9.354    0.470    0.220  165.523   94.808
  136.750   11.932    0.446    0.231  165.920   93.566
  137.000   14.390    0.431    0.219  166.811   93.216
  137.250   15.090    0.422    0.187  167.230   92.264
  137.500   14.826    0.407    0.151  167.637   93.097
  137.750   13.516    0.413    0.262  166.051   93.341
  138.000   10.715    0.430    0.257  164.983   92.396
  138.250    8.736    0.443    0.234  163.397   90.857
  138.500    7.603    0.457    0.216  164.807   89.020
  138.750    7.062    0.473    0.201  167.185   88.379
  139.000    6.440    0.504    0.173  169.079   88.617
  139.250    6.208    0.518    0.185  170.488   89.462
  139.500    5.986    0.538    0.202  171.391   89.991
  139.750    5.719    0.535    0.196  169.310   90.823
  140.000    5.514    0.511    0.170  167.206   91.675
  140.250    5.417    0.495    0.158  167.151   93.704
  140.500    5.272    0.507    0.169  167.547   94.840
  140.750    5.132    0.524    0.176  167.459   95.976
  141.000    4.902    0.519    0.145  166.391   96.518
  141.250    4.682    0.542    0.228  165.312   97.053
  141.500    4.431    0.568    0.250  165.719   97.594
  141.750    4.117    0.577    0.260  166.115   98.136
  142.000    3.861    0.572    0.263  167.029   98.684
  142.250    3.722    0.559    0.265  165.950   98.922
  142.500    3.589    0.552    0.267  162.877   98.876
  142.750    4.017    0.556    0.268  161.798   98.512
  143.000    4.624    0.562    0.264  161.699   97.865
  143.250    5.577    0.553    0.247  161.622   97.231
  143.500    6.602    0.515    0.233  163.020   95.387
  143.750    7.816    0.487    0.211  164.914   93.246
  144.000    9.428    0.467    0.202  168.790   91.410
  144.250   10.455    0.448    0.204  170.684   89.580
  144.500   11.275    0.435    0.209  170.595   88.338
  144.750   12.386    0.418    0.205  169.010   87.386
  145.000   13.996    0.415    0.196  166.939   87.029
  145.250   15.236    0.418    0.196  166.356   85.780
  145.500   16.429    0.420    0.186  166.267   83.950
  145.750   17.718    0.419    0.169  165.684   80.634
  146.000   18.066    0.414    0.107  165.595   74.628
  146.250   17.258    0.391    0.057  165.507   68.332
  146.500   15.882    0.369    0.104  164.428   67.387
  146.750   14.213    0.372    0.169  164.340   70.598
  147.000   12.839    0.413    0.195  164.747   72.923
  147.250   11.599    0.433    0.211  164.648   77.039
  147.500    9.815    0.434    0.197  164.053   82.034
  147.750    9.289    0.424    0.190  163.987   86.434
  148.000    9.384    0.415    0.193  164.383   86.691
  148.250   10.802    0.425    0.206  165.792   85.740
  148.500   12.204    0.440    0.216  165.704   79.747
  148.750   13.040    0.447    0.223  164.603   71.363
  149.000   14.327    0.447    0.220  164.030   65.959
  149.250   15.594    0.448    0.213  164.933   64.413
  149.500   17.294    0.443    0.197  164.845   64.353
  149.750   19.178    0.437    0.190  163.765   62.510
  150.000   23.133    0.434    0.194  163.182   60.079
  150.250   25.897    0.411    0.206  163.093   57.654
  150.500   26.904    0.369    0.165  163.005   56.114
  150.750   26.185    0.310    0.112  162.917   57.839
  151.000   18.733    0.314    0.109  163.809   60.455
  151.250   14.575    0.327    0.130  164.216   63.395
  151.500   11.236    0.355    0.166  164.634   72.558
  151.750    8.501    0.415    0.188  164.546   86.181
  152.000    7.194    0.501    0.204  165.933   86.419
  152.250    7.134    0.522    0.206  166.825   84.298
  152.500    7.693    0.507    0.186  166.737   82.759
  152.750    8.373    0.471    0.156  168.146   85.679
  153.000    9.286    0.421    0.091  169.038   90.085
  153.250   10.015    0.426    0.162  169.941   90.918
  153.500   10.406    0.433    0.175  170.844   89.682
  153.750   10.414    0.434    0.163  172.253   88.440
  154.000    9.856    0.429    0.158  173.156   88.982
  154.250    8.263    0.421    0.182  173.563   90.105
  154.500    7.748    0.425    0.176  172.484   91.545
  154.750    8.434    0.432    0.195  169.907   92.391
  155.000   10.170    0.450    0.210  167.341   90.554
  155.250   12.853    0.484    0.196  166.273   85.143
  155.500   14.659    0.469    0.166  164.665   77.056
  155.750   15.957    0.422    0.180  164.599   68.375
  156.000   15.972    0.405    0.205  164.489   70.707
  156.250   15.982    0.431    0.190  164.918   73.911
  156.500   16.146    0.436    0.176  163.343   75.953
  156.750   16.465    0.439    0.185  162.242   79.764
  157.000   16.637    0.442    0.200  162.165   81.793
  157.250   16.961    0.437    0.196  162.583   82.929
  157.500   17.297    0.421    0.187  163.970   82.281
  157.750   17.312    0.406    0.170  164.378   76.877
  158.000   17.331    0.393    0.161  164.278   72.946
  158.250   17.183    0.377    0.204  164.201   72.001
  158.500   16.263    0.383    0.228  164.113   69.867
  158.750   14.828    0.388    0.219  164.520   67.733
  159.000   14.165    0.413    0.206  165.908   69.166
  159.250   14.308    0.423    0.201  165.335   76.850
  159.500   14.455    0.419    0.198  165.225   77.986
  159.750   13.810    0.406    0.181  165.158   74.069
  160.000   12.827    0.406    0.170  164.575   71.327
  160.250   11.805    0.408    0.152  163.991   71.280
  160.500   10.966    0.385    0.121  164.398   75.687
  160.750   10.187    0.395    0.167  164.794   81.587
  161.000   10.195    0.433    0.203  165.202   91.351
  161.250   11.201    0.461    0.238  165.114   87.724
  161.500   12.894    0.450    0.256  164.530   82.022
  161.750   14.037    0.431    0.274  164.442   69.179
  162.000   14.719    0.420    0.256  164.331   61.984
  162.250   14.064    0.433    0.226  164.265   63.418
  162.500   13.062    0.436    0.203  163.175   66.932
  162.750   12.363    0.430    0.165  163.098   69.852
  163.000   11.810    0.437    0.144  160.521   73.962
  163.250   11.387    0.445    0.198  160.939   78.375
  163.500   10.879    0.442    0.189  164.320   84.559
  163.750   10.488    0.445    0.183  165.718   84.209
  164.000    9.926    0.449    0.173  166.125   82.378
  164.250    9.394    0.446    0.162  164.550   78.751
  164.500    8.891    0.437    0.180  162.954   81.374
  164.750   10.235    0.446    0.188  161.874   83.112
  165.000   13.176    0.459    0.197  161.775   80.370
  165.250   16.498    0.456    0.204  161.202   76.458
  165.500   21.040    0.441    0.185  161.621   71.351
  165.750   25.378    0.417    0.162  162.028   66.535
  166.000   26.124    0.397    0.146  162.920   63.205
  166.250   25.664    0.372    0.138  163.327   62.564
  166.500   25.683    0.371    0.152  164.241   64.592
  166.750   26.935    0.376    0.160  165.122   65.418
  167.000   29.867    0.377    0.166  165.540   65.074
  167.250   32.815    0.371    0.111  163.965   62.048
  167.500   35.387    0.356    0.063  163.370   59.022
  167.750   41.510    0.320    0.047  163.293   58.375
  168.000   40.400    0.273    0.027  162.709   56.822
  168.250   37.880    0.251    0.016  163.117   57.377
  168.500   32.352    0.254    0.028  164.493   60.892
  168.750   23.581    0.308    0.062  164.427   65.001
  169.000   20.142    0.367    0.078  164.327   70.597
  169.250   16.890    0.404    0.133  164.228   76.497
  169.500   15.835    0.409    0.211  164.162   85.951
  169.750   14.436    0.401    0.215  163.567   88.283
  170.000   12.919    0.400    0.209  163.986   89.723
  170.250   12.227    0.399    0.201  164.382   89.670
  170.500   11.359    0.398    0.188  164.778   89.003
  170.750   10.651    0.398    0.172  165.196   88.957
  171.000   10.962    0.400    0.187  165.108   89.492
  171.250   11.712    0.408    0.179  165.020   89.452
  171.500   12.513    0.413    0.172  165.427   87.311
  171.750   13.244    0.421    0.182  163.841   85.468
  172.000   13.759    0.418    0.193  163.269   84.239
  172.250   14.430    0.413    0.197  162.685   79.720
  172.500   14.578    0.412    0.183  162.597   73.126
  172.750   14.591    0.420    0.163  162.509   64.147
