~VERSION INFORMATION
 VERS.                 2.0:   CWLS LOG ASCII STANDARD -VERSION 2.0
 WRAP.                  NO:   ONE LINE PER DEPTH STEP
~WELL INFORMATION BLOCK
#MNEM.UNIT           DATA                    DESCRIPTION OF MNEMONIC
#---------    -------------------            -------------------------------
# Generated from Intellog Unique Number	CW_73_75/WELL/1036
WELL.         ICGR FRANCIS 11-10             : Well_name    - WELL
LOC .         00/11-10-074-22W4/0            : Location     - LOCATION
UWI .         00/11-10-074-22W4/0            : Uwi          - UNIQUE WELL ID
ENTR.         JAYE                           : Entered      - ENTERED BY
SRVC.         SCHLUMBERGER                   : Scn          - SERVICE COMPANY
DATE.         27 MAR 82                      : Date         - LOG DATE
STRT.M        350                            : top_depth    - START DEPTH
STOP.M        555                            : bot_depth    - STOP DEPTH
STEP.M        0.25                           : increment    - STEP LENGTH
 NULL. -999.2500:NULL Value
~CURVE INFORMATION BLOCK
#MNEM UNIT       ERCB CURVE CODE    CURVE DESCRIPTION
#-----------   ------------------   ----------------------------------
DEPT.M        00 001 00 00         : DEPTH        - DEPTH
NPHI.V/V      00 330 00 00         : PHIN         - NEUTRON POROSITY (SANDSTONE)
DPHI.V/V      00 890 00 00         : PHID         - DENSITY POROSITY (SANDSTONE)
GR  .API      00 310 00 00         : GR           - GAMMA RAY
CALI.MM       00 280 01 00         : CAL          - CALIPER
ILD .OHMM     00 120 00 00         : RESD         - DEEP RESISTIVITY (DLL)
~PARAMETER INFORMATION
#MNEM.UNIT           DATA             DESCRIPTION OF MNEMONIC
#---------         -----------     ------------------------------
GL  .M        646.2                : gl           - GROUND LEVEL ELEVATION
EREF.M        648.7                : kb           - ELEVATION OF DEPTH REFERENCE
DATM.M        646.2                : datum        - DATUM ELEVATION
TDD .M        600                  : tdd          - TOTAL DEPTH DRILLER
RUN .         ONE                  : Run          - RUN NUMBER
ENG .         HOLDE                : Engineer     - RECORDING ENGINEER
WIT .         COOK                 : Witness      - WITNESSED BY
BASE.         EDMONTON             : Branch       - HOME BASE OF LOGGING UNIT
MUD .         GEL CHEM             : Mud_type     - MUD TYPE
MATR.         SANDSTONE            : Logunit      - NEUTRON MATRIX
TMAX.C        25                   : BHT          - MAXIMUM RECORDED TEMPERATURE
BHTD.M        600.5                : BHTDEP       - MAXIMUM RECORDED TEMPERATURE
RMT .C        20                   : MDTP         - TEMPERATURE OF MUD
MUDD.KG/M     9.5                  : MWT          - MUD DENSITY
NEUT.         1                    : NEUTRON      - NEUTRON TYPE
RESI.         1                    : RESIST       - RESISTIVITY TYPE
RM  .OHMM     5.105                : RM           - RESISTIVITY OF MUD
RMC .OHMM     2.13                 : RMC          - RESISTIVITY OF MUD CAKE
RMF .OHMM     7.23                 : RMF          - RESISTIVITY OF MUD FILTRATE
SUFT.C        0                    : SUFT         - SURFACE TEMPERATURE
~A  DEPTH     PHIN     PHID       GR      CAL     RESD
# ...
  496.000    0.411    0.210   87.108  156.585    5.924
  496.250    0.400    0.209   87.462  154.658    6.056
  496.500    0.417    0.207   88.601  154.739    6.111
  496.750    0.426    0.193   91.611  155.631    6.109
  497.000    0.431    0.181   94.805  157.039    6.083
  497.250    0.437    0.180   95.641  156.811    6.080
  497.500    0.419    0.184   94.308  156.296    6.055
  497.750    0.401    0.186   93.872  155.873    5.996
  498.000    0.413    0.188   91.868  155.461    5.983
  498.250    0.419    0.175   89.442  155.241    6.002
  498.500    0.418    0.163   93.058  155.022    6.012
  498.750    0.417    0.148   95.649  155.207    6.020
  499.000    0.414    0.153   96.424  155.594    6.041
  499.250    0.404    0.153   97.078  155.284    6.026
  499.500    0.399    0.163   99.849  154.859    5.935
  499.750    0.405    0.187  102.678  154.952    5.943
  500.000    0.410    0.192  101.705  156.134    6.064
  500.250    0.415    0.190   97.829  158.538    6.234
  500.500    0.417    0.193   95.465  158.830    6.325
  500.750    0.407    0.192   92.914  158.810    6.394
  501.000    0.379    0.177   90.070  157.387    6.415
  501.250    0.367    0.165   89.091  156.966    6.425
  501.500    0.394    0.180   88.597  156.950    6.422
  501.750    0.398    0.181   88.890  157.247    6.395
  502.000    0.387    0.180   90.936  157.726    6.393
  502.250    0.406    0.183   91.106  158.012    6.368
  502.500    0.416    0.188   91.764  158.906    6.305
  502.750    0.419    0.189   97.372  159.796    6.280
  503.000    0.433    0.191   97.122  160.392    6.231
  503.250    0.447    0.188   96.872  161.177    6.239
  503.500    0.435    0.191   96.623  162.065    6.237
  503.750    0.433    0.195   97.698  163.058    6.210
  504.000    0.419    0.198   99.985  163.547    6.161
  504.250    0.414    0.189   98.832  163.632    6.113
  504.500    0.417    0.186   93.863  163.821    6.099
  504.750    0.419    0.186   90.592  163.797    6.097
  505.000    0.416    0.185   89.314  162.976    6.163
  505.250    0.411    0.184   88.519  162.064    6.230
  505.500    0.406    0.177   92.136  161.237    6.274
  505.750    0.407    0.168   96.596  160.724    6.284
  506.000    0.406    0.181   94.051  160.599    6.245
  506.250    0.404    0.199   88.723  160.484    6.243
  506.500    0.411    0.206   83.275  160.168    6.264
  506.750    0.428    0.201   86.411  159.769    6.215
  507.000    0.436    0.184   93.891  159.744    6.201
  507.250    0.448    0.178   96.001  159.619    6.209
  507.500    0.440    0.173   90.249  159.714    6.242
  507.750    0.429    0.167   86.191  160.095    6.297
  508.000    0.419    0.165   88.415  159.775    6.401
  508.250    0.426    0.178   84.601  157.439    6.484
  508.500    0.420    0.191   87.674  156.117    6.542
  508.750    0.406    0.206   86.099  155.100    6.637
  509.000    0.393    0.218   82.458  154.476    6.848
  509.250    0.390    0.194   82.149  153.758    7.186
  509.500    0.390    0.176   81.896  153.440    7.485
  509.750    0.371    0.146   78.079  153.526    7.825
  510.000    0.331    0.121   70.335  153.416    7.895
  510.250    0.310    0.128   68.584  153.492    7.746
  510.500    0.348    0.154   84.698  153.474    7.431
  510.750    0.391    0.174   93.329  153.865    6.971
  511.000    0.408    0.184   96.402  154.755    6.503
  511.250    0.414    0.190   99.415  156.150    6.135
  511.500    0.422    0.188   99.285  158.454    5.874
  511.750    0.420    0.177   99.398  160.751    5.688
  512.000    0.389    0.186  100.837  161.243    5.654
  512.250    0.393    0.193  101.492  159.710    5.781
  512.500    0.404    0.185  100.525  157.989    5.986
  512.750    0.396    0.166   98.876  156.361    6.668
  513.000    0.365    0.140   90.408  154.629    7.386
  513.250    0.331    0.136   88.825  154.016    7.622
  513.500    0.351    0.160   88.877  153.998    7.619
  513.750    0.369    0.192   89.535  154.093    7.323
  514.000    0.384    0.191   89.826  154.276    7.144
  514.250    0.384    0.187   90.542  154.354    6.958
  514.500    0.361    0.195   91.924  154.336    6.876
  514.750    0.357    0.207   94.027  154.631    7.003
  515.000    0.372    0.185   97.522  154.810    7.516
  515.250    0.354    0.157   87.242  154.697    9.225
  515.500    0.344    0.119   72.549  154.384   10.049
  515.750    0.319    0.042   60.877  154.166   10.195
  516.000    0.229    0.025   62.689  153.949   10.192
  516.250    0.234    0.044   67.687  153.830   10.074
  516.500    0.275    0.091   77.408  154.814    9.451
  516.750    0.347    0.122   86.161  156.319    8.669
  517.000    0.378    0.147   94.610  157.314    6.978
  517.250    0.393    0.157   95.206  157.897    6.259
  517.500    0.414    0.166   95.134  158.689    6.049
  517.750    0.422    0.179   92.168  159.174    6.149
  518.000    0.408    0.193   90.768  159.561    6.275
  518.250    0.394    0.188   91.124  159.752    6.366
  518.500    0.398    0.176   93.168  159.831    6.461
  518.750    0.394    0.177   93.881  159.913    6.446
  519.000    0.398    0.181   96.168  159.902    6.515
  519.250    0.401    0.179   97.486  159.881    6.636
  519.500    0.393    0.174   92.281  159.578    6.758
  519.750    0.393    0.171   90.821  159.160    6.818
  520.000    0.405    0.174   90.874  158.445    6.752
  520.250    0.402    0.175   86.211  157.607    6.663
  520.500    0.394    0.159   84.391  156.490    6.697
  520.750    0.383    0.152   91.147  156.174    6.719
  521.000    0.388    0.167   94.400  155.756    6.680
  521.250    0.404    0.184   91.490  155.335    6.700
  521.500    0.420    0.177   91.061  154.824    6.711
  521.750    0.406    0.170   92.623  155.001    6.621
  522.000    0.386    0.164   93.638  155.484    6.581
  522.250    0.370    0.165   94.294  156.376    6.517
  522.500    0.376    0.179   97.007  158.577    6.443
  522.750    0.369    0.193   98.204  160.073    6.356
  523.000    0.375    0.187   93.903  160.764    6.306
  523.250    0.378    0.162   92.748  159.942    6.221
  523.500    0.369    0.138   94.006  158.924    6.058
  523.750    0.358    0.149   95.509  158.207    5.934
  524.000    0.351    0.178   90.849  158.091    5.832
  524.250    0.353    0.179   89.205  158.180    5.657
  524.500    0.362    0.159   90.525  158.453    5.499
  524.750    0.360    0.139   92.208  158.743    5.246
  525.000    0.351    0.140   96.126  158.937    4.785
  525.250    0.343    0.162  100.954  158.908    4.089
  525.500    0.389    0.208  100.881  158.496    3.206
  525.750    0.481    0.238   99.183  157.677    2.581
  526.000    0.486    0.262   96.996  156.749    2.226
  526.250    0.490    0.258   95.233  156.429    2.088
  526.500    0.492    0.246   98.065  156.025    2.057
  526.750    0.486    0.237  101.261  156.000    2.102
  527.000    0.503    0.235  103.304  155.584    2.202
  527.250    0.544    0.237  103.838  154.865    2.315
  527.500    0.542    0.233  102.922  154.539    2.512
  527.750    0.467    0.217  100.254  155.129    2.829
  528.000    0.425    0.179   96.685  156.027    3.309
  528.250    0.389    0.139   95.642  156.928    3.848
  528.500    0.357    0.119  102.281  157.505    4.262
  528.750    0.347    0.139  107.831  158.301    4.756
  529.000    0.393    0.159  107.400  158.490    5.288
  529.250    0.421    0.149  101.165  158.462    5.739
  529.500    0.373    0.070   80.550  157.953    6.089
  529.750    0.241    0.016   52.870  157.532    6.053
  530.000    0.233    0.073   89.052  157.508    5.829
  530.250    0.272    0.118   97.142  157.293    5.357
  530.500    0.393    0.151  104.442  158.994    4.997
  530.750    0.394    0.154  106.125  158.672    4.714
  531.000    0.410    0.164  103.699  158.461    4.626
  531.250    0.429    0.154   97.588  157.736    4.781
  531.500    0.407    0.124   89.299  157.527    5.228
  531.750    0.377    0.125   83.490  157.115    5.476
  532.000    0.386    0.159   89.281  156.992    5.556
  532.250    0.403    0.159   95.133  157.270    5.606
