~VERSION INFORMATION
 VERS.                 2.0:   CWLS LOG ASCII STANDARD -VERSION 2.0
 WRAP.                  NO:   ONE LINE PER DEPTH STEP
~WELL INFORMATION BLOCK
#MNEM.UNIT           DATA                    DESCRIPTION OF MNEMONIC
#---------    -------------------            -------------------------------
# Generated from Intellog Unique Number	CS_73_76/WELL/2202
WELL.         AMOCO CANADA PETROLEUM         : Well_name    - WELL
LOC .         00/11-22-074-12W4/0            : Location     - LOCATION
UWI .         00/11-22-074-12W4/0            : Uwi          - UNIQUE WELL ID
ENTR.         SP                             : Entered      - ENTERED BY
SRVC.         SCHLUMBERGER                   : Scn          - SERVICE COMPANY
STRT.M        289.56                         : top_depth    - START DEPTH
STOP.M        508.81                         : bot_depth    - STOP DEPTH
STEP.M        0.25                           : increment    - STEP LENGTH
 NULL. -999.2500:NULL Value
~CURVE INFORMATION BLOCK
#MNEM UNIT       ERCB CURVE CODE    CURVE DESCRIPTION
#-----------   ------------------   ----------------------------------
DEPT.M        00 001 00 00         : DEPTH        - DEPTH
GR  .API      00 310 00 00         : GR           - GAMMA RAY
DPHI.V/V      00 890 00 00         : PHID         - DENSITY POROSITY (SANDSTONE)
NPHI.V/V      00 330 00 00         : PHIN         - NEUTRON POROSITY (SANDSTONE)
ILD .OHMM     00 120 00 00         : RESD         - DEEP RESISTIVITY (DIL)
~PARAMETER INFORMATION
#MNEM.UNIT           DATA             DESCRIPTION OF MNEMONIC
#---------         -----------     ------------------------------
GL  .M        10                   : gl           - GROUND LEVEL ELEVATION
EREF.M        656.265              : kb           - ELEVATION OF DEPTH REFERENCE
DATM.M        10                   : datum        - DATUM ELEVATION
TDD .M        511.759              : tdd          - TOTAL DEPTH DRILLER
RUN .         ONE                  : Run          - RUN NUMBER
ENG .         BILL                 : Engineer     - RECORDING ENGINEER
WIT .         JIM                  : Witness      - WITNESSED BY
MUD .         GEL                  : Mud_type     - MUD TYPE
MATR.         SANDSTONE            : Logunit      - NEUTRON MATRIX
TMAX.C        15.5556              : BHT          - MAXIMUM RECORDED TEMPERATURE
BHTD.M        511.759              : BHTDEP       - MAXIMUM RECORDED TEMPERATURE
MATR.         1                    : LOGUNIT      - NEUTRON MATRIX
RMT .C        25                   : MDTP         - TEMPERATURE OF MUD
NEUT.         1                    : NEUTRON      - NEUTRON TYPE
RESI.         0                    : RESIST       - RESISTIVITY TYPE
RMC .OHMM     0.25                 : RMC          - RESISTIVITY OF MUD CAKE
RMF .OHMM     0.25                 : RMF          - RESISTIVITY OF MUD FILTRATE
SUFT.C        15                   : SUFT         - SURFACE TEMPERATURE
~A  DEPTH       GR     PHID     PHIN     RESD
# ...
  376.560   80.922    0.288    0.510    8.190
  376.810   84.795    0.284    0.502    8.367
  377.060   87.228    0.276    0.495    8.345
  377.310   89.320    0.270    0.489    8.207
  377.560   89.666    0.278    0.479    8.227
  377.810   90.730    0.288    0.473    8.064
  378.060   90.358    0.291    0.484    7.713
  378.310   94.930    0.283    0.474    6.264
  378.560   97.279    0.290    0.465    5.233
  378.810   96.915    0.297    0.487    4.229
  379.060   96.819    0.300    0.493    3.692
  379.310   98.431    0.277    0.514    3.324
  379.560   99.418    0.251    0.576    3.159
  379.810  101.248    0.239    0.591    3.082
  380.060  103.358    0.247    0.569    3.394
  380.310  100.887    0.237    0.543    3.950
  380.560   95.835    0.228    0.521    4.731
  380.810   90.189    0.245    0.512    5.432
  381.060   86.671    0.268    0.508    6.080
  381.310   85.468    0.295    0.498    6.779
  381.560   86.492    0.287    0.497    7.127
  381.810   87.513    0.299    0.500    7.134
  382.060   87.355    0.294    0.503    6.918
  382.310   85.356    0.284    0.505    6.651
  382.560   89.957    0.267    0.484    6.431
  382.810   95.389    0.247    0.472    6.322
  383.060   96.281    0.245    0.485    6.441
  383.310   92.464    0.256    0.497    6.569
  383.560   89.300    0.243    0.511    6.561
  383.810   85.905    0.245    0.517    6.566
  384.060   83.720    0.264    0.508    6.571
  384.310   84.143    0.260    0.494    6.573
  384.560   85.786    0.261    0.488    6.577
  384.810   84.431    0.258    0.487    6.581
  385.060   83.972    0.260    0.489    6.584
  385.310   87.444    0.272    0.496    6.587
  385.560   88.662    0.265    0.483    6.590
  385.810   87.352    0.266    0.476    6.595
  386.060   86.012    0.265    0.477    6.599
  386.310   83.335    0.275    0.478    6.602
  386.560   82.446    0.284    0.465    6.606
  386.810   89.797    0.272    0.462    6.611
  387.060   92.976    0.262    0.479    6.520
  387.310   94.734    0.266    0.494    6.499
  387.560   94.666    0.270    0.489    6.499
  387.810   94.158    0.269    0.479    6.503
  388.060   92.629    0.260    0.481    6.506
  388.310   91.765    0.270    0.485    6.510
  388.560   89.857    0.270    0.491    6.513
  388.810   87.028    0.275    0.493    6.516
  389.060   83.609    0.286    0.496    6.527
  389.310   81.012    0.292    0.490    6.394
  389.560   83.103    0.295    0.498    6.408
  389.810   85.887    0.277    0.496    6.412
  390.060   89.822    0.267    0.496    6.415
  390.310   86.812    0.282    0.491    6.419
  390.560   82.716    0.287    0.477    6.418
  390.810   82.792    0.265    0.462    6.386
  391.060   88.808    0.228    0.468    6.314
  391.310   90.778    0.220    0.477    6.127
  391.560   89.750    0.228    0.480    5.953
  391.810   88.305    0.239    0.502    5.780
  392.060   88.879    0.236    0.513    5.601
  392.310   91.001    0.232    0.511    5.556
  392.560   93.455    0.244    0.523    5.461
  392.810   96.158    0.247    0.511    5.623
  393.060   92.754    0.242    0.494    5.790
  393.310   89.412    0.245    0.482    5.861
  393.560   87.221    0.251    0.469    6.008
  393.810   91.421    0.247    0.475    6.124
  394.060   94.053    0.243    0.476    6.111
  394.310   94.280    0.249    0.493    6.250
  394.560   94.929    0.256    0.507    6.248
  394.810   96.672    0.259    0.517    6.134
  395.060   98.270    0.245    0.512    5.993
  395.310  100.893    0.237    0.497    5.924
  395.560  101.109    0.238    0.487    5.758
  395.810   98.945    0.229    0.483    5.582
  396.060   96.610    0.227    0.482    5.328
  396.310   93.810    0.238    0.478    5.138
  396.560   92.595    0.244    0.481    4.938
  396.810   91.859    0.239    0.492    4.863
  397.060   95.753    0.217    0.504    4.764
  397.310   99.241    0.212    0.516    4.775
  397.560   96.310    0.234    0.525    4.927
  397.810   98.321    0.244    0.511    5.099
  398.060  101.486    0.257    0.494    5.332
  398.310  102.725    0.241    0.478    5.564
  398.560  100.061    0.233    0.497    5.652
  398.810   98.569    0.231    0.495    5.848
  399.060   99.930    0.233    0.495    5.859
  399.310   96.654    0.232    0.499    5.864
  399.560   94.148    0.217    0.508    5.865
  399.810   94.218    0.213    0.496    5.838
  400.060   94.567    0.211    0.492    5.661
  400.310   94.441    0.210    0.505    5.604
  400.560   95.746    0.211    0.515    5.458
  400.810   95.719    0.213    0.511    5.467
  401.060   97.284    0.217    0.508    5.397
  401.310   95.527    0.221    0.496    5.481
  401.560   92.390    0.229    0.493    5.562
  401.810   91.589    0.238    0.493    5.735
  402.060   92.412    0.237    0.489    5.904
  402.310   94.859    0.234    0.486    5.897
  402.560   97.331    0.225    0.490    5.857
  402.810   99.614    0.220    0.521    5.666
  403.060  103.059    0.236    0.546    4.880
  403.310  105.255    0.238    0.574    3.873
  403.560  107.261    0.232    0.597    3.176
  403.810  108.295    0.250    0.608    2.615
  404.060  108.475    0.278    0.608    2.284
  404.310  107.959    0.291    0.617    2.093
  404.560  106.384    0.279    0.610    2.105
  404.810  104.812    0.271    0.598    2.279
  405.060  104.968    0.265    0.583    2.497
  405.310  104.046    0.255    0.582    2.808
  405.560  102.263    0.246    0.563    3.160
  405.810   99.263    0.239    0.529    3.559
  406.060   98.397    0.244    0.511    4.226
  406.310   98.890    0.247    0.497    4.702
  406.560   95.290    0.244    0.496    5.070
  406.810   93.368    0.240    0.493    5.273
  407.060   93.044    0.240    0.486    5.344
  407.310   92.315    0.233    0.478    5.240
  407.560   90.861    0.226    0.473    5.245
  407.810   89.006    0.238    0.472    5.343
  408.060   86.853    0.256    0.473    5.340
  408.310   83.843    0.265    0.476    5.459
  408.560   81.421    0.274    0.476    5.543
  408.810   79.831    0.285    0.472    5.561
  409.060   77.451    0.286    0.460    5.572
  409.310   77.186    0.273    0.449    5.676
  409.560   79.364    0.266    0.440    5.674
  409.810   83.041    0.258    0.440    5.676
  410.060   83.582    0.254    0.441    5.680
  410.310   81.930    0.236    0.442    5.683
  410.560   85.282    0.228    0.438    5.684
  410.810   89.862    0.222    0.438    5.628
  411.060   95.046    0.217    0.451    5.595
  411.310   96.386    0.213    0.456    5.501
  411.560   92.704    0.218    0.448    5.493
  411.810   88.301    0.223    0.445    5.486
  412.060   87.439    0.232    0.450    5.392
  412.310   86.791    0.250    0.454    5.362
  412.560   81.120    0.268    0.469    5.308
  412.810   77.069    0.282    0.479    5.319
  413.060   74.359    0.287    0.466    5.204
  413.310   77.117    0.288    0.458    5.220
  413.560   78.700    0.288    0.450    5.127
  413.810   82.985    0.280    0.442    5.007
  414.060   84.734    0.253    0.460    4.948
  414.310   87.165    0.241    0.482    4.952
  414.560   88.089    0.256    0.488    4.964
  414.810   86.024    0.241    0.469    5.133
  415.060   82.756    0.227    0.465    5.178
  415.310   79.552    0.236    0.476    5.349
  415.560   77.626    0.248    0.481    5.510
  415.810   74.246    0.239    0.470    5.893
  416.060   67.019    0.179    0.433    6.667
  416.310   62.123    0.111    0.311    7.152
  416.560   60.993    0.046    0.262    7.809
  416.810   63.915    0.104    0.302    8.290
  417.060   70.633    0.191    0.349    8.511
  417.310   73.863    0.262    0.449    7.933
  417.560   78.883    0.285    0.466    7.377
  417.810   80.391    0.276    0.471    6.793
  418.060   80.288    0.274    0.480    6.404
  418.310   79.221    0.277    0.472    6.217
  418.560   79.014    0.280    0.479    6.046
  418.810   77.302    0.286    0.476    5.997
  419.060   76.860    0.287    0.474    5.889
  419.310   76.504    0.287    0.485    5.895
  419.560   77.996    0.292    0.486    5.902
  419.810   79.298    0.294    0.493    5.872
