~VERSION INFORMATION
 VERS.                 2.0:   CWLS LOG ASCII STANDARD -VERSION 2.0
 WRAP.                  NO:   ONE LINE PER DEPTH STEP
~WELL INFORMATION BLOCK
#MNEM.UNIT           DATA                    DESCRIPTION OF MNEMONIC
#---------    -------------------            -------------------------------
# Generated from Intellog Unique Number	CS_69_70/WELL/887
WELL.         BRALORNE RESOURCES LIMITED     : Well_name    - WELL
LOC .         00/11-15-069-10W4/0            : Location     - LOCATION
UWI .         00/11-15-069-10W4/0            : Uwi          - UNIQUE WELL ID
ENTR.         SP                             : Entered      - ENTERED BY
SRVC.         SCHLUMBERGER                   : Scn          - SERVICE COMPANY
STRT.M        381                            : top_depth    - START DEPTH
STOP.M        600.25                         : bot_depth    - STOP DEPTH
STEP.M        0.25                           : increment    - STEP LENGTH
 NULL. -999.2500:NULL Value
~CURVE INFORMATION BLOCK
#MNEM UNIT       ERCB CURVE CODE    CURVE DESCRIPTION
#-----------   ------------------   ----------------------------------
DEPT.M        00 001 00 00         : DEPTH        - DEPTH
GR  .API      00 310 00 00         : GR           - GAMMA RAY
DPHI.V/V      00 890 00 00         : PHID         - DENSITY POROSITY (SANDSTONE)
NPHI.V/V      00 330 00 00         : PHIN         - NEUTRON POROSITY (SANDSTONE)
ILD .OHMM     00 120 00 00         : RESD         - DEEP RESISTIVITY (DIL)
~PARAMETER INFORMATION
#MNEM.UNIT           DATA             DESCRIPTION OF MNEMONIC
#---------         -----------     ------------------------------
GL  .M        708.05               : gl           - GROUND LEVEL ELEVATION
EREF.M        712.47               : kb           - ELEVATION OF DEPTH REFERENCE
DATM.M        708.05               : datum        - DATUM ELEVATION
TDD .M        605.638              : tdd          - TOTAL DEPTH DRILLER
RUN .         ONE                  : Run          - RUN NUMBER
ENG .         BILL                 : Engineer     - RECORDING ENGINEER
WIT .         JIM                  : Witness      - WITNESSED BY
MUD .         GEL                  : Mud_type     - MUD TYPE
MATR.         SANDSTONE            : Logunit      - NEUTRON MATRIX
TMAX.C        15.5556              : BHT          - MAXIMUM RECORDED TEMPERATURE
BHTD.M        605.638              : BHTDEP       - MAXIMUM RECORDED TEMPERATURE
MATR.         1                    : LOGUNIT      - NEUTRON MATRIX
RMT .C        25                   : MDTP         - TEMPERATURE OF MUD
NEUT.         1                    : NEUTRON      - NEUTRON TYPE
RESI.         0                    : RESIST       - RESISTIVITY TYPE
RMC .OHMM     0.25                 : RMC          - RESISTIVITY OF MUD CAKE
RMF .OHMM     0.25                 : RMF          - RESISTIVITY OF MUD FILTRATE
SUFT.C        15                   : SUFT         - SURFACE TEMPERATURE
~A  DEPTH       GR     PHID     PHIN     RESD
# ...
  424.500   93.886    0.311    0.495    5.867
  424.750   93.203    0.309    0.488    5.839
  425.000   93.445    0.334    0.482    5.781
  425.250   94.487    0.333    0.477    5.747
  425.500   96.107    0.320    0.489    5.838
  425.750   97.919    0.310    0.487    5.929
  426.000   99.170    0.301    0.491    6.033
  426.250   99.775    0.295    0.480    6.130
  426.500   98.928    0.294    0.470    6.277
  426.750   98.919    0.286    0.457    6.350
  427.000   99.303    0.284    0.443    6.412
  427.250   99.127    0.279    0.467    6.499
  427.500   95.774    0.266    0.480    6.670
  427.750   87.734    0.268    0.475    6.863
  428.000   81.758    0.298    0.458    7.115
  428.250   78.646    0.302    0.441    7.212
  428.500   80.945    0.282    0.432    7.265
  428.750   82.201    0.268    0.438    7.287
  429.000   84.281    0.256    0.425    7.301
  429.250   86.284    0.246    0.413    7.389
  429.500   87.667    0.244    0.419    7.461
  429.750   88.096    0.272    0.436    7.557
  430.000   86.228    0.289    0.453    7.678
  430.250   80.387    0.306    0.462    7.782
  430.500   75.659    0.326    0.448    7.837
  430.750   73.547    0.339    0.439    7.795
  431.000   76.836    0.324    0.448    7.768
  431.250   79.538    0.333    0.444    7.606
  431.500   81.200    0.338    0.438    7.465
  431.750   80.550    0.332    0.442    7.347
  432.000   80.299    0.328    0.454    7.277
  432.250   79.873    0.331    0.466    7.259
  432.500   80.438    0.333    0.473    7.263
  432.750   81.253    0.331    0.463    7.308
  433.000   80.188    0.332    0.463    7.391
  433.250   80.392    0.334    0.467    7.430
  433.500   82.837    0.316    0.468    7.364
  433.750   87.474    0.300    0.484    7.158
  434.000   92.597    0.284    0.500    6.939
  434.250   96.309    0.268    0.508    6.743
  434.500  101.926    0.249    0.491    6.682
  434.750  105.032    0.252    0.469    6.684
  435.000  106.876    0.258    0.460    6.826
  435.250  106.428    0.258    0.460    6.971
  435.500  100.562    0.251    0.452    7.095
  435.750   97.398    0.260    0.435    7.101
  436.000   96.526    0.266    0.426    6.716
  436.250   95.671    0.260    0.449    6.483
  436.500   94.777    0.251    0.457    6.493
  436.750   93.216    0.244    0.465    6.812
  437.000   90.926    0.253    0.470    7.110
  437.250   85.207    0.280    0.462    7.380
  437.500   78.051    0.301    0.447    7.609
  437.750   73.592    0.321    0.432    7.759
  438.000   70.371    0.332    0.425    7.861
  438.250   69.722    0.337    0.425    7.866
  438.500   68.888    0.338    0.434    7.846
  438.750   68.252    0.335    0.443    7.747
  439.000   68.182    0.332    0.443    7.697
  439.250   68.387    0.329    0.428    7.610
  439.500   69.157    0.322    0.411    7.605
  439.750   70.516    0.309    0.403    7.718
  440.000   72.513    0.297    0.409    7.911
  440.250   73.806    0.299    0.421    8.235
  440.500   76.579    0.306    0.430    8.489
  440.750   79.726    0.311    0.439    8.782
  441.000   82.649    0.314    0.433    8.877
  441.250   84.996    0.315    0.419    8.833
  441.500   86.415    0.317    0.412    8.729
  441.750   86.966    0.319    0.417    8.614
  442.000   88.100    0.310    0.422    8.576
  442.250   90.585    0.295    0.414    8.741
  442.500   93.950    0.278    0.403    8.967
  442.750   96.302    0.264    0.411    9.196
  443.000   97.505    0.264    0.421    9.476
  443.250   98.691    0.275    0.419    9.714
  443.500   94.854    0.277    0.426    9.881
  443.750   90.623    0.278    0.423    9.873
  444.000   88.916    0.282    0.414    9.810
  444.250   90.736    0.278    0.404    9.635
  444.500   94.673    0.263    0.399    9.421
  444.750   97.247    0.248    0.409    9.182
  445.000   99.832    0.261    0.416    8.840
  445.250  101.881    0.265    0.424    8.347
  445.500  104.583    0.248    0.421    8.009
  445.750  104.449    0.231    0.419    7.466
  446.000  101.887    0.245    0.419    6.948
  446.250  102.633    0.247    0.423    6.658
  446.500  107.520    0.221    0.429    6.545
  446.750  110.175    0.211    0.442    6.974
  447.000  111.739    0.211    0.452    7.498
  447.250  104.473    0.249    0.465    7.857
  447.500   96.149    0.273    0.465    8.198
  447.750   89.026    0.284    0.458    8.487
  448.000   84.508    0.275    0.456    8.660
  448.250   80.311    0.294    0.460    8.798
  448.500   78.653    0.312    0.464    8.825
  448.750   78.690    0.319    0.469    8.797
  449.000   81.786    0.308    0.457    8.747
  449.250   83.534    0.294    0.443    8.671
  449.500   84.370    0.284    0.444    8.602
  449.750   83.468    0.280    0.461    8.556
  450.000   82.743    0.300    0.472    8.505
  450.250   81.546    0.313    0.480    8.503
  450.500   79.117    0.317    0.481    8.541
  450.750   77.174    0.331    0.477    8.642
  451.000   79.068    0.338    0.475    8.776
  451.250   82.392    0.335    0.479    8.912
  451.500   83.731    0.334    0.493    8.951
  451.750   81.994    0.338    0.506    9.021
  452.000   80.225    0.341    0.506    9.152
  452.250   78.487    0.330    0.470    8.941
  452.500   78.022    0.336    0.461    8.739
  452.750   77.837    0.333    0.467    8.599
  453.000   77.371    0.326    0.466    8.459
  453.250   75.946    0.328    0.454    8.336
  453.500   74.601    0.325    0.443    8.246
  453.750   73.749    0.311    0.455    8.219
  454.000   72.895    0.313    0.462    8.214
  454.250   73.332    0.321    0.459    8.243
  454.500   74.941    0.333    0.451    8.296
  454.750   77.036    0.331    0.454    8.377
  455.000   77.967    0.336    0.465    8.472
  455.250   77.486    0.337    0.469    8.486
  455.500   75.927    0.325    0.459    8.455
  455.750   74.789    0.338    0.452    8.350
  456.000   75.267    0.339    0.456    8.211
  456.250   76.633    0.335    0.463    8.135
  456.500   76.561    0.338    0.467    8.021
  456.750   73.363    0.333    0.471    7.913
  457.000   73.895    0.331    0.476    7.799
  457.250   76.545    0.323    0.468    7.746
  457.500   78.699    0.309    0.458    7.697
  457.750   78.766    0.308    0.450    7.622
  458.000   76.711    0.326    0.451    7.566
  458.250   75.613    0.324    0.451    7.476
  458.500   75.605    0.310    0.452    7.361
  458.750   76.231    0.301    0.447    7.226
  459.000   76.636    0.300    0.440    6.965
  459.250   77.737    0.315    0.447    6.536
  459.500   79.086    0.308    0.455    5.988
  459.750   81.673    0.310    0.460    5.197
  460.000   87.073    0.314    0.462    4.260
  460.250   93.225    0.311    0.473    3.770
  460.500   98.718    0.291    0.515    3.370
  460.750  105.351    0.277    0.552    3.045
  461.000  107.145    0.271    0.551    3.430
  461.250  101.602    0.270    0.527    4.240
  461.500   93.066    0.284    0.509    5.067
  461.750   88.638    0.303    0.496    6.055
  462.000   84.904    0.315    0.482    7.250
  462.250   80.716    0.322    0.479    7.623
  462.500   77.283    0.327    0.486    7.798
  462.750   75.604    0.324    0.486    7.880
  463.000   76.256    0.312    0.474    7.859
  463.250   76.842    0.314    0.469    7.818
  463.500   77.579    0.324    0.474    7.777
  463.750   78.277    0.332    0.478    7.745
  464.000   78.764    0.337    0.477    7.714
  464.250   79.109    0.337    0.468    7.758
  464.500   78.947    0.331    0.457    7.770
  464.750   78.841    0.330    0.450    7.783
  465.000   78.491    0.341    0.447    7.793
  465.250   77.992    0.348    0.469    7.795
  465.500   77.609    0.352    0.486    7.840
  465.750   76.825    0.351    0.495    7.850
  466.000   75.887    0.345    0.497    7.843
  466.250   74.531    0.334    0.487    7.836
  466.500   73.639    0.336    0.488    7.789
  466.750   73.383    0.346    0.475    7.794
  467.000   73.985    0.353    0.460    7.800
  467.250   74.185    0.349    0.462    7.788
  467.500   74.140    0.346    0.464    7.746
  467.750   76.821    0.348    0.453    7.648
