~VERSION INFORMATION
 VERS.                 2.0:   CWLS LOG ASCII STANDARD -VERSION 2.0
 WRAP.                  NO:   ONE LINE PER DEPTH STEP
~WELL INFORMATION BLOCK
#MNEM.UNIT           DATA                    DESCRIPTION OF MNEMONIC
#---------    -------------------            -------------------------------
# Generated from Intellog Unique Number	CS_73_76/WELL/2199
WELL.         SIEBENS OIL & GAS LTD.         : Well_name    - WELL
LOC .         00/11-08-074-09W4/0            : Location     - LOCATION
UWI .         00/11-08-074-09W4/0            : Uwi          - UNIQUE WELL ID
ENTR.         SP                             : Entered      - ENTERED BY
SRVC.         SCHLUMBERGER                   : Scn          - SERVICE COMPANY
STRT.M        298.704                        : top_depth    - START DEPTH
STOP.M        481.454                        : bot_depth    - STOP DEPTH
STEP.M        0.25                           : increment    - STEP LENGTH
 NULL. -999.2500:NULL Value
~CURVE INFORMATION BLOCK
#MNEM UNIT       ERCB CURVE CODE    CURVE DESCRIPTION
#-----------   ------------------   ----------------------------------
DEPT.M        00 001 00 00         : DEPTH        - DEPTH
GR  .API      00 310 00 00         : GR           - GAMMA RAY
DPHI.V/V      00 890 00 00         : PHID         - DENSITY POROSITY (SANDSTONE)
NPHI.V/V      00 330 00 00         : PHIN         - NEUTRON POROSITY (SANDSTONE)
ILD .OHMM     00 120 00 00         : RESD         - DEEP RESISTIVITY (DIL)
~PARAMETER INFORMATION
#MNEM.UNIT           DATA             DESCRIPTION OF MNEMONIC
#---------         -----------     ------------------------------
GL  .M        666.598              : gl           - GROUND LEVEL ELEVATION
EREF.M        670.255              : kb           - ELEVATION OF DEPTH REFERENCE
DATM.M        666.598              : datum        - DATUM ELEVATION
TDD .M        493.776              : tdd          - TOTAL DEPTH DRILLER
RUN .         ONE                  : Run          - RUN NUMBER
ENG .         BILL                 : Engineer     - RECORDING ENGINEER
WIT .         JIM                  : Witness      - WITNESSED BY
MUD .         GEL                  : Mud_type     - MUD TYPE
MATR.         SANDSTONE            : Logunit      - NEUTRON MATRIX
TMAX.C        13.3333              : BHT          - MAXIMUM RECORDED TEMPERATURE
BHTD.M        493.776              : BHTDEP       - MAXIMUM RECORDED TEMPERATURE
MATR.         1                    : LOGUNIT      - NEUTRON MATRIX
RMT .C        25                   : MDTP         - TEMPERATURE OF MUD
NEUT.         1                    : NEUTRON      - NEUTRON TYPE
RESI.         0                    : RESIST       - RESISTIVITY TYPE
RMC .OHMM     0.25                 : RMC          - RESISTIVITY OF MUD CAKE
RMF .OHMM     0.25                 : RMF          - RESISTIVITY OF MUD FILTRATE
SUFT.C        15                   : SUFT         - SURFACE TEMPERATURE
~A  DEPTH       GR     PHID     PHIN     RESD
# ...
  429.204   87.766    0.145    0.427    4.918
  429.454   91.216    0.168    0.428    4.601
  429.704   92.622    0.186    0.430    4.222
  429.954   92.549    0.203    0.436    3.520
  430.204   92.499    0.215    0.442    2.984
  430.454   93.404    0.220    0.460    2.509
  430.704   95.133    0.237    0.503    2.310
  430.954   96.806    0.241    0.521    2.131
  431.204   96.936    0.232    0.507    2.065
  431.454   97.292    0.245    0.493    2.003
  431.704   96.287    0.238    0.491    2.000
  431.954   96.553    0.212    0.507    2.043
  432.204   99.065    0.221    0.535    2.075
  432.454   98.742    0.227    0.537    2.179
  432.704   97.676    0.229    0.521    2.297
  432.954   97.919    0.229    0.516    2.480
  433.204   93.565    0.220    0.519    2.744
  433.454   89.197    0.207    0.504    3.037
  433.704   87.123    0.207    0.467    3.496
  433.954   87.987    0.196    0.425    3.870
  434.204   88.925    0.180    0.408    4.192
  434.454   86.712    0.172    0.408    4.396
  434.704   83.264    0.177    0.418    4.879
  434.954   80.538    0.183    0.424    6.138
  435.204   75.974    0.178    0.431    7.698
  435.454   72.039    0.179    0.408    9.426
  435.704   69.234    0.260    0.371   11.006
  435.954   68.180    0.301    0.347   12.522
  436.204   67.899    0.303    0.358   14.165
  436.454   67.279    0.286    0.370   14.971
  436.704   68.994    0.276    0.374   15.992
  436.954   68.381    0.270    0.367   16.256
  437.204   65.783    0.267    0.362   16.484
  437.454   64.777    0.266    0.348   16.644
  437.704   63.113    0.276    0.337   16.834
  437.954   61.756    0.271    0.324   16.395
  438.204   57.472    0.254    0.316   14.632
  438.454   51.318    0.222    0.309   12.812
  438.704   49.608    0.189    0.303   11.863
  438.954   55.019    0.144    0.300   13.177
  439.204   58.711    0.145    0.318   14.741
  439.454   61.074    0.169    0.347   16.632
  439.704   61.637    0.150    0.351   17.894
  439.954   55.291    0.110    0.263   18.995
  440.204   54.946    0.038    0.205   18.804
  440.454   56.624    0.002    0.192   14.859
  440.704   57.242    0.018    0.285   12.332
  440.954   59.088    0.050    0.323   10.521
  441.204   64.970    0.221    0.377    9.001
  441.454   69.031    0.255    0.417    8.480
  441.704   70.411    0.276    0.436    8.173
  441.954   68.661    0.272    0.433    8.067
  442.204   65.571    0.263    0.444    8.066
  442.454   65.066    0.276    0.445    8.060
  442.704   65.537    0.288    0.440    8.202
  442.954   65.521    0.291    0.435    8.287
  443.204   65.513    0.280    0.425    8.365
  443.454   65.571    0.277    0.432    8.363
  443.704   64.850    0.265    0.442    8.303
  443.954   64.910    0.266    0.449    8.210
  444.204   64.930    0.272    0.425    7.959
  444.454   65.114    0.257    0.413    7.727
  444.704   65.487    0.247    0.420    7.366
  444.954   66.842    0.235    0.425    6.589
  445.204   65.884    0.247    0.430    6.007
  445.454   66.018    0.275    0.431    5.414
  445.704   67.299    0.260    0.424    4.843
  445.954   69.404    0.255    0.419    4.432
  446.204   74.229    0.256    0.410    4.097
  446.454   82.608    0.240    0.412    4.053
  446.704   94.775    0.223    0.426    4.011
  446.954   98.964    0.209    0.446    4.262
  447.204   95.693    0.194    0.465    4.468
  447.454   93.532    0.182    0.427    4.910
  447.704   90.967    0.173    0.392    5.453
  447.954   88.052    0.160    0.384    6.075
  448.204   84.702    0.152    0.387    7.057
  448.454   80.374    0.170    0.382    7.715
  448.704   73.286    0.186    0.352    8.400
  448.954   74.735    0.205    0.351    8.796
  449.204   77.250    0.245    0.361    8.883
  449.454   77.420    0.235    0.372    9.165
  449.704   76.915    0.224    0.375    9.137
  449.954   76.796    0.223    0.377    9.325
  450.204   77.474    0.226    0.369    9.501
  450.454   78.988    0.215    0.362    9.583
  450.704   80.653    0.205    0.358   10.066
  450.954   81.569    0.197    0.366   10.990
  451.204   82.822    0.198    0.379   11.762
  451.454   85.563    0.187    0.378   13.983
  451.704   86.865    0.185    0.356   17.517
  451.954   90.291    0.207    0.337   20.046
  452.204   95.166    0.229    0.318   22.883
  452.454   98.541    0.231    0.332   25.834
  452.704   88.919    0.238    0.347   29.346
  452.954   75.632    0.241    0.349   32.667
  453.204   59.261    0.244    0.354   35.742
  453.454   43.535    0.229    0.354   38.594
  453.704   39.151    0.243    0.345   41.289
  453.954   43.107    0.257    0.337   42.477
  454.204   45.203    0.261    0.341   43.607
  454.454   45.121    0.249    0.330   43.620
  454.704   47.599    0.236    0.323   41.623
  454.954   56.951    0.232    0.322   31.580
  455.204   62.528    0.237    0.324   22.301
  455.454   68.718    0.243    0.330   16.912
  455.704   74.876    0.237    0.340   13.450
  455.954   78.366    0.241    0.352   11.497
  456.204   80.611    0.224    0.352   10.231
  456.454   85.289    0.212    0.351    9.275
  456.704   90.032    0.191    0.369    8.837
  456.954   95.116    0.185    0.371    8.856
  457.204   99.433    0.186    0.372    9.132
  457.454   99.366    0.202    0.374    9.470
  457.704   97.322    0.215    0.383    9.948
  457.954   95.821    0.205    0.377   10.368
  458.204   97.412    0.200    0.355   10.571
  458.454   99.147    0.190    0.343   10.790
  458.704  101.869    0.177    0.339   10.770
  458.954   98.477    0.152    0.332   10.786
  459.204   96.559    0.136    0.315   10.549
  459.454  102.980    0.155    0.332   10.220
  459.704  110.442    0.188    0.353   10.157
  459.954  116.887    0.196    0.360   10.795
  460.204  121.805    0.199    0.366   11.667
  460.454  106.055    0.199    0.376   12.335
  460.704   76.908    0.210    0.379   12.691
  460.954   71.720    0.221    0.328   13.099
  461.204   72.848    0.238    0.322   13.175
  461.454   77.544    0.234    0.322   12.980
  461.704   81.507    0.205    0.315   12.326
  461.954   85.327    0.186    0.305   11.647
  462.204   87.391    0.172    0.300   10.421
  462.454   87.057    0.150    0.296    9.819
  462.704   84.323    0.140    0.297    9.448
  462.954   82.852    0.162    0.295    9.152
  463.204   79.682    0.187    0.306    9.134
  463.454   77.868    0.205    0.314    8.951
  463.704   80.269    0.186    0.310    8.967
  463.954   82.633    0.164    0.298    8.738
  464.204   82.774    0.152    0.292    8.481
  464.454   82.882    0.160    0.305    8.225
  464.704   85.800    0.189    0.331    7.966
  464.954   89.896    0.204    0.345    7.476
  465.204   93.409    0.219    0.349    7.180
  465.454   99.890    0.234    0.358    6.892
  465.704  106.797    0.233    0.388    6.555
  465.954  112.876    0.220    0.426    6.502
  466.204  112.373    0.193    0.454    6.429
  466.454  108.735    0.172    0.437    6.618
  466.704  100.574    0.161    0.418    7.296
  466.954   93.008    0.166    0.405    8.583
  467.204   79.556    0.195    0.397   10.588
  467.454   68.808    0.210    0.379   12.202
  467.704   53.560    0.232    0.369   14.468
  467.954   48.163    0.250    0.359   17.251
  468.204   45.163    0.254    0.356   19.596
  468.454   41.697    0.267    0.366   23.220
  468.704   39.072    0.276    0.371   26.213
  468.954   41.094    0.284    0.364   27.477
  469.204   47.148    0.277    0.356   28.834
  469.454   51.323    0.268    0.365   29.538
  469.704   52.728    0.255    0.369   29.488
  469.954   53.915    0.263    0.381   27.922
  470.204   54.696    0.286    0.382   25.946
  470.454   56.126    0.297    0.367   22.893
  470.704   63.467    0.289    0.340   21.060
  470.954   67.382    0.267    0.324   20.953
  471.204   64.096    0.258    0.330   23.422
  471.454   57.201    0.275    0.344   25.856
  471.704   47.320    0.282    0.354   29.217
  471.954   43.521    0.288    0.366   30.633
  472.204   40.799    0.291    0.374   29.202
  472.454   38.895    0.283    0.373   26.281
