~VERSION INFORMATION
 VERS.                 2.0:   CWLS LOG ASCII STANDARD -VERSION 2.0
 WRAP.                  NO:   ONE LINE PER DEPTH STEP
~WELL INFORMATION BLOCK
#MNEM.UNIT           DATA                    DESCRIPTION OF MNEMONIC
#---------    -------------------            -------------------------------
# Generated from Intellog Unique Number	CN_91_93/WELL/3069
WELL.         CANADIAN SUPERIOR OIL LTD.     : Well_name    - WELL
LOC .         00/12-23-092-21W4/0            : Location     - LOCATION
UWI .         00/12-23-092-21W4/0            : Uwi          - UNIQUE WELL ID
ENTR.         JOETTE                         : Entered      - ENTERED BY
SRVC.         SCHLUMBERGER                   : Scn          - SERVICE COMPANY
DATE.         04/10/92                       : Date         - LOG DATE
STRT.M        50                             : top_depth    - START DEPTH
STOP.M        252                            : bot_depth    - STOP DEPTH
STEP.M        0.25                           : increment    - STEP LENGTH
 NULL. -999.2500:NULL Value
~CURVE INFORMATION BLOCK
#MNEM UNIT       ERCB CURVE CODE    CURVE DESCRIPTION
#-----------   ------------------   ----------------------------------
DEPT.M        00 001 00 00         : DEPTH        - DEPTH
CALI.MM       00 280 01 00         : CAL          - CALIPER
GR  .API      00 310 00 00         : GR           - GAMMA RAY
NPHI.V/V      00 330 00 00         : PHIN         - NEUTRON POROSITY (SANDSTONE)
DPHI.V/V      00 890 00 00         : PHID         - DENSITY POROSITY (SANDSTONE)
ILD .OHMM     00 120 00 00         : RESD         - DEEP RESISTIVITY (DIL)
~PARAMETER INFORMATION
#MNEM.UNIT           DATA             DESCRIPTION OF MNEMONIC
#---------         -----------     ------------------------------
GL  .M        534.92               : gl           - GROUND LEVEL ELEVATION
EREF.M        538.77               : kb           - ELEVATION OF DEPTH REFERENCE
DATM.M        538.77               : datum        - DATUM ELEVATION
TDD .M        253.1                : tdd          - TOTAL DEPTH DRILLER
RUN .         ONE                  : Run          - RUN NUMBER
ENG .         BILL                 : Engineer     - RECORDING ENGINEER
WIT .         JIM                  : Witness      - WITNESSED BY
MUD .         GEL                  : Mud_type     - MUD TYPE
MATR.         SANDSTONE            : Logunit      - NEUTRON MATRIX
TMAX.C        20                   : BHT          - MAXIMUM RECORDED TEMPERATURE
BHTD.M        253.1                : BHTDEP       - MAXIMUM RECORDED TEMPERATURE
RMT .C        14                   : MDTP         - TEMPERATURE OF MUD
MUDD.KG/M     1120                 : MWT          - MUD DENSITY
NEUT.         1                    : NEUTRON      - NEUTRON TYPE
RESI.         0                    : RESIST       - RESISTIVITY TYPE
RM  .OHMM     5.11                 : RM           - RESISTIVITY OF MUD
RMC .OHMM     3.3                  : RMC          - RESISTIVITY OF MUD CAKE
RMF .OHMM     3.3                  : RMF          - RESISTIVITY OF MUD FILTRATE
SUFT.C        4                    : SUFT         - SURFACE TEMPERATURE
~A  DEPTH      CAL       GR     PHIN     PHID     RESD
   50.000  265.048  114.762    0.497    0.275    5.282
   50.250  265.017  112.228    0.507    0.275    5.483
   50.500  264.954  108.441    0.519    0.270    5.691
   50.750  265.978  106.535    0.506    0.267    5.906
   51.000  266.961  108.391    0.471    0.260    6.013
   51.250  267.965  108.360    0.443    0.249    6.238
   51.500  267.923  105.820    0.456    0.258    6.352
   51.750  267.892  105.181    0.482    0.262    6.344
   52.000  266.795  104.523    0.521    0.262    6.337
   52.250  266.753  105.739    0.527    0.262    6.211
   52.500  265.667  106.981    0.501    0.262    6.201
   52.750  265.625  108.831    0.486    0.262    6.317
   53.000  264.528  111.321    0.465    0.259    6.310
   53.250  263.462  113.177    0.458    0.251    6.183
   53.500  263.400  111.271    0.478    0.255    5.946
   53.750  263.368  108.104    0.504    0.263    5.717
   54.000  263.306  105.571    0.525    0.261    5.604
   54.250  263.275  102.417    0.514    0.246    6.158
   54.500  263.244   99.884    0.440    0.239    7.301
   54.750  263.181  101.113    0.440    0.244    7.433
   55.000  263.160  106.725    0.463    0.246    7.425
   55.250  264.154  109.836    0.484    0.246    6.874
   55.500  264.122   94.761    0.504    0.251    6.735
   55.750  264.070   58.992    0.463    0.248   11.467
   56.000  264.039   38.895    0.413    0.269   19.150
   56.250  262.942   33.226    0.413    0.300   24.038
   56.500  260.810   30.059    0.419    0.335   35.137
   56.750  271.230   30.035    0.378    0.317   44.094
   57.000  275.369   32.524    0.341    0.295   44.047
   57.250  283.678   38.143    0.345    0.278   40.017
   57.500  276.321   42.501    0.324    0.267   30.046
   57.750  261.648   44.985    0.319    0.267   24.812
   58.000  242.794   47.474    0.329    0.272   26.242
   58.250  230.210   48.076    0.346    0.288   29.950
   58.500  230.158   46.164    0.422    0.344   35.498
   58.750  230.117   41.749    0.401    0.324   37.544
   59.000  241.582   34.200    0.354    0.292   38.225
   59.250  259.308   32.914    0.323    0.277   36.767
   59.500  277.033   33.523    0.334    0.276   32.756
   59.750  283.263   32.243    0.334    0.269   34.634
   60.000  280.086   30.337    0.339    0.276   35.930
   60.250  257.041   30.939    0.366    0.297   35.911
   60.500  256.999   37.812    0.398    0.339   33.881
   60.750  250.687   45.939    0.417    0.345   29.065
   61.000  233.923   47.796    0.440    0.337   26.905
   61.250  219.250   43.996    0.416    0.316   31.890
   61.500  212.937   40.208    0.334    0.273   33.737
   61.750  224.382   37.675    0.308    0.240   33.066
   62.000  234.802   37.023    0.309    0.255   30.601
   62.250  245.201   36.998    0.339    0.303   28.335
   62.500  245.160   40.115    0.363    0.298   23.386
   62.750  253.479   41.338    0.380    0.317   22.065
   63.000  271.215   39.438    0.401    0.363   29.324
   63.250  278.479   33.136    0.392    0.358   31.619
   63.500  274.247   28.088    0.371    0.305   33.432
   63.750  274.215   26.809    0.369    0.302   33.396
   64.000  269.973   25.536    0.373    0.297   35.312
   64.250  265.761   23.624    0.351    0.290   35.971
   64.500  263.639   23.592    0.343    0.285   38.044
   64.750  267.768   23.580    0.341    0.298   38.733
   65.000  268.782   22.294    0.350    0.309   39.436
   65.250  270.831   22.276    0.350    0.295   39.383
   65.500  271.834   22.878    0.340    0.296   40.086
   65.750  271.792   24.734    0.339    0.293   40.054
   66.000  270.706   23.455    0.349    0.294   40.011
   66.250  269.609   25.299    0.365    0.299   39.969
   66.500  268.522   25.907    0.355    0.310   39.937
   66.750  268.480   22.747    0.356    0.320   37.660
   67.000  270.529   22.722    0.335    0.287   34.862
   67.250  279.894   25.205    0.300    0.282   32.280
   67.500  294.484   25.808    0.281    0.279   28.765
   67.750  299.658   25.155    0.339    0.296   27.140
   68.000  296.491   22.616    0.389    0.386   28.704
   68.250  285.998   21.970    0.376    0.358   34.685
   68.500  279.665   21.945    0.339    0.303   38.087
   68.750  278.599   21.920    0.340    0.308   39.533
   69.000  278.557   20.629    0.334    0.303   39.480
   69.250  282.686   19.983    0.327    0.285   40.218
   69.500  285.790   19.325    0.328    0.281   40.175
   69.750  281.558   19.300    0.338    0.285   39.365
   70.000  278.381   20.529    0.352    0.292   37.854
   70.250  275.204   22.385    0.378    0.295   38.540
   70.500  272.027   22.987    0.390    0.301   39.228
   70.750  269.884   22.341    0.399    0.310   39.929
   71.000  268.798   22.317    0.398    0.316   39.907
   71.250  267.711   24.167    0.377    0.320   40.631
   71.500  266.624   26.023    0.351    0.326   40.576
   71.750  265.527   27.252    0.331    0.314   41.323
   72.000  264.451   28.481    0.315    0.301   41.257
   72.250  262.309   29.090    0.322    0.305   41.235
   72.500  260.187   29.058    0.342    0.314   41.191
   72.750  268.507   27.779    0.367    0.324   41.926
   73.000  278.916   26.500    0.377    0.306   43.507
   73.250  290.361   26.475    0.351    0.280   44.307
   73.500  289.274   28.325    0.310    0.289   44.248
   73.750  285.062   30.188    0.310    0.303   41.747
   74.000  278.750   32.671    0.317    0.297   36.501
   74.250  273.483   37.663    0.319    0.284   30.134
   74.500  260.900   47.671    0.334    0.279   27.377
   74.750  259.813   58.307    0.377    0.267   23.936
   75.000  261.841   63.298    0.390    0.266   21.330
   75.250  263.890   68.290    0.430    0.267   19.003
   75.500  264.893   68.265    0.453    0.261   17.255
   75.750  269.022   66.353    0.451    0.254   15.973
   76.000  271.091   63.826    0.426    0.241   15.074
   76.250  273.140   61.292    0.406    0.243   15.642
   76.500  275.188   53.115    0.390    0.243   22.010
   76.750  274.102   46.813    0.369    0.230   24.169
   77.000  269.880   46.161    0.377    0.229   23.241
   77.250  265.637   48.645    0.379    0.242   22.361
   77.500  265.616   53.009    0.379    0.258   20.694
   77.750  265.574   58.628    0.390    0.271   19.525
   78.000  264.477   63.614    0.415    0.274   19.136
   78.250  263.391   56.697    0.408    0.281   20.245
   78.500  264.394   52.282    0.381    0.272   22.230
   78.750  265.398   53.512    0.365    0.269   20.974
   79.000  261.175   57.249    0.376    0.270   19.416
   79.250  266.349   59.726    0.370    0.264   17.973
   79.500  263.172   59.708    0.363    0.270   17.959
   79.750  260.006   52.779    0.376    0.280   18.994
   80.000  258.908   43.347    0.395    0.297   21.677
   80.250  256.777   38.927    0.393    0.288   27.203
   80.500  253.600   38.268    0.423    0.293   29.332
   80.750  252.513   37.002    0.417    0.308   31.014
   81.000  263.968   31.333    0.417    0.296   30.981
   81.250  270.187   28.794    0.422    0.301   28.146
   81.500  271.190   33.164    0.413    0.296   25.082
   81.750  271.149   31.873    0.411    0.289   27.556
   82.000  269.027   29.346    0.400    0.291   32.046
   82.250  264.795   29.942    0.402    0.304   29.665
   82.500  260.573   31.798    0.412    0.332   27.461
   82.750  263.677   34.288    0.420    0.313   29.594
   83.000  267.816   41.160    0.419    0.297   30.709
   83.250  271.944   39.254    0.390    0.281   29.530
   83.500  272.948   37.348    0.344    0.267   28.397
   83.750  267.691   37.950    0.344    0.291   28.374
   84.000  263.458   38.552    0.367    0.317   28.344
   84.250  267.597   37.267    0.362    0.336   28.850
   84.500  270.691   33.480    0.384    0.328   31.108
   84.750  271.695   27.184    0.343    0.316   32.892
   85.000  266.427   25.898    0.324    0.312   33.488
   85.250  262.205   28.388    0.351    0.312   32.203
   85.500  262.164   27.109    0.382    0.317   30.967
   85.750  261.077   24.570    0.413    0.332   29.778
   86.000  279.837   25.165    0.391    0.337   30.909
   86.250  275.626   25.780    0.408    0.373   36.645
