~VERSION INFORMATION
 VERS.                 2.0:   CWLS LOG ASCII STANDARD -VERSION 2.0
 WRAP.                  NO:   ONE LINE PER DEPTH STEP
~WELL INFORMATION BLOCK
#MNEM.UNIT           DATA                    DESCRIPTION OF MNEMONIC
#---------    -------------------            -------------------------------
# Generated from Intellog Unique Number	CW_79_81/WELL/2493
WELL.         GULF WABASCA                   : Well_name    - WELL
LOC .         00/15-36-080-19W4/0            : Location     - LOCATION
UWI .         00/15-36-080-19W4/0            : Uwi          - UNIQUE WELL ID
ENTR.         MAX                            : Entered      - ENTERED BY
SRVC.         SCHLUMBERGER                   : Scn          - SERVICE COMPANY
STRT.M        137.16                         : top_depth    - START DEPTH
STOP.M        365.41                         : bot_depth    - STOP DEPTH
STEP.M        0.25                           : increment    - STEP LENGTH
 NULL. -999.2500:NULL Value
~CURVE INFORMATION BLOCK
#MNEM UNIT       ERCB CURVE CODE    CURVE DESCRIPTION
#-----------   ------------------   ----------------------------------
DEPT.M        00 001 00 00         : DEPTH        - DEPTH
ILD .OHMM     00 120 00 00         : RESD         - DEEP RESISTIVITY (DIL)
NPHI.V/V      00 330 00 00         : PHIN         - NEUTRON POROSITY (SANDSTONE)
DPHI.V/V      00 890 00 00         : PHID         - DENSITY POROSITY (SANDSTONE)
GR  .API      00 310 00 00         : GR           - GAMMA RAY
CALI.MM       00 280 01 00         : CAL          - CALIPER
~PARAMETER INFORMATION
#MNEM.UNIT           DATA             DESCRIPTION OF MNEMONIC
#---------         -----------     ------------------------------
GL  .M        569.976              : gl           - GROUND LEVEL ELEVATION
EREF.M        573.329              : kb           - ELEVATION OF DEPTH REFERENCE
DATM.M        569.976              : datum        - DATUM ELEVATION
TDD .M        376.733              : tdd          - TOTAL DEPTH DRILLER
RUN .         ONE                  : Run          - RUN NUMBER
ENG .         BILL                 : Engineer     - RECORDING ENGINEER
WIT .         JIM                  : Witness      - WITNESSED BY
MUD .         GEL                  : Mud_type     - MUD TYPE
MATR.         SANDSTONE            : Logunit      - NEUTRON MATRIX
TMAX.C        23.3333              : BHT          - MAXIMUM RECORDED TEMPERATURE
BHTD.M        376.733              : BHTDEP       - MAXIMUM RECORDED TEMPERATURE
MATR.         1                    : LOGUNIT      - NEUTRON MATRIX
RMT .C        20                   : MDTP         - TEMPERATURE OF MUD
NEUT.         1                    : NEUTRON      - NEUTRON TYPE
RESI.         0                    : RESIST       - RESISTIVITY TYPE
RMC .OHMM     7.3                  : RMC          - RESISTIVITY OF MUD CAKE
RMF .OHMM     7.49                 : RMF          - RESISTIVITY OF MUD FILTRATE
SUFT.C        -23.3333             : SUFT         - SURFACE TEMPERATURE
~A  DEPTH     RESD     PHIN     PHID       GR      CAL
# ...
  173.660    2.767    0.561    0.237   94.569  194.991
  173.910    2.857    0.552    0.233   94.429  195.341
  174.160    2.933    0.542    0.234   94.463  195.591
  174.410    3.004    0.549    0.230   96.702  195.539
  174.660    3.048    0.558    0.243   99.847  195.498
  174.910    3.045    0.553    0.266  102.863  195.846
  175.160    3.043    0.560    0.259  103.947  195.904
  175.410    3.063    0.567    0.240  105.208  196.053
  175.660    3.105    0.568    0.225  106.940  196.299
  175.910    3.152    0.564    0.232  107.026  196.257
  176.160    3.174    0.567    0.235  104.076  196.220
  176.410    3.148    0.566    0.232   99.603  196.969
  176.660    3.106    0.562    0.227   98.464  197.120
  176.910    3.060    0.568    0.231   99.959  197.076
  177.160    3.025    0.582    0.242  103.036  197.431
  177.410    3.022    0.580    0.241  106.132  199.293
  177.660    3.019    0.572    0.239  105.374  200.894
  177.910    3.040    0.580    0.247  104.646  202.039
  178.160    3.092    0.588    0.243  104.272  201.701
  178.410    3.146    0.586    0.234  104.131  200.074
  178.660    3.207    0.573    0.227  104.336  197.156
  178.910    3.352    0.551    0.229  105.483  192.740
  179.160    3.505    0.520    0.227  106.677  192.699
  179.410    3.736    0.525    0.229  105.484  193.047
  179.660    3.878    0.528    0.227  101.480  192.810
  179.910    3.947    0.527    0.220   98.293  192.370
  180.160    3.973    0.521    0.211   97.271  192.322
  180.410    3.999    0.515    0.207   97.378  193.549
  180.660    3.995    0.531    0.204   96.861  193.916
  180.910    3.935    0.536    0.213   97.771  193.467
  181.160    3.855    0.541    0.219   98.331  193.028
  181.410    3.713    0.534    0.216   96.200  192.389
  181.660    3.521    0.513    0.204   91.670  192.046
  181.910    3.255    0.501    0.184   87.611  193.351
  182.160    2.952    0.529    0.163   87.341  194.131
  182.410    3.014    0.563    0.203   91.759  198.046
  182.660    3.480    0.575    0.227   92.142  198.701
  182.910    4.096    0.568    0.247   92.117  198.268
  183.160    4.835    0.549    0.258   93.263  198.127
  183.410    7.158    0.513    0.249   94.959  199.028
  183.660    9.008    0.467    0.271   94.203  199.812
  183.910   10.372    0.454    0.274   89.262  200.557
  184.160   11.126    0.452    0.283   86.246  200.713
  184.410   11.283    0.451    0.285   85.869  201.066
  184.660   11.052    0.452    0.280   87.897  201.810
  184.910   10.555    0.464    0.278   92.069  202.711
  185.160   10.083    0.478    0.275   96.674  203.496
  185.410    9.574    0.478    0.257   99.688  204.645
  185.660    9.145    0.465    0.250  100.601  205.197
  185.910    8.653    0.454    0.245  101.396  204.360
  186.160    8.135    0.452    0.235  101.544  203.028
  186.410    7.670    0.459    0.225   98.002  203.850
  186.660    7.381    0.468    0.225   97.975  204.217
  186.910    7.323    0.472    0.221  100.058  203.385
  187.160    7.266    0.474    0.216  103.367  202.550
  187.410    7.235    0.476    0.211  103.927  201.313
  187.660    7.255    0.474    0.210  100.858  199.777
  187.910    7.398    0.463    0.219   95.889  198.539
  188.160    7.620    0.458    0.212   93.424  198.488
  188.410    8.121    0.461    0.221   94.805  197.255
  188.660    8.795    0.463    0.225   93.374  195.732
  188.910    9.388    0.462    0.226   90.655  193.510
  189.160    9.712    0.458    0.221   88.406  191.185
  189.410    9.776    0.454    0.203   88.614  190.353
  189.660    9.507    0.455    0.191   89.459  189.803
  189.910    9.218    0.460    0.209   90.163  189.757
  190.160    9.007    0.465    0.225   91.515  189.715
  190.410    8.839    0.472    0.230   90.904  189.667
  190.660    8.706    0.483    0.226   89.298  189.617
  190.910    8.535    0.496    0.224   91.378  189.571
  191.160    8.339    0.492    0.223   91.351  189.534
  191.410    8.333    0.491    0.231   92.493  189.481
  191.660    8.147    0.486    0.238   92.934  189.435
  191.910    7.880    0.479    0.239   93.493  189.195
  192.160    7.609    0.473    0.233   94.520  188.760
  192.410    7.307    0.469    0.220   96.038  188.315
  192.660    6.929    0.476    0.229   96.748  188.269
  192.910    6.628    0.482    0.228   97.892  188.220
  193.160    6.518    0.482    0.224   98.859  187.878
  193.410    6.584    0.485    0.219   98.600  187.238
  193.660    6.784    0.491    0.211   97.349  186.498
  193.910    7.007    0.495    0.194   97.054  186.135
  194.160    6.897    0.484    0.178   99.219  186.497
  194.410    6.647    0.481    0.208   99.424  187.255
  194.660    6.442    0.482    0.217   99.635  187.712
  194.910    6.300    0.477    0.213   99.025  187.670
  195.160    6.216    0.471    0.206   97.243  187.329
  195.410    6.166    0.487    0.209   94.211  187.192
  195.660    6.161    0.495    0.209   93.209  186.729
  195.910    6.290    0.491    0.216   93.651  186.293
  196.160    6.492    0.483    0.212   93.740  185.851
  196.410    6.774    0.475    0.209   93.480  185.212
  196.660    7.146    0.470    0.212   92.987  184.278
  196.910    7.799    0.470    0.219   91.754  182.780
  197.160    8.802    0.480    0.215   88.073  181.501
  197.410   10.277    0.468    0.213   81.494  179.079
  197.660   11.662    0.462    0.246   77.021  175.472
  197.910   12.866    0.458    0.272   77.346  173.050
  198.160   13.904    0.455    0.273   81.826  172.111
  198.410   14.986    0.455    0.261   87.255  170.621
  198.660   15.201    0.457    0.268   91.129  169.337
  198.910   15.301    0.451    0.257   92.042  168.901
  199.160   15.485    0.446    0.261   89.967  168.161
  199.410   15.698    0.444    0.267   87.599  167.127
  199.660   15.972    0.445    0.269   85.701  165.996
  199.910   16.402    0.442    0.269   82.705  164.984
  200.160   16.267    0.429    0.283   80.731  164.108
  200.410   15.222    0.420    0.278   73.915  163.677
  200.660   14.250    0.426    0.285   67.624  163.536
  200.910   13.293    0.428    0.276   69.939  163.886
  201.160   12.432    0.422    0.249   79.222  165.029
  201.410   11.739    0.417    0.220   84.494  168.431
  201.660   11.384    0.424    0.188   86.420  173.747
  201.910   11.213    0.422    0.174   88.032  180.441
  202.160   11.103    0.423    0.191   88.065  185.654
  202.410   11.015    0.423    0.210   87.455  190.170
  202.660   10.888    0.419    0.218   87.255  193.988
  202.910   10.481    0.414    0.220   90.042  196.978
  203.160    9.720    0.410    0.231   97.085  200.235
  203.410    8.574    0.433    0.213  101.036  202.168
  203.660    7.226    0.480    0.209  104.641  202.622
  203.910    6.199    0.518    0.200  109.648  200.795
  204.160    5.444    0.538    0.183  114.653  198.073
  204.410    4.742    0.551    0.168  115.969  198.105
  204.660    4.530    0.541    0.152  120.331  198.463
  204.910    4.462    0.561    0.159  124.052  198.433
  205.160    4.467    0.556    0.181  125.312  198.686
  205.410    4.464    0.542    0.190  124.584  199.236
  205.660    4.388    0.537    0.184  122.746  199.790
  205.910    4.147    0.562    0.192  121.320  199.736
  206.160    3.903    0.574    0.198  122.512  199.686
  206.410    3.494    0.583    0.218  122.250  199.646
  206.660    3.496    0.568    0.229  121.114  199.898
  206.910    3.810    0.539    0.236  118.164  200.250
  207.160    4.497    0.506    0.238  113.983  200.606
  207.410    5.957    0.476    0.227  109.845  201.278
  207.660    6.989    0.469    0.221  105.669  202.879
  207.910    7.881    0.470    0.221  105.645  202.439
  208.160    8.137    0.476    0.231  106.146  201.995
  208.410    7.954    0.488    0.229  107.055  201.956
  208.660    7.654    0.505    0.216  108.198  203.308
  208.910    7.485    0.522    0.208  109.345  207.619
  209.160    7.753    0.505    0.240  108.728  205.588
  209.410    8.348    0.485    0.225  107.240  201.414
  209.660    9.031    0.470    0.246  105.517  197.574
  209.910    9.809    0.455    0.257  103.735  187.223
