~VERSION INFORMATION
 VERS.                 2.0:   CWLS LOG ASCII STANDARD -VERSION 2.0
 WRAP.                  NO:   ONE LINE PER DEPTH STEP
~WELL INFORMATION BLOCK
#MNEM.UNIT           DATA                    DESCRIPTION OF MNEMONIC
#---------    -------------------            -------------------------------
# Generated from Intellog Unique Number	CW_76_78/WELL/928
WELL.         CHIEFLO SUNNYDAKE DROWND 10-34 : Well_name    - WELL
LOC .         00/10-34-076-22W4/0            : Location     - LOCATION
UWI .         00/10-34-076-22W4/0            : Uwi          - UNIQUE WELL ID
ENTR.         JAYE                           : Entered      - ENTERED BY
SRVC.         SCHLUMBERGER                   : Scn          - SERVICE COMPANY
DATE.         25 MAR 75                      : Date         - LOG DATE
STRT.M        527.304                        : top_depth    - START DEPTH
STOP.M        743.804                        : bot_depth    - STOP DEPTH
STEP.M        0.25                           : increment    - STEP LENGTH
 NULL. -999.2500:NULL Value
~CURVE INFORMATION BLOCK
#MNEM UNIT       ERCB CURVE CODE    CURVE DESCRIPTION
#-----------   ------------------   ----------------------------------
DEPT.M        00 001 00 00         : DEPTH        - DEPTH
ILD .OHMM     00 120 00 00         : RESD         - DEEP RESISTIVITY (DIL)
NPHI.V/V      00 330 00 00         : PHIN         - NEUTRON POROSITY (SANDSTONE)
DPHI.V/V      00 890 00 00         : PHID         - DENSITY POROSITY (SANDSTONE)
GR  .API      00 310 00 00         : GR           - GAMMA RAY
CALI.MM       00 280 01 00         : CAL          - CALIPER
~PARAMETER INFORMATION
#MNEM.UNIT           DATA             DESCRIPTION OF MNEMONIC
#---------         -----------     ------------------------------
GL  .M        811.073              : gl           - GROUND LEVEL ELEVATION
EREF.M        814.578              : kb           - ELEVATION OF DEPTH REFERENCE
DATM.M        811.073              : datum        - DATUM ELEVATION
TDD .M        748.436              : tdd          - TOTAL DEPTH DRILLER
RUN .         ONE                  : Run          - RUN NUMBER
ENG .         BERNIISKY            : Engineer     - RECORDING ENGINEER
WIT .         BROWN                : Witness      - WITNESSED BY
BASE.         EDM                  : Branch       - HOME BASE OF LOGGING UNIT
MUD .         GEL                  : Mud_type     - MUD TYPE
MATR.         SANDSTONE            : Logunit      - NEUTRON MATRIX
TMAX.C        27.7778              : BHT          - MAXIMUM RECORDED TEMPERATURE
BHTD.M        748.894              : BHTDEP       - MAXIMUM RECORDED TEMPERATURE
RMT .C        -17.7778             : MDTP         - TEMPERATURE OF MUD
MUDD.KG/M     1188                 : MWT          - MUD DENSITY
NEUT.         1                    : NEUTRON      - NEUTRON TYPE
RESI.         0                    : RESIST       - RESISTIVITY TYPE
RM  .OHMM     3.82                 : RM           - RESISTIVITY OF MUD
RMC .OHMM     0                    : RMC          - RESISTIVITY OF MUD CAKE
RMF .OHMM     4.9                  : RMF          - RESISTIVITY OF MUD FILTRATE
SUFT.C        -17.7778             : SUFT         - SURFACE TEMPERATURE
~A  DEPTH     RESD     PHIN     PHID       GR      CAL
# ...
  636.804    5.603    0.471    0.189   92.216  168.800
  637.054    5.438    0.471    0.203   91.182  164.965
  637.304    5.377    0.465    0.215   87.454  161.343
  637.554    5.336    0.465    0.205   88.752  164.259
  637.804    5.304    0.468    0.198   90.831  166.646
  638.054    5.303    0.464    0.213   93.101  167.279
  638.304    5.301    0.434    0.209   94.567  166.865
  638.554    5.250    0.429    0.190   98.181  165.733
  638.804    5.200    0.427    0.178   96.541  167.714
  639.054    5.170    0.424    0.205   94.461  171.246
  639.304    5.159    0.414    0.215   94.222  172.083
  639.554    5.157    0.428    0.210   95.451  170.749
  639.804    5.202    0.435    0.203   93.436  168.592
  640.054    5.239    0.441    0.196   90.381  166.615
  640.304    5.305    0.452    0.188   89.222  164.444
  640.554    5.323    0.463    0.198   91.000  161.451
  640.804    5.282    0.475    0.207   91.559  158.761
  641.054    5.212    0.478    0.205   90.949  156.713
  641.304    5.106    0.471    0.198   91.014  155.984
  641.554    5.049    0.456    0.199   91.082  156.723
  641.804    5.001    0.447    0.197   91.147  161.592
  642.054    4.981    0.434    0.189   91.213  170.814
  642.304    4.969    0.426    0.212   93.053  175.903
  642.554    4.986    0.425    0.218   96.544  169.069
  642.804    5.003    0.442    0.219   95.448  165.561
  643.054    5.065    0.441    0.217   90.747  166.826
  643.304    5.139    0.435    0.226   88.484  167.955
  643.554    5.156    0.448    0.222   91.244  168.901
  643.804    5.069    0.469    0.209   91.677  168.591
  644.054    4.948    0.481    0.204   90.091  168.409
  644.304    4.777    0.475    0.204   88.867  168.402
  644.554    4.586    0.466    0.204   88.569  168.542
  644.804    4.526    0.454    0.196   89.735  168.338
  645.054    4.860    0.449    0.184   92.862  168.132
  645.304    5.870    0.469    0.193   95.747  168.133
  645.554    7.261    0.477    0.202   97.580  169.697
  645.804    9.845    0.455    0.173   96.542  171.458
  646.054   10.709    0.405    0.170   82.537  172.804
  646.304   10.337    0.342    0.165   74.593  166.708
  646.554    9.205    0.266    0.096   65.906  158.733
  646.804    8.181    0.319    0.060   73.926  163.414
  647.054    7.366    0.376    0.114   89.531  167.348
  647.304    6.742    0.422    0.185   92.594  167.981
  647.554    6.425    0.453    0.206   92.662  165.089
  647.804    6.353    0.446    0.190   92.238  162.311
  648.054    6.408    0.442    0.192   91.878  160.854
  648.304    6.477    0.447    0.208   92.858  159.106
  648.554    6.546    0.448    0.229   94.643  157.554
  648.804    6.580    0.441    0.224   95.810  154.664
  649.054    6.614    0.431    0.202   97.342  153.537
  649.304    6.612    0.441    0.185   98.200  154.366
  649.554    6.646    0.449    0.189   95.766  156.141
  649.804    6.620    0.446    0.191   93.619  158.217
  650.054    6.569    0.448    0.179   92.157  158.430
  650.304    6.471    0.450    0.167   92.772  160.096
  650.554    6.386    0.438    0.166   95.839  161.862
  650.804    6.291    0.431    0.186   99.205  163.230
  651.054    6.185    0.434    0.193  101.597  164.054
  651.304    6.149    0.447    0.210  102.277  165.526
  651.554    6.001    0.445    0.197  100.627  166.777
  651.804    5.901    0.433    0.187   98.309  167.916
  652.054    5.813    0.434    0.173   97.087  169.489
  652.304    5.790    0.432    0.177   96.978  170.947
  652.554    5.906    0.421    0.179   97.471  171.874
  652.804    6.158    0.425    0.182   97.654  172.611
  653.054    6.351    0.441    0.195   97.050  173.769
  653.304    6.491    0.444    0.189   95.279  174.598
  653.554    6.608    0.441    0.182   95.403  174.400
  653.804    6.691    0.444    0.196   94.069  173.161
  654.054    6.763    0.453    0.187   92.169  170.266
  654.304    6.962    0.450    0.197   90.160  164.783
  654.554    7.422    0.435    0.207   89.004  159.919
  654.804    8.178    0.436    0.224   88.269  157.239
  655.054    9.521    0.428    0.203   86.865  157.975
  655.304   10.299    0.390    0.167   83.936  158.804
  655.554   10.219    0.354    0.139   81.063  160.066
  655.804    9.794    0.298    0.094   76.603  161.200
  656.054    9.030    0.271    0.056   74.589  163.503
  656.304    8.342    0.312    0.073   77.899  167.541
  656.554    7.677    0.361    0.108   83.776  170.549
  656.804    7.290    0.410    0.140   91.791  168.491
  657.054    7.248    0.445    0.206   93.451  166.004
  657.304    7.218    0.450    0.223   91.739  164.673
  657.554    7.136    0.437    0.218   90.218  164.170
  657.804    7.042    0.408    0.204   89.620  164.478
  658.054    6.912    0.388    0.186   89.558  165.730
  658.304    6.734    0.403    0.167   90.235  167.496
  658.554    6.634    0.425    0.176   91.399  168.131
  658.804    6.559    0.426    0.187   92.756  167.209
  659.054    6.425    0.427    0.195   93.363  166.496
  659.304    6.341    0.433    0.203   91.413  166.189
  659.554    6.304    0.448    0.210   90.992  165.879
  659.804    6.302    0.458    0.216   92.096  165.697
  660.054    6.392    0.460    0.206   93.749  165.788
  660.304    6.557    0.457    0.188   95.101  165.914
  660.554    6.712    0.456    0.179   94.928  166.026
  660.804    6.785    0.471    0.181   93.951  166.329
  661.054    6.883    0.479    0.190   93.892  167.088
  661.304    6.893    0.460    0.195   93.957  167.922
  661.554    6.890    0.449    0.187   92.803  168.427
  661.804    6.913    0.444    0.192   96.963  166.681
  662.054    6.962    0.436    0.197   99.049  161.811
  662.304    6.972    0.427    0.197   99.299  162.858
  662.554    6.983    0.420    0.197   97.467  164.946
  662.804    6.967    0.413    0.199   95.023  166.200
  663.054    6.926    0.410    0.194   93.502  165.588
  663.304    6.577    0.413    0.195   91.921  164.572
  663.554    6.234    0.451    0.175   92.105  164.137
  663.804    5.941    0.464    0.195   95.167  163.530
  664.054    5.798    0.453    0.207   99.268  162.918
  664.304    5.882    0.446    0.211   98.855  162.614
  664.554    6.056    0.457    0.204   98.788  164.699
  664.804    6.373    0.449    0.197   98.740  169.464
  665.054    6.793    0.432    0.190   99.413  176.940
  665.304    7.282    0.456    0.189  100.821  178.178
  665.554    7.993    0.457    0.196   99.667  170.115
  665.804    8.366    0.428    0.195   95.327  164.730
  666.054    8.550    0.410    0.186   88.846  162.671
  666.304    7.956    0.392    0.176   85.427  163.296
  666.554    7.403    0.393    0.182   83.843  167.348
  666.804    7.524    0.404    0.206   83.721  164.461
  667.054    7.774    0.398    0.209   84.584  164.472
  667.304    8.456    0.402    0.221   82.874  166.541
  667.554    9.114    0.432    0.198   80.005  168.318
  667.804    9.592    0.423    0.146   76.768  169.038
  668.054    8.942    0.388    0.139   73.415  169.780
  668.304    8.125    0.366    0.137   76.287  170.214
  668.554    7.478    0.374    0.169   80.267  170.424
  668.804    6.819    0.389    0.190   83.456  167.208
  669.054    6.381    0.408    0.219   84.747  157.889
  669.304    6.026    0.431    0.231   84.260  156.865
  669.554    5.701    0.466    0.216   82.674  157.596
  669.804    5.554    0.466    0.216   82.065  159.161
  670.054    5.623    0.458    0.209   83.536  160.306
  670.304    5.736    0.453    0.217   85.314  161.143
  670.554    5.819    0.451    0.226   84.953  161.778
  670.804    5.903    0.450    0.243   84.657  162.212
  671.054    5.868    0.439    0.239   84.538  162.622
  671.304    5.823    0.437    0.231   84.663  163.277
  671.554    5.758    0.437    0.225   84.668  163.672
  671.804    5.714    0.438    0.233   84.363  164.308
  672.054    5.893    0.431    0.249   84.983  164.409
  672.304    6.190    0.427    0.238   86.333  164.102
  672.554    6.586    0.432    0.195   89.334  165.255
  672.804    7.283    0.428    0.147   90.933  167.950
  673.054    8.040    0.418    0.132   88.183  169.313
