~VERSION INFORMATION
 VERS.                 2.0:   CWLS LOG ASCII STANDARD -VERSION 2.0
 WRAP.                  NO:   ONE LINE PER DEPTH STEP
~WELL INFORMATION BLOCK
#MNEM.UNIT           DATA                    DESCRIPTION OF MNEMONIC
#---------    -------------------            -------------------------------
# Generated from Intellog Unique Number	CX_WELLS/WELL/3301
WELL.         ANDERSON ET AL NEWBY           : Well_name    - WELL
LOC .         00/10-35-084-05W4/0            : Location     - LOCATION
UWI .         00/10-35-084-05W400            : Uwi          - UNIQUE WELL ID
ENTR.         T                              : Entered      - ENTERED BY
SRVC.         SCHLUMBERGER                   : Scn          - SERVICE COMPANY
STRT.M        80                             : top_depth    - START DEPTH
STOP.M        330                            : bot_depth    - STOP DEPTH
STEP.M        0.25                           : increment    - STEP LENGTH
 NULL. -999.2500:NULL Value
~CURVE INFORMATION BLOCK
#MNEM UNIT       ERCB CURVE CODE    CURVE DESCRIPTION
#-----------   ------------------   ----------------------------------
DEPT.M        00 001 00 00         : DEPTH        - DEPTH
GR  .API      00 310 00 00         : GR           - GAMMA RAY
NPHI.V/V      00 330 00 00         : PHIN         - NEUTRON POROSITY (SANDSTONE)
DPHI.V/V      00 890 00 00         : PHID         - DENSITY POROSITY (SANDSTONE)
ILD .OHMM     00 120 00 00         : RESD         - DEEP RESISTIVITY (DIL)
~PARAMETER INFORMATION
#MNEM.UNIT           DATA             DESCRIPTION OF MNEMONIC
#---------         -----------     ------------------------------
GL  .M        470                  : gl           - GROUND LEVEL ELEVATION
EREF.M        474                  : kb           - ELEVATION OF DEPTH REFERENCE
DATM.M        474                  : datum        - DATUM ELEVATION
TDD .M        345                  : tdd          - TOTAL DEPTH DRILLER
RUN .         ONE                  : Run          - RUN NUMBER
ENG .         BILL                 : Engineer     - RECORDING ENGINEER
WIT .         JIM                  : Witness      - WITNESSED BY
MUD .         GEL                  : Mud_type     - MUD TYPE
MATR.         SANDSTONE            : Logunit      - NEUTRON MATRIX
TMAX.C        21                   : BHT          - MAXIMUM RECORDED TEMPERATURE
BHTD.M        345                  : BHTDEP       - MAXIMUM RECORDED TEMPERATURE
MATR.         1                    : LOGUNIT      - NEUTRON MATRIX
RMT .C        20                   : MDTP         - TEMPERATURE OF MUD
NEUT.         1                    : NEUTRON      - NEUTRON TYPE
RESI.         4                    : RESIST       - RESISTIVITY TYPE
RMC .OHMM     3.3                  : RMC          - RESISTIVITY OF MUD CAKE
RMF .OHMM     3.3                  : RMF          - RESISTIVITY OF MUD FILTRATE
SUFT.C        4                    : SUFT         - SURFACE TEMPERATURE
~A  DEPTH       GR     PHIN     PHID     RESD
# ...
  254.000   83.785    0.529    0.283    4.801
  254.250   86.917    0.547    0.316    4.718
  254.500   90.025    0.572    0.351    4.466
  254.750   94.386    0.569    0.350    4.308
  255.000   98.132    0.564    0.348    4.153
  255.250  100.011    0.554    0.331    4.239
  255.500  103.131    0.540    0.293    4.242
  255.750  104.407    0.519    0.256    4.328
  256.000  102.610    0.489    0.227    4.417
  256.250   86.688    0.446    0.209    4.503
  256.500   75.044    0.420    0.215    4.263
  256.750   70.788    0.410    0.244    3.814
  257.000   65.315    0.417    0.269    3.542
  257.250   71.497    0.437    0.274    3.416
  257.500   93.682    0.490    0.288    3.421
  257.750  101.105    0.564    0.291    3.424
  258.000  113.468    0.571    0.266    3.494
  258.250  113.514    0.550    0.247    3.498
  258.500  112.935    0.535    0.239    3.503
  258.750  112.981    0.544    0.244    3.507
  259.000  114.257    0.569    0.252    3.512
  259.250  115.533    0.586    0.266    3.516
  259.500  109.434    0.577    0.271    3.521
  259.750  107.636    0.556    0.256    3.592
  260.000  108.298    0.548    0.235    3.665
  260.250  110.188    0.551    0.225    3.740
  260.500  110.873    0.535    0.219    3.744
  260.750  105.979    0.509    0.217    3.543
  261.000   98.650    0.456    0.227    3.415
  261.250   84.572    0.428    0.243    3.115
  261.500   74.784    0.407    0.264    3.002
  261.750   63.153    0.377    0.283    2.788
  262.000   60.752    0.330    0.292    2.591
  262.250   51.556    0.273    0.284    2.497
  262.500   49.759    0.274    0.265    2.409
  262.750   46.106    0.280    0.275    2.367
  263.000   41.236    0.288    0.290    2.283
  263.250   30.833    0.308    0.290    2.244
  263.500   25.360    0.326    0.286    2.204
  263.750   24.166    0.314    0.275    2.208
  264.000   22.995    0.319    0.273    2.209
  264.250   22.427    0.327    0.271    2.213
  264.500   22.474    0.319    0.269    2.216
  264.750   22.520    0.309    0.266    2.260
  265.000   23.182    0.297    0.261    2.305
  265.250   23.866    0.290    0.251    2.443
  265.500   25.131    0.286    0.239    2.539
  265.750   26.395    0.289    0.224    2.740
  266.000   29.526    0.315    0.211    3.071
  266.250   33.261    0.362    0.192    3.377
  266.500   47.445    0.396    0.169    3.857
  266.750   75.777    0.405    0.164    4.323
  267.000   94.275    0.379    0.156    4.846
  267.250  107.843    0.355    0.151    5.036
  267.500   80.231    0.329    0.149    4.856
  267.750   56.910    0.316    0.147    4.263
  268.000   47.737    0.306    0.147    3.961
  268.250   41.637    0.294    0.156    3.747
  268.500   36.152    0.283    0.165    3.548
  268.750   31.293    0.275    0.175    3.295
  269.000   29.496    0.281    0.186    3.237
  269.250   27.710    0.292    0.188    3.063
  269.500   27.733    0.301    0.195    2.847
  269.750   29.021    0.312    0.223    2.693
  270.000   30.297    0.323    0.271    2.549
  270.250   27.271    0.334    0.274    2.458
  270.500   22.400    0.344    0.266    2.370
  270.750   32.884    0.355    0.250    2.374
  271.000   40.318    0.366    0.250    2.376
  271.250   50.814    0.372    0.241    2.380
  271.500   57.622    0.374    0.212    2.382
  271.750   75.517    0.374    0.219    2.386
  272.000   87.242    0.369    0.248    2.433
  272.250   75.598    0.357    0.255    2.438
  272.500   58.435    0.343    0.252    2.440
  272.750   36.957    0.323    0.248    2.491
  273.000   33.316    0.302    0.245    2.493
  273.250   26.602    0.294    0.244    2.542
  273.500   25.431    0.291    0.241    2.595
  273.750   24.248    0.288    0.238    2.598
  274.000   22.463    0.285    0.234    2.651
  274.250   21.872    0.283    0.233    2.654
  274.500   20.712    0.283    0.226    2.707
  274.750   20.747    0.284    0.222    2.711
  275.000   20.806    0.284    0.222    2.715
  275.250   21.467    0.285    0.222    2.768
  275.500   22.128    0.286    0.222    2.772
  275.750   22.790    0.288    0.222    2.775
  276.000   22.825    0.292    0.229    2.779
  276.250   22.895    0.294    0.245    2.730
  276.500   22.315    0.298    0.249    2.735
  276.750   21.736    0.300    0.244    2.738
  277.000   20.565    0.304    0.245    2.742
  277.250   20.623    0.308    0.251    2.745
  277.500   20.658    0.311    0.251    2.749
  277.750   21.969    0.314    0.248    2.752
  278.000   21.992    0.313    0.247    2.756
  278.250   22.028    0.307    0.244    2.758
  278.500   22.086    0.302    0.241    2.763
  278.750   21.506    0.298    0.237    2.765
  279.000   21.576    0.299    0.234    2.718
  279.250   21.635    0.301    0.234    2.721
  279.500   22.285    0.302    0.234    2.674
  279.750   23.549    0.300    0.234    2.627
  280.000   26.066    0.300    0.231    2.630
  280.250   27.342    0.299    0.230    2.635
  280.500   29.859    0.299    0.229    2.637
  280.750   31.123    0.300    0.227    2.641
  281.000   31.796    0.303    0.230    2.594
  281.250   32.457    0.310    0.232    2.597
  281.500   32.516    0.312    0.236    2.601
  281.750   32.539    0.312    0.240    2.604
  282.000   32.598    0.311    0.240    2.607
  282.250   32.656    0.309    0.234    2.611
  282.500   32.703    0.311    0.229    2.615
  282.750   32.738    0.313    0.228    2.618
  283.000   32.773    0.316    0.226    2.620
  283.250   32.228    0.319    0.226    2.625
  283.500   31.660    0.322    0.221    2.627
  283.750   30.466    0.326    0.217    2.680
  284.000   29.295    0.329    0.225    2.734
  284.250   27.498    0.333    0.232    2.791
  284.500   26.930    0.337    0.231    2.847
  284.750   25.747    0.338    0.227    2.960
  285.000   25.179    0.339    0.222    3.077
  285.250   25.226    0.339    0.213    3.199
  285.500   25.261    0.336    0.199    3.324
  285.750   25.331    0.332    0.181    3.521
  286.000   24.740    0.324    0.151    3.730
  286.250   24.184    0.319    0.145    3.879
  286.500   23.013    0.312    0.145    3.957
  286.750   22.433    0.309    0.146    3.888
  287.000   21.262    0.312    0.147    3.680
  287.250   20.706    0.319    0.152    3.615
  287.500   20.729    0.324    0.154    3.421
  287.750   20.776    0.325    0.164    3.238
  288.000   20.823    0.325    0.185    3.065
  288.250   20.881    0.325    0.195    3.011
  288.500   21.542    0.325    0.192    2.906
  288.750   21.589    0.320    0.183    2.855
  289.000   22.877    0.316    0.167    2.803
  289.250   23.538    0.324    0.152    2.705
  289.500   24.802    0.325    0.168    2.707
  289.750   25.464    0.325    0.209    2.712
  290.000   24.896    0.323    0.226    2.714
  290.250   23.099    0.321    0.223    2.717
  290.500   23.169    0.319    0.218    2.620
  290.750   24.421    0.322    0.214    2.575
  291.000   26.335    0.325    0.208    2.580
  291.250   26.997    0.326    0.201    2.581
  291.500   26.429    0.325    0.190    2.634
  291.750   26.476    0.321    0.183    2.637
  292.000   27.148    0.320    0.180    2.691
  292.250   27.787    0.325    0.176    2.694
  292.500   29.712    0.327    0.168    2.751
  292.750   30.977    0.328    0.163    2.752
  293.000   31.626    0.331    0.164    2.755
  293.250   31.685    0.331    0.169    2.759
  293.500   31.731    0.329    0.174    2.763
  293.750   31.175    0.327    0.173    2.766
  294.000   30.584    0.324    0.169    2.824
  294.250   29.401    0.326    0.163    2.827
  294.500   28.218    0.329    0.167    2.829
  294.750   27.036    0.331    0.172    2.833
  295.000   25.865    0.335    0.177    2.890
  295.250   24.671    0.332    0.181    2.841
  295.500   23.500    0.326    0.180    2.844
  295.750   22.317    0.320    0.174    2.847
  296.000   21.738    0.318    0.170    2.851
  296.250   21.205    0.318    0.164    2.909
  296.500   21.240    0.309    0.160    2.968
  296.750   21.298    0.309    0.153    2.971
  297.000   21.333    0.317    0.152    3.033
  297.250   21.983    0.318    0.180    3.094
