~VERSION INFORMATION
 VERS.                 2.0:   CWLS LOG ASCII STANDARD -VERSION 2.0
 WRAP.                  NO:   ONE LINE PER DEPTH STEP
~WELL INFORMATION BLOCK
#MNEM.UNIT           DATA                    DESCRIPTION OF MNEMONIC
#---------    -------------------            -------------------------------
# Generated from Intellog Unique Number	CS_77_79/WELL/3308
WELL.         ANDERSON EXPLORATION LTD.      : Well_name    - WELL
LOC .         00/14-33-077-03W4/0            : Location     - LOCATION
UWI .         00/14-33-077-03W4/0            : Uwi          - UNIQUE WELL ID
ENTR.         JOETTE                         : Entered      - ENTERED BY
SRVC.         COMPUTALOG                     : Scn          - SERVICE COMPANY
DATE.         08/26/92                       : Date         - LOG DATE
STRT.M        175                            : top_depth    - START DEPTH
STOP.M        435                            : bot_depth    - STOP DEPTH
STEP.M        0.25                           : increment    - STEP LENGTH
 NULL. -999.2500:NULL Value
~CURVE INFORMATION BLOCK
#MNEM UNIT       ERCB CURVE CODE    CURVE DESCRIPTION
#-----------   ------------------   ----------------------------------
DEPT.M        00 001 00 00         : DEPTH        - DEPTH
ILD .OHMM     00 120 00 00         : RESD         - DEEP RESISTIVITY (DIL)
NPHI.V/V      00 330 00 00         : PHIN         - NEUTRON POROSITY (SANDSTONE)
GR  .API      00 310 00 00         : GR           - GAMMA RAY
~PARAMETER INFORMATION
#MNEM.UNIT           DATA             DESCRIPTION OF MNEMONIC
#---------         -----------     ------------------------------
GL  .M        565.2                : gl           - GROUND LEVEL ELEVATION
EREF.M        568.8                : kb           - ELEVATION OF DEPTH REFERENCE
DATM.M        568.8                : datum        - DATUM ELEVATION
TDD .M        434.4                : tdd          - TOTAL DEPTH DRILLER
RUN .         ONE                  : Run          - RUN NUMBER
ENG .         BILL                 : Engineer     - RECORDING ENGINEER
WIT .         JIM                  : Witness      - WITNESSED BY
MUD .         GEL                  : Mud_type     - MUD TYPE
MATR.         SANDSTONE            : Logunit      - NEUTRON MATRIX
TMAX.C        25                   : BHT          - MAXIMUM RECORDED TEMPERATURE
BHTD.M        434.3                : BHTDEP       - MAXIMUM RECORDED TEMPERATURE
MATR.         1                    : LOGUNIT      - NEUTRON MATRIX
RMT .C        13                   : MDTP         - TEMPERATURE OF MUD
NEUT.         1                    : NEUTRON      - NEUTRON TYPE
RESI.         0                    : RESIST       - RESISTIVITY TYPE
RMC .OHMM     1.9                  : RMC          - RESISTIVITY OF MUD CAKE
RMF .OHMM     1.7                  : RMF          - RESISTIVITY OF MUD FILTRATE
SUFT.C        15                   : SUFT         - SURFACE TEMPERATURE
~A  DEPTH     RESD     PHIN       GR
# ...
  337.750    4.144    0.309   75.425
  338.000    4.145    0.330   74.795
  338.250    4.224    0.334   82.428
  338.500    4.225    0.332   93.871
  338.750    4.306    0.326  101.507
  339.000    4.307    0.319  100.247
  339.250    4.228    0.321   87.553
  339.500    4.150    0.330   75.495
  339.750    3.851    0.339   74.238
  340.000    3.641    0.342   77.421
  340.250    3.443    0.336   76.797
  340.500    3.444    0.328   72.998
  340.750    3.444    0.328   72.374
  341.000    3.445    0.316   73.654
  341.250    3.382    0.316   75.570
  341.500    3.258    0.326   74.945
  341.750    3.198    0.332   71.780
  342.000    3.199    0.334   68.614
  342.250    3.199    0.322   65.446
  342.500    3.200    0.314   64.189
  342.750    3.201    0.328   69.278
  343.000    3.262    0.338   80.724
  343.250    3.325    0.343   83.908
  343.500    3.453    0.340   87.729
  343.750    3.519    0.333   79.482
  344.000    3.654    0.328   81.398
  344.250    3.795    0.333   85.220
  344.500    3.867    0.347   89.041
  344.750    4.016    0.352   91.597
  345.000    4.017    0.351   88.432
  345.250    4.094    0.347   83.358
  345.500    4.172    0.341   78.925
  345.750    4.173    0.337   77.030
  346.000    4.174    0.342   77.037
  346.250    4.021    0.343   76.413
  346.500    3.874    0.341   73.885
  346.750    3.732    0.339   71.352
  347.000    3.876    0.339   66.916
  347.250    4.025    0.342   62.480
  347.500    4.102    0.348   70.112
  347.750    4.103    0.351   75.840
  348.000    4.103    0.354   77.755
  348.250    3.880    0.349   73.955
  348.500    3.600    0.346   68.886
  348.750    3.404    0.341   64.450
  349.000    3.405    0.339   61.282
  349.250    3.536    0.339   56.211
  349.500    3.672    0.342   53.683
  349.750    3.813    0.349   55.596
  350.000    4.035    0.353   53.066
  350.250    4.269    0.359   61.969
  350.500    4.190    0.366   70.872
  350.750    3.816    0.370   78.507
  351.000    3.476    0.371   76.609
  351.250    3.286    0.366   63.281
  351.500    3.107    0.359   58.845
  351.750    2.938    0.356   62.034
  352.000    2.778    0.350   62.047
  352.250    2.727    0.340   58.243
  352.500    2.578    0.327   39.198
  352.750    2.484    0.329   32.859
  353.000    2.393    0.335   32.234
  353.250    2.349    0.341   30.337
  353.500    2.349    0.344   30.350
  353.750    2.394    0.340   32.268
  354.000    2.440    0.336   32.273
  354.250    2.582    0.336   31.648
  354.500    2.631    0.345   28.485
  354.750    2.733    0.350   25.320
  355.000    2.785    0.354   27.868
  355.250    2.786    0.358   43.126
  355.500    2.839    0.360   48.850
  355.750    2.787    0.364   57.118
  356.000    2.736    0.373   62.210
  356.250    2.636    0.364   55.868
  356.500    2.587    0.352   47.621
  356.750    2.540    0.342   41.918
  357.000    2.493    0.336   45.104
  357.250    2.447    0.332   41.301
  357.500    2.448    0.340   26.069
  357.750    2.448    0.348   26.715
  358.000    2.449    0.353   27.998
  358.250    2.449    0.350   29.276
  358.500    2.496    0.343   29.922
  358.750    2.592    0.341   28.029
  359.000    2.692    0.349   28.037
  359.250    2.796    0.360   29.953
  359.500    2.958    0.370   38.856
  359.750    3.189    0.373   57.286
  360.000    3.375    0.367   64.919
  360.250    3.439    0.356   70.646
  360.500    3.440    0.347   71.927
  360.750    3.441    0.336   69.396
  361.000    3.441    0.330   62.420
  361.250    3.442    0.333   56.078
  361.500    3.443    0.359   50.372
  361.750    3.380    0.363   55.464
  362.000    3.317    0.367   60.556
  362.250    3.257    0.368   64.377
  362.500    3.197    0.368   63.752
  362.750    2.912    0.369   46.613
  363.000    2.702    0.377   34.554
  363.250    2.507    0.380   28.848
  363.500    2.241    0.375   28.228
  363.750    2.118    0.370   28.234
  364.000    2.080    0.376   28.879
  364.250    2.004    0.373   28.895
  364.500    2.004    0.365   28.902
  364.750    2.004    0.356   26.372
  365.000    2.043    0.352   24.477
  365.250    2.043    0.351   25.125
  365.500    2.082    0.351   27.041
  365.750    2.122    0.351   28.954
  366.000    2.122    0.348   30.238
  366.250    2.709    0.348   28.978
  366.500    2.205    0.353   25.815
  366.750    2.205    0.357   24.549
  367.000    2.206    0.357   23.289
  367.250    2.206    0.355   23.300
  367.500    2.207    0.349   25.218
  367.750    2.207    0.346   27.134
  368.000    2.208    0.347   29.683
  368.250    2.250    0.353   32.872
  368.500    2.251    0.358   32.882
  368.750    2.251    0.355   30.352
  369.000    2.294    0.349   34.173
  369.250    2.295    0.344   29.099
  369.500    2.339    0.347   26.569
  369.750    2.339    0.353   32.931
  370.000    2.384    0.351   38.661
  370.250    2.384    0.347   31.052
  370.500    2.430    0.344   31.064
  370.750    2.477    0.344   31.705
  371.000    2.524    0.339   33.621
  371.250    2.525    0.334   35.539
  371.500    2.525    0.338   33.647
  371.750    2.479    0.357   33.017
  372.000    2.433    0.355   31.757
  372.250    2.434    0.350   29.861
  372.500    2.389    0.346   30.507
  372.750    2.390    0.346   31.790
  373.000    2.390    0.346   33.071
  373.250    2.436    0.346   31.178
  373.500    2.436    0.346   30.548
  373.750    2.483    0.341   29.924
  374.000    2.531    0.339   29.301
  374.250    2.579    0.344   29.312
  374.500    2.629    0.350   28.052
  374.750    2.679    0.356   27.427
  375.000    2.680    0.363   40.138
  375.250    2.680    0.364   43.325
  375.500    2.681    0.358   43.973
  375.750    2.631    0.359   42.080
  376.000    2.583    0.364   40.818
  376.250    2.489    0.354   40.195
  376.500    2.443    0.349   36.395
  376.750    2.398    0.354   33.226
  377.000    2.354    0.357   29.428
  377.250    2.355    0.357   33.247
  377.500    2.355    0.347   44.694
  377.750    2.312    0.361   44.066
  378.000    2.312    0.367   38.995
  378.250    2.313    0.370   39.641
  378.500    2.313    0.366   38.383
  378.750    2.271    0.359   35.218
  379.000    2.271    0.353   31.419
  379.250    2.272    0.349   30.154
  379.500    2.272    0.348   29.529
  379.750    2.273    0.348   33.351
  380.000    2.273    0.347   37.175
  380.250    2.273    0.345   37.818
  380.500    2.452    0.348   34.652
  380.750    2.362    0.351   31.487
  381.000    2.363    0.354   28.324
  381.250    2.363    0.361   28.967
  381.500    2.363    0.374   38.507
  381.750    2.409    0.386   36.612
  382.000    2.501    0.390   34.717
  382.250    2.598    0.381   36.633
  382.500    2.598    0.372   53.158
  382.750    2.456    0.369   55.712
  383.000    2.323    0.363   51.276
  383.250    2.280    0.367   46.205
  383.500    2.281    0.375   43.037
  383.750    2.324    0.379   41.776
  384.000    2.459    0.376   43.057
  384.250    2.602    0.370   46.881
  384.500    2.805    0.352   50.700
  384.750    3.024    0.346   56.427
  385.000    3.025    0.348   85.656
  385.250    3.026    0.362  107.901
  385.500    2.861    0.365   96.478
  385.750    2.862    0.362   75.527
  386.000    2.757    0.356   68.550
  386.250    2.656    0.350   69.836
  386.500    2.559    0.339   69.847
  386.750    2.512    0.331   69.219
  387.000    2.420    0.340   66.686
  387.250    2.376    0.368   60.980
  387.500    2.332    0.374   55.273
  387.750    2.332    0.382   47.667
  388.000    2.333    0.394   46.402
  388.250    2.333    0.376   43.871
  388.500    2.378    0.423   41.979
  388.750    2.424    0.432   43.259
  389.000    2.424    0.448   46.446
  389.250    2.471    0.442   50.264
  389.500    2.518    0.437   54.089
  389.750    2.518    0.430   54.099
  390.000    2.519    0.418   51.569
  390.250    2.520    0.404   50.944
  390.500    2.520    0.390   48.413
  390.750    2.521    0.374   45.880
  391.000    2.474    0.363   40.177
  391.250    2.429    0.365   35.103
  391.500    2.430    0.362   33.843
  391.750    2.430    0.353   34.488
