~VERSION INFORMATION
 VERS.                 2.0:   CWLS LOG ASCII STANDARD -VERSION 2.0
 WRAP.                  NO:   ONE LINE PER DEPTH STEP
~WELL INFORMATION BLOCK
#MNEM.UNIT           DATA                    DESCRIPTION OF MNEMONIC
#---------    -------------------            -------------------------------
# Generated from Intellog Unique Number	CS_77_79/WELL/963
WELL.         CDN OXY ET AL GRAHAM           : Well_name    - WELL
LOC .         00/10-26-079-04W4/0            : Location     - LOCATION
UWI .         00/10-26-079-04W4/0            : Uwi          - UNIQUE WELL ID
ENTR.         JHS                            : Entered      - ENTERED BY
SRVC.         SCHLUMBERGER                   : Scn          - SERVICE COMPANY
STRT.M        100                            : top_depth    - START DEPTH
STOP.M        325                            : bot_depth    - STOP DEPTH
STEP.M        0.25                           : increment    - STEP LENGTH
 NULL. -999.2500:NULL Value
~CURVE INFORMATION BLOCK
#MNEM UNIT       ERCB CURVE CODE    CURVE DESCRIPTION
#-----------   ------------------   ----------------------------------
DEPT.M        00 001 00 00         : DEPTH        - DEPTH
DPHI.V/V      00 890 00 00         : PHID         - DENSITY POROSITY (LIMESTONE)
NPHI.V/V      00 330 00 00         : PHIN         - NEUTRON POROSITY (LIMESTONE)
GR  .API      00 310 00 00         : GR           - GAMMA RAY
ILD .OHMM     00 120 00 00         : RESD         - DEEP RESISTIVITY (DIL)
~PARAMETER INFORMATION
#MNEM.UNIT           DATA             DESCRIPTION OF MNEMONIC
#---------         -----------     ------------------------------
GL  .M        474.32               : gl           - GROUND LEVEL ELEVATION
EREF.M        477.97               : kb           - ELEVATION OF DEPTH REFERENCE
DATM.M        477.97               : datum        - DATUM ELEVATION
TDD .M        335                  : tdd          - TOTAL DEPTH DRILLER
RUN .         ONE                  : Run          - RUN NUMBER
ENG .         BILL                 : Engineer     - RECORDING ENGINEER
WIT .         JIM                  : Witness      - WITNESSED BY
MUD .         GEL                  : Mud_type     - MUD TYPE
MATR.         LIMESTONE            : Logunit      - NEUTRON MATRIX
TMAX.C        19                   : BHT          - MAXIMUM RECORDED TEMPERATURE
BHTD.M        335                  : BHTDEP       - MAXIMUM RECORDED TEMPERATURE
MATR.         1                    : LOGUNIT      - NEUTRON MATRIX
RMT .C        25                   : MDTP         - TEMPERATURE OF MUD
NEUT.         1                    : NEUTRON      - NEUTRON TYPE
RESI.         0                    : RESIST       - RESISTIVITY TYPE
RMC .OHMM     0.25                 : RMC          - RESISTIVITY OF MUD CAKE
RMF .OHMM     0.25                 : RMF          - RESISTIVITY OF MUD FILTRATE
SUFT.C        15                   : SUFT         - SURFACE TEMPERATURE
~A  DEPTH     PHID     PHIN       GR     RESD
# ...
  187.000    0.211    0.460   97.467    5.397
  187.250    0.217    0.426   97.469    5.199
  187.500    0.227    0.435   96.858    4.734
  187.750    0.232    0.491   98.090    4.392
  188.000    0.238    0.539   98.707    4.076
  188.250    0.259    0.510  104.857    4.077
  188.500    0.266    0.510  106.705    3.928
  188.750    0.257    0.471  104.863    3.856
  189.000    0.255    0.501   96.259    3.577
  189.250    0.259    0.463   99.336    3.257
  189.500    0.264    0.422  105.486    2.910
  189.750    0.264    0.471  111.636    2.751
  190.000    0.266    0.523  112.254    2.701
  190.250    0.276    0.496  101.806    2.859
  190.500    0.283    0.502   99.349    3.388
  190.750    0.267    0.432   96.278    4.169
  191.000    0.235    0.404   90.748    4.940
  191.250    0.228    0.401   91.980    6.079
  191.500    0.237    0.443   98.130    7.203
  191.750    0.248    0.443   98.748    8.377
  192.000    0.252    0.390   93.833    9.927
  192.250    0.264    0.380   73.548   11.329
  192.500    0.116    0.337   68.633   12.929
  192.750    0.107    0.326   87.078   12.456
  193.000    0.169    0.327  100.606    9.941
  193.250    0.245    0.416  104.297    7.934
  193.500    0.281    0.421   98.768    6.098
  193.750    0.287    0.426   88.933    5.347
  194.000    0.260    0.436   87.707    4.778
  194.250    0.246    0.425   88.325    4.517
  194.500    0.241    0.394   88.942    4.520
  194.750    0.244    0.411   92.633    4.521
  195.000    0.236    0.482   92.021    4.696
  195.250    0.233    0.471   85.262    4.610
  195.500    0.245    0.436   85.879    4.441
  195.750    0.260    0.416   93.874    4.360
  196.000    0.262    0.418   95.721    4.528
  196.250    0.252    0.428   95.723    4.977
  196.500    0.259    0.438   96.341    5.898
  196.750    0.294    0.318   95.114    7.395
  197.000    0.347    0.278   92.657    8.930
  197.250    0.340    0.270   88.972   12.775
  197.500    0.275    0.286   88.975   12.779
  197.750    0.250    0.369   92.666   11.419
  198.000    0.235    0.416   94.513    7.270
  198.250    0.213    0.439   96.360    5.381
  198.500    0.229    0.471   93.289    3.765
  198.750    0.265    0.440   87.144    2.840
  199.000    0.262    0.483   84.073    2.398
  199.250    0.256    0.511   84.690    2.143
  199.500    0.274    0.490   87.153    2.064
  199.750    0.286    0.541   84.696    2.027
  200.000    0.289    0.581   77.322    2.066
  200.250    0.270    0.584   82.857    2.106
  200.500    0.261    0.576   92.081    2.147
  200.750    0.267    0.604   94.543    2.230
  201.000    0.271    0.604   96.390    2.273
  201.250    0.256    0.456  100.081    2.406
  201.500    0.231    0.406   87.789    2.746
  201.750    0.220    0.407   79.799    3.316
  202.000    0.234    0.424   84.720    3.644
  202.250    0.252    0.494   93.330    4.159
  202.500    0.257    0.411   90.259    4.657
  202.750    0.256    0.347   84.114    5.216
  203.000    0.149    0.314   81.658    5.842
  203.250    0.119    0.336   75.513    6.301
  203.500    0.181    0.320   78.589    6.186
  203.750    0.255    0.337   91.502    5.848
  204.000    0.258    0.376   98.267    5.225
  204.250    0.289    0.426  106.262    4.412
  204.500    0.284    0.490  105.035    3.797
  204.750    0.252    0.470   93.972    3.457
  205.000    0.236    0.485   97.663    3.208
  205.250    0.209    0.461   97.666    3.090
  205.500    0.204    0.493   99.513    3.150
  205.750    0.204    0.471  103.819    3.151
  206.000    0.207    0.483   97.675    3.036
  206.250    0.219    0.514   94.603    2.925
  206.500    0.234    0.498   93.376    2.981
  206.750    0.217    0.509   92.149    3.097
  207.000    0.210    0.450   98.915    3.217
  207.250    0.215    0.460   98.303    3.342
  207.500    0.230    0.510   94.002    3.407
  207.750    0.235    0.536   95.234    3.407
  208.000    0.226    0.441  100.769    3.607
  208.250    0.224    0.435   97.084    3.817
  208.500    0.240    0.363   92.168    4.196
  208.750    0.255    0.353   90.327    4.699
  209.000    0.250    0.380   94.633    5.164
  209.250    0.224    0.462   94.021    5.466
  209.500    0.213    0.439   95.869    5.168
  209.750    0.214    0.450   94.642    4.795
  210.000    0.220    0.467   96.489    4.620
  210.250    0.167    0.457   94.032    4.709
  210.500    0.100    0.386   81.739    5.374
  210.750    0.080    0.373   71.291    5.906
  211.000    0.162    0.327   71.909    6.741
  211.250    0.207    0.334   87.895    7.270
  211.500    0.241    0.355   90.358    7.695
  211.750    0.261    0.341   87.286    8.145
  212.000    0.284    0.320   80.527    8.148
  212.250    0.304    0.289   78.070    8.955
  212.500    0.315    0.267   78.073    9.843
  212.750    0.305    0.268   77.461   10.224
  213.000    0.294    0.285   76.849    9.666
  213.250    0.299    0.326   75.007    7.571
  213.500    0.291    0.409   73.780    5.819
  213.750    0.273    0.424   81.775    4.389
  214.000    0.263    0.432   86.696    3.374
  214.250    0.269    0.451   83.626    3.071
  214.500    0.279    0.486   89.160    2.850
  214.750    0.283    0.487   95.925    2.798
  215.000    0.295    0.336   94.698    2.961
  215.250    0.310    0.162   81.176    4.079
  215.500    0.318    0.147   68.884    8.344
  215.750    0.332    0.136   66.427   15.535
  216.000    0.352    0.127   65.201   24.879
  216.250    0.366    0.124   63.360   31.788
  216.500    0.374    0.117   59.674   35.601
  216.750    0.382    0.107   49.840   40.633
  217.000    0.399    0.099   42.466   44.655
  217.250    0.403    0.096   39.395   50.959
  217.500    0.363    0.102   36.324   59.263
  217.750    0.363    0.112   30.179   68.917
  218.000    0.361    0.127   32.026   80.149
  218.250    0.365    0.123   42.480   88.085
  218.500    0.377    0.102   41.867  100.526
  218.750    0.382    0.097   35.108  112.588
  219.000    0.379    0.102   30.808  110.527
  219.250    0.363    0.113   29.581  112.674
  219.500    0.342    0.118   36.346  123.836
  219.750    0.339    0.117   40.652  128.632
  220.000    0.351    0.104   40.040  128.677
  220.250    0.358    0.096   35.125  131.166
  220.500    0.335    0.090   30.209  152.533
  220.750    0.329    0.092   30.826  170.836
  221.000    0.331    0.091   35.748  191.328
  221.250    0.339    0.108   33.906  184.325
  221.500    0.350    0.131   31.451  102.876
  221.750    0.375    0.140   30.223  100.993
  222.000    0.383    0.136   28.382  108.928
  222.250    0.374    0.124   27.770  158.775
  222.500    0.365    0.126   28.387  214.656
  222.750    0.361    0.135   30.234   99.257
  223.000    0.377    0.139   32.081  115.433
  223.250    0.388    0.137   31.469  134.230
  223.500    0.361    0.115   30.242  139.425
  223.750    0.356    0.114   29.630  129.367
  224.000    0.356    0.134   32.091  139.529
  224.250    0.350    0.142   33.324  153.354
  224.500    0.333    0.139   35.171  153.403
  224.750    0.328    0.140   38.248  132.003
  225.000    0.326    0.148   46.242  113.602
  225.250    0.321    0.163   53.007  109.436
  225.500    0.314    0.167   51.780  115.832
  225.750    0.312    0.161   45.636  115.870
  226.000    0.314    0.142   41.335  107.515
  226.250    0.332    0.136   38.264   96.070
  226.500    0.330    0.128   35.192   87.468
  226.750    0.326    0.114   27.818   78.151
  227.000    0.324    0.108   26.592   67.252
  227.250    0.326    0.116   29.053   55.736
  227.500    0.344    0.131   33.359   49.796
  227.750    0.360    0.140   34.592   40.498
  228.000    0.350    0.150   32.135   31.719
  228.250    0.340    0.164   40.130   25.314
  228.500    0.333    0.175   55.501   18.389
  228.750    0.339    0.191   63.496    6.174
  229.000    0.344    0.329   54.892    4.160
  229.250    0.332    0.359   46.288    2.503
  229.500    0.306    0.361   45.676    1.998
  229.750    0.298    0.335   38.917    1.752
  230.000    0.291    0.330   32.772    1.625
  230.250    0.271    0.319   33.389    1.596
