~VERSION INFORMATION
 VERS.                 2.0:   CWLS LOG ASCII STANDARD -VERSION 2.0
 WRAP.                  NO:   ONE LINE PER DEPTH STEP
~WELL INFORMATION BLOCK
#MNEM.UNIT           DATA                    DESCRIPTION OF MNEMONIC
#---------    -------------------            -------------------------------
# Generated from Intellog Unique Number	CS_77_79/WELL/995
WELL.         HOME LEISTER                   : Well_name    - WELL
LOC .         00/11-14-078-06W4/0            : Location     - LOCATION
UWI .         00/11-14-078-06W4/0            : Uwi          - UNIQUE WELL ID
ENTR.         JHS                            : Entered      - ENTERED BY
SRVC.         SCHLUMBERGER                   : Scn          - SERVICE COMPANY
STRT.M        140                            : top_depth    - START DEPTH
STOP.M        420                            : bot_depth    - STOP DEPTH
STEP.M        0.25                           : increment    - STEP LENGTH
 NULL. -999.2500:NULL Value
~CURVE INFORMATION BLOCK
#MNEM UNIT       ERCB CURVE CODE    CURVE DESCRIPTION
#-----------   ------------------   ----------------------------------
DEPT.M        00 001 00 00         : DEPTH        - DEPTH
DPHI.V/V      00 890 00 00         : PHID         - DENSITY POROSITY (LIMESTONE)
NPHI.V/V      00 330 00 00         : PHIN         - NEUTRON POROSITY (LIMESTONE)
GR  .API      00 310 00 00         : GR           - GAMMA RAY
ILD .OHMM     00 120 00 00         : RESD         - DEEP RESISTIVITY (DIL)
RHOB.KG/M3    00 350 00 00         : DENS         - BULK DENSITY
~PARAMETER INFORMATION
#MNEM.UNIT           DATA             DESCRIPTION OF MNEMONIC
#---------         -----------     ------------------------------
GL  .M        593.32               : gl           - GROUND LEVEL ELEVATION
EREF.M        596.32               : kb           - ELEVATION OF DEPTH REFERENCE
DATM.M        596.32               : datum        - DATUM ELEVATION
TDD .M        430                  : tdd          - TOTAL DEPTH DRILLER
RUN .         ONE                  : Run          - RUN NUMBER
ENG .         BILL                 : Engineer     - RECORDING ENGINEER
WIT .         JIM                  : Witness      - WITNESSED BY
MUD .         GEL                  : Mud_type     - MUD TYPE
MATR.         LIMESTONE            : Logunit      - NEUTRON MATRIX
TMAX.C        24                   : BHT          - MAXIMUM RECORDED TEMPERATURE
BHTD.M        430                  : BHTDEP       - MAXIMUM RECORDED TEMPERATURE
MATR.         1                    : LOGUNIT      - NEUTRON MATRIX
RMT .C        25                   : MDTP         - TEMPERATURE OF MUD
NEUT.         1                    : NEUTRON      - NEUTRON TYPE
RESI.         0                    : RESIST       - RESISTIVITY TYPE
RMC .OHMM     0.25                 : RMC          - RESISTIVITY OF MUD CAKE
RMF .OHMM     0.25                 : RMF          - RESISTIVITY OF MUD FILTRATE
SUFT.C        15                   : SUFT         - SURFACE TEMPERATURE
~A  DEPTH     PHID     PHIN       GR     RESD     DENS
  140.000    0.279    0.429  119.758    3.143    0.000
  140.250    0.272    0.490  122.234    3.207    0.000
  140.500    0.280    0.511  123.476    3.211    0.000
  140.750    0.278    0.380  121.013    3.216    0.000
  141.000    0.267    0.359  120.402    3.284    0.000
  141.250    0.286    0.391  118.557    3.352    0.000
  141.500    0.285    0.433  130.293    3.355    0.000
  141.750    0.288    0.405  124.743    3.425    0.000
  142.000    0.293    0.382  121.047    3.430    0.000
  142.250    0.302    0.397  124.140    3.438    0.000
  142.500    0.284    0.410  124.764    3.440    0.000
  142.750    0.274    0.398  127.858    3.384    0.000
  143.000    0.291    0.410  126.629    3.325    0.000
  143.250    0.301    0.448  126.018    3.268    0.000
  143.500    0.286    0.406  127.261    3.273    0.000
  143.750    0.274    0.366  124.798    3.279    0.000
  144.000    0.268    0.401  123.570    3.282    0.000
  144.250    0.272    0.419  127.281    3.413    0.000
  144.500    0.280    0.398  130.374    3.616    0.000
  144.750    0.287    0.403  126.059    3.906    0.000
  145.000    0.275    0.439  124.832    3.986    0.000
  145.250    0.256    0.363  117.430    4.068    0.000
  145.500    0.263    0.378  101.386    4.074    0.000
  145.750    0.286    0.420   95.837    4.079    0.000
  146.000    0.174    0.423  107.573    4.163    0.000
  146.250    0.243    0.416  100.789    4.248    0.000
  146.500    0.264    0.434   96.475    4.254    0.000
  146.750    0.247    0.412  106.359    4.343    0.000
  147.000    0.248    0.389  106.367    4.349    0.000
  147.250    0.265    0.365  106.373    4.356    0.000
  147.500    0.249    0.334  108.230    4.202    0.000
  147.750    0.236    0.391  109.473    4.132    0.000
  148.000    0.263    0.432  105.159    4.060    0.000
  148.250    0.270    0.423  106.401    3.991    0.000
  148.500    0.259    0.366  107.024    3.922    0.000
  148.750    0.252    0.378  105.795    3.857    0.000
  149.000    0.259    0.377  106.419    3.790    0.000
  149.250    0.254    0.350  106.427    3.795    0.000
  149.500    0.241    0.356  105.198    3.731    0.000
  149.750    0.268    0.361  110.145    3.668    0.000
  150.000    0.270    0.373  114.472    3.605    0.000
  150.250    0.265    0.389  112.009    3.610    0.000
  150.500    0.276    0.406  107.695    3.550    0.000
  150.750    0.246    0.390  113.257    3.555    0.000
  151.000    0.242    0.353  110.795    3.560    0.000
  151.250    0.265    0.410  104.629    3.566    0.000
  151.500    0.258    0.432  105.253    3.505    0.000
  151.750    0.270    0.450  106.494    3.445    0.000
  152.000    0.277    0.465  105.884    3.386    0.000
  152.250    0.270    0.462  106.507    3.327    0.000
  152.500    0.266    0.408  108.367    3.272    0.000
  152.750    0.266    0.364  104.669    3.338    0.000
  153.000    0.266    0.368  104.675    3.344    0.000
  153.250    0.259    0.405  110.855    3.413    0.000
  153.500    0.245    0.380  113.948    3.482    0.000
  153.750    0.252    0.397  109.017    3.488    0.000
  154.000    0.250    0.460  104.085    3.495    0.000
  154.250    0.262    0.506  105.944    3.435    0.000
  154.500    0.262    0.438  110.271    3.439    0.000
  154.750    0.266    0.446  110.279    3.381    0.000
  155.000    0.260    0.483  108.435    3.450    0.000
  155.250    0.255    0.474  107.822    3.521    0.000
  155.500    0.261    0.457  107.829    3.527    0.000
  155.750    0.259    0.477  105.986    3.533    0.000
  156.000    0.262    0.429  105.991    3.538    0.000
  156.250    0.261    0.395  108.467    3.476    0.000
  156.500    0.266    0.391  114.029    3.417    0.000
  156.750    0.271    0.408  114.653    3.358    0.000
  157.000    0.262    0.415  112.190    3.242    0.000
  157.250    0.250    0.423  115.901    3.245    0.000
  157.500    0.239    0.446  109.735    3.250    0.000
  157.750    0.243    0.415  106.037    3.195    0.000
  158.000    0.266    0.388  115.304    3.140    0.000
  158.250    0.276    0.371  115.929    3.087    0.000
  158.500    0.286    0.418  112.231    2.978    0.000
  158.750    0.295    0.477  114.090    2.874    0.000
  159.000    0.287    0.512  120.270    2.771    0.000
  159.250    0.277    0.456  117.807    2.673    0.000
  159.500    0.282    0.423  115.345    2.628    0.000
  159.750    0.273    0.396  114.734    2.632    0.000
  160.000    0.255    0.415  115.359    2.587    0.000
  160.250    0.267    0.386  115.982    2.591    0.000
  160.500    0.263    0.371  115.373    2.596    0.000
  160.750    0.261    0.387  116.613    2.600    0.000
  161.000    0.278    0.430  119.706    2.653    0.000
  161.250    0.276    0.412  120.947    2.607    0.000
  161.500    0.273    0.388  116.633    2.611    0.000
  161.750    0.274    0.371  114.788    2.614    0.000
  162.000    0.282    0.422  121.585    2.668    0.000
  162.250    0.269    0.427  122.827    2.672    0.000
  162.500    0.266    0.407  112.339    2.677    0.000
  162.750    0.274    0.383  105.555    2.681    0.000
  163.000    0.283    0.367  111.118    2.636    0.000
  163.250    0.284    0.449  110.507    2.640    0.000
  163.500    0.278    0.479  105.575    2.547    0.000
  163.750    0.278    0.492  109.286    2.504    0.000
  164.000    0.288    0.463  110.527    2.459    0.000
  164.250    0.299    0.433  106.830    2.374    0.000
  164.500    0.279    0.447  106.837    2.333    0.000
  164.750    0.290    0.409  107.461    2.292    0.000
  165.000    0.295    0.443  103.765    2.296    0.000
  165.250    0.291    0.425  103.770    2.257    0.000
  165.500    0.306    0.419  108.717    2.218    0.000
  165.750    0.291    0.460  106.871    2.221    0.000
  166.000    0.279    0.439  108.729    2.185    0.000
  166.250    0.307    0.442  107.501    2.187    0.000
  166.500    0.311    0.455  101.336    2.191    0.000
  166.750    0.291    0.476  103.811    2.194    0.000
  167.000    0.292    0.438  105.670    2.198    0.000
  167.250    0.299    0.392  111.850    2.201    0.000
  167.500    0.299    0.414  111.856    2.164    0.000
  167.750    0.319    0.469  105.073    2.167    0.000
  168.000    0.328    0.513  104.463    2.132    0.000
  168.250    0.302    0.504  104.469    2.133    0.000
  168.500    0.311    0.460   98.920    2.136    0.000
  168.750    0.323    0.438  100.780    2.181    0.000
  169.000    0.287    0.481   99.550    2.311    0.000
  169.250    0.262    0.455  102.027    2.357    0.000
  169.500    0.183    0.365  101.415    2.275    0.000
  169.750    0.213    0.330   95.867    2.154    0.000
  170.000    0.274    0.422  100.194    2.198    0.000
  170.250    0.284    0.471  107.611    2.242    0.000
  170.500    0.316    0.417  107.616    2.247    0.000
  170.750    0.329    0.454  103.919    2.208    0.000
  171.000    0.290    0.499   98.987    2.171    0.000
  171.250    0.293    0.553  103.315    2.173    0.000
  171.500    0.287    0.491  101.470    2.219    0.000
  171.750    0.277    0.472   98.390    2.223    0.000
  172.000    0.279    0.465  103.335    2.268    0.000
  172.250    0.285    0.429  102.726    2.314    0.000
  172.500    0.271    0.475  105.200    2.361    0.000
  172.750    0.268    0.521  103.972    2.410    0.000
  173.000    0.268    0.506  108.919    2.506    0.000
  173.250    0.270    0.535  110.159    2.510    0.000
  173.500    0.268    0.571  106.462    2.563    0.000
  173.750    0.266    0.571   99.678    2.565    0.000
  174.000    0.260    0.457  109.562    2.570    0.000
  174.250    0.250    0.477  110.186    2.572    0.000
  174.500    0.243    0.428   99.700    2.626    0.000
  174.750    0.252    0.383  104.644    2.680    0.000
  175.000    0.244    0.400  109.589    2.788    0.000
  175.250    0.228    0.410  107.743    2.898    0.000
  175.500    0.239    0.356  110.837    3.013    0.000
  175.750    0.223    0.301  106.522    3.193    0.000
  176.000    0.214    0.280  104.679    3.321    0.000
  176.250    0.237    0.334  107.772    3.326    0.000
