~VERSION INFORMATION
 VERS.                 2.0:   CWLS LOG ASCII STANDARD -VERSION 2.0
 WRAP.                  NO:   ONE LINE PER DEPTH STEP
~WELL INFORMATION BLOCK
#MNEM.UNIT           DATA                    DESCRIPTION OF MNEMONIC
#---------    -------------------            -------------------------------
# Generated from Intellog Unique Number	CC_80_83/WELL/2399
NULL.         -999.25                        : NULL_VALUE
WELL.         PEX HOUSE                      : Well_name    - WELL
LOC .         11-17-080-15W4                 : Location     - LOCATION          
UWI .         00/11-17-080-15W4/0            : Uwi          - UNIQUE WELL ID    
ENTR.         DW                             : Entered      - ENTERED BY        
SRVC.         SCHLUMBERGER                   : Scn          - SERVICE COMPANY   
DATE.         27 JAN 82                      : Date         - LOG DATE
STRT.M        150                            : top_depth    - START DEPTH       
STOP.M        384.896                        : bot_depth    - STOP DEPTH        
STEP.M        0.3                            : increment    - STEP LENGTH       
~CURVE INFORMATION BLOCK
#MNEM UNIT       ERCB CURVE CODE    CURVE DESCRIPTION
#-----------   ------------------   ----------------------------------
DEPT.M        00 001 00 00         : DEPTH        - DEPTH                       
ILD .OHMM     00 120 00 00         : RESD         - DEEP RESISTIVITY (DIL)      
GR  .API      00 310 00 00         : GR           - GAMMA RAY                   
NPHI.V/V      00 330 00 00         : PHIN         - NEUTRON POROSITY (LIMESTONE)
DPHI.V/V      00 890 00 00         : PHID         - DENSITY POROSITY (LIMESTONE)
~PARAMETER INFORMATION       
#MNEM.UNIT           DATA             DESCRIPTION OF MNEMONIC
#---------         -----------     ------------------------------
GL  .M        595.9                : gl           - GROUND LEVEL ELEVATION      
EREF.M        599.6                : kb           - ELEVATION OF DEPTH REFERENCE
DATM.M        599.6                : datum        - DATUM ELEVATION             
TDD .M        385                  : tdd          - TOTAL DEPTH DRILLER         
RUN .         ONE                  : Run          - RUN NUMBER                  
ENG .         BILL                 : Engineer     - RECORDING ENGINEER          
WIT .         JIM                  : Witness      - WITNESSED BY                
MUD .         GEL                  : Mud_type     - MUD TYPE                    
MATR.         LIMESTONE            : Logunit      - NEUTRON MATRIX              
TMAX.C        18.8                 : BHT          - MAXIMUM RECORDED TEMPERATURE
BHTD.M        388                  : BHTDEP       - MAXIMUM RECORDED TEMPERATURE
MATR.         1                    : LOGUNIT      - NEUTRON MATRIX              
RMT .C        25                   : MDTP         - TEMPERATURE OF MUD          
NEUT.         1                    : NEUTRON      - NEUTRON TYPE                
RESI.         0                    : RESIST       - RESISTIVITY TYPE            
RMC .OHMM     0.25                 : RMC          - RESISTIVITY OF MUD CAKE     
RMF .OHMM     0.25                 : RMF          - RESISTIVITY OF MUD FILTRATE 
SUFT.C        15                   : SUFT         - SURFACE TEMPERATURE         
~A  DEPTH     RESD       GR     PHIN     PHID
# ...
  254.401   14.293   51.157    0.439    0.295
  254.701   12.745   54.200    0.455    0.291
  255.001   10.733   59.694    0.468    0.277
  255.301    9.212   71.945    0.476    0.235
  255.601    8.699   71.294    0.505    0.237
  255.901    8.532   71.876    0.493    0.249
  256.201    8.370   72.457    0.474    0.254
  256.501    7.048   74.266    0.453    0.218
  256.801    4.722   82.834    0.459    0.193
  257.101    3.479   88.326    0.526    0.215
  257.401    2.930   80.921    0.556    0.275
  257.701    2.820   81.492    0.579    0.268
  258.001    2.985   82.692    0.580    0.222
  258.301    3.042   80.192    0.528    0.221
  258.601    3.100   84.461    0.503    0.234
  258.901    3.220   82.582    0.507    0.239
  259.201    3.344   80.709    0.507    0.246
  259.501    3.474   80.061    0.524    0.232
  259.801    3.894   80.644    0.508    0.225
  260.101    4.365   84.896    0.538    0.200
  260.401    5.182   86.095    0.559    0.210
  260.701    5.921   86.069    0.553    0.179
  261.001    6.765   85.409    0.511    0.186
  261.301    7.162   86.602    0.477    0.186
  261.601    7.298   86.573    0.467    0.190
  261.901    6.761   84.079    0.481    0.221
  262.201    6.632   82.202    0.499    0.222
  262.501    6.144   85.859    0.484    0.208
  262.801    5.801   87.667    0.479    0.200
  263.101    5.374   87.019    0.500    0.228
  263.401    5.172   80.836    0.516    0.230
  263.701    5.475   78.337    0.504    0.192
  264.001    6.138   78.311    0.484    0.184
  264.301    6.750   79.507    0.462    0.240
  264.601    7.147   81.929    0.467    0.235
  264.901    7.423   72.671    0.499    0.232
  265.201    7.422   70.799    0.493    0.219
  265.501    7.007   78.137    0.443    0.207
  265.801    6.874   79.321    0.463    0.208
  266.101    6.367   81.138    0.498    0.227
  266.401    6.489   82.945    0.487    0.221
  266.701    6.488   82.911    0.506    0.221
  267.001    6.487   82.262    0.499    0.248
  267.301    6.867   73.012    0.500    0.257
  267.601    6.998   71.740    0.492    0.271
  267.901    6.735   74.160    0.486    0.274
  268.201    6.006   74.136    0.444    0.258
  268.501    5.058   74.101    0.515    0.242
  268.801    3.324   74.679    0.506    0.202
  269.101    2.358   79.563    0.494    0.198
  269.401    1.737   85.059    0.525    0.242
  269.701    1.609   86.862    0.545    0.265
  270.001    1.672   88.667    0.563    0.262
  270.301    1.910   92.934    0.626    0.231
  270.600    2.101   95.364    0.613    0.175
  270.900    2.446   89.799    0.621    0.195
  271.200    2.493   89.134    0.616    0.231
  271.500    2.541   89.718    0.601    0.250
  271.800    2.589   89.079    0.582    0.275
  272.100    2.741   88.424    0.558    0.298
  272.400    2.847   89.004    0.555    0.204
  272.700    3.192   86.515    0.558    0.208
  273.000    3.578   86.482    0.535    0.221
  273.300    4.011   89.516    0.578    0.224
  273.600    4.496   90.099    0.524    0.211
  273.900    5.040   88.829    0.486    0.186
  274.200    5.650   90.027    0.478    0.173
  274.500    5.868   86.305    0.465    0.169
  274.800    5.867   82.576    0.481    0.201
  275.100    5.755   83.164    0.495    0.195
  275.400    5.434   86.201    0.461    0.179
  275.700    5.131   86.164    0.438    0.191
  276.000    5.130   84.897    0.465    0.214
  276.300    5.032   85.481    0.485    0.217
  276.600    5.031   86.066    0.505    0.209
  276.900    5.225   86.019    0.514    0.213
  277.200    5.428   85.366    0.488    0.239
  277.500    5.532   84.102    0.469    0.238
  277.800    5.856   83.453    0.466    0.220
  278.100    6.200   82.189    0.501    0.205
  278.400    6.564   80.935    0.521    0.209
  278.700    7.499   77.827    0.487    0.227
  279.000    8.407   75.945    0.448    0.205
  279.300    9.071   75.919    0.447    0.237
  279.600    9.069   77.114    0.485    0.260
  279.900    8.563   74.619    0.509    0.284
  280.200    8.241   73.972    0.492    0.294
  280.500    8.084   76.391    0.446    0.246
  280.800    8.083   78.193    0.479    0.232
  281.100    7.632   78.169    0.506    0.226
  281.400    7.486   75.062    0.477    0.242
  281.700    7.484   69.497    0.467    0.264
  282.000    7.483   66.382    0.459    0.170
  282.300    7.625   65.740    0.425    0.140
  282.600    7.920   73.080    0.411    0.209
  282.900    7.919   76.112    0.456    0.242
  283.200    8.070   72.389    0.491    0.242
  283.500    7.916   75.433    0.482    0.260
  283.800    7.765   82.772    0.458    0.278
  284.100    7.764   74.743    0.456    0.266
  284.400    7.912   70.412    0.450    0.259
  284.700    7.910   68.534    0.449    0.265
  285.000    8.061   71.572    0.452    0.248
  285.300    8.059   80.141    0.449    0.200
  285.600    7.906   77.641    0.463    0.233
  285.900    7.754   78.842    0.487    0.245
  286.200    7.607   73.274    0.504    0.250
  286.500    7.320   79.379    0.459    0.248
  286.800    7.319   75.662    0.438    0.239
  287.100    7.180   71.942    0.458    0.216
  287.400    7.178   70.676    0.471    0.224
  287.700    7.176   77.392    0.467    0.241
  288.000    7.176   79.207    0.467    0.243
  288.300    7.596   77.333    0.457    0.247
  288.600    7.890   79.751    0.440    0.251
  288.900    8.678   79.103    0.430    0.247
  289.200   10.500   68.011    0.334    0.000
  289.500   13.450   42.786    0.196    0.007
  289.800   13.970   40.904    0.251    0.107
  290.100   12.458   51.316    0.324    0.194
  290.400    9.006   64.187    0.426    0.256
  290.700    8.668   69.674    0.451    0.261
  291.000    8.503   72.713    0.471    0.259
  291.300    8.500   76.974    0.454    0.260
  291.600    8.181   79.404    0.439    0.281
  291.900    7.579   81.213    0.427    0.291
  292.200    6.758   83.023    0.434    0.250
  292.500    5.800   81.147    0.469    0.234
  292.800    5.583   79.875    0.470    0.226
  293.100    5.581   82.918    0.458    0.234
  293.400    5.688   92.715    0.488    0.212
  293.700    5.796   88.990    0.485    0.196
  294.000    5.907   84.655    0.488    0.188
  294.300    5.794   82.162    0.505    0.203
  294.600    5.684   83.356    0.503    0.188
  294.900    5.469   85.168    0.456    0.185
  295.199    5.574   83.289    0.446    0.196
  295.499    5.573   85.709    0.470    0.216
  295.799    5.467   93.662    0.497    0.224
  296.099    5.466   95.474    0.513    0.195
  296.399    6.740   90.516    0.510    0.202
  296.699    8.155   88.644    0.437    0.143
  296.999    9.317   89.213    0.414    0.177
  297.299   10.246   87.963    0.405    0.206
  297.599   10.051   86.080    0.413    0.148
  297.899    9.491   86.044    0.420    0.148
  298.199    7.694   90.310    0.444    0.168
  298.499    6.730   92.734    0.453    0.191
  298.799    6.477   91.471    0.453    0.211
  299.099    6.476   89.593    0.464    0.211
  299.399    6.475   89.558    0.473    0.199
  299.699    6.474   87.070    0.459    0.200
  299.999    6.598   93.177    0.447    0.200
  300.299    6.723   94.368    0.447    0.202
  300.599    7.537   90.033    0.465    0.241
  300.899    8.132   83.853    0.462    0.293
  301.199    8.610   78.902    0.412    0.265
  301.499    9.468   74.571    0.406    0.244
  301.799    9.835   69.620    0.423    0.263
  302.099    9.833   67.126    0.445    0.168
  302.399    9.462   62.178    0.416    0.145
  302.699    9.107   61.530    0.376    0.207
  302.999    9.106   70.708    0.399    0.276
  303.299    8.435   74.975    0.421    0.258
  303.599    7.666   73.709    0.461    0.226
  303.899    6.968   73.664    0.435    0.241
  304.199    6.835   74.871    0.432    0.250
  304.499    6.833   77.293    0.429    0.265
  304.799    6.832   83.406    0.426    0.221
  305.099    6.963   85.829    0.477    0.220
  305.399    7.232   79.647    0.481    0.240
  305.699    7.657   74.071    0.451    0.251
  305.999    8.106   74.660    0.465    0.262
  306.299    8.747   84.459    0.466    0.279
