~VERSION INFORMATION
 VERS.                 2.0:   CWLS LOG ASCII STANDARD -VERSION 2.0
 WRAP.                  NO:   ONE LINE PER DEPTH STEP
~WELL INFORMATION BLOCK
#MNEM.UNIT           DATA                    DESCRIPTION OF MNEMONIC
#---------    -------------------            -------------------------------
# Generated from Intellog Unique Number	CW_73_75/WELL/1040
WELL.         11-16-074-21W4                 : Well_name    - WELL
LOC .         00/11-16-074-21W4/0            : Location     - LOCATION
UWI .         00/11-16-074-21W4/0            : Uwi          - UNIQUE WELL ID
ENTR.         JAYE                           : Entered      - ENTERED BY
SRVC.         SCHLUMBERGER                   : Scn          - SERVICE COMPANY
DATE.         2 JAN 77                       : Date         - LOG DATE
STRT.M        387.096                        : top_depth    - START DEPTH
STOP.M        600.346                        : bot_depth    - STOP DEPTH
STEP.M        0.25                           : increment    - STEP LENGTH
 NULL. -999.2500:NULL Value
~CURVE INFORMATION BLOCK
#MNEM UNIT       ERCB CURVE CODE    CURVE DESCRIPTION
#-----------   ------------------   ----------------------------------
DEPT.M        00 001 00 00         : DEPTH        - DEPTH
DPHI.V/V      00 890 00 00         : PHID         - DENSITY POROSITY (SANDSTONE)
NPHI.V/V      00 330 00 00         : PHIN         - NEUTRON POROSITY (SANDSTONE)
GR  .API      00 310 00 00         : GR           - GAMMA RAY
CALI.MM       00 280 01 00         : CAL          - CALIPER
ILD .OHMM     00 120 00 00         : RESD         - DEEP RESISTIVITY (DIL)
~PARAMETER INFORMATION
#MNEM.UNIT           DATA             DESCRIPTION OF MNEMONIC
#---------         -----------     ------------------------------
GL  .M        685.495              : gl           - GROUND LEVEL ELEVATION
EREF.M        689.458              : kb           - ELEVATION OF DEPTH REFERENCE
DATM.M        685.495              : datum        - DATUM ELEVATION
TDD .M        664.464              : tdd          - TOTAL DEPTH DRILLER
RUN .         ONE                  : Run          - RUN NUMBER
ENG .         MCDONALD             : Engineer     - RECORDING ENGINEER
WIT .         SMAILES              : Witness      - WITNESSED BY
BASE.         EDMONTON             : Branch       - HOME BASE OF LOGGING UNIT
MUD .         GEL CHEM             : Mud_type     - MUD TYPE
MATR.         SANDSTONE            : Logunit      - NEUTRON MATRIX
TMAX.C        26.1111              : BHT          - MAXIMUM RECORDED TEMPERATURE
BHTD.M        663.245              : BHTDEP       - MAXIMUM RECORDED TEMPERATURE
RMT .C        10                   : MDTP         - TEMPERATURE OF MUD
MUDD.KG/M     0                    : MWT          - MUD DENSITY
NEUT.         1                    : NEUTRON      - NEUTRON TYPE
RESI.         0                    : RESIST       - RESISTIVITY TYPE
RM  .OHMM     4.63                 : RM           - RESISTIVITY OF MUD
RMC .OHMM     4.67                 : RMC          - RESISTIVITY OF MUD CAKE
RMF .OHMM     4.66                 : RMF          - RESISTIVITY OF MUD FILTRATE
SUFT.C        -17.7778             : SUFT         - SURFACE TEMPERATURE
~A  DEPTH     PHID     PHIN       GR      CAL     RESD
# ...
  569.596    0.280    0.427  121.862  230.913    5.254
  569.846    0.267    0.431  122.541  230.421    4.939
  570.096    0.254    0.429  122.552  230.237    4.791
  570.346    0.242    0.418  122.383  230.360    4.787
  570.596    0.227    0.414  121.364  230.173    5.008
  570.846    0.194    0.405  121.800  229.269    5.249
  571.096    0.205    0.383  123.386  229.391    5.492
  571.346    0.180    0.388  122.549  230.231    5.703
  571.596    0.167    0.412  117.414  229.842    5.826
  571.846    0.173    0.444  117.667  227.297    5.875
  572.096    0.202    0.508  121.313  220.754    5.772
  572.346    0.199    0.554  123.687  218.005    5.558
  572.596    0.171    0.588  119.943  217.001    5.372
  572.846    0.128    0.528  112.385  216.816    5.538
  573.096    0.031    0.454  106.462  217.551    6.022
  573.346    0.031    0.433  102.962  218.288    6.430
  573.596    0.153    0.435  102.549  218.104    6.727
  573.846    0.194    0.506  106.861  217.406    6.871
  574.096    0.181    0.546  117.712  216.502    6.629
  574.346    0.184    0.465  116.694  215.501    6.266
  574.596    0.232    0.388  102.596  214.696    6.067
  574.846    0.248    0.368   90.799  213.997    5.651
  575.096    0.258    0.398   85.966  212.685    5.492
  575.346    0.253    0.429   91.246  212.397    5.407
  575.596    0.230    0.474  103.733  213.646    5.472
  575.846    0.217    0.442  109.497  216.537    5.537
  576.096    0.250    0.464  108.419  216.252    5.533
  576.346    0.257    0.446  111.398  216.374    5.518
  576.596    0.237    0.361  119.766  217.726    5.604
  576.846    0.227    0.367  125.531  220.000    5.693
  577.096    0.270    0.367  125.906  221.866    5.698
  577.346    0.251    0.356  119.983  214.912    5.467
  577.596    0.242    0.356  114.666  210.523    5.502
  577.846    0.253    0.386  105.593  210.954    5.756
  578.096    0.276    0.396   94.766  211.177    6.045
  578.346    0.289    0.366   86.361  201.045    6.489
  578.596    0.292    0.366   75.410  197.067    7.070
  578.846    0.307    0.354   70.638  196.370    7.661
  579.096    0.312    0.341   73.375  196.799    7.986
  579.346    0.317    0.332   73.266  197.639    8.141
  579.596    0.321    0.344   70.249  198.274    8.149
  579.846    0.302    0.353   71.290  198.602    7.992
  580.096    0.303    0.339   73.240  198.725    7.811
  580.346    0.309    0.356   72.706  199.155    7.605
  580.596    0.318    0.353   76.533  199.482    7.431
  580.846    0.344    0.333   83.691  199.602    7.249
  581.096    0.367    0.311   87.942  200.238    7.136
  581.346    0.343    0.329   77.719  200.874    6.999
  581.596    0.313    0.338   67.314  200.891    6.866
  581.846    0.300    0.325   66.842  200.502    6.795
  582.096    0.285    0.323   67.944  199.598    6.714
  582.346    0.283    0.305   69.469  198.900    6.610
  582.596    0.306    0.295   65.666  198.510    6.507
  582.846    0.328    0.288   61.256  197.915    6.561
  583.096    0.338    0.281   56.909  197.423    6.941
  583.346    0.329    0.273   55.043  197.135    7.302
  583.596    0.288    0.261   52.813  196.845    7.019
  583.846    0.200    0.243   47.496  196.763    6.050
  584.096    0.219    0.277   47.932  196.474    5.149
  584.346    0.375    0.356   53.273  196.599    4.488
  584.596    0.373    0.350   57.826  196.617    4.104
  584.846    0.334    0.306   59.715  196.843    4.169
  585.096    0.306    0.271   53.005  197.272    4.609
  585.346    0.116    0.261   45.446  197.907    5.672
  585.596    0.134    0.257   37.647  198.542    6.764
  585.846    0.144    0.261   39.778  198.458    7.861
  586.096    0.142    0.237   47.237  198.273    8.179
  586.346    0.142    0.205   49.308  198.600    8.263
  586.596    0.131    0.207   46.717  198.825    8.255
  586.846    0.143    0.214   44.366  198.333    8.097
  587.096    0.157    0.218   42.621  198.146    7.912
  587.346    0.165    0.242   42.150  197.656    7.760
  587.596    0.181    0.272   42.644  197.059    7.753
  587.846    0.206    0.284   43.383  196.669    7.919
  588.096    0.239    0.278   41.821  196.484    8.331
  588.346    0.264    0.252   39.227  197.014    8.846
  588.596    0.232    0.234   39.604  197.446    9.375
  588.846    0.183    0.216   41.552  197.570    9.700
  589.096    0.175    0.200   45.076  197.077    9.567
  589.346    0.190    0.193   54.353  196.788    8.960
  589.596    0.197    0.192   58.301  196.806    8.059
  589.846    0.215    0.216   63.642  196.826    7.090
  590.096    0.244    0.240   68.195  196.846    6.202
  590.346    0.246    0.255   69.841  196.865    5.558
  590.596    0.254    0.276   62.828  197.091    4.953
  590.846    0.281    0.292   52.364  197.317    4.605
  591.096    0.270    0.274   44.807  197.744    4.517
  591.346    0.234    0.239   39.610  198.072    4.858
  591.596    0.195    0.240   35.746  198.194    5.783
  591.846    0.195    0.265   34.002  198.111    7.116
  592.096    0.190    0.254   34.437  197.208    9.237
  592.346    0.153    0.233   40.928  198.151   11.557
  592.596    0.139    0.230   47.056  198.992   12.248
  592.846    0.139    0.242   53.184  199.217   12.170
  593.096    0.129    0.251   64.701  199.440   11.761
  593.346    0.121    0.246   72.827  200.281   10.934
  593.596    0.152    0.235   79.016  202.761    9.619
  593.846    0.176    0.253   87.506  204.832    8.171
  594.096    0.190    0.255   95.269  205.775    7.149
  594.346    0.203    0.284  102.728  217.484    6.745
  594.596    0.230    0.279  107.222  218.426    6.543
  594.846    0.264    0.257  102.267  212.601    6.453
  595.096    0.279    0.238   97.435  229.130    7.228
  595.346    0.174    0.225   91.814  207.205    8.096
  595.596    0.163    0.187   94.309  203.229    8.788
  595.846    0.168    0.188   96.621  203.554    9.348
  596.096    0.179    0.193  101.841  203.779    9.461
  596.346    0.170    0.201  107.364  203.798    9.348
  596.596    0.161    0.236  113.976  203.920    9.102
  596.846    0.164    0.259  122.344  207.119    8.699
  597.096    0.190    0.285  120.660  210.933    7.824
  597.346    0.214    0.243  108.439  206.441    7.383
  597.596    0.191    0.228  100.640  204.205    7.767
  597.846    0.173    0.233   99.440  204.019    8.022
  598.096    0.149    0.263  102.540  204.553    7.970
  598.346    0.164    0.285  108.244  205.496    7.576
  598.596    0.157    0.320  111.950  206.745    7.096
  598.846    0.163    0.249  103.544  206.764    6.646
  599.096    0.145    0.252   96.773  205.656    6.260
  599.346    0.163    0.248   86.066  200.858    6.220
  599.596    0.181    0.225   79.356  199.441    6.353
  599.846    0.195    0.219   72.162  198.948    6.598
  600.096    0.203    0.223   68.540  198.044    6.579
  600.346    0.205    0.231   66.069  197.449    6.501
