~VERSION INFORMATION
 VERS.                 2.0:   CWLS LOG ASCII STANDARD -VERSION 2.0
 WRAP.                  NO:   ONE LINE PER DEPTH STEP
~WELL INFORMATION BLOCK
#MNEM.UNIT           DATA                    DESCRIPTION OF MNEMONIC
#---------    -------------------            -------------------------------
# Generated from Intellog Unique Number	CW_79_81/WELL/875
WELL.         PARAMOUNT ET AL HORIZON        : Well_name    - WELL
LOC .         00/10-29-079-19W4/0            : Location     - LOCATION
UWI .         00/10-29-079-19W4/0            : Uwi          - UNIQUE WELL ID
ENTR.         MAX                            : Entered      - ENTERED BY
SRVC.         SCHLUMBERGER                   : Scn          - SERVICE COMPANY
STRT.M        198.12                         : top_depth    - START DEPTH
STOP.M        381.62                         : bot_depth    - STOP DEPTH
STEP.M        0.25                           : increment    - STEP LENGTH
 NULL. -999.2500:NULL Value
~CURVE INFORMATION BLOCK
#MNEM UNIT       ERCB CURVE CODE    CURVE DESCRIPTION
#-----------   ------------------   ----------------------------------
DEPT.M        00 001 00 00         : DEPTH        - DEPTH
ILD .OHMM     00 120 00 00         : RESD         - DEEP RESISTIVITY (DIL)
NPHI.V/V      00 330 00 00         : PHIN         - NEUTRON POROSITY (SANDSTONE)
DPHI.V/V      00 890 00 00         : PHID         - DENSITY POROSITY (SANDSTONE)
CALI.MM       00 280 01 00         : CAL          - CALIPER
GR  .API      00 310 00 00         : GR           - GAMMA RAY
~PARAMETER INFORMATION
#MNEM.UNIT           DATA             DESCRIPTION OF MNEMONIC
#---------         -----------     ------------------------------
GL  .M        568.604              : gl           - GROUND LEVEL ELEVATION
EREF.M        571.652              : kb           - ELEVATION OF DEPTH REFERENCE
DATM.M        568.604              : datum        - DATUM ELEVATION
TDD .M        381.61               : tdd          - TOTAL DEPTH DRILLER
RUN .         ONE                  : Run          - RUN NUMBER
ENG .         BILL                 : Engineer     - RECORDING ENGINEER
WIT .         JIM                  : Witness      - WITNESSED BY
MUD .         GEL                  : Mud_type     - MUD TYPE
MATR.         SANDSTONE            : Logunit      - NEUTRON MATRIX
TMAX.C        21.1111              : BHT          - MAXIMUM RECORDED TEMPERATURE
BHTD.M        381.61               : BHTDEP       - MAXIMUM RECORDED TEMPERATURE
RMT .C        21.1111              : MDTP         - TEMPERATURE OF MUD
MUDD.KG/M     9700                 : MWT          - MUD DENSITY
NEUT.         1                    : NEUTRON      - NEUTRON TYPE
RESI.         0                    : RESIST       - RESISTIVITY TYPE
RM  .OHMM     0                    : RM           - RESISTIVITY OF MUD
RMC .OHMM     0                    : RMC          - RESISTIVITY OF MUD CAKE
RMF .OHMM     0                    : RMF          - RESISTIVITY OF MUD FILTRATE
SUFT.C        -15                  : SUFT         - SURFACE TEMPERATURE
~A  DEPTH     RESD     PHIN     PHID      CAL       GR
# ...
  307.620   10.530    0.503    0.224  156.594  100.437
  307.870   10.649    0.479    0.228  156.700   99.603
  308.120   10.771    0.467    0.230  157.324   95.539
  308.370   10.791    0.481    0.233  157.947   96.203
  308.620   10.809    0.478    0.224  158.555   95.971
  308.870   10.830    0.498    0.228  158.723   93.970
  309.120   10.850    0.510    0.219  157.295   91.082
  309.370   10.771    0.505    0.223  156.461   90.858
  309.620   10.596    0.508    0.234  156.537   92.428
  309.870   10.596    0.516    0.242  157.692   93.972
  310.120   10.446    0.496    0.231  157.298   97.013
  310.370   10.159    0.479    0.216  158.438  100.638
  310.620    9.783    0.475    0.223  160.048  102.782
  310.870    9.413    0.494    0.243  161.689   99.293
  311.120    9.034    0.502    0.233  161.812   95.525
  311.370    8.658    0.511    0.233  161.432   96.189
  311.620    8.188    0.530    0.220  161.570   98.630
  311.870    7.906    0.540    0.230  159.656  102.846
  312.120    7.530    0.533    0.231  162.330  106.471
  312.370    7.251    0.533    0.232  164.427  108.920
  312.620    6.776    0.535    0.203  165.050  110.768
  312.870    6.402    0.538    0.239  166.175  109.360
  313.120    6.222    0.557    0.237  166.798  106.472
  313.370    6.639    0.587    0.252  166.419  106.248
  313.620    7.355    0.587    0.290  162.531  105.432
  313.870    8.171    0.565    0.275  155.635   99.575
  314.120    9.182    0.548    0.267  154.253   89.573
  314.370    9.800    0.525    0.249  155.393   83.724
  314.620   10.316    0.519    0.267  153.009   84.990
  314.870   10.438    0.530    0.277  152.660   88.327
  315.120   10.354    0.524    0.276  154.757   91.942
  315.370   10.280    0.513    0.264  157.902   95.280
  315.620   10.593    0.507    0.267  156.505   94.464
  315.870   11.612    0.513    0.264  156.627   92.769
  316.120   12.321    0.517    0.261  156.764   90.473
  316.370   13.926    0.522    0.268  156.370   86.095
  316.620   15.535    0.535    0.240  156.021   85.566
  316.870   16.155    0.509    0.194  155.642   86.822
  317.120   15.476    0.411    0.159  155.263   87.191
  317.370   14.308    0.380    0.143  155.370   89.344
  317.620   13.142    0.396    0.231  154.975   93.560
  317.870   12.268    0.488    0.236  154.596   94.234
  318.120   11.892    0.475    0.222  154.749   91.336
  318.370   11.717    0.460    0.204  154.886   91.704
  318.620   11.638    0.437    0.198  154.476   96.531
  318.870   11.361    0.460    0.211  153.611  100.146
  319.120   11.082    0.485    0.219  153.718  101.412
  319.370   10.906    0.495    0.231  153.855   99.717
  319.620   10.630    0.507    0.215  153.005   99.197
  319.870   10.452    0.515    0.208  153.082  100.749
  320.120   10.370    0.509    0.198  152.718  104.660
  320.370   10.294    0.496    0.187  152.855  103.270
  320.620   10.312    0.490    0.199  152.977  103.333
  320.870   10.233    0.487    0.203  153.069  103.989
  321.120   10.254    0.485    0.211  152.705  105.846
  321.370   10.277    0.480    0.215  153.860  102.357
  321.620   10.498    0.481    0.207  153.951  100.957
  321.870   10.711    0.513    0.191  153.587   95.692
  322.120   10.834    0.517    0.185  153.694   88.947
  322.370   10.755    0.491    0.178  153.832   94.060
  322.620   10.577    0.447    0.141  154.470  101.246
  322.870   10.498    0.428    0.170  154.562  108.441
  323.120   10.521    0.472    0.222  154.714  111.473
  323.370   10.445    0.504    0.229  154.335  109.760
  323.620   10.460    0.505    0.237  153.925  107.760
  323.870   10.483    0.501    0.208  153.045  109.312
  324.120   10.501    0.499    0.222  152.681  104.666
  324.370   10.527    0.495    0.225  152.834  105.913
  324.620   10.544    0.489    0.202  152.940  109.824
  324.870   10.565    0.484    0.193  153.549  105.752
  325.120   10.789    0.485    0.215  154.187  104.640
  325.370   10.911    0.476    0.207  154.810  106.201
  325.620   11.025    0.474    0.211  154.933  109.243
  325.870   11.025    0.478    0.230  155.055  111.091
  326.120   11.071    0.481    0.236  155.161  109.091
  326.370   11.183    0.489    0.234  155.299  106.490
  326.620   11.302    0.498    0.241  155.421  102.713
  326.870   11.226    0.496    0.237  155.573  100.713
  327.120   11.147    0.499    0.223  155.680  100.794
  327.370   10.975    0.497    0.204  155.787  101.746
  327.620   10.893    0.490    0.188  155.909  103.594
  327.870   10.820    0.491    0.204  156.046  102.195
  328.120   10.733    0.487    0.211  156.685  103.155
  328.370   10.561    0.479    0.210  156.807  106.178
  328.620   10.383    0.461    0.206  156.899  110.117
  328.870   10.203    0.451    0.203  157.036  109.301
  329.120   10.226    0.454    0.206  157.158  110.261
  329.370   10.142    0.457    0.216  157.295  110.620
  329.620   10.066    0.468    0.221  157.934  107.149
  329.870    9.987    0.484    0.201  158.542  107.508
  330.120   10.008    0.488    0.200  158.649  111.141
  330.370    9.830    0.499    0.218  159.288  110.630
  330.620    9.850    0.521    0.207  159.394  111.304
  330.870    9.774    0.505    0.202  159.517  112.255
  331.120    9.693    0.490    0.199  159.669  113.807
  331.370    9.713    0.482    0.211  159.791  116.543
  331.620    9.538    0.476    0.232  159.929  114.256
  331.870    9.258    0.483    0.228  160.035  109.278
  332.120    8.987    0.512    0.218  162.147  111.718
  332.370    9.002    0.527    0.217  165.794  110.920
  332.620    9.325    0.536    0.211  166.417  107.431
  332.870    9.841    0.548    0.208  163.045  103.655
  333.120   10.252    0.533    0.153  160.661   98.676
  333.370   10.377    0.507    0.189  158.763  102.310
  333.620   10.097    0.457    0.222  157.366  102.974
  333.870    9.826    0.471    0.229  156.500  102.454
  334.120    9.450    0.469    0.233  156.121  105.504
  334.370    9.368    0.472    0.228  155.727  108.833
  334.620    9.389    0.477    0.222  155.879  107.730
  334.870    9.508    0.483    0.205  156.032  106.600
  335.120    9.628    0.485    0.206  156.610  104.905
  335.370    9.884    0.476    0.184  154.964   98.211
  335.620   10.494    0.499    0.185  155.135   89.436
  335.870   11.802    0.446    0.131  154.790   76.841
  336.120   12.611    0.424    0.135  154.393   81.634
  336.370   13.225    0.422    0.203  153.549   87.910
  336.620   13.343    0.436    0.250  153.686   89.484
  336.870   12.276    0.435    0.252  153.307   90.438
  337.120   11.602    0.434    0.234  152.945   92.885
  337.370   11.031    0.437    0.231  152.084   96.805
  337.620   11.347    0.429    0.205  152.237  100.420
  337.870   11.857    0.466    0.182  152.890  102.278
  338.120   12.079    0.474    0.100  154.024   98.225
  338.370   12.392    0.431    0.111  154.161   93.593
  338.620   13.500    0.431    0.220  152.801   98.386
  338.870   14.707    0.461    0.164  151.923  100.529
  339.120   15.711    0.427    0.127  151.079   84.105
  339.370   17.116    0.378    0.066  152.712   75.634
  339.620   19.011    0.261    0.062  153.846   67.458
  339.870   21.897    0.251    0.064  154.481   64.888
  340.120   21.225    0.279    0.081  154.618   67.914
  340.370   17.887    0.306    0.103  154.772   72.128
  340.620   14.941    0.355    0.140  154.427   77.815
  340.870   12.988    0.400    0.186  153.101   84.091
  341.120   12.810    0.458    0.235  151.707   87.117
  341.370   12.925    0.477    0.227  150.365   86.609
  341.620   13.241    0.474    0.209  150.484   83.155
  341.870   13.660    0.466    0.220  150.604   84.129
  342.120   14.072    0.458    0.226  150.242   86.576
  342.370   14.486    0.440    0.230  149.398   83.996
  342.620   14.905    0.428    0.227  149.036   80.542
  342.870   15.221    0.418    0.219  150.170   79.465
  343.120   15.342    0.434    0.216  150.306   79.525
  343.370   15.067    0.449    0.223  150.460   79.017
  343.620   15.079    0.457    0.228  150.580   81.159
  343.870   15.693    0.453    0.233  150.235   81.545
