~VERSION INFORMATION
 VERS.                 2.0:   CWLS LOG ASCII STANDARD -VERSION 2.0
 WRAP.                  NO:   ONE LINE PER DEPTH STEP
~WELL INFORMATION BLOCK
#MNEM.UNIT           DATA                    DESCRIPTION OF MNEMONIC
#---------    -------------------            -------------------------------
# Generated from Intellog Unique Number	CW_70_72/WELL/1065
NULL.         -999.25                        : NULL_VALUE
WELL.         GAO ET AL CALL 11-36           : Well_name    - WELL              
LOC .         11-36-072-19W4                 : Location     - LOCATION          
UWI .         00/11-36-072-19W4/0            : Uwi          - UNIQUE WELL ID    
ENTR.         JAYE                           : Entered      - ENTERED BY        
SRVC.         SCHLUMBERGER                   : Scn          - SERVICE COMPANY   
DATE.         16 FEB 76                      : Date         - LOG DATE          
STRT.M        344.424                        : top_depth    - START DEPTH       
STOP.M        554.674                        : bot_depth    - STOP DEPTH        
STEP.M        0.25                           : increment    - STEP LENGTH       
~CURVE INFORMATION BLOCK
#MNEM UNIT       ERCB CURVE CODE    CURVE DESCRIPTION
#-----------   ------------------   ----------------------------------
DEPT.M        00 001 00 00         : DEPTH        - DEPTH                       
DPHI.V/V      00 890 00 00         : PHID         - DENSITY POROSITY (SANDSTONE)
NPHI.V/V      00 330 00 00         : PHIN         - NEUTRON POROSITY (SANDSTONE)
GR  .API      00 310 00 00         : GR           - GAMMA RAY                   
CALI.MM       00 280 01 00         : CAL          - CALIPER                     
ILD .OHMM     00 120 00 00         : RESD         - DEEP RESISTIVITY (DLL)      
~PARAMETER INFORMATION       
#MNEM.UNIT           DATA             DESCRIPTION OF MNEMONIC
#---------         -----------     ------------------------------
GL  .M        644.256              : gl           - GROUND LEVEL ELEVATION      
EREF.M        647.395              : kb           - ELEVATION OF DEPTH REFERENCE
DATM.M        644.256              : datum        - DATUM ELEVATION             
TDD .M        571.195              : tdd          - TOTAL DEPTH DRILLER         
RUN .         ONE                  : Run          - RUN NUMBER                  
BASE.         EDM                  : Branch       - HOME BASE OF LOGGING UNIT   
MATR.         SANDSTONE            : Logunit      - NEUTRON MATRIX              
TMAX.C        28.3333              : BHT          - MAXIMUM RECORDED TEMPERATURE
BHTD.M        569.366              : BHTDEP       - MAXIMUM RECORDED TEMPERATURE
RMT .C        16.1111              : MDTP         - TEMPERATURE OF MUD          
MUDD.KG/M     0                    : MWT          - MUD DENSITY                 
NEUT.         1                    : NEUTRON      - NEUTRON TYPE                
RESI.         1                    : RESIST       - RESISTIVITY TYPE            
RM  .OHMM     3.57                 : RM           - RESISTIVITY OF MUD          
RMC .OHMM     0                    : RMC          - RESISTIVITY OF MUD CAKE     
RMF .OHMM     2.89                 : RMF          - RESISTIVITY OF MUD FILTRATE 
SUFT.C        -17.7778             : SUFT         - SURFACE TEMPERATURE         
~A  DEPTH     PHID     PHIN       GR      CAL     RESD
  344.424    0.246    0.521   99.796  201.048    3.013
  344.674    0.251    0.520   98.816  209.318    2.808
  344.924    0.277    0.522  101.074  195.249    2.740
  345.174    0.259    0.542   98.750  197.106    2.768
  345.424    0.255    0.565   99.664  188.725    2.787
  345.674    0.250    0.556   99.662  195.237    2.841
  345.924    0.244    0.547   98.865  202.368    2.940
  346.174    0.264    0.540   97.885  200.606    3.020
  346.424    0.273    0.550   96.906  190.157    3.084
  346.674    0.271    0.557   95.254  191.807    3.036
  346.924    0.261    0.569   93.237  194.181    2.925
  347.174    0.258    0.572   91.830  195.833    2.896
  347.424    0.285    0.567   90.117  193.243    2.926
  347.674    0.318    0.552   87.855  178.450    3.134
  347.924    0.389    0.536   83.883  168.414    3.588
  348.174    0.418    0.524   77.101  157.551    4.032
  348.424    0.429    0.532   67.205  150.825    4.648
  348.674    0.423    0.521   62.377  135.411    5.580
  348.924    0.363    0.486   66.894  126.306    5.892
  349.174    0.290    0.467   61.640  143.160    5.623
  349.424    0.279    0.456   60.477  153.704    5.173
  349.674    0.306    0.444   62.734  155.665    4.769
  349.924    0.313    0.434   65.297  157.419    4.635
  350.174    0.305    0.444   65.234  156.795    4.580
  350.424    0.291    0.429   65.598  156.790    4.637
  350.674    0.293    0.442   64.374  156.889    4.710
  350.924    0.304    0.456   62.722  156.783    4.646
  351.174    0.301    0.425   63.392  156.985    4.329
  351.424    0.286    0.431   66.748  156.981    4.064
  351.674    0.298    0.425   71.388  156.253    4.009
  351.924    0.295    0.413   75.172  155.732    3.992
  352.174    0.283    0.408   78.406  157.383    3.974
  352.424    0.273    0.433   81.091  163.480    3.884
  352.674    0.262    0.429   82.799  170.716    3.755
  352.924    0.240    0.442   86.156  172.884    3.557
  353.174    0.259    0.447   90.184  174.224    3.383
  353.424    0.262    0.448   91.281  187.768    3.368
  353.674    0.261    0.464   92.806  211.033    3.504
  353.924    0.280    0.483   95.613  204.100    3.706
  354.174    0.318    0.507   98.847  197.684    3.899
  354.424    0.284    0.493  100.433  154.968    4.041
  354.674    0.242    0.424   99.942  156.515    4.244
  354.924    0.229    0.386   95.847  160.131    4.326
  355.174    0.231    0.377   99.021  163.746    4.403
  355.424    0.231    0.387  103.416  167.258    4.640
  355.674    0.225    0.391  104.513  167.047    5.110
  355.924    0.209    0.400   98.953  162.803    5.505
  356.174    0.259    0.411   91.438  155.146    5.985
  356.424    0.255    0.411   84.595  153.694    5.914
  356.674    0.247    0.417   76.653  154.103    5.676
  356.924    0.252    0.413   70.543  154.409    5.497
  357.174    0.242    0.382   64.678  154.509    5.334
  357.424    0.231    0.386   58.324  154.815    5.195
  357.674    0.238    0.399   53.008  155.018    5.078
  357.924    0.253    0.393   55.754  155.014    4.991
  358.174    0.258    0.367   63.080  154.906    4.978
  358.424    0.220    0.353   68.330  155.213    4.938
  358.674    0.190    0.373   70.466  156.242    4.899
  358.924    0.256    0.386   74.433  156.962    4.876
  359.174    0.248    0.384   79.561  157.373    4.872
  359.424    0.228    0.378   87.193  157.988    4.886
  359.674    0.230    0.387   82.182  158.192    4.758
  359.924    0.254    0.395   80.714  157.671    4.772
  360.174    0.267    0.400   81.261  156.632    4.742
  360.424    0.274    0.401   85.595  156.112    4.652
  360.674    0.288    0.401   90.357  155.900    4.464
  360.924    0.285    0.412   97.195  156.207    4.145
  361.174    0.276    0.427  104.399  160.753    3.814
  361.424    0.263    0.453  116.490  172.539    3.607
  361.674    0.242    0.481  111.784  167.364    3.398
  361.924    0.245    0.532  106.896  174.703    3.121
  362.174    0.376    0.578  103.168  164.666    2.946
  362.424    0.357    0.550  105.853  188.863    2.859
  362.674    0.369    0.520  107.805  207.578    2.820
  362.924    0.381    0.518  106.092  247.184    2.786
  363.174    0.332    0.533  109.144  257.418    2.794
  363.424    0.392    0.577  109.202  214.081    2.813
  363.674    0.431    0.559  106.879  214.594    2.821
  363.924    0.438    0.546  106.083  203.421    2.887
  364.174    0.363    0.538  111.455  247.991    2.970
  364.424    0.388    0.526  114.262  262.982    3.266
  364.674    0.396    0.507  115.481  192.033    3.596
  364.924    0.402    0.484  120.182  167.932    4.012
  365.174    0.310    0.453  115.843  175.891    4.642
  365.424    0.271    0.453  112.054  183.850    5.492
  365.674    0.287    0.458  113.273  167.609    5.885
  365.924    0.357    0.448  113.087  168.019    5.912
  366.174    0.309    0.452  109.604  222.517    5.716
  366.424    0.273    0.451  110.029  237.819    5.628
  366.674    0.301    0.453  110.393  233.678    5.675
  366.924    0.300    0.452  106.604  163.038    5.786
  367.174    0.276    0.452  107.273  159.208    5.965
  367.424    0.219    0.451  109.531  158.169    6.286
  367.674    0.225    0.450  100.062  157.545    6.710
  367.924    0.248    0.459   90.287  156.404    7.390
  368.174    0.262    0.472   78.314  156.089    7.946
  368.424    0.292    0.459   70.861  155.775    8.914
  368.674    0.310    0.450   72.141  154.426    9.656
  368.924    0.305    0.456   74.337  153.594   10.269
  369.174    0.300    0.471   76.228  154.108    9.464
  369.424    0.298    0.455   79.096  155.138    8.317
  369.674    0.282    0.424   82.270  156.375    7.242
  369.924    0.258    0.408   82.267  156.887    7.001
  370.174    0.232    0.413   80.738  156.676    7.231
  370.424    0.234    0.427   78.232  156.466    7.719
  370.674    0.260    0.453   75.420  156.049    8.547
  370.924    0.298    0.468   73.219  155.320    9.465
  371.174    0.321    0.462   71.018  155.109    9.956
  371.424    0.339    0.453   68.389  155.002    9.912
  371.674    0.321    0.445   69.120  154.481    9.478
  371.924    0.299    0.444   72.293  154.167    8.687
  372.174    0.280    0.457   77.604  154.576    7.634
  372.424    0.257    0.469   81.510  153.848    6.562
  372.674    0.245    0.453   88.654  153.948    5.777
  372.924    0.258    0.442   95.003  156.115    5.286
  373.174    0.255    0.427   99.398  159.835    4.980
  373.424    0.237    0.444  103.732  166.863    5.013
  373.674    0.241    0.459  105.501  170.065    5.159
  373.924    0.286    0.462  107.941  166.441    5.358
  374.174    0.261    0.448  107.267  164.265    5.513
  374.424    0.241    0.449  105.249  163.434    5.579
  374.674    0.250    0.453  110.011  162.913    5.514
  374.924    0.248    0.448  118.986  163.736    5.379
  375.174    0.231    0.436  124.419  165.697    5.258
  375.424    0.227    0.428  121.791  168.589    5.332
  375.674    0.267    0.426  117.086  170.860    5.537
  375.924    0.299    0.447  103.464  177.164    5.718
  376.174    0.345    0.465   93.140  173.541    5.905
  376.424    0.311    0.460   93.565  168.986    6.133
  376.674    0.255    0.426   97.166  168.672    6.231
  376.924    0.212    0.396  102.477  168.461    6.157
  377.174    0.203    0.386  106.933  167.940    5.664
  377.424    0.208    0.382  110.168  169.176    5.015
  377.674    0.210    0.388  114.807  173.413    4.447
  377.924    0.203    0.409  116.453  180.441    3.719
  378.174    0.233    0.517  116.329  191.089    3.268
  378.424    0.267    0.521  118.159  192.947    2.946
  378.674    0.246    0.512  117.485  199.562    2.823
  378.924    0.307    0.546  111.985  190.250    2.931
  379.174    0.357    0.553  104.776  178.042    3.164
  379.424    0.326    0.539   97.078  187.656    3.542
  379.674    0.376    0.520   92.434  164.383    4.152
  379.924    0.298    0.496   87.180  156.519    5.021
  380.174    0.242    0.474   79.970  156.101    5.885
  380.424    0.229    0.445   80.640  156.200    6.375
  380.674    0.249    0.439   83.386  156.713    6.584
