~VERSION INFORMATION
 VERS.                 2.0:   CWLS LOG ASCII STANDARD -VERSION 2.0
 WRAP.                  NO:   ONE LINE PER DEPTH STEP
~WELL INFORMATION BLOCK
#MNEM.UNIT           DATA                    DESCRIPTION OF MNEMONIC
#---------    -------------------            -------------------------------
# Generated from Intellog Unique Number	CW_73_75/WELL/2745
WELL.         SEA-JOR ET AL BLANCHE 11-14    : Well_name    - WELL
LOC .         00/11-14-073-02W5/0            : Location     - LOCATION
UWI .         00/11-14-073-02W5/0            : Uwi          - UNIQUE WELL ID
ENTR.         JAYE                           : Entered      - ENTERED BY
SRVC.         SCHLUMBERGER                   : Scn          - SERVICE COMPANY
DATE.         2 FEB 80                       : Date         - LOG DATE
STRT.M        385                            : top_depth    - START DEPTH
STOP.M        625                            : bot_depth    - STOP DEPTH
STEP.M        0.25                           : increment    - STEP LENGTH
 NULL. -999.2500:NULL Value
~CURVE INFORMATION BLOCK
#MNEM UNIT       ERCB CURVE CODE    CURVE DESCRIPTION
#-----------   ------------------   ----------------------------------
DEPT.M        00 001 00 00         : DEPTH        - DEPTH
DPHI.V/V      00 890 00 00         : PHID         - DENSITY POROSITY (SANDSTONE)
NPHI.V/V      00 330 00 00         : PHIN         - NEUTRON POROSITY (SANDSTONE)
GR  .API      00 310 00 00         : GR           - GAMMA RAY
CALI.MM       00 280 01 00         : CAL          - CALIPER
ILD .OHMM     00 120 00 00         : RESD         - DEEP RESISTIVITY (DIL)
~PARAMETER INFORMATION
#MNEM.UNIT           DATA             DESCRIPTION OF MNEMONIC
#---------         -----------     ------------------------------
GL  .M        602                  : gl           - GROUND LEVEL ELEVATION
EREF.M        605.2                : kb           - ELEVATION OF DEPTH REFERENCE
DATM.M        602                  : datum        - DATUM ELEVATION
TDD .M        629                  : tdd          - TOTAL DEPTH DRILLER
RUN .         ONE                  : Run          - RUN NUMBER
BASE.         EDM                  : Branch       - HOME BASE OF LOGGING UNIT
MUD .         GEL                  : Mud_type     - MUD TYPE
MATR.         SANDSTONE            : Logunit      - NEUTRON MATRIX
TMAX.C        25                   : BHT          - MAXIMUM RECORDED TEMPERATURE
BHTD.M        630                  : BHTDEP       - MAXIMUM RECORDED TEMPERATURE
RMT .C        13.3                 : MDTP         - TEMPERATURE OF MUD
MUDD.KG/M     1170                 : MWT          - MUD DENSITY
NEUT.         1                    : NEUTRON      - NEUTRON TYPE
RESI.         0                    : RESIST       - RESISTIVITY TYPE
RM  .OHMM     4.9                  : RM           - RESISTIVITY OF MUD
RMC .OHMM     0                    : RMC          - RESISTIVITY OF MUD CAKE
RMF .OHMM     5.12                 : RMF          - RESISTIVITY OF MUD FILTRATE
SUFT.C        0                    : SUFT         - SURFACE TEMPERATURE
~A  DEPTH     PHID     PHIN       GR      CAL     RESD
# ...
  421.500    0.257    0.402   68.444  161.242    3.678
  421.750    0.259    0.400   68.653  161.485    3.729
  422.000    0.255    0.404   71.026  162.449    3.773
  422.250    0.233    0.397   74.516  166.304    3.788
  422.500    0.215    0.424   80.299  171.190    3.775
  422.750    0.203    0.439   83.665  175.459    3.754
  423.000    0.218    0.456   81.519  177.773    3.705
  423.250    0.255    0.476   78.135  176.254    3.649
  423.500    0.278    0.495   75.306  163.799    3.567
  423.750    0.266    0.473   76.696  160.324    3.441
  424.000    0.272    0.458   78.633  162.025    3.350
  424.250    0.253    0.440   82.247  162.667    3.300
  424.500    0.235    0.467   83.073  163.534    3.314
  424.750    0.239    0.466   79.378  163.048    3.437
  425.000    0.251    0.456   75.436  162.261    3.641
  425.250    0.245    0.465   73.414  161.060    3.895
  425.500    0.260    0.392   75.975  161.506    4.126
  425.750    0.246    0.410   80.275  163.815    4.354
  426.000    0.229    0.424   81.469  164.470    4.500
  426.250    0.237    0.423   75.296  163.574    4.614
  426.500    0.260    0.413   73.153  162.579    4.686
  426.750    0.247    0.407   75.031  161.794    4.769
  427.000    0.230    0.400   76.975  161.311    4.807
  427.250    0.257    0.407   76.003  160.623    4.808
  427.500    0.275    0.406   73.360  160.255    4.763
  427.750    0.286    0.403   71.525  160.394    4.701
  428.000    0.278    0.401   68.325  160.010    4.648
  428.250    0.282    0.400   67.543  159.533    4.596
  428.500    0.281    0.401   67.007  159.157    4.598
  428.750    0.294    0.408   65.480  158.988    4.625
  429.000    0.297    0.418   63.769  158.503    4.671
  429.250    0.266    0.425   62.612  158.123    4.744
  429.500    0.281    0.434   61.395  157.850    4.902
  429.750    0.275    0.444   59.867  157.892    5.283
  430.000    0.290    0.439   59.022  158.033    5.533
  430.250    0.293    0.421   59.664  157.961    5.503
  430.500    0.275    0.417   59.005  157.584    5.267
  430.750    0.266    0.413   57.664  157.107    4.993
  431.000    0.282    0.401   56.321  156.419    4.752
  431.250    0.275    0.405   56.531  155.938    4.592
  431.500    0.278    0.408   57.108  156.076    4.489
  431.750    0.258    0.397   52.670  156.733    4.447
  432.000    0.227    0.372   48.790  157.699    4.431
  432.250    0.200    0.335   45.529  158.557    4.373
  432.500    0.208    0.339   46.107  159.110    4.258
  432.750    0.300    0.361   47.740  159.253    4.107
  433.000    0.280    0.389   51.168  159.286    4.030
  433.250    0.266    0.386   52.678  159.321    3.993
  433.500    0.253    0.395   53.194  159.464    3.994
  433.750    0.268    0.396   53.772  159.608    3.979
  434.000    0.273    0.401   55.156  159.845    3.927
  434.250    0.289    0.412   55.735  159.776    3.861
  434.500    0.299    0.411   55.759  159.605    3.803
  434.750    0.292    0.408   55.285  156.859    3.753
  435.000    0.297    0.401   54.623  153.585    3.719
  435.250    0.289    0.398   54.337  154.447    3.684
  435.500    0.289    0.397   54.173  159.237    3.629
  435.750    0.293    0.402   53.885  160.510    3.588
  436.000    0.285    0.409   54.277  160.755    3.548
  436.250    0.292    0.415   56.776  160.477    3.488
  436.500    0.287    0.420   53.267  159.901    3.449
  436.750    0.285    0.422   56.697  160.032    3.417
  437.000    0.277    0.417   62.353  159.971    3.385
  437.250    0.259    0.405   68.384  159.901    3.335
  437.500    0.235    0.401   75.157  160.350    3.272
  437.750    0.210    0.408   81.433  162.346    3.211
  438.000    0.213    0.428   85.853  167.129    3.133
  438.250    0.224    0.447   80.922  166.340    3.376
  438.500    0.222    0.452   75.493  163.694    3.832
  438.750    0.215    0.464   72.291  161.154    4.805
  439.000    0.214    0.368   68.968  160.460    6.189
  439.250    0.161    0.330   66.202  161.016    8.250
  439.500    0.106    0.276   63.499  161.980    9.508
  439.750    0.079    0.228   59.991  161.710    9.153
  440.000    0.072    0.245   57.410  161.017    8.240
  440.250    0.116    0.287   66.537  160.020    7.139
  440.500    0.162    0.352   72.443  158.305    5.729
  440.750    0.254    0.413   74.819  157.930    4.973
  441.000    0.232    0.409   75.398  157.651    4.697
  441.250    0.229    0.401   76.100  157.795    4.698
  441.500    0.221    0.389   78.974  158.453    4.763
  441.750    0.207    0.419   81.905  159.930    4.856
  442.000    0.193    0.437   83.847  161.826    4.932
  442.250    0.200    0.442   84.364  162.794    5.000
  442.500    0.238    0.446   83.084  163.137    5.098
  442.750    0.282    0.500   80.442  162.551    5.128
  443.000    0.327    0.542   74.704  162.175    5.061
  443.250    0.400    0.551   72.557  164.275    4.891
  443.500    0.296    0.534   76.360  167.408    4.762
  443.750    0.233    0.512   79.413  167.859    4.638
  444.000    0.212    0.480   82.597  163.866    4.481
  444.250    0.194    0.444   85.404  164.522    4.331
  444.500    0.205    0.454   85.053  164.249    4.266
  444.750    0.240    0.422   80.429  162.633    4.242
  445.000    0.245    0.398   76.115  159.058    4.342
  445.250    0.237    0.391   77.996  157.131    4.427
  445.500    0.226    0.422   81.177  158.819    4.479
  445.750    0.215    0.447   85.162  160.919    4.532
  446.000    0.228    0.452   85.805  161.987    4.621
  446.250    0.255    0.443   81.241  160.476    4.711
  446.500    0.272    0.430   76.926  158.242    4.749
  446.750    0.268    0.419   73.170  157.046    4.741
  447.000    0.281    0.417   70.901  156.557    4.706
  447.250    0.281    0.426   68.877  156.076    4.689
  447.500    0.288    0.449   65.556  155.804    4.753
  447.750    0.282    0.466   63.163  155.323    4.912
  448.000    0.273    0.454   62.315  155.163    4.970
  448.250    0.269    0.434   62.338  154.985    4.914
  448.500    0.260    0.428   62.111  155.234    4.841
  448.750    0.272    0.427   63.001  155.263    4.722
  449.000    0.279    0.422   64.445  155.402    4.563
  449.250    0.272    0.420   66.263  155.746    4.318
  449.500    0.260    0.429   68.083  156.403    4.101
  449.750    0.285    0.408   64.015  156.746    4.009
  450.000    0.278    0.396   64.720  156.683    3.980
  450.250    0.283    0.408   66.970  156.510    3.950
  450.500    0.265    0.399   70.273  156.550    3.936
  450.750    0.246    0.407   74.756  156.582    3.922
  451.000    0.255    0.426   75.769  156.627    3.908
  451.250    0.257    0.437   73.002  156.761    3.931
  451.500    0.279    0.435   70.859  156.793    3.955
  451.750    0.296    0.432   70.568  156.519    3.971
  452.000    0.284    0.427   69.228  156.764    4.018
  452.250    0.261    0.421   66.770  157.215    4.120
  452.500    0.244    0.421   68.465  157.254    4.217
  452.750    0.255    0.425   70.656  157.286    4.299
  453.000    0.248    0.412   71.792  157.224    4.325
  453.250    0.255    0.420   69.523  157.051    4.293
  453.500    0.269    0.426   67.873  157.186    4.229
  453.750    0.281    0.431   67.459  157.325    4.142
  454.000    0.293    0.422   66.366  157.360    4.056
  454.250    0.294    0.420   65.831  157.502    3.950
  454.500    0.275    0.432   67.523  157.542    3.891
  454.750    0.265    0.442   69.837  157.572    3.840
  455.000    0.259    0.441   70.415  157.611    3.841
  455.250    0.272    0.442   69.200  157.239    3.864
  455.500    0.280    0.444   69.223  155.927    3.902
  455.750    0.265    0.434   70.047  157.923    4.009
  456.000    0.262    0.430   72.299  159.199    4.174
  456.250    0.254    0.433   75.851  158.926    4.355
  456.500    0.229    0.422   78.969  158.546    4.587
  456.750    0.208    0.411   82.956  159.722    4.786
  457.000    0.181    0.407   87.870  160.896    4.936
  457.250    0.180    0.417   86.776  161.856    5.042
  457.500    0.185    0.413   86.551  163.348    5.092
  457.750    0.173    0.405   88.925  163.993    5.054
