~VERSION INFORMATION
 VERS.                 2.0:   CWLS LOG ASCII STANDARD -VERSION 2.0
 WRAP.                  NO:   ONE LINE PER DEPTH STEP
~WELL INFORMATION BLOCK
#MNEM.UNIT           DATA                    DESCRIPTION OF MNEMONIC
#---------    -------------------            -------------------------------
# Generated from Intellog Unique Number	CW_73_75/WELL/1041
WELL.         11-18-075-23W4                 : Well_name    - WELL
LOC .         00/11-18-075-23W4/0            : Location     - LOCATION
UWI .         00/11-18-075-23W4/0            : Uwi          - UNIQUE WELL ID
ENTR.         JAYE                           : Entered      - ENTERED BY
SRVC.         SCHLUMBERGER                   : Scn          - SERVICE COMPANY
DATE.         23 FEB 77                      : Date         - LOG DATE
STRT.M        408.432                        : top_depth    - START DEPTH
STOP.M        606.432                        : bot_depth    - STOP DEPTH
STEP.M        0.25                           : increment    - STEP LENGTH
 NULL. -999.2500:NULL Value
~CURVE INFORMATION BLOCK
#MNEM UNIT       ERCB CURVE CODE    CURVE DESCRIPTION
#-----------   ------------------   ----------------------------------
DEPT.M        00 001 00 00         : DEPTH        - DEPTH
ILD .OHMM     00 120 00 00         : RESD         - DEEP RESISTIVITY (DIL)
GR  .API      00 310 00 00         : GR           - GAMMA RAY
CALI.MM       00 280 01 00         : CAL          - CALIPER
NPHI.V/V      00 330 00 00         : PHIN         - NEUTRON POROSITY (SANDSTONE)
DPHI.V/V      00 890 00 00         : PHID         - DENSITY POROSITY (SANDSTONE)
~PARAMETER INFORMATION
#MNEM.UNIT           DATA             DESCRIPTION OF MNEMONIC
#---------         -----------     ------------------------------
GL  .M        694.213              : gl           - GROUND LEVEL ELEVATION
EREF.M        698.906              : kb           - ELEVATION OF DEPTH REFERENCE
DATM.M        694.213              : datum        - DATUM ELEVATION
TDD .M        605.942              : tdd          - TOTAL DEPTH DRILLER
RUN .         ONE                  : Run          - RUN NUMBER
ENG .         SEDGWICK             : Engineer     - RECORDING ENGINEER
WIT .         BRAUN                : Witness      - WITNESSED BY
BASE.         EDM                  : Branch       - HOME BASE OF LOGGING UNIT
MUD .         GEL                  : Mud_type     - MUD TYPE
MATR.         SANDSTONE            : Logunit      - NEUTRON MATRIX
TMAX.C        28.8889              : BHT          - MAXIMUM RECORDED TEMPERATURE
BHTD.M        605.942              : BHTDEP       - MAXIMUM RECORDED TEMPERATURE
RMT .C        15.5556              : MDTP         - TEMPERATURE OF MUD
MUDD.KG/M     1104                 : MWT          - MUD DENSITY
NEUT.         1                    : NEUTRON      - NEUTRON TYPE
RESI.         0                    : RESIST       - RESISTIVITY TYPE
RM  .OHMM     5.18                 : RM           - RESISTIVITY OF MUD
RMC .OHMM     3.16                 : RMC          - RESISTIVITY OF MUD CAKE
RMF .OHMM     5.47                 : RMF          - RESISTIVITY OF MUD FILTRATE
SUFT.C        -17.7778             : SUFT         - SURFACE TEMPERATURE
~A  DEPTH     RESD       GR      CAL     PHIN     PHID
# ...
  517.932    6.251   91.010  231.465    0.202    0.148
  518.182    7.200   95.455  231.518    0.229    0.165
  518.432    7.963   98.527  231.987    0.282    0.146
  518.682    8.091   98.560  232.151    0.322    0.121
  518.932    7.650   96.600  232.196    0.326    0.093
  519.182    7.301   95.885  232.252    0.317    0.125
  519.432    7.137  100.023  232.192    0.364    0.165
  519.682    7.041  101.475  232.572    0.406    0.147
  519.932    6.972  100.016  233.356    0.420    0.148
  520.182    6.968   98.990  234.245    0.441    0.145
  520.432    6.988  101.572  235.032    0.475    0.134
  520.682    7.049  102.905  235.300    0.491    0.145
  520.932    7.083  103.557  235.352    0.484    0.155
  521.182    7.091  106.321  235.193    0.485    0.167
  521.432    7.154  107.840  235.141    0.456    0.179
  521.682    7.149  108.802  235.402    0.436    0.174
  521.932    7.118  111.565  235.772    0.440    0.147
  522.182    7.034  113.896  236.135    0.457    0.134
  522.432    6.965  118.958  236.820    0.465    0.141
  522.682    6.872  123.025  237.394    0.475    0.149
  522.932    6.743  119.643  237.864    0.491    0.137
  523.182    6.627  121.222  238.234    0.498    0.114
  523.432    6.465  126.164  238.390    0.456    0.123
  523.682    6.298  129.174  238.871    0.431    0.123
  523.932    6.200  132.062  239.134    0.423    0.131
  524.182    6.106  129.982  239.501    0.431    0.142
  524.432    6.034  126.532  239.545    0.441    0.159
  524.682    5.943  126.627  239.286    0.442    0.160
  524.932    5.896  128.955  239.232    0.421    0.152
  525.182    5.901  116.933  238.543    0.408    0.137
  525.432    5.910  109.200  237.438    0.410    0.131
  525.682    5.916  105.875  235.812    0.429    0.129
  525.932    5.956  110.011  234.284    0.416    0.157
  526.182    6.007  112.273  232.863    0.396    0.171
  526.432    6.149  113.297  232.070    0.381    0.086
  526.682    6.471  113.267  231.292    0.371    0.078
  526.932    6.923  118.888  230.704    0.426    0.119
  527.182    7.367  132.149  230.436    0.414    0.155
  527.432    7.694  136.716  230.698    0.369    0.153
  527.682    7.662  127.241  231.065    0.356    0.141
  527.932    7.447  127.706  231.758    0.364    0.129
  528.182    7.253  133.638  232.337    0.390    0.125
  528.432    7.249  137.459  232.597    0.412    0.142
  528.682    7.270  140.471  233.379    0.402    0.161
  528.932    7.212  144.479  233.644    0.373    0.165
  529.182    6.960  140.598  233.795    0.353    0.181
  529.432    6.641  132.797  234.059    0.353    0.180
  529.682    6.234  124.443  234.320    0.381    0.171
  529.932    5.884  122.487  234.375    0.435    0.155
  530.182    5.698  122.640  234.426    0.443    0.163
  530.432    5.737  120.558  232.168    0.394    0.167
  530.682    5.829  123.080  230.320    0.376    0.155
  530.932    5.912  126.650  229.537    0.370    0.144
  531.182    5.930  131.771  230.640    0.402    0.143
  531.432    5.926  134.098  232.687    0.382    0.142
  531.682    5.924  140.157  234.528    0.366    0.140
  531.932    5.876  151.431  235.635    0.371    0.134
  532.182    5.839  156.617  236.419    0.406    0.156
  532.432    5.836  160.126  236.794    0.431    0.172
  532.682    5.800  161.211  236.941    0.439    0.169
  532.932    5.839  160.499  237.317    0.429    0.158
  533.182    5.856  149.098  237.474    0.412    0.140
  533.432    5.973  142.854  237.632    0.384    0.140
  533.682    6.013  136.488  237.997    0.370    0.160
  533.932    6.065  134.157  238.259    0.385    0.174
  534.182    6.105  129.033  238.205    0.365    0.174
  534.432    6.101  122.912  238.040    0.351    0.161
  534.682    6.121  106.980  237.045    0.342    0.147
  534.932    6.140  104.462  235.940    0.334    0.138
  535.182    6.146  106.857  235.568    0.325    0.141
  535.432    6.110  108.437  235.834    0.312    0.137
  535.682    6.105  108.467  236.408    0.316    0.124
  535.932    6.146  107.380  237.097    0.323    0.133
  536.182    6.290  110.524  237.039    0.336    0.141
  536.432    6.523  112.350  236.464    0.348    0.138
  536.682    6.665  113.128  235.983    0.365    0.132
  536.932    6.660  114.463  235.411    0.379    0.127
  537.182    6.631  115.919  235.257    0.395    0.123
  537.432    6.603  119.429  235.310    0.412    0.117
  537.682    6.659  125.485  235.563    0.435    0.135
  537.932    6.829  131.359  235.411    0.487    0.161
  538.182    6.977  140.393  235.564    0.539    0.169
  538.432    7.037  152.972  235.409    0.599    0.156
  538.682    6.766  166.606  235.453    0.570    0.135
  538.932    6.292  175.647  235.504    0.492    0.148
  539.182    6.027  179.403  235.555    0.424    0.157
  539.432    5.957  186.949  235.506    0.418    0.152
  539.682    5.986  194.434  235.347    0.416    0.142
  539.932    5.906  219.002  234.885    0.410    0.147
  540.182    5.741  233.631  234.927    0.400    0.137
  540.432    5.801  255.714  234.870    0.351    0.040
  540.682    6.682  274.381  234.608    0.289   -0.009
  540.932    7.611  242.049  234.350    0.203    0.006
  541.182    9.560  229.654  234.082    0.193    0.026
  541.432   15.489  194.898  233.611    0.209    0.077
  541.682   22.425  160.017  232.922    0.234    0.096
  541.932   30.659  158.245  232.339    0.243    0.116
  542.182   32.208  162.687  231.557    0.216    0.147
  542.432   23.963  144.765  231.499    0.191    0.153
  542.682   16.257  126.781  232.600    0.157    0.112
  542.932   12.435  111.346  236.229    0.179    0.104
  543.182    9.618  105.162  241.543    0.203    0.107
  543.432    8.494   95.503  240.226    0.220    0.099
  543.682    8.520   91.061  236.491    0.242    0.075
  543.932    9.476   90.595  233.923    0.251    0.064
  544.182   10.157   97.459  233.649    0.232    0.054
  544.432   10.628  103.335  234.126    0.252    0.097
  544.682   10.840  104.294  234.598    0.288    0.117
  544.932   10.502  100.471  234.864    0.318    0.104
  545.182   10.094  100.253  234.704    0.346    0.103
  545.432    9.233  103.952  234.330    0.463    0.127
  545.682    8.585  106.339  233.867    0.521    0.113
  545.932    8.149  106.622  233.706    0.613    0.117
  546.182    7.850  105.467  233.870    0.560    0.103
  546.432    7.786  105.192  234.118    0.510    0.101
  546.682    7.782  102.982  234.703    0.503    0.116
  546.932    7.776  104.630  234.852    0.496    0.107
  547.182    7.843  106.336  235.221    0.464    0.127
  547.432    7.853  105.435  235.384    0.521    0.105
  547.682    7.863  103.913  235.431    0.608    0.099
  547.932    7.857  103.881  235.592    0.525    0.103
  548.182    7.838  106.275  235.856    0.470    0.093
  548.432    7.776  108.105  236.318    0.438    0.098
  548.682    7.641  108.261  236.686    0.408    0.117
  548.932    7.401  108.477  236.959    0.401    0.115
  549.182    7.355  108.880  237.213    0.418    0.102
  549.432    7.421  108.041  237.379    0.418    0.087
  549.682    7.538  103.041  237.429    0.414    0.093
  549.932    7.688  101.394  237.577    0.414    0.106
  550.182    7.854  102.112  237.840    0.425    0.110
  550.432    7.922  102.824  238.109    0.434    0.110
  550.682    7.845  104.530  237.943    0.434    0.101
  550.932    7.681  109.219  237.381    0.427    0.081
  551.182    7.400  111.610  237.215    0.418    0.109
  551.432    7.192  111.703  236.945    0.409    0.113
  551.682    6.979  109.063  236.684    0.404    0.106
  551.932    6.861  104.621  236.529    0.408    0.094
  552.182    6.818  104.280  236.267    0.415    0.066
  552.432    6.851   99.090  235.680    0.422    0.049
  552.682    7.000  103.658  234.887    0.432    0.090
  552.932    7.271  108.843  233.261    0.438    0.120
  553.182    7.554  104.711  231.731    0.432    0.137
  553.432    7.704   98.654  230.211    0.419    0.149
  553.682    7.656   94.959  228.575    0.414    0.090
  553.932    7.415   91.076  227.155    0.404    0.034
  554.182    7.384   86.262  226.997    0.393    0.039
