~VERSION INFORMATION
 VERS.                 2.0:   CWLS LOG ASCII STANDARD -VERSION 2.0
 WRAP.                  NO:   ONE LINE PER DEPTH STEP
~WELL INFORMATION BLOCK
#MNEM.UNIT           DATA                    DESCRIPTION OF MNEMONIC
#---------    -------------------            -------------------------------
# Generated from Intellog Unique Number	CS_69_70/WELL/2902
WELL.         12-30-069-07W4                 : Well_name    - WELL
LOC .         00/12-30-069-07W4/0            : Location     - LOCATION
UWI .         00/12-30-069-07W4/0            : Uwi          - UNIQUE WELL ID
ENTR.         ANDERSEN                       : Entered      - ENTERED BY
SRVC.         SCHLUMBERGER                   : Scn          - SERVICE COMPANY
STRT.M        350                            : top_depth    - START DEPTH
STOP.M        540                            : bot_depth    - STOP DEPTH
STEP.M        0.25                           : increment    - STEP LENGTH
 NULL. -999.2500:NULL Value
~CURVE INFORMATION BLOCK
#MNEM UNIT       ERCB CURVE CODE    CURVE DESCRIPTION
#-----------   ------------------   ----------------------------------
DEPT.M        00 001 00 00         : DEPTH        - DEPTH
GR  .API      00 310 00 00         : GR           - GAMMA RAY
CALI.MM       00 280 01 00         : CAL          - CALIPER
NPHI.V/V      00 330 00 00         : PHIN         - NEUTRON POROSITY (SANDSTONE)
DPHI.V/V      00 890 00 00         : PHID         - DENSITY POROSITY (SANDSTONE)
ILD .OHMM     00 120 00 00         : RESD         - DEEP RESISTIVITY (DIL)
~PARAMETER INFORMATION
#MNEM.UNIT           DATA             DESCRIPTION OF MNEMONIC
#---------         -----------     ------------------------------
GL  .M        656.9                : gl           - GROUND LEVEL ELEVATION
EREF.M        660.6                : kb           - ELEVATION OF DEPTH REFERENCE
DATM.M        660.6                : datum        - DATUM ELEVATION
TDD .M        543                  : tdd          - TOTAL DEPTH DRILLER
RUN .         ONE                  : Run          - RUN NUMBER
ENG .         BILL                 : Engineer     - RECORDING ENGINEER
WIT .         JIM                  : Witness      - WITNESSED BY
MUD .         GEL                  : Mud_type     - MUD TYPE
MATR.         SANDSTONE            : Logunit      - NEUTRON MATRIX
TMAX.C        23                   : BHT          - MAXIMUM RECORDED TEMPERATURE
BHTD.M        543                  : BHTDEP       - MAXIMUM RECORDED TEMPERATURE
MATR.         1                    : LOGUNIT      - NEUTRON MATRIX
RMT .C        17                   : MDTP         - TEMPERATURE OF MUD
NEUT.         1                    : NEUTRON      - NEUTRON TYPE
RESI.         0                    : RESIST       - RESISTIVITY TYPE
RMC .OHMM     3.24                 : RMC          - RESISTIVITY OF MUD CAKE
RMF .OHMM     8.92                 : RMF          - RESISTIVITY OF MUD FILTRATE
SUFT.C        15                   : SUFT         - SURFACE TEMPERATURE
~A  DEPTH       GR      CAL     PHIN     PHID     RESD
# ...
  386.500   43.658  156.867    0.442    0.358    9.754
  386.750   44.272  156.958    0.423    0.355    9.592
  387.000   42.615  157.031    0.390    0.342    8.930
  387.250   43.800  157.103    0.362    0.315    8.467
  387.500   43.843  157.194    0.453    0.352    7.880
  387.750   41.035  157.267    0.449    0.368    7.471
  388.000   40.508  157.358    0.456    0.365    7.220
  388.250   39.992  157.413    0.460    0.363    7.231
  388.500   40.596  157.467    0.448    0.363    7.239
  388.750   42.350  157.558    0.449    0.363    7.125
  389.000   44.686  157.613    0.457    0.364    7.130
  389.250   45.860  157.704    0.465    0.366    7.141
  389.500   45.925  157.795    0.468    0.372    7.152
  389.750   44.828  156.917    0.456    0.379    7.166
  390.000   44.872  156.990    0.436    0.390    7.183
  390.250   45.486  157.062    0.455    0.403    7.189
  390.500   45.530  156.203    0.491    0.397    7.200
  390.750   43.862  156.257    0.473    0.380    7.080
  391.000   42.184  156.330    0.435    0.373    7.091
  391.250   41.668  157.354    0.429    0.372    7.102
  391.500   41.130  157.463    0.435    0.372    6.987
  391.750   42.315  157.499    0.445    0.373    6.998
  392.000   44.662  157.572    0.457    0.373    6.885
  392.250   46.417  157.645    0.465    0.369    6.765
  392.500   48.161  157.754    0.456    0.372    6.778
  392.750   48.775  157.808    0.458    0.381    6.786
  393.000   47.678  158.814    0.467    0.388    6.797
  393.250   46.021  158.905    0.479    0.397    6.684
  393.500   47.205  159.014    0.476    0.405    6.700
  393.750   44.968  159.050    0.474    0.412    6.710
  394.000   42.170  158.191    0.529    0.419    6.720
  394.250   41.633  158.245    0.551    0.413    6.852
  394.500   45.109  157.367    0.495    0.395    6.868
  394.750   45.724  157.458    0.466    0.398    6.873
  395.000   45.186  157.549    0.445    0.405    7.011
  395.250   44.089  157.604    0.454    0.415    7.286
  395.500   43.562  157.658    0.477    0.409    7.432
  395.750   43.035  157.768    0.478    0.391    7.443
  396.000   43.079  157.822    0.457    0.382    7.592
  396.250   44.845  156.981    0.457    0.382    7.744
  396.500   46.599  157.017    0.459    0.382    8.501
  396.750   46.643  157.090    0.460    0.385    9.497
  397.000   44.976  157.217    0.464    0.392   11.633
  397.250   44.460  157.272    0.471    0.392   13.986
  397.500   43.933  157.308    0.476    0.379   14.797
  397.750   41.684  157.399    0.462    0.359   14.029
  398.000   38.887  157.490    0.411    0.225   12.141
  398.250   39.490  157.545    0.167    0.069   10.130
  398.500   44.689  157.654    0.227    0.165    8.451
  398.750   44.162  157.690    0.384    0.296    7.451
  399.000   44.206  157.799    0.430    0.358    7.192
  399.250   44.239  157.854    0.446    0.377    7.073
  399.500   43.712  157.908    0.445    0.382    7.084
  399.750   43.185  158.036    0.439    0.376    6.967
  400.000   44.381  158.090    0.430    0.365    6.980
  400.250   47.847  158.163    0.425    0.365    6.991
  400.500   50.194  158.218    0.440    0.367    7.002
  400.750   48.515  158.309    0.454    0.371    7.013
  401.000   46.267  157.431    0.468    0.373    7.026
  401.250   44.040  157.504    0.482    0.373    7.034
  401.500   44.654  157.558    0.471    0.370    6.918
  401.750   44.127  156.680    0.461    0.374    6.934
  402.000   41.878  156.771    0.462    0.378    6.945
  402.250   40.211  155.930    0.474    0.383    6.827
  402.500   40.254  155.966    0.479    0.390    6.840
  402.750   42.020  156.039    0.454    0.386    6.845
  403.000   42.634  156.130    0.442    0.371    6.734
  403.250   42.689  155.270    0.435    0.368    6.742
  403.500   43.303  155.325    0.437    0.371    6.755
  403.750   45.617  155.416    0.425    0.375    6.768
  404.000   48.513  155.471    0.428    0.376    6.779
  404.250   49.719  155.561    0.451    0.367    6.789
  404.500   47.481  155.616    0.463    0.362    6.800
  404.750   47.525  155.689    0.442    0.370    6.808
  405.000   48.139  155.780    0.428    0.370    6.821
  405.250   47.601  155.871    0.439    0.364    6.832
  405.500   46.504  155.925    0.453    0.364    6.842
  405.750   45.407  155.980    0.448    0.369    6.853
  406.000   44.880  156.053    0.445    0.373    6.863
  406.250   46.075  156.125    0.442    0.374    6.755
  406.500   46.119  156.235    0.454    0.367    6.760
  406.750   45.022  156.307    0.459    0.366    6.771
  407.000   44.495  156.380    0.463    0.369    6.784
  407.250   43.409  156.435    0.466    0.372    6.794
  407.500   43.464  156.508    0.458    0.374    6.805
  407.750   43.486  156.599    0.448    0.377    6.813
  408.000   43.529  156.671    0.443    0.377    6.705
  408.250   43.573  156.744    0.457    0.375    6.710
  408.500   44.187  156.853    0.466    0.374    6.723
  408.750   45.964  156.890    0.448    0.375    6.739
  409.000   47.148  156.962    0.448    0.376    6.744
  409.250   48.903  156.085    0.445    0.374    6.879
  409.500   50.076  156.157    0.443    0.377    6.892
  409.750   51.261  156.230    0.456    0.379    6.778
  410.000   51.304  156.321    0.471    0.383    6.788
  410.250   46.785  156.412    0.474    0.385    6.676
  410.500   44.558  156.448    0.459    0.384    6.565
  410.750   44.031  156.558    0.454    0.376    6.575
  411.000   50.349  156.630    0.463    0.373    6.466
  411.250   59.519  157.654    0.459    0.368    6.359
  411.500   73.833  157.727    0.463    0.342    6.141
  411.750   76.169  158.732    0.488    0.301    6.039
  412.000   76.784  158.805    0.485    0.278    5.939
  412.250   76.827  159.864    0.486    0.278    5.840
  412.500   78.582  159.901    0.485    0.279    5.851
  412.750   82.618  160.010    0.477    0.278    5.861
  413.000   83.232  159.132    0.478    0.268    5.870
  413.250   81.565  159.205    0.471    0.265    5.876
  413.500   78.767  158.327    0.461    0.267    5.886
  413.750   77.089  158.400    0.473    0.266    5.897
  414.000   77.703  158.454    0.479    0.260    5.904
  414.250   79.458  158.527    0.481    0.256    5.918
  414.500   82.365  158.600    0.482    0.255    5.927
  414.750   85.841  159.641    0.487    0.255    5.828
  415.000   87.596  160.665    0.497    0.255    5.837
  415.250   88.199  160.738    0.500    0.254    5.846
  415.500   88.243  160.829    0.488    0.256    5.853
  415.750   88.287  161.852    0.480    0.252    5.865
  416.000   88.330  162.875    0.468    0.243    5.661
  416.250   88.374  163.881    0.459    0.240    5.270
  416.500   88.429  165.855    0.466    0.240    4.732
  416.750   88.472  169.748    0.478    0.236    4.406
  417.000   87.945  177.444    0.498    0.244    4.101
  417.250   87.989  181.302    0.520    0.259    3.889
  417.500   88.044  185.177    0.519    0.273    3.687
  417.750   85.806  190.972    0.505    0.268    3.495
  418.000   85.268  192.946    0.496    0.261    3.374
  418.250   87.023  191.117    0.525    0.249    3.258
  418.500   89.941  190.239    0.538    0.243    3.148
  418.750   89.414  189.361    0.545    0.242    3.095
  419.000   88.317  189.452    0.530    0.251    3.044
  419.250   87.779  188.575    0.515    0.258    2.994
  419.500   86.682  189.598    0.511    0.268    2.944
  419.750   86.155  189.653    0.502    0.277    2.949
  420.000   86.769  189.762    0.509    0.285    2.953
  420.250   89.665  188.884    0.526    0.298    2.958
  420.500   88.579  187.055    0.545    0.308    3.129
  420.750   86.911  184.276    0.573    0.317    3.311
  421.000   83.543  180.528    0.581    0.309    3.839
  421.250   83.017  176.798    0.557    0.295    4.061
  421.500   83.060  172.118    0.520    0.293    4.458
  421.750   82.534  168.406    0.485    0.283    4.631
  422.000   81.996  172.264    0.510    0.266    4.724
  422.250   81.469  169.484    0.505    0.238    4.731
  422.500   82.654  165.773    0.485    0.220    4.739
  422.750   83.279  163.944    0.480    0.239    4.746
