~VERSION INFORMATION
 VERS.                 2.0:   CWLS LOG ASCII STANDARD -VERSION 2.0
 WRAP.                  NO:   ONE LINE PER DEPTH STEP
~WELL INFORMATION BLOCK
#MNEM.UNIT           DATA                    DESCRIPTION OF MNEMONIC
#---------    -------------------            -------------------------------
# Generated from Intellog Unique Number	CW_73_75/WELL/3525
WELL.         HCO ET AL FRANCIS              : Well_name    - WELL
LOC .         00/11-01-073-21W4/0            : Location     - LOCATION
UWI .         00/11-01-073-21W4/0            : Uwi          - UNIQUE WELL ID
ENTR.         TIM                            : Entered      - ENTERED BY
SRVC.         SCHLUMBERGER                   : Scn          - SERVICE COMPANY
STRT.M        320                            : top_depth    - START DEPTH
STOP.M        575                            : bot_depth    - STOP DEPTH
STEP.M        0.25                           : increment    - STEP LENGTH
 NULL. -999.2500:NULL Value
~CURVE INFORMATION BLOCK
#MNEM UNIT       ERCB CURVE CODE    CURVE DESCRIPTION
#-----------   ------------------   ----------------------------------
DEPT.M        00 001 00 00         : DEPTH        - DEPTH
GR  .API      00 310 00 00         : GR           - GAMMA RAY
CALI.MM       00 280 01 00         : CAL          - CALIPER
NPHI.V/V      00 330 00 00         : PHIN         - NEUTRON POROSITY (SANDSTONE)
DPHI.V/V      00 890 00 00         : PHID         - DENSITY POROSITY (SANDSTONE)
ILD .OHMM     00 120 00 00         : RESD         - DEEP RESISTIVITY (DIL)
~PARAMETER INFORMATION
#MNEM.UNIT           DATA             DESCRIPTION OF MNEMONIC
#---------         -----------     ------------------------------
GL  .M        658.2                : gl           - GROUND LEVEL ELEVATION
EREF.M        661.7                : kb           - ELEVATION OF DEPTH REFERENCE
DATM.M        661.7                : datum        - DATUM ELEVATION
TDD .M        587                  : tdd          - TOTAL DEPTH DRILLER
RUN .         ONE                  : Run          - RUN NUMBER
ENG .         BILL                 : Engineer     - RECORDING ENGINEER
WIT .         JIM                  : Witness      - WITNESSED BY
MUD .         GEL                  : Mud_type     - MUD TYPE
MATR.         SANDSTONE            : Logunit      - NEUTRON MATRIX
TMAX.C        26                   : BHT          - MAXIMUM RECORDED TEMPERATURE
BHTD.M        487                  : BHTDEP       - MAXIMUM RECORDED TEMPERATURE
MATR.         1                    : LOGUNIT      - NEUTRON MATRIX
RMT .C        18                   : MDTP         - TEMPERATURE OF MUD
NEUT.         1                    : NEUTRON      - NEUTRON TYPE
RESI.         0                    : RESIST       - RESISTIVITY TYPE
RMC .OHMM     3.39                 : RMC          - RESISTIVITY OF MUD CAKE
RMF .OHMM     3.39                 : RMF          - RESISTIVITY OF MUD FILTRATE
SUFT.C        5                    : SUFT         - SURFACE TEMPERATURE
~A  DEPTH       GR      CAL     PHIN     PHID     RESD
# ...
  502.500   62.557  158.443    0.323    0.186    7.335
  502.750   62.575  158.461    0.286    0.103    7.208
  503.000   62.590  158.485    0.259    0.063    7.218
  503.250   63.194  158.509    0.331    0.049    7.228
  503.500   63.795  159.511    0.385    0.052    7.100
  503.750   65.581  160.519    0.387    0.208    6.851
  504.000   67.369  162.516    0.348    0.193    6.488
  504.250   69.154  163.518    0.325    0.182    6.031
  504.500   71.530  164.526    0.369    0.200    5.925
  504.750   74.496  164.550    0.409    0.230    5.612
  505.000   75.698  164.580    0.429    0.250    5.414
  505.250   75.118  164.604    0.438    0.272    5.321
  505.500   72.178  164.628    0.435    0.283    5.327
  505.750   67.474  164.652    0.426    0.283    5.333
  506.000   67.484  163.686    0.414    0.282    5.542
  506.250   67.499  163.710    0.410    0.282    5.650
  506.500   66.926  163.734    0.408    0.279    5.983
  506.750   65.760  163.758    0.404    0.264    6.214
  507.000   65.181  163.782    0.345    0.232    6.455
  507.250   65.195  163.818    0.320    0.194    6.958
  507.500   68.751  163.829    0.306    0.157    7.501
  507.750   80.571  163.859    0.304    0.154    6.720
  508.000   90.619  163.895    0.362    0.185    6.019
  508.250   98.307  163.913    0.398    0.185    5.493
  508.500  100.686  163.937    0.421    0.187    5.012
  508.750  100.700  163.955    0.428    0.194    4.748
  509.000  100.715  163.991    0.425    0.199    4.665
  509.250  101.319  164.003    0.422    0.196    4.501
  509.500  102.514  164.033    0.421    0.196    4.341
  509.750  103.119  164.051    0.424    0.197    3.747
  510.000  103.137  164.075    0.455    0.202    3.548
  510.250  103.148  164.105    0.461    0.208    3.972
  510.500  102.575  164.129    0.478    0.213    4.281
  510.750  101.406  164.147    0.451    0.222    4.703
  511.000   99.059  164.171    0.439    0.225    5.069
  511.250   97.303  164.201    0.424    0.205    5.365
  511.500   94.956  164.219    0.410    0.192    6.004
  511.750   93.200  164.249    0.404    0.184    6.355
  512.000   92.034  164.267    0.405    0.174    6.853
  512.250   90.277  164.303    0.407    0.169    7.118
  512.500   91.476  164.315    0.406    0.184    7.392
  512.750   92.667  165.322    0.402    0.195    7.539
  513.000   95.042  165.352    0.397    0.201    7.552
  513.250   96.241  164.393    0.389    0.193    7.558
  513.500   96.252  164.417    0.384    0.185    7.427
  513.750   96.269  164.447    0.379    0.180    7.167
  514.000   96.284  165.448    0.387    0.176    7.173
  514.250   96.295  165.478    0.396    0.175    6.924
  514.500   96.316  166.486    0.403    0.174    6.800
  514.750   96.914  166.510    0.404    0.168    6.685
  515.000   96.932  166.528    0.396    0.163    6.692
  515.250   97.536  166.558    0.389    0.151    6.699
  515.500   98.145  167.566    0.384    0.151    6.834
  515.750   98.746  167.584    0.386    0.153    6.968
  516.000   99.941  167.620    0.393    0.157    7.106
  516.250  101.139  167.632    0.397    0.165    7.247
  516.500  100.563  167.655    0.397    0.170    7.255
  516.750   99.984  166.696    0.396    0.164    7.399
  517.000   98.231  165.742    0.395    0.157    7.548
  517.250   97.655  164.788    0.397    0.166    7.554
  517.500   97.079  163.816    0.393    0.153    7.564
  517.750   97.684  162.856    0.379    0.150    7.571
  518.000   97.695  162.880    0.370    0.160    7.440
  518.250   95.942  162.910    0.360    0.162    7.448
  518.500   93.595  163.924    0.346    0.155    7.456
  518.750   94.790  163.942    0.343    0.137    7.330
  519.000   98.342  163.960    0.352    0.117    7.203
  519.250  104.849  163.990    0.375    0.134    7.211
  519.500  110.176  164.014    0.380    0.154    7.634
  519.750  110.784  164.038    0.391    0.170    7.929
  520.000  109.618  164.062    0.399    0.171    8.389
  520.250  104.320  165.076    0.387    0.165    9.925
  520.500   97.838  165.100    0.373    0.120   11.958
  520.750   87.818  165.118    0.365    0.093   13.884
  521.000   79.569  166.125    0.354    0.073   16.729
  521.250   70.730  166.149    0.332    0.060   19.424
  521.500   66.022  167.163    0.287    0.049   21.744
  521.750   65.446  167.181    0.255    0.032   19.115
  522.000   66.051  167.217    0.261    0.023   14.764
  522.250   69.020  167.235    0.267    0.032   13.221
  522.500   76.117  167.259    0.278    0.047   11.629
  522.750   80.854  167.277    0.283    0.066   10.417
  523.000   85.004  167.313    0.288    0.086    9.684
  523.250   87.375  167.331    0.310    0.121    8.999
  523.500   90.935  167.355    0.370    0.140    8.061
  523.750   92.720  167.379    0.373    0.158    8.070
  524.000   90.960  166.419    0.379    0.136    8.081
  524.250   83.301  166.437    0.363    0.096    8.093
  524.500   79.774  166.473    0.347    0.074    8.104
  524.750   85.691  166.485    0.351    0.063    8.108
  525.000   92.198  165.537    0.375    0.114    8.120
  525.250   96.344  165.555    0.374    0.161    8.278
  525.500   96.953  164.601    0.369    0.161    8.445
  525.750   94.602  162.658    0.375    0.158    8.615
  526.000   91.669  162.681    0.380    0.153    8.781
  526.250   91.683  161.722    0.372    0.136    8.955
  526.500   93.469  159.784    0.364    0.111    9.132
  526.750   97.028  159.796    0.373    0.091    9.142
  527.000   98.219  158.836    0.385    0.124    8.658
  527.250   97.647  158.866    0.378    0.147    8.199
  527.500   95.304  157.918    0.370    0.143    8.361
  527.750   92.950  157.924    0.361    0.132    8.532
  528.000   92.965  157.948    0.351    0.119    8.701
  528.250   94.750  156.989    0.342    0.097    8.394
  528.500   96.535  157.019    0.339    0.096    7.949
  528.750  100.681  157.037    0.342    0.127    7.391
  529.000  103.056  156.083    0.350    0.151    7.130
  529.250  103.078  156.107    0.359    0.163    7.003
  529.500  101.314  156.131    0.367    0.172    6.882
  529.750   95.426  156.161    0.362    0.165    7.022
  530.000   81.274  156.179    0.345    0.137    7.160
  530.250   73.615  156.197    0.332    0.100    7.300
  530.500   81.303  156.221    0.332    0.066    7.446
  530.750   91.942  157.228    0.337    0.110    7.594
  531.000   97.269  157.264    0.335    0.126    7.745
  531.250   94.926  157.282    0.333    0.127    7.901
  531.500   91.989  157.318    0.336    0.089    7.905
  531.750   94.954  158.314    0.342    0.077    7.350
  532.000   97.326  159.322    0.372    0.125    6.706
  532.250  100.303  160.335    0.404    0.161    5.375
  532.500  101.490  161.343    0.425    0.194    3.714
  532.750  103.279  161.367    0.443    0.215    2.923
  533.000  105.061  161.397    0.464    0.208    2.768
  533.250  108.030  162.393    0.481    0.203    2.823
  533.500  109.815  162.417    0.489    0.204    3.100
  533.750  105.104  163.424    0.498    0.207    3.599
  534.000   99.216  163.448    0.443    0.212    4.258
  534.250   94.508  163.478    0.405    0.205    5.037
  534.500   89.214  164.486    0.373    0.129    5.635
  534.750   91.002  164.504    0.333    0.093    6.077
  535.000   92.780  164.528    0.322    0.077    6.082
  535.250   95.746  165.548    0.342    0.116    5.867
  535.500   98.125  165.566    0.364    0.141    5.660
  535.750  101.091  165.590    0.373    0.141    5.990
  536.000  104.053  166.597    0.383    0.151    6.704
  536.250   99.935  167.605    0.394    0.165    7.503
  536.500   71.027  169.603    0.345    0.160    7.940
  536.750   65.143  170.604    0.306    0.097    7.947
  537.000   65.157  169.650    0.282    0.060    7.812
  537.250   69.890  167.701    0.319    0.064    7.675
  537.500   79.348  166.741    0.338    0.036    7.268
  537.750   84.675  164.804    0.355    0.011    6.756
  538.000   89.419  162.860    0.374    0.114    6.398
  538.250   92.381  160.916    0.389    0.149    6.174
  538.500   95.346  159.951    0.386    0.166    5.957
  538.750   98.902  158.991    0.388    0.159    5.854
