~VERSION INFORMATION
 VERS.                 2.0:   CWLS LOG ASCII STANDARD -VERSION 2.0
 WRAP.                  NO:   ONE LINE PER DEPTH STEP
~WELL INFORMATION BLOCK
#MNEM.UNIT           DATA                    DESCRIPTION OF MNEMONIC
#---------    -------------------            -------------------------------
# Generated from Intellog Unique Number	CW_82_90/WELL/1028
WELL.         SUNLITE CANPUAC GR 11-17       : Well_name    - WELL
LOC .         00/11-17-084-20W4/0            : Location     - LOCATION
UWI .         00/11-17-084-20W4/0            : Uwi          - UNIQUE WELL ID
ENTR.         JAYE                           : Entered      - ENTERED BY
SRVC.         SCHLUMBERGER                   : Scn          - SERVICE COMPANY
DATE.         25 MAR 74                      : Date         - LOG DATE
STRT.M        198.12                         : top_depth    - START DEPTH
STOP.M        390.12                         : bot_depth    - STOP DEPTH
STEP.M        0.25                           : increment    - STEP LENGTH
 NULL. -999.2500:NULL Value
~CURVE INFORMATION BLOCK
#MNEM UNIT       ERCB CURVE CODE    CURVE DESCRIPTION
#-----------   ------------------   ----------------------------------
DEPT.M        00 001 00 00         : DEPTH        - DEPTH
CALI.MM       00 280 01 00         : CAL          - CALIPER
GR  .API      00 310 00 00         : GR           - GAMMA RAY
NPHI.V/V      00 330 00 00         : PHIN         - NEUTRON POROSITY (SANDSTONE)
DPHI.V/V      00 890 00 00         : PHID         - DENSITY POROSITY (SANDSTONE)
ILD .OHMM     00 120 00 00         : RESD         - DEEP RESISTIVITY (DIL)
~PARAMETER INFORMATION
#MNEM.UNIT           DATA             DESCRIPTION OF MNEMONIC
#---------         -----------     ------------------------------
GL  .M        622.402              : gl           - GROUND LEVEL ELEVATION
EREF.M        625.45               : kb           - ELEVATION OF DEPTH REFERENCE
DATM.M        622.402              : datum        - DATUM ELEVATION
TDD .M        401.117              : tdd          - TOTAL DEPTH DRILLER
RUN .         ONE                  : Run          - RUN NUMBER
ENG .         CHAUDHARY            : Engineer     - RECORDING ENGINEER
WIT .         FYFFE                : Witness      - WITNESSED BY
BASE.         EDMONTON             : Branch       - HOME BASE OF LOGGING UNIT
MUD .         GEL                  : Mud_type     - MUD TYPE
MATR.         SANDSTONE            : Logunit      - NEUTRON MATRIX
TMAX.C        23.3333              : BHT          - MAXIMUM RECORDED TEMPERATURE
BHTD.M        401.117              : BHTDEP       - MAXIMUM RECORDED TEMPERATURE
RMT .C        14.4444              : MDTP         - TEMPERATURE OF MUD
MUDD.KG/M     8800                 : MWT          - MUD DENSITY
NEUT.         1                    : NEUTRON      - NEUTRON TYPE
RESI.         0                    : RESIST       - RESISTIVITY TYPE
RM  .OHMM     5.66                 : RM           - RESISTIVITY OF MUD
RMC .OHMM     0                    : RMC          - RESISTIVITY OF MUD CAKE
RMF .OHMM     0                    : RMF          - RESISTIVITY OF MUD FILTRATE
SUFT.C        -17.7778             : SUFT         - SURFACE TEMPERATURE
~A  DEPTH      CAL       GR     PHIN     PHID     RESD
# ...
  271.120  166.674   67.853    0.605    0.320   12.031
  271.370  166.469   66.752    0.593    0.307   11.538
  271.620  166.058   65.529    0.582    0.311   11.005
  271.870  165.957   67.491    0.584    0.321   10.893
  272.120  166.582   70.066    0.607    0.322   10.803
  272.370  167.415   68.781    0.575    0.308   10.733
  272.620  167.730   67.190    0.572    0.289   10.843
  272.870  167.629   66.947    0.597    0.291   11.036
  273.120  167.217   67.500    0.598    0.306   11.232
  273.370  167.219   68.911    0.608    0.307   11.325
  273.620  166.704   69.832    0.591    0.295   11.316
  273.870  166.084   70.875    0.557    0.298   11.221
  274.120  165.880   73.144    0.507    0.294   11.047
  274.370  166.506   72.472    0.509    0.289   10.935
  274.620  167.027   70.697    0.520    0.284   10.863
  274.870  167.445   72.659    0.528    0.304   10.712
  275.120  167.759   74.315    0.540    0.311   10.314
  275.370  167.659   74.378    0.546    0.310   10.171
  275.620  167.661   74.012    0.536    0.290   10.163
  275.870  167.665   73.095    0.552    0.282   10.061
  276.120  167.667   74.261    0.552    0.278    9.960
  276.370  167.567   74.998    0.542    0.270    9.838
  276.620  166.739   73.590    0.531    0.254   10.031
  276.870  166.431   75.247    0.533    0.249   10.693
  277.120  166.434   75.984    0.518    0.252   12.096
  277.370  166.437   72.922    0.485    0.246   15.318
  277.620  166.752   67.715    0.285    0.233   21.206
  277.870  167.066   58.342    0.233    0.073   26.029
  278.120  167.484   63.184    0.200    0.018   26.199
  278.370  168.213   68.333    0.245    0.014   24.846
  278.620  169.046   72.930    0.331    0.029   20.586
  278.870  169.152   77.160    0.403    0.053   16.650
  279.120  168.222   80.777    0.467    0.220   11.742
  279.370  167.291   81.024    0.491    0.230   10.303
  279.620  166.879   82.374    0.503    0.237    9.686
  279.870  166.882   83.233    0.513    0.245    9.568
  280.120  167.093   82.439    0.524    0.250    9.525
  280.370  167.303   81.031    0.519    0.239    9.549
  280.620  167.514   83.300    0.518    0.225    9.525
  280.870  167.828   86.059    0.494    0.216    9.411
  281.120  168.246   88.695    0.504    0.211    9.230
  281.370  168.664   90.842    0.510    0.203    9.066
  281.620  168.978   92.253    0.507    0.199    8.713
  281.870  169.500   91.091    0.508    0.218    8.266
  282.120  169.918   90.909    0.520    0.229    7.986
  282.370  170.232   94.158    0.540    0.233    7.589
  282.620  170.442   96.611    0.541    0.224    7.360
  282.870  170.860   94.039    0.548    0.217    7.154
  283.120  170.967   93.918    0.551    0.233    7.135
  283.370  171.178   96.003    0.526    0.227    7.194
  283.620  171.285   97.230    0.555    0.217    7.280
  283.870  171.910   94.291    0.580    0.205    7.208
  284.120  172.431   93.435    0.538    0.199    7.120
  284.370  172.746   93.988    0.518    0.201    6.971
  284.620  172.749   96.808    0.531    0.203    6.885
  284.870  172.545   99.016    0.549    0.199    6.943
  285.120  172.340   99.018    0.543    0.194    7.041
  285.370  172.239   96.752    0.533    0.219    7.138
  285.620  172.138   95.161    0.541    0.212    7.186
  285.870  171.623   95.898    0.536    0.209    7.206
  286.120  171.625   94.613    0.523    0.209    7.174
  286.370  171.524   91.796    0.540    0.206    7.153
  286.620  172.357   92.840    0.570    0.202    7.093
  286.870  173.398   97.070    0.575    0.193    7.087
  287.120  173.194   96.642    0.560    0.207    7.079
  287.370  172.575   93.335    0.518    0.220    7.140
  287.620  171.747   91.253    0.520    0.236    7.198
  287.870  171.127   89.417    0.534    0.227    7.505
  288.120  170.611   85.558    0.558    0.236    7.971
  288.370  170.096   88.379    0.562    0.223    8.592
  288.620  169.580   92.057    0.576    0.212    9.418
  288.870  168.857   90.894    0.572    0.206   10.227
  289.120  168.548   87.159    0.559    0.223   11.147
  289.370  167.928   81.339    0.531    0.249   12.331
  289.620  167.516   75.275    0.518    0.255   13.494
  289.870  166.897   74.787    0.532    0.256   13.988
  290.120  166.277   75.585    0.532    0.258   14.106
  290.370  165.866   76.138    0.523    0.267   13.783
  290.620  165.557   74.056    0.516    0.274   13.418
  290.870  165.456   73.017    0.510    0.270   13.136
  291.120  165.045   73.018    0.519    0.269   12.906
  291.370  165.047   74.368    0.529    0.264   12.749
  291.620  164.842   74.431    0.526    0.252   12.300
  291.870  164.534   73.453    0.518    0.248   11.818
  292.120  164.745   72.780    0.515    0.264   11.065
  292.370  164.540   73.334    0.510    0.267   10.207
  292.620  165.062   74.745    0.510    0.258    9.143
  292.870  165.273   76.891    0.515    0.248    8.233
  293.120  166.728   83.326    0.532    0.222    7.253
  293.370  169.325   91.416    0.535    0.208    6.891
  293.620  171.507   91.296    0.545    0.195    6.454
  293.870  172.858   90.317    0.570    0.186    5.865
  294.120  175.144   88.419    0.569    0.191    5.157
  294.370  173.902   87.992    0.548    0.192    4.627
  294.620  166.227   89.893    0.563    0.186    4.015
  294.870  167.994   97.493    0.588    0.189    3.774
  295.120  170.072   99.395    0.638    0.181    3.694
  295.370  173.291   97.313    0.654    0.192    3.636
  295.620  171.842   95.476    0.655    0.177    3.612
  295.870  173.609  100.686    0.668    0.163    3.795
  296.120  177.243  102.649    0.659    0.178    3.993
  296.370  178.699  102.222    0.655    0.190    4.551
  296.620  175.693   96.280    0.662    0.195    5.052
  296.870  172.272   95.608    0.640    0.179    5.844
  297.120  174.869   95.180    0.607    0.175    6.634
  297.370  177.777   90.954    0.588    0.224    7.478
  297.620  179.232   85.748    0.560    0.261    8.104
  297.870  181.414   80.480    0.533    0.251    9.185
  298.120  182.144   78.828    0.517    0.283    9.826
  298.370  171.252   78.645    0.513    0.290   10.653
  298.620  170.218   76.993    0.508    0.280   10.941
  298.870  169.287   79.384    0.494    0.238   10.812
  299.120  168.979   80.734    0.479    0.213   10.446
  299.370  168.878   81.103    0.487    0.213    9.672
  299.620  168.777   83.556    0.493    0.223    8.663
  299.870  168.884   84.660    0.479    0.233    8.024
  300.120  168.887   85.336    0.489    0.224    8.089
  300.370  168.889   86.012    0.503    0.189    8.402
  300.620  170.553   86.320    0.509    0.176    9.296
  300.870  171.697   84.606    0.499    0.183    9.567
  301.120  170.248   80.258    0.467    0.210    9.541
  301.370  170.043   78.789    0.451    0.197    9.872
  301.620  169.423   78.239    0.464    0.209   10.922
  301.870  168.596   75.177    0.478    0.190   12.491
  302.120  168.080   71.257    0.467    0.218   14.691
  302.370  167.772   66.970    0.417    0.259   15.690
  302.620  166.634   65.746    0.406    0.293   12.296
  302.870  166.221   64.890    0.426    0.314    9.530
  303.120  166.121   67.282    0.450    0.302    5.243
  303.370  166.021   68.386    0.480    0.291    5.346
  303.620  166.023   69.859    0.476    0.275    8.194
  303.870  165.507   71.576    0.460    0.252    8.355
  304.120  165.406   74.029    0.454    0.242    9.107
  304.370  165.202   77.339    0.441    0.235   10.992
  304.620  164.686   81.385    0.471    0.230   11.396
  304.870  164.482   82.919    0.503    0.213   10.693
  305.120  164.485   75.874    0.508    0.216   10.465
  305.370  164.488   73.792    0.495    0.231   10.227
  305.620  164.491   76.613    0.523    0.246   10.254
  305.870  164.493   75.757    0.528    0.233   10.226
  306.120  164.289   72.695    0.507    0.233   10.388
  306.370  164.293   70.430    0.454    0.239   10.631
  306.620  164.607   70.247    0.418    0.208   10.631
  306.870  165.335   71.107    0.375    0.151   12.306
  307.120  166.376   72.334    0.352    0.136   12.736
  307.370  167.209   75.032    0.378    0.159   11.929
