~VERSION INFORMATION
 VERS.                 2.0:   CWLS LOG ASCII STANDARD -VERSION 2.0
 WRAP.                  NO:   ONE LINE PER DEPTH STEP
~WELL INFORMATION BLOCK
#MNEM.UNIT           DATA                    DESCRIPTION OF MNEMONIC
#---------    -------------------            -------------------------------
# Generated from Intellog Unique Number	CS_77_79/WELL/957
WELL.         MESA HB LEISMER                : Well_name    - WELL
LOC .         00/10-18-078-10W4/0            : Location     - LOCATION
UWI .         00/10-18-078-10W4/0            : Uwi          - UNIQUE WELL ID
ENTR.         JHS                            : Entered      - ENTERED BY
SRVC.         SCHLUMBERGER                   : Scn          - SERVICE COMPANY
STRT.M        243.84                         : top_depth    - START DEPTH
STOP.M        475.34                         : bot_depth    - STOP DEPTH
STEP.M        0.25                           : increment    - STEP LENGTH
 NULL. -999.2500:NULL Value
~CURVE INFORMATION BLOCK
#MNEM UNIT       ERCB CURVE CODE    CURVE DESCRIPTION
#-----------   ------------------   ----------------------------------
DEPT.M        00 001 00 00         : DEPTH        - DEPTH
RHOB.KG/M3    00 350 00 00         : DENS         - BULK DENSITY
GR  .API      00 310 00 00         : GR           - GAMMA RAY
DPHI.V/V      00 890 00 00         : PHID         - DENSITY POROSITY (SANDSTONE)
NPHI.V/V      00 330 00 00         : PHIN         - NEUTRON POROSITY (SANDSTONE)
ILD .OHMM     00 120 00 00         : RESD         - DEEP RESISTIVITY (DIL)
~PARAMETER INFORMATION
#MNEM.UNIT           DATA             DESCRIPTION OF MNEMONIC
#---------         -----------     ------------------------------
GL  .M        662.33               : gl           - GROUND LEVEL ELEVATION
EREF.M        666.293              : kb           - ELEVATION OF DEPTH REFERENCE
DATM.M        666.293              : datum        - DATUM ELEVATION
TDD .M        487.68               : tdd          - TOTAL DEPTH DRILLER
RUN .         ONE                  : Run          - RUN NUMBER
ENG .         BILL                 : Engineer     - RECORDING ENGINEER
WIT .         JIM                  : Witness      - WITNESSED BY
MUD .         GEL                  : Mud_type     - MUD TYPE
MATR.         SANDSTONE            : Logunit      - NEUTRON MATRIX
TMAX.C        22.2222              : BHT          - MAXIMUM RECORDED TEMPERATURE
BHTD.M        487.68               : BHTDEP       - MAXIMUM RECORDED TEMPERATURE
MATR.         1                    : LOGUNIT      - NEUTRON MATRIX
RMT .C        25                   : MDTP         - TEMPERATURE OF MUD
NEUT.         1                    : NEUTRON      - NEUTRON TYPE
RESI.         0                    : RESIST       - RESISTIVITY TYPE
RMC .OHMM     0.25                 : RMC          - RESISTIVITY OF MUD CAKE
RMF .OHMM     0.25                 : RMF          - RESISTIVITY OF MUD FILTRATE
SUFT.C        15                   : SUFT         - SURFACE TEMPERATURE
~A  DEPTH     DENS       GR     PHID     PHIN     RESD
# ...
  353.340    0.000   94.586    0.245    0.461    6.942
  353.590    0.000   94.752    0.239    0.446    6.939
  353.840   -0.000   96.815    0.248    0.449    6.928
  354.090   -0.000   96.981    0.235    0.450    7.097
  354.340   -0.000   94.631    0.243    0.435    6.941
  354.590    0.000   89.218    0.232    0.432    7.171
  354.840    0.000   82.754    0.196    0.428    7.441
  355.090   -0.000   78.602    0.138    0.363    8.331
  355.340   -0.000   68.299    0.075    0.268    9.324
  355.590   -0.000   66.907    0.040    0.250    9.936
  355.840    0.000   75.824    0.092    0.271    9.891
  356.090    0.000   91.840    0.148    0.386    9.514
  356.340    0.000   99.899    0.177    0.443    8.935
  356.590   -0.000  100.212    0.213    0.452    7.998
  356.840   -0.000   98.134    0.233    0.460    7.331
  357.090   -0.000   94.344    0.241    0.468    6.685
  357.340    0.000   87.203    0.242    0.478    6.650
  357.590    0.000   88.543    0.241    0.480    6.832
  357.840    0.000   92.334    0.266    0.460    6.825
  358.090   -0.000   96.007    0.273    0.442    6.540
  358.340   -0.000  103.828    0.249    0.437    6.317
  358.590    0.000  108.541    0.226    0.450    6.013
  358.840    0.000  107.128    0.223    0.501    5.823
  359.090    0.000  104.124    0.245    0.500    5.786
  359.340   -0.000  102.183    0.223    0.476    5.785
  359.590   -0.000  100.748    0.232    0.458    5.805
  359.840   -0.000  103.991    0.259    0.457    5.558
  360.090    0.000  102.826    0.275    0.480    5.262
  360.340    0.000   99.164    0.253    0.494    4.657
  360.590    0.000   97.183    0.261    0.490    4.211
  360.840   -0.000   99.627    0.281    0.489    3.415
  361.090   -0.000  101.970    0.270    0.528    2.855
  361.340    0.000  103.167    0.285    0.563    2.393
  361.590    0.000  100.429    0.329    0.591    2.165
  361.840    0.000   98.056    0.333    0.604    2.044
  362.090   -0.000   96.030    0.314    0.586    2.020
  362.340   -0.000   95.529    0.307    0.606    2.096
  362.590   -0.000   96.479    0.312    0.595    2.288
  362.840    0.000   95.461    0.313    0.557    2.728
  363.090    0.000   93.717    0.302    0.518    3.126
  363.340    0.000   93.484    0.299    0.485    3.771
  363.590   -0.000   92.014    0.284    0.474    4.504
  363.840   -0.000   89.817    0.290    0.471    5.252
  364.090   -0.000   87.449    0.301    0.473    6.251
  364.340    0.000   84.709    0.323    0.471    6.701
  364.590    0.000   84.297    0.316    0.458    6.715
  364.840   -0.000   80.977    0.315    0.438    6.840
  365.090   -0.000   77.739    0.312    0.425    6.618
  365.340   -0.000   75.018    0.233    0.424    6.642
  365.590    0.000   79.949    0.217    0.423    6.737
  365.840    0.000   80.622    0.254    0.421    6.604
  366.090    0.000   78.809    0.287    0.434    6.474
  366.340   -0.000   75.835    0.264    0.447    6.552
  366.590   -0.000   73.337    0.300    0.455    7.044
  366.840   -0.000   71.077    0.298    0.463    7.546
  367.090    0.000   68.555    0.248    0.421    8.252
  367.340    0.000   67.021    0.161    0.346    8.919
  367.590   -0.000   72.879    0.100    0.299    8.882
  367.840   -0.000   82.211    0.130    0.312    8.545
  368.090   -0.000   85.153    0.242    0.359    7.866
  368.340    0.000   82.249    0.298    0.412    7.295
  368.590    0.000   80.443    0.313    0.429    6.716
  368.840    0.000   80.252    0.315    0.437    6.327
  369.090   -0.000   79.785    0.317    0.447    6.040
  369.340   -0.000   77.814    0.325    0.450    6.033
  369.590   -0.000   75.774    0.331    0.449    6.032
  369.840    0.000   73.142    0.328    0.459    6.033
  370.090    0.000   68.836    0.336    0.454    6.033
  370.340    0.000   65.123    0.323    0.442    6.034
  370.590   -0.000   64.557    0.338    0.436    6.035
  370.840   -0.000   75.706    0.350    0.443    6.036
  371.090    0.000   76.798    0.343    0.460    6.036
  371.340    0.000   68.163    0.343    0.469    6.037
  371.590    0.000   63.370    0.353    0.468    6.036
  371.840   -0.000   59.345    0.356    0.472    6.046
  372.090   -0.000   61.443    0.358    0.478    5.918
  372.340   -0.000   62.018    0.359    0.475    5.929
  372.590    0.000   63.061    0.361    0.478    5.931
  372.840    0.000   64.944    0.366    0.464    5.934
  373.090    0.000   64.497    0.367    0.451    5.938
  373.340   -0.000   63.531    0.353    0.449    6.038
  373.590   -0.000   62.666    0.358    0.443    6.169
  373.840    0.000   66.340    0.367    0.440    6.157
  374.090    0.000   67.257    0.357    0.466    6.236
  374.340    0.000   68.076    0.348    0.479    6.300
  374.590   -0.000   67.029    0.335    0.464    6.388
  374.840   -0.000   65.374    0.343    0.461    6.523
  375.090   -0.000   64.516    0.352    0.480    6.513
  375.340    0.000   64.067    0.359    0.468    6.513
  375.590    0.000   63.273    0.349    0.467    6.525
  375.840    0.000   64.098    0.338    0.472    6.388
  376.090   -0.000   66.713    0.342    0.488    6.406
  376.340   -0.000   67.418    0.340    0.502    6.231
  376.590   -0.000   66.338    0.350    0.481    6.048
  376.840    0.000   65.993    0.347    0.481    5.948
  377.090    0.000   65.154    0.346    0.478    5.820
  377.340   -0.000   67.476    0.349    0.470    5.838
  377.590   -0.000   69.987    0.342    0.466    5.731
  377.840   -0.000   69.820    0.328    0.469    5.614
  378.090    0.000   70.527    0.349    0.481    5.626
  378.340    0.000   69.366    0.346    0.493    5.627
  378.590    0.000   67.451    0.345    0.494    5.628
  378.840   -0.000   68.366    0.355    0.486    5.618
  379.090   -0.000   71.850    0.353    0.480    5.747
  379.340   -0.000   73.004    0.332    0.482    5.740
  379.590    0.000   71.605    0.336    0.470    5.848
  379.840    0.000   71.360    0.346    0.465    5.843
  380.090    0.000   72.353    0.352    0.471    5.843
  380.340   -0.000   72.002    0.342    0.479    5.844
  380.590   -0.000   71.058    0.341    0.480    5.844
  380.840    0.000   71.731    0.330    0.467    5.845
  381.090    0.000   70.482    0.361    0.450    5.845
  381.340    0.000   68.468    0.355    0.451    5.843
  381.590   -0.000   67.382    0.358    0.460    5.936
  381.840   -0.000   70.011    0.365    0.451    6.125
  382.090   -0.000   71.086    0.361    0.441    6.321
  382.340    0.000   66.087    0.333    0.451    6.712
  382.590    0.000   62.348    0.295    0.446    7.328
  382.840    0.000   61.455    0.248    0.359    8.021
  383.090   -0.000   59.461    0.197    0.282    8.277
  383.340   -0.000   57.479    0.112    0.240    8.020
  383.590    0.000   56.066    0.059    0.238    7.453
  383.840    0.000   58.356    0.134    0.279    6.621
  384.090    0.000   62.459    0.193    0.316    5.773
  384.340   -0.000   68.442    0.286    0.375    5.457
  384.590   -0.000   70.433    0.333    0.435    5.282
  384.840   -0.000   68.541    0.335    0.475    5.240
  385.090    0.000   68.619    0.337    0.498    5.327
  385.340    0.000   70.470    0.342    0.497    5.381
  385.590    0.000   71.049    0.334    0.459    5.438
  385.840   -0.000   69.547    0.333    0.451    5.523
  386.090   -0.000   70.281    0.344    0.457    5.579
  386.340   -0.000   72.939    0.344    0.465    5.649
  386.590    0.000   71.923    0.321    0.470    5.754
  386.840    0.000   71.206    0.309    0.471    5.902
  387.090   -0.000   72.266    0.309    0.456    5.972
  387.340   -0.000   73.865    0.320    0.462    5.908
  387.590   -0.000   75.512    0.322    0.471    5.857
  387.840    0.000   76.489    0.328    0.473    5.570
  388.090    0.000   75.010    0.339    0.463    5.552
  388.340    0.000   73.433    0.332    0.456    5.541
  388.590   -0.000   73.732    0.332    0.460    5.435
  388.840   -0.000   76.680    0.342    0.469    5.562
  389.090   -0.000   79.634    0.345    0.463    5.553
  389.340    0.000   80.798    0.337    0.450    5.492
  389.590    0.000   80.680    0.327    0.448    5.374
