~VERSION INFORMATION
 VERS.                 2.0:   CWLS LOG ASCII STANDARD -VERSION 2.0
 WRAP.                  NO:   ONE LINE PER DEPTH STEP
~WELL INFORMATION BLOCK
#MNEM.UNIT           DATA                    DESCRIPTION OF MNEMONIC
#---------    -------------------            -------------------------------
# Generated from Intellog Unique Number	CS_73_76/WELL/3252
WELL.         10-32-076-12W4                 : Well_name    - WELL
LOC .         00/10-32-076-12W4/0            : Location     - LOCATION
UWI .         00/10-32-076-12W4/0            : Uwi          - UNIQUE WELL ID
ENTR.         SP                             : Entered      - ENTERED BY
SRVC.         SCHLUMBERGER                   : Scn          - SERVICE COMPANY
STRT.M        295.656                        : top_depth    - START DEPTH
STOP.M        533.156                        : bot_depth    - STOP DEPTH
STEP.M        0.25                           : increment    - STEP LENGTH
 NULL. -999.2500:NULL Value
~CURVE INFORMATION BLOCK
#MNEM UNIT       ERCB CURVE CODE    CURVE DESCRIPTION
#-----------   ------------------   ----------------------------------
DEPT.M        00 001 00 00         : DEPTH        - DEPTH
GR  .API      00 310 00 00         : GR           - GAMMA RAY
DPHI.V/V      00 890 00 00         : PHID         - DENSITY POROSITY (SANDSTONE)
NPHI.V/V      00 330 00 00         : PHIN         - NEUTRON POROSITY (SANDSTONE)
ILD .OHMM     00 120 00 00         : RESD         - DEEP RESISTIVITY (DIL)
~PARAMETER INFORMATION
#MNEM.UNIT           DATA             DESCRIPTION OF MNEMONIC
#---------         -----------     ------------------------------
GL  .M        686.653              : gl           - GROUND LEVEL ELEVATION
EREF.M        689.762              : kb           - ELEVATION OF DEPTH REFERENCE
DATM.M        686.653              : datum        - DATUM ELEVATION
TDD .M        544.068              : tdd          - TOTAL DEPTH DRILLER
RUN .         ONE                  : Run          - RUN NUMBER
ENG .         BILL                 : Engineer     - RECORDING ENGINEER
WIT .         JIM                  : Witness      - WITNESSED BY
MUD .         GEL                  : Mud_type     - MUD TYPE
MATR.         SANDSTONE            : Logunit      - NEUTRON MATRIX
TMAX.C        25.5556              : BHT          - MAXIMUM RECORDED TEMPERATURE
BHTD.M        544.068              : BHTDEP       - MAXIMUM RECORDED TEMPERATURE
MATR.         1                    : LOGUNIT      - NEUTRON MATRIX
RMT .C        25                   : MDTP         - TEMPERATURE OF MUD
NEUT.         1                    : NEUTRON      - NEUTRON TYPE
RESI.         0                    : RESIST       - RESISTIVITY TYPE
RMC .OHMM     0.25                 : RMC          - RESISTIVITY OF MUD CAKE
RMF .OHMM     0.25                 : RMF          - RESISTIVITY OF MUD FILTRATE
SUFT.C        15                   : SUFT         - SURFACE TEMPERATURE
~A  DEPTH       GR     PHID     PHIN     RESD
# ...
  426.156   62.851    0.333    0.422    5.893
  426.406   63.311    0.333    0.415    5.890
  426.656   62.980    0.336    0.408    5.893
  426.906   61.764    0.341    0.400    5.908
  427.156   60.194    0.340    0.412    5.997
  427.406   60.178    0.334    0.420    6.167
  427.656   60.883    0.317    0.414    6.349
  427.906   61.340    0.312    0.406    6.341
  428.156   61.515    0.326    0.400    6.332
  428.406   60.859    0.332    0.390    6.464
  428.656   61.516    0.325    0.397    6.472
  428.906   61.431    0.324    0.408    6.337
  429.156   62.053    0.333    0.412    6.227
  429.406   61.994    0.337    0.400    6.156
  429.656   62.743    0.330    0.392    6.113
  429.906   62.647    0.334    0.393    6.101
  430.156   63.668    0.340    0.403    6.235
  430.406   63.901    0.340    0.398    6.227
  430.656   63.441    0.335    0.390    6.124
  430.906   62.620    0.344    0.403    6.061
  431.156   62.655    0.339    0.423    5.995
  431.406   63.525    0.333    0.437    5.993
  431.656   64.529    0.330    0.441    5.991
  431.906   64.498    0.323    0.418    5.993
  432.156   64.513    0.327    0.411    5.861
  432.406   64.648    0.333    0.417    6.001
  432.656   65.106    0.326    0.425    5.996
  432.906   64.808    0.317    0.420    5.867
  433.156   63.760    0.319    0.416    5.861
  433.406   62.759    0.330    0.410    5.768
  433.656   61.813    0.333    0.404    5.772
  433.906   60.100    0.338    0.405    5.779
  434.156   59.200    0.321    0.411    5.962
  434.406   57.318    0.300    0.405    6.126
  434.656   54.648    0.278    0.324    6.584
  434.906   50.842    0.152    0.192    6.913
  435.156   46.772    0.042    0.167    8.304
  435.406   44.365    0.009    0.145    9.676
  435.656   45.311    0.000    0.139   12.275
  435.906   47.105    0.008    0.152   16.351
  436.156   49.546    0.034    0.192   21.335
  436.406   53.641    0.145    0.279   24.387
  436.656   56.278    0.242    0.334   14.609
  436.906   58.810    0.303    0.376   10.677
  437.156   59.914    0.320    0.402    8.496
  437.406   60.236    0.315    0.399    7.286
  437.656   60.785    0.311    0.408    6.585
  437.906   61.499    0.317    0.393    6.256
  438.156   61.420    0.320    0.401    6.208
  438.406   62.062    0.321    0.407    5.966
  438.656   61.985    0.324    0.420    5.981
  438.906   62.606    0.327    0.420    5.983
  439.156   62.989    0.327    0.411    5.994
  439.406   63.336    0.319    0.406    5.866
  439.656   63.821    0.320    0.407    5.776
  439.906   64.520    0.325    0.410    5.765
  440.156   64.454    0.315    0.417    5.761
  440.406   64.466    0.320    0.409    5.764
  440.656   64.689    0.314    0.419    5.801
  440.906   65.047    0.314    0.427    5.864
  441.156   65.501    0.313    0.413    5.753
  441.406   65.660    0.318    0.409    5.759
  441.656   65.654    0.327    0.412    5.759
  441.906   66.323    0.317    0.424    5.759
  442.156   66.272    0.313    0.438    5.758
  442.406   66.281    0.317    0.440    5.760
  442.656   66.671    0.323    0.433    5.817
  442.906   66.246    0.325    0.427    5.865
  443.156   65.261    0.327    0.429    5.857
  443.406   63.901    0.328    0.439    5.988
  443.656   62.547    0.317    0.436    5.977
  443.906   61.895    0.304    0.425    5.889
  444.156   62.584    0.308    0.411    5.865
  444.406   63.846    0.311    0.407    5.862
  444.656   65.893    0.312    0.414    5.758
  444.906   67.077    0.317    0.433    5.636
  445.156   67.460    0.329    0.443    5.649
  445.406   68.174    0.323    0.440    5.711
  445.656   67.214    0.311    0.420    5.751
  445.906   65.709    0.317    0.417    5.754
  446.156   64.739    0.313    0.406    5.756
  446.406   63.797    0.317    0.398    5.765
  446.656   63.255    0.318    0.389    5.865
  446.906   63.831    0.310    0.388    5.854
  447.156   64.432    0.313    0.403    5.979
  447.406   64.815    0.309    0.416    6.087
  447.656   66.007    0.311    0.411    6.082
  447.906   68.047    0.314    0.409    6.081
  448.156   70.304    0.314    0.411    6.017
  448.406   71.976    0.276    0.419    5.826
  448.656   72.348    0.270    0.413    5.746
  448.906   72.737    0.289    0.409    5.679
  449.156   72.281    0.281    0.418    5.760
  449.406   71.883    0.294    0.430    5.747
  449.656   69.887    0.304    0.415    5.748
  449.906   68.650    0.293    0.414    5.747
  450.156   68.625    0.284    0.424    5.748
  450.406   69.525    0.276    0.432    5.756
  450.656   70.508    0.268    0.421    5.639
  450.906   71.506    0.259    0.423    5.642
  451.156   72.472    0.251    0.420    5.640
  451.406   74.084    0.262    0.428    5.639
  451.656   76.484    0.279    0.431    5.639
  451.906   78.924    0.276    0.421    5.640
  452.156   81.903    0.272    0.427    5.631
  452.406   84.591    0.254    0.410    5.755
  452.656   86.529    0.230    0.408    5.745
  452.906   88.155    0.213    0.416    5.733
  453.156   87.492    0.198    0.420    5.852
  453.406   87.582    0.210    0.413    5.964
  453.656   88.137    0.217    0.411    6.020
  453.906   88.859    0.206    0.412    6.358
  454.156   88.164    0.209    0.417    6.539
  454.406   86.916    0.211    0.426    6.791
  454.656   86.247    0.208    0.432    6.925
  454.906   86.813    0.215    0.419    7.030
  455.156   89.014    0.222    0.408    7.186
  455.406   92.079    0.221    0.415    7.177
  455.656   93.357    0.216    0.422    7.177
  455.906   96.136    0.199    0.432    7.189
  456.156   97.315    0.216    0.423    7.034
  456.406   97.285    0.224    0.419    7.057
  456.656   97.291    0.215    0.409    6.899
  456.906   97.291    0.217    0.404    6.912
  457.156   96.914    0.218    0.411    6.833
  457.406   94.595    0.216    0.417    6.628
  457.656   90.048    0.218    0.425    6.303
  457.906   87.534    0.224    0.430    6.038
  458.156   89.000    0.225    0.439    5.777
  458.406   89.303    0.222    0.445    5.437
  458.656   91.265    0.229    0.443    5.173
  458.906   92.415    0.225    0.434    4.918
  459.156   92.495    0.240    0.466    4.790
  459.406   89.301    0.260    0.495    4.372
  459.656   84.274    0.275    0.516    3.708
  459.906   82.038    0.289    0.527    3.041
  460.156   82.656    0.286    0.518    2.786
  460.406   83.244    0.285    0.507    2.480
  460.656   83.943    0.279    0.524    2.317
  460.906   86.019    0.276    0.537    2.199
  461.156   88.017    0.271    0.525    2.176
  461.406   89.725    0.251    0.519    2.173
  461.656   90.676    0.249    0.509    2.226
  461.906   91.712    0.251    0.504    2.294
  462.156   91.748    0.226    0.489    2.366
  462.406   91.731    0.210    0.456    2.441
  462.656   90.293    0.199    0.430    2.645
  462.906   89.021    0.218    0.423    2.789
  463.156   90.523    0.241    0.411    3.167
  463.406   88.394    0.177    0.403    3.670
  463.656   87.124    0.143    0.380    4.278
  463.906   92.251    0.120    0.348    4.917
  464.156   94.887    0.171    0.394    5.858
  464.406   98.930    0.159    0.422    6.650
  464.656   99.157    0.168    0.439    6.684
  464.906   97.754    0.192    0.451    6.270
  465.156   97.175    0.200    0.456    6.028
  465.406   96.672    0.211    0.453    5.579
  465.656   96.152    0.208    0.457    5.113
  465.906   89.527    0.196    0.458    4.920
  466.156   85.728    0.199    0.419    4.617
  466.406   84.344    0.183    0.405    4.478
  466.656   86.894    0.172    0.397    4.666
  466.906   89.821    0.160    0.394    4.889
  467.156   90.585    0.162    0.391    5.317
  467.406   90.526    0.180    0.404    6.042
  467.656   90.833    0.172    0.406    6.114
  467.906   91.909    0.188    0.400    6.436
  468.156   91.490    0.176    0.390    6.766
  468.406   85.965    0.177    0.383    6.621
  468.656   83.383    0.170    0.381    6.623
  468.906   79.222    0.149    0.363    6.608
  469.156   74.631    0.117    0.344    6.936
  469.406   71.177    0.085    0.319    8.046
