~VERSION INFORMATION
 VERS.                 2.0:   CWLS LOG ASCII STANDARD -VERSION 2.0
 WRAP.                  NO:   ONE LINE PER DEPTH STEP
~WELL INFORMATION BLOCK
#MNEM.UNIT           DATA                    DESCRIPTION OF MNEMONIC
#---------    -------------------            -------------------------------
# Generated from Intellog Unique Number	CS_73_76/WELL/3237
WELL.         10-16-076-05W4                 : Well_name    - WELL
LOC .         00/10-16-076-05W4/0            : Location     - LOCATION
UWI .         00/10-16-076-05W4/0            : Uwi          - UNIQUE WELL ID
ENTR.         SP                             : Entered      - ENTERED BY
SRVC.         SCHLUMBERGER                   : Scn          - SERVICE COMPANY
STRT.M        210.312                        : top_depth    - START DEPTH
STOP.M        447.812                        : bot_depth    - STOP DEPTH
STEP.M        0.25                           : increment    - STEP LENGTH
 NULL. -999.2500:NULL Value
~CURVE INFORMATION BLOCK
#MNEM UNIT       ERCB CURVE CODE    CURVE DESCRIPTION
#-----------   ------------------   ----------------------------------
DEPT.M        00 001 00 00         : DEPTH        - DEPTH
GR  .API      00 310 00 00         : GR           - GAMMA RAY
DPHI.V/V      00 890 00 00         : PHID         - DENSITY POROSITY (SANDSTONE)
NPHI.V/V      00 330 00 00         : PHIN         - NEUTRON POROSITY (SANDSTONE)
ILD .OHMM     00 120 00 00         : RESD         - DEEP RESISTIVITY (DIL)
~PARAMETER INFORMATION
#MNEM.UNIT           DATA             DESCRIPTION OF MNEMONIC
#---------         -----------     ------------------------------
GL  .M        580.949              : gl           - GROUND LEVEL ELEVATION
EREF.M        584.302              : kb           - ELEVATION OF DEPTH REFERENCE
DATM.M        580.949              : datum        - DATUM ELEVATION
TDD .M        451.104              : tdd          - TOTAL DEPTH DRILLER
RUN .         ONE                  : Run          - RUN NUMBER
ENG .         BILL                 : Engineer     - RECORDING ENGINEER
WIT .         JIM                  : Witness      - WITNESSED BY
MUD .         GEL                  : Mud_type     - MUD TYPE
MATR.         SANDSTONE            : Logunit      - NEUTRON MATRIX
TMAX.C        17.2222              : BHT          - MAXIMUM RECORDED TEMPERATURE
BHTD.M        451.104              : BHTDEP       - MAXIMUM RECORDED TEMPERATURE
MATR.         1                    : LOGUNIT      - NEUTRON MATRIX
RMT .C        25                   : MDTP         - TEMPERATURE OF MUD
NEUT.         1                    : NEUTRON      - NEUTRON TYPE
RESI.         0                    : RESIST       - RESISTIVITY TYPE
RMC .OHMM     0.25                 : RMC          - RESISTIVITY OF MUD CAKE
RMF .OHMM     0.25                 : RMF          - RESISTIVITY OF MUD FILTRATE
SUFT.C        15                   : SUFT         - SURFACE TEMPERATURE
~A  DEPTH       GR     PHID     PHIN     RESD
# ...
  253.812   62.415    0.354    0.475   22.092
  254.062   60.422    0.345    0.466   22.350
  254.312   57.015    0.333    0.457   22.391
  254.562   55.181    0.325    0.440   21.723
  254.812   58.185    0.326    0.418   18.004
  255.062   60.707    0.333    0.426   14.050
  255.312   65.579    0.341    0.445   12.786
  255.562   71.720    0.332    0.463   11.833
  255.812   75.605    0.335    0.470   11.575
  256.062   78.590    0.312    0.479   11.917
  256.312   77.420    0.300    0.494   13.059
  256.562   76.114    0.318    0.474   14.702
  256.812   74.806    0.330    0.453   16.580
  257.062   73.814    0.343    0.438   17.691
  257.312   72.774    0.335    0.445   17.841
  257.562   69.452    0.340    0.456   18.058
  257.812   66.252    0.342    0.445   18.114
  258.062   63.493    0.340    0.429   17.813
  258.312   61.139    0.337    0.402   18.088
  258.562   62.759    0.335    0.400   17.898
  258.812   63.593    0.337    0.420   17.785
  259.062   60.798    0.338    0.441   17.784
  259.312   59.101    0.334    0.453   17.794
  259.562   57.534    0.343    0.445   17.800
  259.812   56.452    0.358    0.439   17.810
  260.062   57.532    0.361    0.424   17.819
  260.312   58.818    0.357    0.399   17.828
  260.562   59.792    0.355    0.396   17.836
  260.812   60.652    0.352    0.416   17.843
  261.062   59.973    0.342    0.434   17.853
  261.312   58.963    0.334    0.448   17.851
  261.562   58.932    0.351    0.447   17.784
  261.812   59.388    0.355    0.443   17.565
  262.062   59.725    0.351    0.440   17.213
  262.312   60.029    0.346    0.438   17.263
  262.562   61.063    0.342    0.433   16.986
  262.812   62.037    0.338    0.425   16.969
  263.062   63.018    0.336    0.420   16.977
  263.312   63.603    0.352    0.414   17.780
  263.562   62.684    0.353    0.418   19.166
  263.812   61.715    0.344    0.430   21.691
  264.062   59.266    0.345    0.444   30.718
  264.312   58.010    0.335    0.446   41.563
  264.562   57.007    0.268    0.417   53.810
  264.812   56.173    0.196    0.376   59.457
  265.062   53.861    0.093    0.228   62.505
  265.312   53.531    0.000    0.155   61.330
  265.562   51.661    0.000    0.117   59.291
  265.812   49.030   -0.000    0.106   54.578
  266.062   46.505    0.001    0.101   45.189
  266.312   47.630    0.007    0.095   38.749
  266.562   49.886    0.009    0.105   28.096
  266.812   53.975    0.000    0.134   22.691
  267.062   58.894    0.005    0.183   19.325
  267.312   61.754    0.078    0.236   17.411
  267.562   65.526    0.149    0.305   16.251
  267.812   67.958    0.323    0.410   15.823
  268.062   68.871    0.350    0.431   15.356
  268.312   68.160    0.349    0.438   15.398
  268.562   68.978    0.355    0.441   14.665
  268.812   70.494    0.347    0.447   12.986
  269.062   71.422    0.342    0.459   11.232
  269.312   73.820    0.343    0.447    8.866
  269.562   76.109    0.338    0.452    7.297
  269.812   79.716    0.332    0.454    6.223
  270.062   83.922    0.324    0.460    5.405
  270.312   88.894    0.313    0.451    4.951
  270.562   95.328    0.295    0.446    4.437
  270.812  100.946    0.282    0.464    4.356
  271.062  102.647    0.255    0.493    4.404
  271.312  102.921    0.239    0.497    4.560
  271.562  103.372    0.230    0.470    4.779
  271.812  104.197    0.237    0.458    4.830
  272.062  106.582    0.251    0.458    4.876
  272.312  106.924    0.244    0.463    4.804
  272.562  107.766    0.233    0.474    4.834
  272.812  105.624    0.235    0.475    4.887
  273.062  103.359    0.225    0.471    4.982
  273.312   99.571    0.220    0.482    5.009
  273.562   98.626    0.243    0.484    5.070
  273.812   98.386    0.257    0.465    5.140
  274.062   95.897    0.261    0.450    5.190
  274.312   92.797    0.243    0.460    5.273
  274.562   90.461    0.238    0.476    5.182
  274.812   91.361    0.262    0.450    4.944
  275.062   98.789    0.266    0.430    4.737
  275.312  104.813    0.252    0.445    4.594
  275.562  106.962    0.231    0.466    4.561
  275.812  105.814    0.218    0.474    4.564
  276.062  105.384    0.237    0.494    4.583
  276.312   98.911    0.249    0.508    4.831
  276.562   93.645    0.254    0.487    5.115
  276.812   93.059    0.266    0.455    5.332
  277.062   96.210    0.261    0.456    5.903
  277.312   97.362    0.255    0.467    6.388
  277.562   94.981    0.249    0.467    6.974
  277.812   91.632    0.239    0.470    7.884
  278.062   88.650    0.228    0.477    8.599
  278.312   86.422    0.246    0.473    8.242
  278.562   83.876    0.262    0.465    6.715
  278.812   84.586    0.285    0.460    5.781
  279.062   90.105    0.291    0.455    4.603
  279.312   95.553    0.302    0.460    3.560
  279.562  100.431    0.286    0.472    3.274
  279.812  102.797    0.256    0.489    3.562
  280.062  103.674    0.251    0.498    4.178
  280.312  105.387    0.275    0.508    4.768
  280.562  105.812    0.258    0.518    6.126
  280.812   99.893    0.253    0.529    7.135
  281.062   92.246    0.267    0.530    8.610
  281.312   82.426    0.284    0.500    9.232
  281.562   74.422    0.307    0.449    9.420
  281.812   65.529    0.321    0.419    9.599
  282.062   56.727    0.326    0.424    9.409
  282.312   56.364    0.332    0.432    9.649
  282.562   56.997    0.336    0.432    9.445
  282.812   58.947    0.342    0.413    9.642
  283.062   60.722    0.355    0.405    9.690
  283.312   62.267    0.347    0.410    9.808
  283.562   64.268    0.334    0.419   10.011
  283.812   65.391    0.334    0.430   10.004
  284.062   63.605    0.336    0.450   10.003
  284.312   62.266    0.338    0.446    9.910
  284.562   61.077    0.341    0.439    9.843
  284.812   61.005    0.345    0.448    9.695
  285.062   62.578    0.351    0.458    9.420
  285.312   64.171    0.354    0.464    8.945
  285.562   65.038    0.356    0.460    8.526
  285.812   66.743    0.362    0.457    8.446
  286.062   67.656    0.367    0.455    8.522
  286.312   68.267    0.370    0.463    8.500
  286.562   68.295    0.363    0.480    8.699
  286.812   66.580    0.368    0.492    8.687
  287.062   61.609    0.367    0.485    8.785
  287.312   59.564    0.356    0.471    8.818
  287.562   58.677    0.368    0.456    8.706
  287.812   58.689    0.362    0.442    8.530
  288.062   58.683    0.352    0.443    8.548
  288.312   59.152    0.351    0.443    8.567
  288.562   60.139    0.345    0.443    8.386
  288.812   61.118    0.344    0.451    8.406
  289.062   62.238    0.351    0.455    8.427
  289.312   60.584    0.345    0.450    8.246
  289.562   59.289    0.342    0.436    8.266
  289.812   59.643    0.339    0.427    8.188
  290.062   60.666    0.339    0.421    7.972
  290.312   61.086    0.343    0.432    7.851
  290.562   61.378    0.353    0.446    7.313
  290.812   62.452    0.354    0.461    6.993
  291.062   64.818    0.344    0.467    6.477
  291.312   70.355    0.345    0.463    6.000
  291.562   74.391    0.353    0.468    5.833
  291.812   77.684    0.328    0.474    5.642
  292.062   81.046    0.314    0.490    5.678
  292.312   82.534    0.288    0.514    5.984
  292.562   83.545    0.279    0.514    6.354
  292.812   83.795    0.288    0.518    6.724
  293.062   81.944    0.278    0.519    6.926
  293.312   81.848    0.291    0.497    6.926
  293.562   82.366    0.291    0.479    6.910
  293.812   80.181    0.282    0.472    6.803
  294.062   80.081    0.291    0.487    7.014
  294.312   80.808    0.276    0.492    7.245
  294.562   81.822    0.268    0.486    7.580
  294.812   81.979    0.290    0.481    7.982
  295.062   80.617    0.300    0.487    8.212
  295.312   79.680    0.308    0.497    8.593
  295.562   78.641    0.297    0.504    8.959
  295.812   78.315    0.286    0.512    9.169
  296.062   76.268    0.301    0.495    9.375
  296.312   75.031    0.314    0.480    9.160
  296.562   73.581    0.322    0.476    9.181
  296.812   74.187    0.326    0.471    9.186
  297.062   75.352    0.325    0.468    9.188
