~VERSION INFORMATION
 VERS.                 2.0:   CWLS LOG ASCII STANDARD -VERSION 2.0
 WRAP.                  NO:   ONE LINE PER DEPTH STEP
~WELL INFORMATION BLOCK
#MNEM.UNIT           DATA                    DESCRIPTION OF MNEMONIC
#---------    -------------------            -------------------------------
# Generated from Intellog Unique Number	CW_73_75/WELL/1029
WELL.         PACIFIC AMADOU 10-32           : Well_name    - WELL
LOC .         00/10-32-075-20W4/0            : Location     - LOCATION
UWI .         00/10-32-075-20W4/0            : Uwi          - UNIQUE WELL ID
ENTR.         JAYE                           : Entered      - ENTERED BY
SRVC.         SCHLUMBERGER                   : Scn          - SERVICE COMPANY
DATE.         20 MAR 74                      : Date         - LOG DATE
STRT.M        301.752                        : top_depth    - START DEPTH
STOP.M        475.502                        : bot_depth    - STOP DEPTH
STEP.M        0.25                           : increment    - STEP LENGTH
 NULL. -999.2500:NULL Value
~CURVE INFORMATION BLOCK
#MNEM UNIT       ERCB CURVE CODE    CURVE DESCRIPTION
#-----------   ------------------   ----------------------------------
DEPT.M        00 001 00 00         : DEPTH        - DEPTH
CALI.MM       00 280 01 00         : CAL          - CALIPER
GR  .API      00 310 00 00         : GR           - GAMMA RAY
NPHI.V/V      00 330 00 00         : PHIN         - NEUTRON POROSITY (SANDSTONE)
DPHI.V/V      00 890 00 00         : PHID         - DENSITY POROSITY (SANDSTONE)
ILD .OHMM     00 120 00 00         : RESD         - DEEP RESISTIVITY (DIL)
~PARAMETER INFORMATION
#MNEM.UNIT           DATA             DESCRIPTION OF MNEMONIC
#---------         -----------     ------------------------------
GL  .M        619.049              : gl           - GROUND LEVEL ELEVATION
EREF.M        623.103              : kb           - ELEVATION OF DEPTH REFERENCE
DATM.M        619.049              : datum        - DATUM ELEVATION
TDD .M        478.536              : tdd          - TOTAL DEPTH DRILLER
RUN .         ONE                  : Run          - RUN NUMBER
ENG .         BROWN                : Engineer     - RECORDING ENGINEER
WIT .         WADDELL              : Witness      - WITNESSED BY
BASE.         EDM                  : Branch       - HOME BASE OF LOGGING UNIT
MUD .         GEL CHEM             : Mud_type     - MUD TYPE
MATR.         SANDSTONE            : Logunit      - NEUTRON MATRIX
TMAX.C        18.3333              : BHT          - MAXIMUM RECORDED TEMPERATURE
BHTD.M        479.755              : BHTDEP       - MAXIMUM RECORDED TEMPERATURE
RMT .C        15.5556              : MDTP         - TEMPERATURE OF MUD
MUDD.KG/M     1044                 : MWT          - MUD DENSITY
NEUT.         1                    : NEUTRON      - NEUTRON TYPE
RESI.         0                    : RESIST       - RESISTIVITY TYPE
RM  .OHMM     9.59                 : RM           - RESISTIVITY OF MUD
RMC .OHMM     0                    : RMC          - RESISTIVITY OF MUD CAKE
RMF .OHMM     5.7                  : RMF          - RESISTIVITY OF MUD FILTRATE
SUFT.C        -17.7778             : SUFT         - SURFACE TEMPERATURE
~A  DEPTH      CAL       GR     PHIN     PHID     RESD
  301.752  177.090   83.284    0.571    0.298    3.227
  302.002  162.064   81.854    0.536    0.328    3.115
  302.252  157.117   80.181    0.521    0.320    2.844
  302.502  161.640   76.748    0.542    0.295    2.630
  302.752  157.710   72.769    0.531    0.298    2.558
  303.002  158.974   72.557    0.568    0.312    2.491
  303.252  169.603   74.942    0.577    0.210    2.528
  303.502  172.087   77.091    0.550    0.325    2.803
  303.752  163.272   69.475    0.526    0.388    3.244
  304.002  160.769   63.434    0.505    0.311    3.895
  304.252  160.812   57.757    0.499    0.240    6.173
  304.502  158.307   51.413    0.492    0.279   10.097
  304.752  153.360   52.472    0.463    0.305    9.673
  305.002  153.402   55.348    0.464    0.305    8.751
  305.252  155.685   61.377    0.449    0.332    7.614
  305.502  157.456   66.195    0.477    0.359    6.913
  305.752  159.126   72.104    0.510    0.380    6.196
  306.002  161.001   77.527    0.499    0.298    5.502
  306.252  163.283   77.977    0.525    0.274    5.340
  306.502  162.511   80.186    0.521    0.315    5.519
  306.752  158.479   84.218    0.510    0.283    5.620
  307.002  155.263   83.331    0.490    0.234    5.516
  307.252  155.611   79.473    0.484    0.267    5.333
  307.502  157.078   81.563    0.495    0.263    5.195
  307.752  162.313   78.616    0.533    0.268    5.024
  308.002  167.545   73.060    0.538    0.280    4.804
  308.252  161.478   66.778    0.514    0.304    4.671
  308.502  152.054   60.372    0.439    0.338    4.652
  308.752  152.908   58.518    0.477    0.345    4.677
  309.002  175.857   61.818    0.552    0.544    4.772
  309.252  182.823   66.636    0.577    0.425    4.904
  309.502  167.186   71.029    0.546    0.364    5.004
  309.752  163.459   69.355    0.492    0.311    5.115
  310.002  182.642   69.929    0.488    0.363    5.316
  310.252  195.714   71.470    0.511    0.418    5.344
  310.502  183.336   72.100    0.544    0.382    5.342
  310.752  148.661   74.859    0.542    0.348    5.301
  311.002  145.954   72.212    0.566    0.333    5.192
  311.252  148.339   70.600    0.522    0.290    5.039
  311.502  152.147   76.327    0.511    0.259    4.918
  311.752  156.260   80.054    0.560    0.289    4.818
  312.002  157.932   77.836    0.520    0.336    4.979
  312.252  153.494   72.522    0.503    0.317    5.214
  312.502  148.549   67.877    0.476    0.293    5.550
  312.752  148.999   61.228    0.451    0.289    5.998
  313.002  151.480   63.680    0.425    0.282    6.712
  313.252  157.631   66.135    0.421    0.251    7.041
  313.502  158.797   65.733    0.431    0.212    7.039
  313.752  154.458   63.878    0.412    0.252    6.998
  314.002  148.797   62.023    0.412    0.242    6.970
  314.252  148.634   60.352    0.428    0.229    6.878
  314.502  148.885   60.801    0.422    0.224    6.750
  314.752  149.839   62.220    0.420    0.208    6.551
  315.002  150.697   66.553    0.434    0.202    6.253
  315.252  151.656   75.619    0.402    0.258    5.870
  315.502  152.407   81.221    0.456    0.272    5.500
  315.752  152.959   86.161    0.479    0.283    5.268
  316.002  153.103   84.732    0.514    0.247    5.199
  316.252  153.044   80.996    0.515    0.264    5.198
  316.502  152.472   76.776    0.479    0.285    5.235
  316.752  153.841   76.619    0.465    0.277    5.431
  317.002  159.376   80.161    0.455    0.278    5.644
  317.252  167.464   81.521    0.507    0.246    5.910
  317.502  162.004   82.578    0.465    0.284    6.211
  317.752  151.868   86.545    0.391    0.240    6.503
  318.002  152.928   86.573    0.391    0.240    6.872
  318.252  155.217   87.325    0.416    0.249    7.276
  318.502  160.345   89.897    0.438    0.234    7.193
  318.752  164.455   90.164    0.476    0.248    7.099
  319.002  160.730   87.036    0.480    0.279    7.070
  319.252  151.913   84.028    0.431    0.251    7.081
  319.502  151.958   81.269    0.428    0.256    7.265
  319.752  154.957   79.651    0.417    0.218    7.537
  320.002  161.304   74.399    0.416    0.254    7.862
  320.252  152.588   71.515    0.377    0.261    8.186
  320.502  149.683   71.904    0.406    0.266    8.244
  320.752  150.539   67.500    0.457    0.311    7.957
  321.002  147.828   64.614    0.448    0.296    7.539
  321.252  145.835   58.453    0.388    0.282    7.196
  321.502  146.689   57.389    0.388    0.270    6.919
  321.752  147.341   60.267    0.418    0.241    6.766
  322.002  148.412   63.992    0.421    0.250    6.639
  322.252  148.960   67.957    0.446    0.254    6.552
  322.502  149.709   72.471    0.461    0.240    6.478
  322.752  151.071   73.951    0.455    0.230    6.428
  323.002  152.134   73.373    0.438    0.226    6.414
  323.252  152.988   73.822    0.425    0.238    6.400
  323.502  153.442   74.754    0.412    0.246    6.470
  323.752  154.293   76.722    0.394    0.244    6.540
  324.002  155.050   78.932    0.397    0.235    6.453
  324.252  156.419   81.991    0.417    0.229    6.381
  324.502  159.509   84.018    0.420    0.219    6.273
  324.752  171.361   80.463    0.440    0.247    6.156
  325.002  179.545   74.240    0.451    0.299    6.053
  325.252  149.147   68.928    0.430    0.258    5.756
  325.502  148.686   70.652    0.432    0.273    5.284
  325.752  150.562   79.109    0.478    0.278    4.754
  326.002  152.327   84.716    0.521    0.272    4.160
  326.252  155.122   83.647    0.640    0.287    3.586
  326.502  161.675   85.676    0.719    0.309    3.202
  326.752  184.317   90.613    0.731    0.313    2.833
  327.002  170.107   87.424    0.772    0.342    2.563
  327.252  179.924   91.392    0.754    0.347    2.392
  327.502  209.082   96.817    0.690    0.387    2.335
  327.752  200.877   98.115    0.659    0.355    2.546
  328.002  182.083   98.383    0.628    0.278    2.839
  328.252  199.028   98.650    0.605    0.277    3.183
  328.502  212.302   99.344    0.572    0.319    3.609
  328.752  214.379   99.674    0.544    0.363    3.995
  329.002  178.076  100.547    0.517    0.355    4.325
  329.252  157.348   98.574    0.502    0.339    4.912
  329.502  185.084   96.475    0.537    0.306    5.318
  329.752  196.224   97.650    0.526    0.357    5.287
  330.002  189.852   99.376    0.519    0.335    5.295
  330.252  192.234   97.703    0.538    0.338    5.342
  330.502  200.827   93.845    0.515    0.393    5.390
  330.752  152.306   89.321    0.471    0.393    5.602
  331.002  143.896   83.281    0.450    0.290    5.833
  331.252  143.226   79.245    0.426    0.232    6.245
  331.502  143.276   77.933    0.474    0.262    6.649
  331.752  143.524   76.444    0.509    0.276    6.935
  332.002  143.865   70.646    0.537    0.310    7.195
  332.252  144.633   65.332    0.556    0.309    7.341
  332.502  145.167   65.299    0.563    0.287    7.352
  332.752  148.261   66.596    0.545    0.290    7.242
  333.002  153.902   69.231    0.527    0.300    6.786
  333.252  157.308   71.017    0.513    0.288    6.393
  333.502  155.107   72.619    0.487    0.281    6.046
  333.752  155.050   74.463    0.489    0.273    5.825
  334.002  157.842   76.974    0.487    0.265    5.590
  334.252  160.225   80.335    0.479    0.255    5.436
  334.502  161.490   83.214    0.481    0.239    5.364
  334.752  165.802   84.875    0.536    0.243    5.353
  335.002  152.812   81.565    0.553    0.310    5.292
  335.252  149.188   75.524    0.537    0.279    5.319
  335.502  150.763   75.857    0.535    0.279    5.387
  335.752  152.739   76.363    0.546    0.283    5.486
  336.002  153.496   74.326    0.554    0.280    5.628
  336.252  153.531   75.747    0.540    0.273    5.700
  336.502  153.062   79.110    0.527    0.267    5.636
  336.752  153.205   83.441    0.528    0.257    5.460
  337.002  153.657   88.258    0.527    0.255    5.279
  337.252  154.210   92.834    0.515    0.272    5.210
  337.502  155.272   97.895    0.493    0.261    5.217
  337.752  156.738  100.224    0.471    0.227    5.274
  338.002  158.098   90.483    0.482    0.241    5.381
