~VERSION INFORMATION
 VERS.                 2.0:   CWLS LOG ASCII STANDARD -VERSION 2.0
 WRAP.                  NO:   ONE LINE PER DEPTH STEP
~WELL INFORMATION BLOCK
#MNEM.UNIT           DATA                    DESCRIPTION OF MNEMONIC
#---------    -------------------            -------------------------------
# Generated from Intellog Unique Number	CW_82_90/WELL/1037
WELL.         CHEVRON FINA MUSKWA 16-29      : Well_name    - WELL
LOC .         00/16-29-083-02W5/0            : Location     - LOCATION
UWI .         00/16-29-083-02W5/0            : Uwi          - UNIQUE WELL ID
ENTR.         JJ                             : Entered      - ENTERED BY
SRVC.         SCHLUMBERGER                   : Scn          - SERVICE COMPANY
DATE.         9 JAN 74                       : Date         - LOG DATE
STRT.M        286.512                        : top_depth    - START DEPTH
STOP.M        487.762                        : bot_depth    - STOP DEPTH
STEP.M        0.25                           : increment    - STEP LENGTH
 NULL. -999.2500:NULL Value
~CURVE INFORMATION BLOCK
#MNEM UNIT       ERCB CURVE CODE    CURVE DESCRIPTION
#-----------   ------------------   ----------------------------------
DEPT.M        00 001 00 00         : DEPTH        - DEPTH
CALI.MM       00 280 01 00         : CAL          - CALIPER
GR  .API      00 310 00 00         : GR           - GAMMA RAY
DPHI.V/V      00 890 00 00         : PHID         - DENSITY POROSITY (SANDSTONE)
NPHI.V/V      00 330 00 00         : PHIN         - NEUTRON POROSITY (SANDSTONE)
ILD .OHMM     00 120 00 00         : RESD         - DEEP RESISTIVITY (DIL)
~PARAMETER INFORMATION
#MNEM.UNIT           DATA             DESCRIPTION OF MNEMONIC
#---------         -----------     ------------------------------
GL  .M        623.316              : gl           - GROUND LEVEL ELEVATION
EREF.M        627.278              : kb           - ELEVATION OF DEPTH REFERENCE
DATM.M        623.316              : datum        - DATUM ELEVATION
TDD .M        492.252              : tdd          - TOTAL DEPTH DRILLER
RUN .         ONE                  : Run          - RUN NUMBER
ENG .         WOON                 : Engineer     - RECORDING ENGINEER
WIT .         GOLL                 : Witness      - WITNESSED BY
BASE.         EDMONTON             : Branch       - HOME BASE OF LOGGING UNIT
MUD .         GEL CHEM             : Mud_type     - MUD TYPE
MATR.         SANDSTONE            : Logunit      - NEUTRON MATRIX
TMAX.C        30                   : BHT          - MAXIMUM RECORDED TEMPERATURE
BHTD.M        492.252              : BHTDEP       - MAXIMUM RECORDED TEMPERATURE
RMT .C        4.44444              : MDTP         - TEMPERATURE OF MUD
MUDD.KG/M     8600                 : MWT          - MUD DENSITY
NEUT.         1                    : NEUTRON      - NEUTRON TYPE
RESI.         0                    : RESIST       - RESISTIVITY TYPE
RM  .OHMM     9.6                  : RM           - RESISTIVITY OF MUD
RMC .OHMM     5                    : RMC          - RESISTIVITY OF MUD CAKE
RMF .OHMM     7.1                  : RMF          - RESISTIVITY OF MUD FILTRATE
SUFT.C        -17.7778             : SUFT         - SURFACE TEMPERATURE
~A  DEPTH      CAL       GR     PHID     PHIN     RESD
  286.512  232.771   99.979    0.243    0.654    2.548
  286.762  232.658  102.313    0.231    0.677    2.622
  287.012  232.866  101.046    0.218    0.677    2.694
  287.262  233.182   99.780    0.221    0.648    2.793
  287.512  229.220   98.198    0.220    0.672    2.913
  287.762  227.717   96.426    0.227    0.674    2.969
  288.012  228.780   95.665    0.216    0.637    3.027
  288.262  229.096   95.661    0.233    0.670    3.144
  288.512  229.090   95.722    0.263    0.688    3.425
  288.762  225.342   94.834    0.290    0.707    3.759
  289.012  204.910   93.694    0.283    0.693    4.426
  289.262  199.343   90.659    0.246    0.618    5.601
  289.512  199.872   79.351    0.217    0.468    6.409
  289.762  201.365   73.284    0.215    0.419    8.049
  290.012  204.353   65.955    0.237    0.419    9.055
  290.262  203.492   61.404    0.273    0.513    9.624
  290.512  201.882   61.654    0.307    0.504    9.590
  290.762  203.909   61.777    0.325    0.496    9.555
  291.012  204.653   60.763    0.311    0.503    9.167
  291.262  204.967   61.834    0.310    0.519    8.744
  291.512  204.962   63.220    0.308    0.531    8.046
  291.762  204.529   62.080    0.310    0.537    7.334
  292.012  203.454   61.066    0.309    0.518    6.596
  292.262  200.775   62.831    0.307    0.515    6.046
  292.512  198.845   65.544    0.285    0.517    5.823
  292.762  197.661   67.372    0.269    0.560    6.601
  293.012  196.907   67.937    0.287    0.588    7.190
  293.262  196.475   67.366    0.298    0.584    7.613
  293.512  196.041   65.468    0.300    0.574    7.716
  293.762  195.930   65.654    0.309    0.585    7.806
  294.012  196.779   63.061    0.315    0.606    7.618
  294.262  197.844   60.910    0.308    0.564    7.491
  294.512  198.480   60.339    0.297    0.500    7.436
  294.762  199.115   63.620    0.290    0.482    7.423
  295.012  199.432   66.459    0.290    0.497    7.581
  295.262  199.533   67.150    0.283    0.516    7.846
  295.512  199.207   66.137    0.284    0.532    8.074
  295.762  198.453   68.155    0.271    0.546    8.247
  296.012  197.271   66.257    0.272    0.536    8.374
  296.262  196.089   67.327    0.280    0.526    8.424
  296.512  195.442   70.229    0.292    0.528    8.426
  296.762  195.009   70.605    0.296    0.525    8.348
  297.012  195.003   69.212    0.297    0.517    8.318
  297.262  194.570   69.019    0.301    0.516    8.352
  297.512  194.565   70.469    0.288    0.522    8.513
  297.762  194.773   68.507    0.263    0.544    8.811
  298.012  194.554   66.041    0.237    0.544    9.102
  298.262  194.761   63.827    0.243    0.561    9.173
  298.512  194.650   63.445    0.263    0.558    9.210
  298.762  194.003   65.147    0.281    0.527    9.282
  299.012  193.891   68.744    0.301    0.478    9.354
  299.262  193.778   72.151    0.284    0.471    9.357
  299.512  193.773   73.727    0.278    0.479    8.791
  299.762  195.158   74.482    0.291    0.478    8.058
  300.012  196.970   74.858    0.288    0.481    7.317
  300.262  199.852   72.897    0.282    0.478    6.901
  300.512  202.948   71.188    0.281    0.441    6.545
  300.762  204.333   73.459    0.269    0.446    6.197
  301.012  204.114   75.919    0.227    0.495    5.669
  301.262  201.221   77.684    0.229    0.490    5.109
  301.512  198.969   79.764    0.248    0.474    4.433
  301.762  207.413   81.530    0.242    0.493    3.839
  302.012  222.701   88.159    0.202    0.527    3.414
  302.262  243.764   91.313    0.242    0.650    3.041
  302.512  254.667   88.909    0.247    0.688    2.841
  302.762  250.918   89.285    0.282    0.698    2.757
  303.012  247.170   90.546    0.267    0.681    2.763
  303.262  245.025   92.184    0.262    0.664    2.827
  303.512  247.908   94.202    0.258    0.654    2.882
  303.762  249.506   94.957    0.301    0.688    2.949
  304.012  251.854   95.206    0.299    0.731    3.029
  304.262  248.533   96.087    0.317    0.744    3.129
  304.512  234.411   96.653    0.299    0.716    3.208
  304.762  199.006   97.533    0.199    0.688    3.364
  305.012  195.150   98.225    0.210    0.694    3.568
  305.262  207.336   95.759    0.223    0.649    3.850
  305.512  222.303   94.176    0.210    0.619    4.226
  305.762  232.779   93.479    0.202    0.608    4.475
  306.012  223.790   92.844    0.189    0.596    4.536
  306.262  218.650   92.588    0.212    0.633    4.588
  306.512  219.074   91.258    0.205    0.610    4.713
  306.762  229.656   90.055    0.219    0.640    4.952
  307.012  233.287   92.578    0.250    0.663    5.592
  307.262  219.912   86.070    0.279    0.677    6.268
  307.512  204.828   81.140    0.279    0.668    6.971
  307.762  197.549   79.242    0.290    0.626    8.023
  308.012  196.474   81.829    0.272    0.515    8.257
  308.262  195.827   83.846    0.257    0.523    7.876
  308.512  195.394   82.832    0.259    0.531    6.885
  308.762  195.816   84.408    0.259    0.552    6.228
  309.012  204.154   84.026    0.273    0.553    5.066
  309.262  222.543   84.718    0.260    0.572    4.021
  309.512  234.729   88.314    0.260    0.639    3.167
  309.762  228.414   87.617    0.261    0.653    2.832
  310.012  236.216   89.950    0.236    0.645    2.790
  310.262  241.022   95.252    0.288    0.676    2.966
  310.512  220.270   98.470    0.328    0.741    3.164
  310.762  215.773   98.530    0.328    0.740    3.586
  311.012  234.911   97.263    0.308    0.673    3.922
  311.262  241.322   97.071    0.278    0.657    4.329
  311.512  208.270   96.688    0.244    0.630    4.843
  311.762  204.093   95.928    0.215    0.594    5.176
  312.012  204.729   93.903    0.229    0.554    5.490
  312.262  205.473   92.069    0.234    0.564    5.902
  312.512  205.574   89.097    0.242    0.567    6.503
  312.762  204.392   85.557    0.246    0.566    6.794
  313.012  202.248   81.259    0.255    0.585    6.926
  313.262  200.639   73.740    0.255    0.598    6.967
  313.512  199.135   68.116    0.254    0.567    6.968
  313.762  198.595   62.491    0.241    0.527    6.930
  314.012  198.055   55.288    0.260    0.499    6.840
  314.262  197.515   53.390    0.269    0.513    6.650
  314.512  197.296   60.713    0.262    0.449    6.453
  314.762  196.755   62.794    0.288    0.438    6.405
  315.012  196.429   69.738    0.293    0.456    6.492
  315.262  195.888   72.767    0.252    0.465    6.874
  315.512  196.311   73.711    0.254    0.461    7.602
  315.762  197.482   74.907    0.229    0.488    8.281
  316.012  198.867   73.641    0.204    0.492    8.636
  316.262  200.466   64.733    0.238    0.452    8.737
  316.512  201.530   57.909    0.263    0.465    8.177
  316.762  201.845   56.137    0.284    0.455    7.055
  317.012  202.695   59.418    0.302    0.465    5.960
  317.262  203.974   63.330    0.340    0.447    4.757
  317.512  210.813   66.422    0.362    0.467    3.966
  317.762  250.592   72.798    0.354    0.529    3.602
  318.012  261.388   84.921    0.392    0.562    3.777
  318.262  260.848   88.644    0.423    0.616    4.107
  318.512  234.747   89.651    0.377    0.614    4.324
  318.762  232.282   87.880    0.398    0.609    4.782
  319.012  254.950   85.540    0.384    0.587    5.209
  319.262  261.361   89.389    0.382    0.568    5.578
  319.512  224.993   92.607    0.366    0.553    5.906
  319.762  191.406   94.877    0.301    0.559    6.361
  320.012  195.785   95.569    0.232    0.574    6.633
  320.262  197.598   93.545    0.233    0.528    6.970
  320.512  198.235   86.531    0.223    0.484    7.296
  320.762  198.656   84.823    0.219    0.469    7.480
  321.012  198.758   88.672    0.188    0.460    7.771
  321.262  198.965   89.174    0.186    0.491    7.996
  321.512  198.961   87.086    0.233    0.526    7.968
  321.762  198.635   84.178    0.231    0.534    7.985
  322.012  198.630   80.070    0.239    0.483    8.048
  322.262  198.944   79.624    0.236    0.457    8.157
  322.512  199.581   80.316    0.226    0.456    8.300
  322.762  200.004   80.376    0.224    0.468    8.444
