~VERSION INFORMATION
 VERS.                 2.0:   CWLS LOG ASCII STANDARD -VERSION 2.0
 WRAP.                  NO:   ONE LINE PER DEPTH STEP
~WELL INFORMATION BLOCK
#MNEM.UNIT           DATA                    DESCRIPTION OF MNEMONIC
#---------    -------------------            -------------------------------
# Generated from Intellog Unique Number	CX_WELLS/WELL/3420
WELL.         ATCOR ET AL GREGOIRE LAKE      : Well_name    - WELL
LOC .         00/14-24-085-06W4/0            : Location     - LOCATION
UWI .         00/14-24-085-06W400            : Uwi          - UNIQUE WELL ID
ENTR.         T                              : Entered      - ENTERED BY
SRVC.         SCHLUMBERGER                   : Scn          - SERVICE COMPANY
STRT.M        120                            : top_depth    - START DEPTH
STOP.M        255                            : bot_depth    - STOP DEPTH
STEP.M        0.25                           : increment    - STEP LENGTH
 NULL. -999.2500:NULL Value
~CURVE INFORMATION BLOCK
#MNEM UNIT       ERCB CURVE CODE    CURVE DESCRIPTION
#-----------   ------------------   ----------------------------------
DEPT.M        00 001 00 00         : DEPTH        - DEPTH
GR  .API      00 310 00 00         : GR           - GAMMA RAY
NPHI.V/V      00 330 00 00         : PHIN         - NEUTRON POROSITY (SANDSTONE)
DPHI.V/V      00 890 00 00         : PHID         - DENSITY POROSITY (SANDSTONE)
ILD .OHMM     00 120 00 00         : RESD         - DEEP RESISTIVITY (OTHER)
~PARAMETER INFORMATION
#MNEM.UNIT           DATA             DESCRIPTION OF MNEMONIC
#---------         -----------     ------------------------------
GL  .M        452.6                : gl           - GROUND LEVEL ELEVATION
EREF.M        456                  : kb           - ELEVATION OF DEPTH REFERENCE
DATM.M        456                  : datum        - DATUM ELEVATION
TDD .M        471                  : tdd          - TOTAL DEPTH DRILLER
RUN .         ONE                  : Run          - RUN NUMBER
ENG .         BILL                 : Engineer     - RECORDING ENGINEER
WIT .         JIM                  : Witness      - WITNESSED BY
MUD .         GEL                  : Mud_type     - MUD TYPE
MATR.         SANDSTONE            : Logunit      - NEUTRON MATRIX
TMAX.C        26                   : BHT          - MAXIMUM RECORDED TEMPERATURE
BHTD.M        471                  : BHTDEP       - MAXIMUM RECORDED TEMPERATURE
MATR.         1                    : LOGUNIT      - NEUTRON MATRIX
RMT .C        15.6                 : MDTP         - TEMPERATURE OF MUD
NEUT.         1                    : NEUTRON      - NEUTRON TYPE
RESI.         1.5                  : RESIST       - RESISTIVITY TYPE
RMC .OHMM     2                    : RMC          - RESISTIVITY OF MUD CAKE
RMF .OHMM     1.1                  : RMF          - RESISTIVITY OF MUD FILTRATE
SUFT.C        4                    : SUFT         - SURFACE TEMPERATURE
~A  DEPTH       GR     PHIN     PHID     RESD
# ...
  207.000   50.562    0.366    0.287    1.779
  207.250   50.547    0.365    0.293    1.746
  207.500   52.366    0.365    0.300    1.681
  207.750   51.122    0.371    0.308    1.619
  208.000   51.115    0.379    0.312    1.619
  208.250   53.532    0.381    0.309    1.650
  208.500   55.961    0.375    0.304    1.714
  208.750   59.602    0.372    0.298    1.780
  209.000   62.637    0.366    0.292    1.849
  209.250   65.668    0.366    0.282    1.921
  209.500   66.880    0.368    0.275    1.921
  209.750   69.298    0.373    0.279    1.781
  210.000   70.510    0.371    0.289    1.682
  210.250   68.054    0.365    0.302    1.651
  210.500   63.768    0.362    0.312    1.502
  210.750   55.814    0.365    0.320    1.392
  211.000   50.918    0.382    0.331    1.315
  211.250   47.246    0.382    0.347    1.242
  211.500   42.346    0.375    0.352    1.174
  211.750   39.890    0.363    0.351    1.196
  212.000   38.651    0.362    0.341    1.291
  212.250   38.635    0.362    0.336    1.341
  212.500   41.060    0.361    0.331    1.367
  212.750   50.200    0.363    0.326    1.341
  213.000   64.216    0.372    0.310    1.341
  213.250   72.132    0.370    0.315    1.316
  213.500   74.557    0.376    0.329    1.341
  213.750   51.968    0.378    0.354    1.420
  214.000   45.238    0.373    0.328    1.532
  214.250   48.883    0.364    0.304    1.717
  214.500   62.900    0.371    0.281    2.326
  214.750   73.866    0.389    0.257    2.707
  215.000   78.121    0.419    0.246    2.707
  215.250   79.326    0.439    0.262    2.708
  215.500   80.530    0.448    0.280    2.708
  215.750   81.125    0.444    0.270    2.708
  216.000   81.719    0.438    0.272    2.708
  216.250   78.036    0.430    0.301    2.658
  216.500   78.020    0.417    0.310    2.658
  216.750   82.276    0.409    0.319    2.658
  217.000   83.484    0.414    0.313    2.658
  217.250   82.249    0.418    0.301    2.658
  217.500   81.623    0.427    0.296    2.609
  217.750   81.608    0.438    0.327    2.609
  218.000   83.422    0.450    0.350    2.512
  218.250   84.619    0.462    0.359    2.419
  218.500   83.990    0.470    0.370    2.329
  218.750   83.982    0.470    0.393    2.242
  219.000   83.967    0.450    0.408    2.159
  219.250   82.121    0.425    0.399    2.118
  219.500   79.055    0.419    0.369    2.001
  219.750   72.321    0.424    0.343    1.964
  220.000   75.356    0.433    0.328    1.927
  220.250   78.391    0.444    0.313    1.753
  220.500   80.820    0.450    0.339    1.688
  220.750   78.974    0.440    0.350    1.535
  221.000   69.808    0.414    0.369    1.450
  221.250   48.435    0.395    0.360    1.370
  221.500   41.705    0.381    0.356    1.223
  221.750   40.469    0.370    0.356    1.134
  222.000   38.624    0.376    0.359    1.051
  222.250   36.168    0.381    0.365    0.993
  222.500   32.488    0.392    0.366    0.938
  222.750   31.249    0.397    0.361    0.938
  223.000   31.847    0.395    0.359    0.938
  223.250   34.882    0.383    0.359    0.993
  223.500   37.307    0.366    0.358    1.051
  223.750   40.948    0.356    0.353    1.092
  224.000   42.771    0.360    0.349    1.134
  224.250   46.416    0.369    0.335    1.201
  224.500   56.768    0.376    0.325    1.247
  224.750   61.633    0.385    0.317    1.321
  225.000   66.495    0.385    0.308    1.372
  225.250   62.823    0.380    0.316    1.398
  225.500   57.313    0.370    0.321    1.398
  225.750   53.030    0.356    0.321    1.321
  226.000   50.575    0.349    0.318    1.225
  226.250   50.559    0.354    0.312    1.179
  226.500   46.269    0.363    0.309    1.114
  226.750   46.250    0.370    0.312    1.013
  227.000   48.679    0.379    0.317    0.976
  227.250   46.223    0.385    0.327    0.957
  227.500   40.107    0.379    0.337    0.922
  227.750   35.207    0.361    0.340    0.922
  228.000   32.141    0.345    0.335    0.922
  228.250   31.508    0.347    0.335    0.940
  228.500   31.496    0.344    0.334    0.976
  228.750   33.315    0.339    0.334    1.033
  229.000   35.740    0.332    0.332    1.073
  229.250   38.165    0.330    0.332    1.136
  229.500   39.369    0.328    0.332    1.249
  229.750   38.740    0.330    0.328    1.482
  230.000   52.756    0.347    0.301    1.630
  230.250   66.163    0.359    0.223    1.897
  230.500   71.638    0.375    0.206    2.166
  230.750   79.554    0.380    0.255    2.337
  231.000   83.199    0.381    0.280    2.167
  231.250   81.353    0.379    0.305    2.008
  231.500   75.237    0.370    0.311    1.630
  231.750   58.749    0.358    0.323    1.349
  232.000   34.937    0.358    0.344    1.181
  232.250   31.871    0.356    0.359    1.034
  232.500   30.635    0.356    0.358    0.977
  232.750   30.010    0.355    0.349    0.959
  233.000   29.986    0.355    0.331    0.977
  233.250   30.585    0.352    0.336    1.015
  233.500   30.570    0.347    0.332    1.054
  233.750   31.160    0.336    0.316    1.116
  234.000   30.535    0.326    0.315    1.138
  234.250   30.523    0.321    0.318    1.138
  234.500   29.898    0.313    0.318    1.096
  234.750   29.272    0.306    0.317    1.096
  235.000   31.079    0.306    0.312    1.117
  235.250   32.898    0.312    0.313    1.138
  235.500   36.539    0.323    0.318    1.160
  235.750   38.354    0.338    0.322    1.160
  236.000   36.504    0.352    0.326    1.138
  236.250   35.883    0.363    0.323    1.139
  236.500   36.477    0.375    0.310    1.183
  236.750   39.516    0.370    0.291    1.229
  237.000   45.598    0.349    0.284    1.276
  237.250   51.683    0.343    0.295    1.276
  237.500   54.104    0.349    0.301    1.229
  237.750   51.652    0.357    0.308    1.161
  238.000   37.605    0.357    0.315    1.076
  238.250   35.149    0.343    0.322    1.017
  238.500   28.415    0.339    0.317    1.017
  238.750   27.790    0.342    0.308    1.017
  239.000   30.215    0.344    0.297    1.036
  239.250   33.253    0.348    0.291    1.097
  239.500   35.068    0.348    0.292    1.184
  239.750   35.049    0.343    0.292    1.277
  240.000   34.427    0.338    0.287    1.327
  240.250   33.192    0.326    0.287    1.327
  240.500   22.797    0.318    0.295    1.327
  240.750   20.345    0.321    0.302    1.302
  241.000   20.326    0.328    0.310    1.302
  241.250   20.314    0.343    0.315    1.353
  241.500   20.909    0.348    0.306    1.432
  241.750   22.724    0.352    0.302    1.487
  242.000   28.199    0.353    0.292    1.635
  242.250   36.111    0.344    0.155    1.868
  242.500   46.467    0.330    0.139    2.054
  242.750   53.772    0.288    0.175    1.978
  243.000   51.927    0.273    0.197    1.904
  243.250   37.879    0.269    0.222    1.833
  243.500   29.933    0.263    0.237    1.765
  243.750   22.592    0.254    0.228    1.765
  244.000   23.183    0.246    0.191    1.834
  244.250   23.782    0.238    0.185    1.978
  244.500   23.762    0.242    0.199    1.979
  244.750   23.137    0.267    0.218    1.979
  245.000   23.125    0.283    0.227    1.979
  245.250   23.716    0.291    0.239    1.979
  245.500   32.246    0.296    0.242    2.056
  245.750   40.771    0.307    0.236    2.095
  246.000   49.293    0.318    0.117    2.261
  246.250   60.259    0.332    0.059    2.582
  246.500   68.785    0.343    0.031    3.702
  246.750   70.600    0.347    0.015    5.016
  247.000   67.534    0.302    0.007    6.667
  247.250   61.414    0.265    0.005    7.909
  247.500   51.031    0.248    0.008    9.382
  247.750   48.575    0.228    0.009   10.514
  248.000   43.675    0.207    0.012   11.131
  248.250   36.339    0.190    0.017   11.562
  248.500   29.612    0.183    0.030   11.784
  248.750   23.496    0.180    0.036   11.785
  249.000   20.426    0.176    0.042   11.786
  249.250   20.407    0.175    0.047   11.348
  249.500   21.612    0.174    0.063   11.136
  249.750   22.813    0.174    0.076   10.520
  250.000   22.805    0.179    0.076   10.130
  250.250   22.790    0.181    0.074    9.753
