~VERSION INFORMATION
 VERS.                 2.0:   CWLS LOG ASCII STANDARD -VERSION 2.0
 WRAP.                  NO:   ONE LINE PER DEPTH STEP
~WELL INFORMATION BLOCK
#MNEM.UNIT           DATA                    DESCRIPTION OF MNEMONIC
#---------    -------------------            -------------------------------
# Generated from Intellog Unique Number	CC_80_83/WELL/2395
NULL.         -999.25                        : NULL_VALUE
WELL.         BVX ET AL WATCHUSK             : Well_name    - WELL
LOC .         11-11-081-02W4                 : Location     - LOCATION          
UWI .         00/11-11-081-02W400            : Uwi          - UNIQUE WELL ID    
ENTR.         DW                             : Entered      - ENTERED BY        
SRVC.         SCHLUMBERGER                   : Scn          - SERVICE COMPANY   
DATE.         08 MAR 78                      : Date         - LOG DATE
STRT.M        109.728                        : top_depth    - START DEPTH       
STOP.M        295.655                        : bot_depth    - STOP DEPTH        
STEP.M        0.305                          : increment    - STEP LENGTH       
~CURVE INFORMATION BLOCK
#MNEM UNIT       ERCB CURVE CODE    CURVE DESCRIPTION
#-----------   ------------------   ----------------------------------
DEPT.M        00 001 00 00         : DEPTH        - DEPTH                       
ILD .OHMM     00 120 00 00         : RESD         - DEEP RESISTIVITY (DIL)      
GR  .API      00 310 00 00         : GR           - GAMMA RAY                   
NPHI.V/V      00 330 00 00         : PHIN         - NEUTRON POROSITY (LIMESTONE)
DPHI.V/V      00 890 00 00         : PHID         - DENSITY POROSITY (LIMESTONE)
~PARAMETER INFORMATION       
#MNEM.UNIT           DATA             DESCRIPTION OF MNEMONIC
#---------         -----------     ------------------------------
GL  .M        502.92               : gl           - GROUND LEVEL ELEVATION      
EREF.M        505.968              : kb           - ELEVATION OF DEPTH REFERENCE
DATM.M        505.968              : datum        - DATUM ELEVATION             
TDD .M        302.971              : tdd          - TOTAL DEPTH DRILLER         
RUN .         ONE                  : Run          - RUN NUMBER                  
ENG .         BILL                 : Engineer     - RECORDING ENGINEER          
WIT .         JIM                  : Witness      - WITNESSED BY                
MUD .         GEL                  : Mud_type     - MUD TYPE                    
MATR.         LIMESTONE            : Logunit      - NEUTRON MATRIX              
TMAX.C        21.1111              : BHT          - MAXIMUM RECORDED TEMPERATURE
BHTD.M        302.971              : BHTDEP       - MAXIMUM RECORDED TEMPERATURE
MATR.         1                    : LOGUNIT      - NEUTRON MATRIX              
RMT .C        25                   : MDTP         - TEMPERATURE OF MUD          
NEUT.         1                    : NEUTRON      - NEUTRON TYPE                
RESI.         0                    : RESIST       - RESISTIVITY TYPE            
RMC .OHMM     0.25                 : RMC          - RESISTIVITY OF MUD CAKE     
RMF .OHMM     0.25                 : RMF          - RESISTIVITY OF MUD FILTRATE 
SUFT.C        15                   : SUFT         - SURFACE TEMPERATURE         
~A  DEPTH     RESD       GR     PHIN     PHID
# ...
  268.832    2.506   55.849    0.434    0.332
  269.137    2.460   48.422    0.413    0.329
  269.441    2.414   46.560    0.393    0.331
  269.746    2.415   47.774    0.397    0.334
  270.051    2.415   48.995    0.396    0.323
  270.356    2.462   46.505    0.389    0.307
  270.661    2.509   42.785    0.382    0.304
  270.965    2.558   41.533    0.381    0.301
  271.270    2.510   43.989    0.387    0.304
  271.575    2.511   50.138    0.406    0.304
  271.880    2.511   49.509    0.412    0.307
  272.185    2.512   45.778    0.390    0.317
  272.489    2.560   44.534    0.397    0.326
  272.794    2.610   43.282    0.399    0.330
  273.099    2.610   43.269    0.389    0.320
  273.404    2.712   53.745    0.373    0.309
  273.709    2.817   74.096    0.377    0.308
  274.013    2.872   95.065    0.385    0.308
  274.318    2.872   98.132    0.379    0.302
  274.623    2.928   66.020    0.369    0.289
  274.928    2.984   56.742    0.369    0.286
  275.233    2.929   55.490    0.366    0.282
  275.538    2.875   55.470    0.356    0.284
  275.842    2.821   54.837    0.351    0.288
  276.147    2.768   52.970    0.363    0.304
  276.452    2.666   53.571    0.382    0.319
  276.757    2.568   56.025    0.391    0.328
  277.062    2.568   56.008    0.399    0.330
  277.366    2.568   49.194    0.405    0.331
  277.671    2.668   48.566    0.399    0.335
  277.976    2.669   50.399    0.394    0.332
  278.281    2.720   55.938    0.397    0.322
  278.586    2.670   65.797    0.388    0.314
  278.890    2.571   62.075    0.401    0.312
  279.195    2.523   51.565    0.420    0.332
  279.500    2.476   42.905    0.414    0.330
  279.805    2.477   42.272    0.411    0.322
  280.110    2.525   42.873    0.402    0.318
  280.414    2.623   45.319    0.393    0.317
  280.719    2.623   47.159    0.395    0.310
  281.024    2.674   50.216    0.384    0.290
  281.329    2.726   51.438    0.359    0.281
  281.634    2.779   52.046    0.386    0.302
  281.939    2.779   49.558    0.402    0.309
  282.243    2.727   43.367    0.376    0.307
  282.548    2.677   39.647    0.362    0.310
  282.853    2.677   39.011    0.351    0.312
  283.158    2.678   42.081    0.362    0.314
  283.463    2.628   45.765    0.394    0.315
  283.767    2.628   46.986    0.379    0.294
  284.072    2.679   45.734    0.365    0.279
  284.377    2.680   41.394    0.357    0.276
  284.682    2.732   40.764    0.343    0.276
  284.987    2.785   40.747    0.338    0.278
  285.291    2.785   44.425    0.330    0.281
  285.596    2.734   45.034    0.325    0.281
  285.901    2.734   44.394    0.348    0.279
  286.206    2.735   42.523    0.364    0.280
  286.511    2.787   41.889    0.357    0.265
  286.815    2.788   41.878    0.353    0.257
  287.120    2.896   44.943    0.357    0.259
  287.425    2.952   47.399    0.368    0.265
  287.730    3.009   49.235    0.368    0.265
  288.035    2.953   49.212    0.366    0.261
  288.340    2.898   48.583    0.365    0.261
  288.644    2.687   49.183    0.360    0.265
  288.949    2.539   51.628    0.362    0.269
  289.254    2.492   53.465    0.382    0.271
  289.559    2.355   55.303    0.373    0.271
  289.864    2.311   58.986    0.360    0.273
  290.168    2.268   64.528    0.390    0.268
  290.473    2.268   73.770    0.383    0.260
  290.778    2.402   97.826    0.370    0.207
  291.083    2.796  108.298    0.356    0.124
  291.388    3.646  111.370    0.342    0.051
  291.692    4.666  109.502    0.327    0.021
  291.997    6.085  105.158    0.310    0.019
  292.302    9.062  101.438    0.299    0.021
  292.607   11.819   95.868    0.288    0.029
  292.912   17.939   89.064    0.259    0.036
  293.216   21.687   69.290    0.233    0.038
  293.521   29.379   60.636    0.185    0.033
  293.826   34.853   47.657    0.167    0.025
  294.131   35.523   37.764    0.155    0.051
  294.436   36.214   27.869    0.188    0.060
  294.741   36.914   19.826    0.195    0.037
  295.045   36.918   16.726    0.197    0.024
  295.350   36.926   16.708    0.193    0.022
  295.655   38.361   16.690    0.184    0.023
