~VERSION INFORMATION
 VERS.                 2.0:   CWLS LOG ASCII STANDARD -VERSION 2.0
 WRAP.                  NO:   ONE LINE PER DEPTH STEP
~WELL INFORMATION BLOCK
#MNEM.UNIT           DATA                    DESCRIPTION OF MNEMONIC
#---------    -------------------            -------------------------------
# Generated from Intellog Unique Number	CW_73_75/WELL/1028
WELL.         PCP MARTEN HILLS 10-28         : Well_name    - WELL
LOC .         00/10-28-075-04W5/0            : Location     - LOCATION
UWI .         00/10-28-075-04W5/0            : Uwi          - UNIQUE WELL ID
ENTR.         JAYE                           : Entered      - ENTERED BY
SRVC.         SCHLUMBERGER                   : Scn          - SERVICE COMPANY
DATE.         27 FEB 74                      : Date         - LOG DATE
STRT.M        670.56                         : top_depth    - START DEPTH
STOP.M        890.06                         : bot_depth    - STOP DEPTH
STEP.M        0.25                           : increment    - STEP LENGTH
 NULL. -999.2500:NULL Value
~CURVE INFORMATION BLOCK
#MNEM UNIT       ERCB CURVE CODE    CURVE DESCRIPTION
#-----------   ------------------   ----------------------------------
DEPT.M        00 001 00 00         : DEPTH        - DEPTH
ILD .OHMM     00 120 00 00         : RESD         - DEEP RESISTIVITY (DIL)
NPHI.V/V      00 330 00 00         : PHIN         - NEUTRON POROSITY (SANDSTONE)
DPHI.V/V      00 890 00 00         : PHID         - DENSITY POROSITY (SANDSTONE)
GR  .API      00 310 00 00         : GR           - GAMMA RAY
CALI.MM       00 280 01 00         : CAL          - CALIPER
~PARAMETER INFORMATION
#MNEM.UNIT           DATA             DESCRIPTION OF MNEMONIC
#---------         -----------     ------------------------------
GL  .M        943.051              : gl           - GROUND LEVEL ELEVATION
EREF.M        946.404              : kb           - ELEVATION OF DEPTH REFERENCE
DATM.M        973.531              : datum        - DATUM ELEVATION
TDD .M        903.732              : tdd          - TOTAL DEPTH DRILLER
RUN .         ONE                  : Run          - RUN NUMBER
ENG .         SIMPSOM              : Engineer     - RECORDING ENGINEER
WIT .         STIEL                : Witness      - WITNESSED BY
BASE.         EDM                  : Branch       - HOME BASE OF LOGGING UNIT
MUD .         GEL                  : Mud_type     - MUD TYPE
MATR.         SANDSTONE            : Logunit      - NEUTRON MATRIX
TMAX.C        33.3333              : BHT          - MAXIMUM RECORDED TEMPERATURE
BHTD.M        903.732              : BHTDEP       - MAXIMUM RECORDED TEMPERATURE
RMT .C        19.4444              : MDTP         - TEMPERATURE OF MUD
MUDD.KG/M     1140                 : MWT          - MUD DENSITY
NEUT.         1                    : NEUTRON      - NEUTRON TYPE
RESI.         0                    : RESIST       - RESISTIVITY TYPE
RM  .OHMM     4.6                  : RM           - RESISTIVITY OF MUD
RMC .OHMM     0                    : RMC          - RESISTIVITY OF MUD CAKE
RMF .OHMM     6.22                 : RMF          - RESISTIVITY OF MUD FILTRATE
SUFT.C        -17.7778             : SUFT         - SURFACE TEMPERATURE
~A  DEPTH     RESD     PHIN     PHID       GR      CAL
# ...
  853.060    4.097    0.423    0.199  108.096  208.609
  853.310    4.133    0.437    0.175  110.226  210.672
  853.560    4.146    0.455    0.158  111.444  212.425
  853.810    4.160    0.464    0.147  113.878  213.666
  854.060    4.197    0.440    0.158  111.329  212.642
  854.310    4.359    0.428    0.189  108.538  210.693
  854.560    4.741    0.452    0.176  111.639  208.847
  854.810    5.110    0.476    0.167  111.885  207.515
  855.060    5.661    0.465    0.176  107.271  205.978
  855.310    6.375    0.449    0.211  105.877  205.057
  855.560    7.287    0.439    0.217  108.554  204.548
  855.810    8.013    0.450    0.217  103.940  204.451
  856.060    8.779    0.448    0.219   98.353  204.250
  856.310    9.154    0.433    0.213   92.403  204.256
  856.560    9.632    0.421    0.220   92.224  204.260
  856.810   10.099    0.419    0.213   89.857  204.267
  857.060   10.510    0.419    0.212   87.430  204.273
  857.310   10.819    0.419    0.247   88.527  204.482
  857.560   11.136    0.438    0.238   92.540  204.694
  857.810   11.718    0.454    0.222   91.876  204.905
  858.060   12.174    0.440    0.214   89.509  205.322
  858.310   12.647    0.424    0.227   87.446  205.326
  858.560   12.923    0.403    0.230   86.660  205.641
  858.810   12.846    0.365    0.193   83.321  205.749
  859.060   12.491    0.327    0.157   83.507  206.269
  859.310   11.948    0.401    0.112   88.856  206.788
  859.560   11.470    0.440    0.210   94.631  207.514
  859.810   11.051    0.424    0.224   95.303  208.239
  860.060   10.987    0.417    0.217   93.544  208.347
  860.310   11.001    0.410    0.206   92.879  208.147
  860.560   10.936    0.399    0.191   92.882  207.741
  860.810   10.713    0.378    0.193   94.282  206.616
  861.060   10.266    0.395    0.181   98.296  206.106
  861.310    9.711    0.419    0.191  101.640  205.392
  861.560    9.306    0.434    0.216  102.494  205.088
  861.810    8.723    0.419    0.207  103.894  204.683
  862.060    8.117    0.410    0.193  104.748  204.378
  862.310    7.706    0.408    0.201  102.989  203.972
  862.560    7.494    0.405    0.191  100.988  203.669
  862.810    7.327    0.399    0.190   99.472  203.161
  863.060    7.164    0.392    0.209   99.293  202.754
  863.310    7.018    0.384    0.201  101.240  202.862
  863.560    6.775    0.376    0.189  104.645  204.822
  863.810    6.504    0.386    0.199  107.990  206.576
  864.060    6.175    0.394    0.176  106.839  207.816
  864.310    5.746    0.409    0.159  105.323  208.439
  864.560    5.278    0.426    0.172  106.298  209.268
  864.810    4.751    0.440    0.197  109.157  209.890
  865.060    4.285    0.449    0.190  113.291  210.513
  865.310    3.894    0.456    0.190  116.028  210.827
  865.560    3.518    0.464    0.188  117.915  211.346
  865.810    3.304    0.466    0.180  117.736  212.072
  866.060    3.242    0.467    0.180  116.767  213.517
  866.310    3.301    0.475    0.192  116.649  214.860
  866.560    3.636    0.465    0.198  113.858  212.396
  866.810    4.156    0.446    0.206  109.668  209.007
  867.060    5.122    0.427    0.173  105.905  208.704
  867.310    5.886    0.417    0.156  102.263  210.664
  867.560    6.137    0.405    0.141   97.770  211.081
  867.810    6.145    0.376    0.135   99.718  210.674
  868.060    6.053    0.379    0.121  102.637  209.548
  868.310    5.951    0.396    0.128  105.617  207.290
  868.560    5.916    0.428    0.182  101.671  206.884
  868.810    5.935    0.409    0.182  103.922  206.581
  869.060    5.988    0.416    0.173  106.842  207.719
  869.310    6.140    0.421    0.174  109.457  208.443
  869.560    6.240    0.428    0.175  107.334  209.171
  869.810    6.365    0.432    0.201  104.725  209.175
  870.060    6.409    0.420    0.197  106.125  209.180
  870.310    6.405    0.421    0.184  104.792  209.494
  870.560    6.344    0.425    0.203  103.762  209.602
  870.810    6.192    0.433    0.189  104.616  209.608
  871.060    6.066    0.441    0.178  106.867  209.716
  871.310    5.898    0.429    0.182  106.141  209.927
  871.560    5.746    0.431    0.181  104.626  210.139
  871.810    5.639    0.439    0.188  106.694  210.350
  872.060    5.544    0.454    0.179  109.492  210.457
  872.310    5.391    0.449    0.170  108.584  210.464
  872.560    5.320    0.438    0.166  108.041  210.365
  872.810    5.202    0.436    0.159  109.745  210.370
  873.060    5.068    0.436    0.143  113.454  210.479
  873.310    4.865    0.432    0.144  115.098  210.690
  873.560    4.645    0.428    0.160  115.222  211.107
  873.810    4.354    0.426    0.175  113.889  211.422
  874.060    4.044    0.425    0.178  110.247  211.529
  874.310    3.681    0.429    0.169  107.394  212.049
  874.560    3.090    0.441    0.169  109.159  212.363
  874.810    2.315    0.461    0.164  110.864  212.265
  875.060    1.744    0.512    0.155  110.199  210.007
  875.310    1.307    0.596    0.194  108.379  204.869
  875.560    1.018    0.612    0.232  104.433  204.566
  875.810    0.913    0.599    0.259  102.675  205.189
  876.060    1.030    0.563    0.246  106.748  206.737
  876.310    1.339    0.568    0.239  111.126  208.903
  876.560    1.815    0.537    0.225  110.582  209.834
  876.810    2.571    0.442    0.203  106.089  210.458
  877.060    3.492    0.388    0.175  101.172  210.976
  877.310    4.171    0.390    0.136  104.516  211.600
  877.560    4.373    0.408    0.105  108.286  211.913
  877.810    4.355    0.423    0.120  109.018  212.124
  878.060    4.282    0.427    0.127  106.349  212.131
  878.310    4.210    0.428    0.135  104.650  212.135
  878.560    4.185    0.436    0.159  103.560  212.243
  878.810    4.229    0.428    0.155  103.806  212.043
  879.060    4.290    0.416    0.146  107.030  211.843
  879.310    4.336    0.408    0.143  108.248  211.848
  879.560    4.318    0.396    0.137  106.368  211.956
  879.810    4.261    0.399    0.122  105.642  212.168
  880.060    4.120    0.415    0.127  109.047  212.378
  880.310    4.000    0.424    0.151  110.022  212.589
  880.560    3.918    0.433    0.165  110.390  212.595
  880.810    3.923    0.427    0.155  110.758  212.601
  881.060    3.972    0.414    0.153  111.186  212.502
  881.310    3.920    0.396    0.159  105.539  212.508
  881.560    3.627    0.390    0.166  101.290  212.308
  881.810    3.040    0.401    0.165  105.363  212.107
  882.060    2.363    0.436    0.164  110.409  212.216
  882.310    1.998    0.475    0.161  114.240  212.015
  882.560    1.741    0.514    0.161  114.061  211.918
  882.810    1.714    0.525    0.169  113.335  211.717
  883.060    1.837    0.497    0.192  114.006  211.414
  883.310    1.948    0.482    0.187  116.014  210.905
  883.560    2.084    0.472    0.162  118.083  210.499
  883.810    2.242    0.459    0.152  118.147  210.505
  884.060    2.385    0.453    0.146  120.580  210.304
  884.310    2.482    0.467    0.142  121.920  210.310
  884.560    2.650    0.462    0.162  122.227  210.623
  884.810    2.739    0.462    0.152  119.678  210.938
  885.060    2.903    0.464    0.148  119.317  211.252
  885.310    3.083    0.467    0.141  120.596  211.360
  885.560    3.191    0.459    0.129  122.300  211.468
  885.810    3.321    0.439    0.138  125.280  211.782
  886.060    3.431    0.447    0.126  126.863  212.405
  886.310    3.630    0.505    0.139  129.782  212.719
  886.560    3.934    0.504    0.156  126.019  212.930
  886.810    4.751    0.471    0.156  117.456  212.832
  887.060    6.007    0.325    0.147  107.860  212.530
  887.310    8.188    0.262    0.125   98.811  212.432
  887.560    9.833    0.221    0.098   82.472  212.026
  887.810   10.579    0.178    0.044   65.282  211.722
  888.060   10.344    0.159    0.003   62.551  211.316
  888.310   10.206    0.172   -0.006   62.008  210.498
  888.560    9.925    0.177    0.001   60.856  209.475
  888.810    9.459    0.183    0.019   59.584  208.760
  889.060    8.833    0.193    0.003   57.886  208.148
  889.310    8.464    0.200    0.003   56.431  207.948
