~VERSION INFORMATION
 VERS.                 2.0:   CWLS LOG ASCII STANDARD -VERSION 2.0
 WRAP.                  NO:   ONE LINE PER DEPTH STEP
~WELL INFORMATION BLOCK
#MNEM.UNIT           DATA                    DESCRIPTION OF MNEMONIC
#---------    -------------------            -------------------------------
# Generated from Intellog Unique Number	CW_82_90/WELL/992
WELL.         10-33-084-23W4                 : Well_name    - WELL
LOC .         00/10-33-084-23W4/0            : Location     - LOCATION
UWI .         00/10-33-084-23W4/0            : Uwi          - UNIQUE WELL ID
ENTR.         JAYE                           : Entered      - ENTERED BY
SRVC.         SCHLUMBERGER                   : Scn          - SERVICE COMPANY
DATE.         11 MAR 76                      : Date         - LOG DATE
STRT.M        182.88                         : top_depth    - START DEPTH
STOP.M        393.88                         : bot_depth    - STOP DEPTH
STEP.M        0.25                           : increment    - STEP LENGTH
 NULL. -999.2500:NULL Value
~CURVE INFORMATION BLOCK
#MNEM UNIT       ERCB CURVE CODE    CURVE DESCRIPTION
#-----------   ------------------   ----------------------------------
DEPT.M        00 001 00 00         : DEPTH        - DEPTH
CALI.MM       00 280 01 00         : CAL          - CALIPER
GR  .API      00 310 00 00         : GR           - GAMMA RAY
NPHI.V/V      00 330 00 00         : PHIN         - NEUTRON POROSITY (SANDSTONE)
DPHI.V/V      00 890 00 00         : PHID         - DENSITY POROSITY (SANDSTONE)
ILD .OHMM     00 120 00 00         : RESD         - DEEP RESISTIVITY (DIL)
~PARAMETER INFORMATION
#MNEM.UNIT           DATA             DESCRIPTION OF MNEMONIC
#---------         -----------     ------------------------------
GL  .M        573.329              : gl           - GROUND LEVEL ELEVATION
EREF.M        576.682              : kb           - ELEVATION OF DEPTH REFERENCE
DATM.M        573.329              : datum        - DATUM ELEVATION
TDD .M        404.774              : tdd          - TOTAL DEPTH DRILLER
RUN .         ONE                  : Run          - RUN NUMBER
BASE.         EDMONTON             : Branch       - HOME BASE OF LOGGING UNIT
MUD .         GEL CHEM             : Mud_type     - MUD TYPE
MATR.         SANDSTONE            : Logunit      - NEUTRON MATRIX
TMAX.C        21.6667              : BHT          - MAXIMUM RECORDED TEMPERATURE
BHTD.M        404.774              : BHTDEP       - MAXIMUM RECORDED TEMPERATURE
RMT .C        10                   : MDTP         - TEMPERATURE OF MUD
MUDD.KG/M     9200                 : MWT          - MUD DENSITY
NEUT.         1                    : NEUTRON      - NEUTRON TYPE
RESI.         0                    : RESIST       - RESISTIVITY TYPE
RM  .OHMM     1.9                  : RM           - RESISTIVITY OF MUD
RMC .OHMM     0                    : RMC          - RESISTIVITY OF MUD CAKE
RMF .OHMM     1.77                 : RMF          - RESISTIVITY OF MUD FILTRATE
SUFT.C        -17.7778             : SUFT         - SURFACE TEMPERATURE
~A  DEPTH      CAL       GR     PHIN     PHID     RESD
# ...
  365.380  141.426   76.270    0.367   -0.012   15.833
  365.630  141.701   70.142    0.377   -0.011   16.770
  365.880  141.727   76.120    0.408    0.020   17.995
  366.130  142.552   79.920    0.415    0.074   18.890
  366.380  143.830   83.907    0.415    0.060   18.196
  366.630  145.111   91.804    0.445    0.065   15.506
  366.880  146.620   98.711    0.460    0.094   13.607
  367.130  147.785  102.439    0.477    0.194   12.160
  367.380  148.617  101.535    0.476    0.221   11.270
  367.630  148.757  101.096    0.465    0.223   10.314
  367.880  148.230  102.181    0.459    0.207    9.684
  368.130  146.807  102.467    0.462    0.211    9.277
  368.380  144.133  101.163    0.470    0.184    8.937
  368.630  143.947   99.667    0.476    0.184    8.930
  368.880  143.546  101.215    0.479    0.177    9.104
  369.130  143.468  102.498    0.478    0.158    9.401
  369.380  143.610  101.457    0.474    0.163    9.600
  369.630  143.988   97.313    0.470    0.159    9.717
  369.880  144.472   99.651    0.474    0.162    9.638
  370.130  144.973  102.652    0.480    0.166    9.490
  370.380  144.551  102.079    0.485    0.158    9.674
  370.630  143.799   96.216    0.495    0.149    9.897
  370.880  143.272   91.541    0.510    0.123    9.999
  371.130  143.311   93.157    0.401    0.033    9.990
  371.380  143.909   97.608    0.408    0.020    9.695
  371.630  144.399  105.771    0.433    0.040    8.790
  371.880  145.003  113.338    0.494    0.097    8.314
  372.130  145.716  117.131    0.494    0.169    8.129
  372.380  146.095  115.302    0.489    0.173    8.033
  372.630  146.580  116.317    0.483    0.178    7.996
  372.880  146.732  118.789    0.480    0.203    8.004
  373.130  147.112  118.878    0.476    0.196    7.923
  373.380  146.811  117.645    0.471    0.182    7.802
  373.630  146.853  116.278    0.471    0.195    7.997
  373.880  146.773  113.720    0.465    0.181    9.772
  374.130  146.358  110.639    0.420    0.190   10.700
  374.380  145.618  104.240    0.398    0.138   11.417
  374.630  145.201  105.389    0.424    0.118   12.480
  374.880  144.902  106.934    0.468    0.169   13.291
  375.130  143.469   98.489    0.460    0.203   14.525
  375.380  142.717   86.803    0.465    0.207   14.892
  375.630  142.864   89.474    0.475    0.255   14.851
  375.880  143.914   93.134    0.438    0.264   15.305
  376.130  144.631   84.491    0.455    0.193   16.424
  376.380  144.555   72.870    0.475    0.201   18.721
  376.630  142.787   68.527    0.475    0.225   20.535
  376.880  142.150   60.017    0.487    0.245   20.108
  377.130  141.622   58.385    0.497    0.266   16.368
  377.380  142.229   57.086    0.490    0.272   14.389
  377.630  142.375   56.188    0.461    0.257   13.461
  377.880  142.750   55.942    0.463    0.227   14.312
  378.130  142.227   55.175    0.455    0.149   15.960
  378.380  142.151   56.322    0.433    0.171   17.441
  378.630  142.528   59.851    0.390    0.257   19.990
  378.880  142.345   63.846    0.367    0.240   22.046
  379.130  141.478   67.771    0.377    0.231   23.105
  379.380  141.061   69.117    0.433    0.248   23.811
  379.630  141.099   62.391    0.472    0.262   24.902
  379.880  141.248   54.146    0.482    0.263   27.417
  380.130  141.186   50.198    0.473    0.267   29.527
  380.380  141.225   47.311    0.466    0.299   31.742
  380.630  141.137   46.808    0.460    0.293   33.812
  380.880  141.408   47.160    0.456    0.287   36.153
  381.130  141.327   48.902    0.449    0.292   37.535
  381.380  141.368   49.260    0.442    0.285   38.977
  381.630  141.070   47.825    0.440    0.305   40.243
  381.880  140.545   44.015    0.456    0.300   41.332
  382.130  140.686   45.225    0.459    0.294   41.906
  382.380  141.181   47.895    0.460    0.298   41.944
  382.630  141.441   49.579    0.464    0.291   41.754
  382.880  141.704   49.729    0.467    0.298   41.795
  383.130  142.078   48.900    0.465    0.298   42.372
  383.380  142.568   49.313    0.464    0.300   45.636
  383.630  143.171   49.803    0.461    0.306   45.678
  383.880  142.649   50.090    0.457    0.310   44.171
  384.130  142.915   49.715    0.456    0.294   42.474
  384.380  142.955   46.233    0.459    0.285   42.585
  384.630  142.534   42.883    0.466    0.285   44.297
  384.880  142.231   41.251    0.461    0.286   46.506
  385.130  142.160   37.834    0.454    0.291   48.546
  385.380  142.314   35.213    0.450    0.301   50.313
  385.630  143.474   35.437    0.450    0.309   52.047
  385.880  142.720   35.456    0.453    0.302   53.548
  386.130  143.440   34.952    0.458    0.297   54.693
  386.380  142.580   34.186    0.472    0.300   54.655
  386.630  141.939   33.540    0.470    0.304   54.000
  386.880  141.859   34.093    0.455    0.305   51.072
  387.130  142.010   36.498    0.448    0.308   47.171
  387.380  142.054   38.904    0.440    0.311   43.563
  387.630  141.978   40.779    0.433    0.309   38.091
  387.880  142.468   45.901    0.430    0.303   32.637
  388.130  142.282   51.481    0.433    0.295   26.228
  388.380  141.746   56.332    0.440    0.282   20.585
  388.630  140.546   60.390    0.437    0.269   16.184
  388.880  139.682   68.485    0.434    0.251   12.772
  389.130  138.926   80.021    0.436    0.235   10.473
  389.380  137.950  107.502    0.446    0.221    8.280
  389.630  138.562  115.663    0.448    0.211    6.595
  389.880  139.381  121.843    0.460    0.192    6.023
  390.130  142.011  121.140    0.476    0.185    5.413
  390.380  144.419  119.043    0.462    0.141    4.999
  390.630  144.461  117.478    0.467    0.132    4.610
  390.880  144.493  118.094    0.477    0.151    4.407
  391.130  144.644  124.074    0.493    0.215    4.437
  391.380  146.824  133.093    0.549    0.189    4.540
  391.630  150.133  136.891    0.546    0.172    4.714
  391.880  150.399  137.114    0.532    0.159    4.921
  392.130  146.835  142.627    0.524    0.156    5.156
  392.380  144.383  137.686    0.517    0.158    5.402
  392.630  143.295  123.354    0.510    0.180    5.785
  392.880  145.474  111.997    0.506    0.213    7.160
  393.130  145.850   88.931    0.508    0.235    8.590
  393.380  144.199   57.332    0.516    0.265   10.534
  393.630  143.674   35.786    0.537    0.372   14.002
  393.880  142.804   28.403    0.579    0.409   15.872
