~VERSION INFORMATION
 VERS.                 2.0:   CWLS LOG ASCII STANDARD -VERSION 2.0
 WRAP.                  NO:   ONE LINE PER DEPTH STEP
~WELL INFORMATION BLOCK
#MNEM.UNIT           DATA                    DESCRIPTION OF MNEMONIC
#---------    -------------------            -------------------------------
# Generated from Intellog Unique Number	CW_70_72/WELL/1053
NULL.         -999.25                        : NULL_VALUE
WELL.         LAND BANK ET AL MITSUE 11-03-0 : Well_name    - WELL              
LOC .         11-03-072-03W5                 : Location     - LOCATION          
UWI .         00/11-03-072-03W5/0            : Uwi          - UNIQUE WELL ID    
ENTR.         JAYE                           : Entered      - ENTERED BY        
SRVC.         SCHLUMBERGER                   : Scn          - SERVICE COMPANY   
DATE.         13 FEB 79                      : Date         - LOG DATE          
STRT.M        395                            : top_depth    - START DEPTH       
STOP.M        602                            : bot_depth    - STOP DEPTH        
STEP.M        0.25                           : increment    - STEP LENGTH       
~CURVE INFORMATION BLOCK
#MNEM UNIT       ERCB CURVE CODE    CURVE DESCRIPTION
#-----------   ------------------   ----------------------------------
DEPT.M        00 001 00 00         : DEPTH        - DEPTH                       
DPHI.V/V      00 890 00 00         : PHID         - DENSITY POROSITY (SANDSTONE)
NPHI.V/V      00 330 00 00         : PHIN         - NEUTRON POROSITY (SANDSTONE)
GR  .API      00 310 00 00         : GR           - GAMMA RAY                   
CALI.MM       00 280 01 00         : CAL          - CALIPER                     
ILD .OHMM     00 120 00 00         : RESD         - DEEP RESISTIVITY (DIL)      
~PARAMETER INFORMATION       
#MNEM.UNIT           DATA             DESCRIPTION OF MNEMONIC
#---------         -----------     ------------------------------
GL  .M        594.1                : gl           - GROUND LEVEL ELEVATION      
EREF.M        596.8                : kb           - ELEVATION OF DEPTH REFERENCE
DATM.M        594.1                : datum        - DATUM ELEVATION             
TDD .M        616                  : tdd          - TOTAL DEPTH DRILLER         
RUN .         ONE                  : Run          - RUN NUMBER                  
ENG .         JONES                : Engineer     - RECORDING ENGINEER          
WIT .         LOWTHER              : Witness      - WITNESSED BY                
BASE.         EDM                  : Branch       - HOME BASE OF LOGGING UNIT   
MUD .         FRESH GEL            : Mud_type     - MUD TYPE                    
MATR.         SANDSTONE            : Logunit      - NEUTRON MATRIX              
TMAX.C        30                   : BHT          - MAXIMUM RECORDED TEMPERATURE
BHTD.M        617.3                : BHTDEP       - MAXIMUM RECORDED TEMPERATURE
RMT .C        12                   : MDTP         - TEMPERATURE OF MUD          
MUDD.KG/M     1190                 : MWT          - MUD DENSITY                 
NEUT.         1                    : NEUTRON      - NEUTRON TYPE                
RESI.         0                    : RESIST       - RESISTIVITY TYPE            
RM  .OHMM     2.42                 : RM           - RESISTIVITY OF MUD          
RMC .OHMM     0                    : RMC          - RESISTIVITY OF MUD CAKE     
RMF .OHMM     4.21                 : RMF          - RESISTIVITY OF MUD FILTRATE 
SUFT.C        0                    : SUFT         - SURFACE TEMPERATURE         
~A  DEPTH     PHID     PHIN       GR      CAL     RESD
# ...
  431.500    0.263    0.429   88.315  169.307    2.652
  431.750    0.268    0.424   81.862  167.813    2.591
  432.000    0.287    0.420   78.127  167.049    2.550
  432.250    0.306    0.419   72.912  166.179    2.514
  432.500    0.315    0.416   68.497  165.212    2.483
  432.750    0.314    0.410   69.886  164.235    2.462
  433.000    0.309    0.408   71.530  163.574    2.464
  433.250    0.296    0.414   73.298  162.917    2.466
  433.500    0.292    0.434   75.804  162.549    2.458
  433.750    0.289    0.433   74.727  162.506    2.447
  434.000    0.283    0.413   76.800  162.577    2.448
  434.250    0.283    0.409   81.039  162.735    2.446
  434.500    0.296    0.423   83.174  162.686    2.434
  434.750    0.281    0.418   83.394  162.639    2.418
  435.000    0.281    0.418   83.426  162.800    2.393
  435.250    0.271    0.425   83.586  163.167    2.355
  435.500    0.254    0.434   83.745  163.430    2.330
  435.750    0.246    0.445   83.344  163.693    2.301
  436.000    0.255    0.434   80.973  163.958    2.286
  436.250    0.272    0.422   75.941  163.807    2.275
  436.500    0.291    0.412   78.567  163.875    2.256
  436.750    0.293    0.407   80.954  163.937    2.249
  437.000    0.302    0.405   79.442  164.096    2.255
  437.250    0.293    0.413   78.489  164.566    2.295
  437.500    0.277    0.417   80.253  165.542    2.406
  437.750    0.250    0.420   84.614  165.715    2.614
  438.000    0.259    0.420   86.070  166.697    2.766
  438.250    0.285    0.423   85.303  166.644    2.826
  438.500    0.313    0.431   82.741  166.094    2.812
  438.750    0.313    0.435   80.860  164.286    2.773
  439.000    0.310    0.430   77.745  163.531    2.719
  439.250    0.311    0.423   74.381  163.170    2.675
  439.500    0.320    0.409   74.723  163.129    2.638
  439.750    0.316    0.401   77.045  162.983    2.601
  440.000    0.317    0.406   78.378  162.930    2.602
  440.250    0.320    0.411   77.176  163.099    2.600
  440.500    0.310    0.406   75.297  163.468    2.616
  440.750    0.305    0.404   73.104  163.619    2.657
  441.000    0.311    0.411   72.647  163.788    2.755
  441.250    0.303    0.405   71.877  163.947    2.878
  441.500    0.284    0.373   70.303  163.999    3.052
  441.750    0.267    0.321   68.674  164.479    3.303
  442.000    0.206    0.259   66.791  165.560    3.816
  442.250    0.059    0.211   64.910  166.243    5.051
  442.500    0.042    0.188   62.782  167.118    6.915
  442.750    0.087    0.211   60.100  167.372   12.664
  443.000    0.109    0.247   56.858  167.332   12.439
  443.250    0.176    0.329   58.931  167.188    9.100
  443.500    0.234    0.374   65.516  166.945    6.272
  443.750    0.278    0.418   72.226  166.279    4.772
  444.000    0.306    0.442   74.793  165.614    3.926
  444.250    0.317    0.433   74.149  165.057    3.322
  444.500    0.310    0.432   72.330  164.491    2.961
  444.750    0.299    0.419   71.931  164.138    2.740
  445.000    0.315    0.420   71.471  163.784    2.652
  445.250    0.321    0.427   69.964  163.531    2.624
  445.500    0.318    0.436   66.596  163.488    2.593
  445.750    0.316    0.446   64.225  163.655    2.527
  446.000    0.327    0.457   61.105  163.815    2.423
  446.250    0.335    0.468   57.804  164.078    2.301
  446.500    0.351    0.476   53.454  164.341    2.174
  446.750    0.364    0.460   50.214  164.402    2.069
  447.000    0.359    0.443   51.174  164.668    1.987
  447.250    0.351    0.431   55.042  164.724    1.941
  447.500    0.345    0.423   61.501  164.977    1.928
  447.750    0.339    0.436   66.543  165.141    2.014
  448.000    0.328    0.433   70.347  165.208    2.120
  448.250    0.324    0.438   74.214  165.368    2.169
  448.500    0.317    0.453   73.442  165.630    2.274
  448.750    0.309    0.459   71.252  165.898    2.332
  449.000    0.300    0.457   70.361  165.850    2.303
  449.250    0.294    0.446   67.987  165.798    2.263
  449.500    0.314    0.430   65.054  165.856    2.186
  449.750    0.326    0.415   62.743  165.808    2.119
  450.000    0.337    0.404   57.771  165.978    2.093
  450.250    0.304    0.399   56.879  166.240    2.106
  450.500    0.280    0.389   57.903  166.297    2.176
  450.750    0.245    0.357   54.972  166.154    2.307
  451.000    0.115    0.316   50.184  165.799    2.601
  451.250    0.061    0.171   46.268  166.478    3.120
  451.500    0.076    0.248   44.263  168.699    3.277
  451.750    0.181    0.291   45.346  168.860    3.207
  452.000    0.283    0.373   47.543  167.167    3.052
  452.250    0.346    0.441   50.792  165.268    2.746
  452.500    0.369    0.466   52.989  165.009    2.453
  452.750    0.347    0.448   53.953  164.656    2.236
  453.000    0.338    0.430   54.729  164.609    2.001
  453.250    0.340    0.414   56.492  164.880    1.811
  453.500    0.342    0.423   57.700  164.630    1.762
  453.750    0.340    0.427   55.449  164.069    1.875
  454.000    0.316    0.430   58.145  164.334    2.011
  454.250    0.296    0.441   66.518  164.699    2.184
  454.500    0.303    0.434   73.105  165.067    2.386
  454.750    0.289    0.419   82.657  165.331    2.592
  455.000    0.263    0.426   93.568  166.419    2.869
  455.250    0.249    0.418   99.164  169.052    3.140
  455.500    0.237    0.405  103.460  169.420    3.386
  455.750    0.245    0.415  108.688  169.679    3.550
  456.000    0.249    0.425  113.048  170.053    3.613
  456.250    0.241    0.437  114.935  170.413    3.602
  456.500    0.238    0.430  110.460  170.987    3.539
  456.750    0.218    0.406  103.511  170.637    3.489
  457.000    0.218    0.397  100.642  169.043    3.408
  457.250    0.234    0.390   98.205  165.496    3.360
  457.500    0.245    0.385   96.570  163.086    3.288
  457.750    0.255    0.387   97.657  161.286    3.229
  458.000    0.274    0.405   99.545  160.832    3.178
  458.250    0.258    0.409  101.620  161.094    3.151
  458.500    0.243    0.406   98.812  161.668    3.130
  458.750    0.240    0.414   95.881  162.244    3.109
  459.000    0.252    0.421   95.298  162.502    3.077
  459.250    0.264    0.425   95.144  162.768    3.050
  459.500    0.258    0.428   95.429  163.337    3.041
  459.750    0.248    0.434   95.835  163.915    3.055
  460.000    0.251    0.441   95.745  164.486    3.086
  460.250    0.215    0.427   96.028  164.852    3.106
  460.500    0.222    0.421   97.051  165.115    3.108
  460.750    0.235    0.430   98.447  165.582    3.105
  461.000    0.229    0.440  102.003  166.165    3.095
  461.250    0.207    0.445  106.673  167.034    3.104
  461.500    0.209    0.435  105.160  167.719    3.112
  461.750    0.215    0.434  102.291  168.501    3.114
  462.000    0.220    0.430   99.544  168.145    3.111
  462.250    0.227    0.421   97.541  166.147    3.095
  462.500    0.235    0.408   96.093  162.907    3.046
  462.750    0.243    0.401   94.706  164.302    2.986
  463.000    0.238    0.395   92.949  165.804    2.939
  463.250    0.235    0.402   91.749  166.583    2.909
  463.500    0.267    0.417   90.981  166.022    2.894
  463.750    0.282    0.422   91.078  164.126    2.875
  464.000    0.245    0.412   93.647  164.183    2.899
  464.250    0.227    0.402   94.051  165.474    2.885
  464.500    0.221    0.420   92.602  167.182    2.947
  464.750    0.225    0.429   90.661  168.888    3.044
  465.000    0.234    0.429   89.642  166.986    3.127
  465.250    0.258    0.420   88.877  165.400    3.112
  465.500    0.275    0.404   85.205  168.129    2.995
  465.750    0.288    0.405   80.049  168.606    2.715
  466.000    0.299    0.417   74.522  166.807    2.340
  466.250    0.319    0.430   68.994  165.118    1.940
  466.500    0.325    0.420   64.333  163.114    1.795
  466.750    0.327    0.412   60.104  161.524    1.740
  467.000    0.324    0.417   62.176  160.849    1.768
  467.250    0.316    0.423   63.569  160.711    1.851
  467.500    0.297    0.428   64.595  160.557    1.908
  467.750    0.294    0.441   66.296  160.504    1.975
