~VERSION INFORMATION
 VERS.                 2.0:   CWLS LOG ASCII STANDARD -VERSION 2.0
 WRAP.                  NO:   ONE LINE PER DEPTH STEP
~WELL INFORMATION BLOCK
#MNEM.UNIT           DATA                    DESCRIPTION OF MNEMONIC
#---------    -------------------            -------------------------------
# Generated from Intellog Unique Number	CS_69_70/WELL/862
WELL.         GULF OIL CANADA                : Well_name    - WELL
LOC .         00/10-10-069-15W4/0            : Location     - LOCATION
UWI .         00/10-10-069-15W4/0            : Uwi          - UNIQUE WELL ID
ENTR.         SP                             : Entered      - ENTERED BY
SRVC.         SCHLUMBERGER                   : Scn          - SERVICE COMPANY
STRT.M        260                            : top_depth    - START DEPTH
STOP.M        475                            : bot_depth    - STOP DEPTH
STEP.M        0.25                           : increment    - STEP LENGTH
 NULL. -999.2500:NULL Value
~CURVE INFORMATION BLOCK
#MNEM UNIT       ERCB CURVE CODE    CURVE DESCRIPTION
#-----------   ------------------   ----------------------------------
DEPT.M        00 001 00 00         : DEPTH        - DEPTH
GR  .API      00 310 00 00         : GR           - GAMMA RAY
NPHI.V/V      00 330 00 00         : PHIN         - NEUTRON POROSITY (LIMESTONE)
DPHI.V/V      00 890 00 00         : PHID         - DENSITY POROSITY (LIMESTONE)
ILD .OHMM     00 120 00 00         : RESD         - DEEP RESISTIVITY (DIL)
~PARAMETER INFORMATION
#MNEM.UNIT           DATA             DESCRIPTION OF MNEMONIC
#---------         -----------     ------------------------------
GL  .M        548.59               : gl           - GROUND LEVEL ELEVATION
EREF.M        552.55               : kb           - ELEVATION OF DEPTH REFERENCE
DATM.M        548.59               : datum        - DATUM ELEVATION
TDD .M        482                  : tdd          - TOTAL DEPTH DRILLER
RUN .         ONE                  : Run          - RUN NUMBER
ENG .         BILL                 : Engineer     - RECORDING ENGINEER
WIT .         JIM                  : Witness      - WITNESSED BY
MUD .         GEL                  : Mud_type     - MUD TYPE
MATR.         LIMESTONE            : Logunit      - NEUTRON MATRIX
TMAX.C        24                   : BHT          - MAXIMUM RECORDED TEMPERATURE
BHTD.M        482                  : BHTDEP       - MAXIMUM RECORDED TEMPERATURE
MATR.         1                    : LOGUNIT      - NEUTRON MATRIX
RMT .C        25                   : MDTP         - TEMPERATURE OF MUD
NEUT.         1                    : NEUTRON      - NEUTRON TYPE
RESI.         0                    : RESIST       - RESISTIVITY TYPE
RMC .OHMM     0.25                 : RMC          - RESISTIVITY OF MUD CAKE
RMF .OHMM     0.25                 : RMF          - RESISTIVITY OF MUD FILTRATE
SUFT.C        15                   : SUFT         - SURFACE TEMPERATURE
~A  DEPTH       GR     PHIN     PHID     RESD
  260.000  122.673    0.525    0.230    1.980
  260.250  122.560    0.535    0.237    1.981
  260.500  122.387    0.545    0.237    1.996
  260.750  121.445    0.552    0.239    2.011
  261.000  121.035    0.558    0.250    2.049
  261.250  121.100    0.535    0.226    2.092
  261.500  121.462    0.526    0.218    2.136
  261.750  121.644    0.519    0.223    2.184
  262.000  120.998    0.505    0.226    2.251
  262.250  119.047    0.496    0.228    2.319
  262.500  117.866    0.501    0.223    2.394
  262.750  121.607    0.508    0.208    2.486
  263.000  121.020    0.503    0.192    2.561
  263.250  117.053    0.506    0.177    2.644
  263.500  113.502    0.517    0.163    2.714
  263.750  111.964    0.473    0.141    2.823
  264.000  111.614    0.446    0.139    2.963
  264.250  114.110    0.446    0.165    2.970
  264.500  112.336    0.466    0.191    2.814
  264.750  110.861    0.481    0.166    2.707
  265.000  115.846    0.498    0.143    2.584
  265.250  121.543    0.464    0.166    2.485
  265.500  124.987    0.485    0.184    2.382
  265.750  120.902    0.500    0.202    2.351
  266.000  117.113    0.514    0.216    2.321
  266.250  118.423    0.533    0.225    2.335
  266.500  122.580    0.543    0.227    2.469
  266.750  122.584    0.510    0.214    2.626
  267.000  120.159    0.498    0.206    2.752
  267.250  121.706    0.497    0.213    2.815
  267.500  125.032    0.509    0.198    2.857
  267.750  125.275    0.519    0.202    2.874
  268.000  122.079    0.528    0.213    2.806
  268.250  119.001    0.537    0.220    2.704
  268.500  116.101    0.505    0.220    2.630
  268.750  114.387    0.486    0.216    2.586
  269.000  117.239    0.499    0.225    2.553
  269.250  117.422    0.507    0.239    2.530
  269.500  111.972    0.514    0.247    2.554
  269.750  105.516    0.479    0.255    2.662
  270.000  101.370    0.464    0.266    2.857
  270.250  100.783    0.462    0.281    3.045
  270.500  104.524    0.449    0.273    3.161
  270.750  108.503    0.442    0.260    3.293
  271.000  110.760    0.440    0.250    3.362
  271.250  112.307    0.444    0.249    3.375
  271.500  111.779    0.449    0.261    3.420
  271.750  102.654    0.451    0.258    3.485
  272.000   94.418    0.447    0.282    3.631
  272.250   86.064    0.422    0.305    3.728
  272.500   76.701    0.404    0.336    3.579
  272.750   67.517    0.262    0.359    3.262
  273.000   61.890    0.306    0.387    3.011
  273.250   65.454    0.354    0.393    2.801
  273.500   69.075    0.387    0.363    2.639
  273.750   73.290    0.413    0.343    2.567
  274.000   80.055    0.434    0.338    2.626
  274.250   85.634    0.449    0.327    2.731
  274.500   91.331    0.437    0.311    2.894
  274.750   97.028    0.427    0.298    3.066
  275.000  103.259    0.415    0.271    3.298
  275.250  109.668    0.404    0.239    3.600
  275.500  102.500    0.393    0.250    3.758
  275.750   99.659    0.387    0.254    3.815
  276.000   99.665    0.400    0.242    3.823
  276.250  102.517    0.408    0.250    3.698
  276.500  102.344    0.399    0.254    3.644
  276.750   99.919    0.395    0.253    3.644
  277.000   98.679    0.405    0.242    3.686
  277.250   96.609    0.412    0.235    3.834
  277.500   92.820    0.413    0.236    4.092
  277.750   86.897    0.427    0.258    4.467
  278.000   81.624    0.444    0.275    5.052
  278.250   75.642    0.451    0.298    6.121
  278.500   71.497    0.423    0.320    7.266
  278.750   70.673    0.421    0.333    8.803
  279.000   71.450    0.436    0.342   10.449
  279.250   72.463    0.449    0.334   11.471
  279.500   73.180    0.465    0.321   11.930
  279.750   73.837    0.474    0.315   11.888
  280.000   75.028    0.468    0.330   11.628
  280.250   75.804    0.472    0.337   10.856
  280.500   75.335    0.484    0.343   10.403
  280.750   74.452    0.477    0.321    9.658
  281.000   73.449    0.463    0.316    8.900
  281.250   72.269    0.455    0.329    8.156
  281.500   71.267    0.465    0.331    7.269
  281.750   71.095    0.462    0.327    6.624
  282.000   70.922    0.474    0.337    6.104
  282.250   70.039    0.477    0.347    5.752
  282.500   68.917    0.465    0.338    5.410
  282.750   67.085    0.462    0.331    5.005
  283.000   63.711    0.470    0.326    4.629
  283.250   60.751    0.460    0.334    4.210
  283.500   59.215    0.452    0.344    3.642
  283.750   60.644    0.447    0.352    3.127
  284.000   63.614    0.455    0.329    2.771
  284.250   67.058    0.451    0.312    2.597
  284.500   68.901    0.447    0.299    2.452
  284.750   74.245    0.459    0.305    2.394
  285.000   77.391    0.471    0.302    2.368
  285.250   82.615    0.474    0.287    2.481
  285.500   87.423    0.472    0.280    2.723
  285.750   92.112    0.477    0.272    2.984
  286.000   93.126    0.485    0.264    3.221
  286.250   87.914    0.469    0.256    3.536
  286.500   87.563    0.457    0.261    3.810
  286.750   89.288    0.458    0.286    4.067
  287.000   88.167    0.450    0.295    4.399
  287.250   81.829    0.445    0.283    4.929
  287.500   78.039    0.445    0.293    4.875
  287.750   79.468    0.450    0.302    4.201
  288.000   82.556    0.454    0.306    3.893
  288.250   87.009    0.457    0.300    3.669
  288.500   89.090    0.466    0.289    3.483
  288.750   86.071    0.471    0.199    3.477
  289.000   81.096    0.448    0.144    3.782
  289.250   77.307    0.347    0.099    3.846
  289.500   81.818    0.315    0.073    3.564
  289.750   92.852    0.378    0.236    3.273
  290.000  102.167    0.433    0.254    3.107
  290.250  108.457    0.465    0.231    3.062
  290.500  111.545    0.481    0.204    3.062
  290.750  114.930    0.499    0.185    3.138
  291.000  115.529    0.491    0.167    3.191
  291.250  118.617    0.475    0.154    3.216
  291.500  124.078    0.476    0.185    3.228
  291.750  129.301    0.483    0.213    3.290
  292.000  131.500    0.495    0.199    3.390
  292.250  132.217    0.503    0.192    3.538
  292.500  132.400    0.486    0.214    3.743
  292.750  133.593    0.457    0.221    3.863
  293.000  134.131    0.433    0.217    4.026
  293.250  128.978    0.422    0.228    4.102
  293.500  124.122    0.415    0.233    4.103
  293.750  119.977    0.407    0.241    4.104
  294.000  118.441    0.413    0.244    4.143
  294.250  118.624    0.409    0.238    4.167
  294.500  116.140    0.404    0.227    4.168
  294.750  113.951    0.402    0.214    3.957
  295.000  111.466    0.420    0.230    3.736
  295.250  112.659    0.430    0.238    3.586
  295.500  117.467    0.448    0.252    3.450
  295.750  120.199    0.446    0.250    3.399
  296.000  123.465    0.451    0.229    3.419
  296.250  125.664    0.461    0.210    3.490
  296.500  126.264    0.474    0.214    3.630
  296.750  125.616    0.481    0.227    3.685
  297.000  122.123    0.479    0.236    3.700
  297.250  117.624    0.477    0.247    3.673
  297.500  114.664    0.469    0.260    3.660
  297.750  113.365    0.449    0.266    3.708
  298.000  120.131    0.430    0.239    3.915
  298.250  124.049    0.413    0.215    4.102
  298.500  128.858    0.406    0.198    4.188
  298.750  130.700    0.400    0.199    4.165
  299.000  131.180    0.398    0.206    3.969
  299.250  131.422    0.408    0.204    3.617
  299.500  133.207    0.419    0.211    3.302
  299.750  134.873    0.426    0.222    3.170
  300.000  135.768    0.445    0.238    3.107
  300.250  131.326    0.469    0.248    3.061
  300.500  126.054    0.464    0.261    3.108
  300.750  123.214    0.456    0.273    3.209
  301.000  123.931    0.462    0.267    3.300
  301.250  121.920    0.480    0.260    3.381
  301.500  117.480    0.476    0.246    3.433
  301.750  114.046    0.468    0.234    3.453
  302.000  112.214    0.467    0.222    3.421
  302.250  113.049    0.485    0.243    3.266
  302.500  116.020    0.497    0.260    3.101
  302.750  119.226    0.494    0.260    2.961
  303.000  115.616    0.481    0.261    2.912
  303.250  110.403    0.473    0.274    2.880
