~VERSION INFORMATION
 VERS.                 2.0:   CWLS LOG ASCII STANDARD -VERSION 2.0
 WRAP.                  NO:   ONE LINE PER DEPTH STEP
~WELL INFORMATION BLOCK
#MNEM.UNIT           DATA                    DESCRIPTION OF MNEMONIC
#---------    -------------------            -------------------------------
# Generated from Intellog Unique Number	CS_77_79/WELL/994
WELL.         HB DOME LEISMER                : Well_name    - WELL
LOC .         00/11-11-078-11W4/0            : Location     - LOCATION
UWI .         00/11-11-078-11W4/0            : Uwi          - UNIQUE WELL ID
ENTR.         JHS                            : Entered      - ENTERED BY
SRVC.         SCHLUMBERGER                   : Scn          - SERVICE COMPANY
STRT.M        310                            : top_depth    - START DEPTH
STOP.M        495                            : bot_depth    - STOP DEPTH
STEP.M        0.25                           : increment    - STEP LENGTH
 NULL. -999.2500:NULL Value
~CURVE INFORMATION BLOCK
#MNEM UNIT       ERCB CURVE CODE    CURVE DESCRIPTION
#-----------   ------------------   ----------------------------------
DEPT.M        00 001 00 00         : DEPTH        - DEPTH
DPHI.V/V      00 890 00 00         : PHID         - DENSITY POROSITY (LIMESTONE)
NPHI.V/V      00 330 00 00         : PHIN         - NEUTRON POROSITY (LIMESTONE)
GR  .API      00 310 00 00         : GR           - GAMMA RAY
ILD .OHMM     00 120 00 00         : RESD         - DEEP RESISTIVITY (DIL)
~PARAMETER INFORMATION
#MNEM.UNIT           DATA             DESCRIPTION OF MNEMONIC
#---------         -----------     ------------------------------
GL  .M        683.78               : gl           - GROUND LEVEL ELEVATION
EREF.M        687.98               : kb           - ELEVATION OF DEPTH REFERENCE
DATM.M        687.98               : datum        - DATUM ELEVATION
TDD .M        598                  : tdd          - TOTAL DEPTH DRILLER
RUN .         ONE                  : Run          - RUN NUMBER
ENG .         BILL                 : Engineer     - RECORDING ENGINEER
WIT .         JIM                  : Witness      - WITNESSED BY
MUD .         GEL                  : Mud_type     - MUD TYPE
MATR.         LIMESTONE            : Logunit      - NEUTRON MATRIX
TMAX.C        24.4                 : BHT          - MAXIMUM RECORDED TEMPERATURE
BHTD.M        598                  : BHTDEP       - MAXIMUM RECORDED TEMPERATURE
MATR.         1                    : LOGUNIT      - NEUTRON MATRIX
RMT .C        25                   : MDTP         - TEMPERATURE OF MUD
NEUT.         1                    : NEUTRON      - NEUTRON TYPE
RESI.         0                    : RESIST       - RESISTIVITY TYPE
RMC .OHMM     0.25                 : RMC          - RESISTIVITY OF MUD CAKE
RMF .OHMM     0.25                 : RMF          - RESISTIVITY OF MUD FILTRATE
SUFT.C        15                   : SUFT         - SURFACE TEMPERATURE
~A  DEPTH     PHID     PHIN       GR     RESD
# ...
  397.000    0.366    0.468   54.322    7.182
  397.250    0.371    0.482   56.772    6.921
  397.500    0.378    0.528   59.220    6.796
  397.750    0.370    0.532   57.980    6.801
  398.000    0.361    0.521   54.282    6.806
  398.250    0.370    0.517   51.200    6.810
  398.500    0.377    0.503   49.959    7.076
  398.750    0.369    0.468   52.409    7.214
  399.000    0.359    0.460   49.937    7.495
  399.250    0.359    0.448   48.699    7.937
  399.500    0.372    0.453   52.993    7.942
  399.750    0.386    0.469   53.599    7.946
  400.000    0.381    0.479   51.743    7.658
  400.250    0.367    0.484   52.964    7.379
  400.500    0.358    0.495   57.257    7.113
  400.750    0.358    0.493   56.633    6.984
  401.000    0.360    0.481   54.162    6.989
  401.250    0.366    0.468   54.154    6.993
  401.500    0.368    0.462   56.601    6.868
  401.750    0.364    0.471   55.976    6.870
  402.000    0.361    0.487   55.349    6.747
  402.250    0.360    0.478   55.957    6.626
  402.500    0.357    0.451   57.178    6.629
  402.750    0.352    0.441   56.551    6.509
  403.000    0.349    0.466   55.928    6.514
  403.250    0.364    0.478   57.761    6.397
  403.500    0.373    0.481   57.136    6.401
  403.750    0.364    0.489   53.439    6.285
  404.000    0.359    0.494   52.815    6.289
  404.250    0.354    0.477   55.261    6.293
  404.500    0.357    0.470   55.868    6.297
  404.750    0.367    0.481   55.858    6.302
  405.000    0.364    0.494   55.849    6.189
  405.250    0.357    0.501   53.994    6.192
  405.500    0.349    0.494   52.755    6.195
  405.750    0.354    0.488   55.203    6.200
  406.000    0.368    0.495   57.038    6.203
  406.250    0.362    0.507   54.567    6.326
  406.500    0.363    0.491   54.560    6.330
  406.750    0.359    0.481   58.852    6.333
  407.000    0.361    0.491   61.302    6.338
  407.250    0.363    0.468   57.604    6.341
  407.500    0.354    0.464   56.364    6.346
  407.750    0.337    0.476   60.658    6.349
  408.000    0.335    0.471   61.261    6.354
  408.250    0.345    0.459   56.948    6.357
  408.500    0.346    0.452   57.549    6.243
  408.750    0.351    0.450   58.774    6.246
  409.000    0.357    0.454   61.220    6.136
  409.250    0.348    0.474   62.442    6.138
  409.500    0.346    0.478   64.889    6.261
  409.750    0.347    0.469   64.263    6.263
  410.000    0.350    0.479   63.027    6.270
  410.250    0.346    0.499   61.786    6.272
  410.500    0.338    0.490   60.548    6.274
  410.750    0.338    0.479   57.462    6.280
  411.000    0.345    0.484   56.840    6.282
  411.250    0.342    0.492   59.288    6.287
  411.500    0.347    0.485   64.197    6.292
  411.750    0.354    0.489   67.258    6.295
  412.000    0.357    0.494   69.092    6.300
  412.250    0.350    0.486   69.085    6.303
  412.500    0.341    0.483   63.542    6.307
  412.750    0.341    0.466   63.531    6.310
  413.000    0.343    0.461   65.980    6.315
  413.250    0.335    0.479   63.512    6.320
  413.500    0.334    0.483   63.502    6.323
  413.750    0.333    0.489   64.721    6.326
  414.000    0.333    0.506   63.482    6.331
  414.250    0.326    0.503   64.698    6.336
  414.500    0.321    0.480   65.920    6.338
  414.750    0.317    0.493   66.524    6.226
  415.000    0.307    0.508   70.204    6.114
  415.250    0.284    0.483   73.882    6.116
  415.500    0.265    0.472   68.339    6.120
  415.750    0.294    0.481   66.487    6.124
  416.000    0.322    0.478   68.319    6.129
  416.250    0.329    0.485   68.922    6.368
  416.500    0.321    0.520   68.915    6.492
  416.750    0.317    0.527   69.518    6.875
  417.000    0.318    0.516   65.821    7.009
  417.250    0.326    0.509   62.122    7.283
  417.500    0.306    0.491   60.268    7.286
  417.750    0.294    0.478   61.488    7.431
  418.000    0.304    0.472   62.708    7.436
  418.250    0.321    0.467   60.238    7.302
  418.500    0.328    0.462   60.227    7.171
  418.750    0.322    0.457   60.831    7.174
  419.000    0.314    0.467   62.054    7.047
  419.250    0.307    0.492   63.889    6.919
  419.500    0.316    0.507   65.108    6.922
  419.750    0.326    0.504   62.638    6.927
  420.000    0.324    0.492   63.242    6.932
  420.250    0.314    0.478   65.693    6.935
  420.500    0.315    0.481   66.910    6.810
  420.750    0.327    0.494   65.672    6.815
  421.000    0.337    0.486   65.047    6.818
  421.250    0.326    0.477   61.962    6.697
  421.500    0.314    0.487   63.180    6.575
  421.750    0.319    0.519   60.715    6.458
  422.000    0.329    0.502   56.401    6.461
  422.250    0.313    0.477   57.006    6.346
  422.500    0.287    0.474   63.143    6.348
  422.750    0.250    0.495   68.666    6.234
  423.000    0.238    0.486   74.804    6.122
  423.250    0.246    0.480   79.711    6.012
  423.500    0.246    0.477   79.086    6.015
  423.750    0.243    0.477   77.847    5.907
  424.000    0.237    0.480   80.296    5.802
  424.250    0.229    0.476   85.204    5.804
  424.500    0.228    0.475   82.734    5.808
  424.750    0.228    0.462   79.652    5.813
  425.000    0.217    0.458   78.412    6.039
  425.250    0.207    0.452   77.788    6.157
  425.500    0.199    0.448   82.694    6.519
  425.750    0.201    0.456   86.989    6.773
  426.000    0.229    0.474   93.740    6.777
  426.250    0.216    0.456   93.114    6.657
  426.500    0.217    0.427   90.032    6.535
  426.750    0.236    0.414   90.023    6.539
  427.000    0.220    0.416   93.698    6.795
  427.250    0.189    0.442   94.921    6.929
  427.500    0.196    0.451   92.451    6.803
  427.750    0.213    0.442   86.908    6.556
  428.000    0.227    0.469   85.053    6.200
  428.250    0.225    0.495   84.431    5.754
  428.500    0.214    0.479   83.192    5.340
  428.750    0.223    0.463   80.722    4.864
  429.000    0.244    0.467   79.480    4.430
  429.250    0.264    0.505   78.856    3.885
  429.500    0.280    0.531   78.845    3.282
  429.750    0.290    0.584   80.066    2.620
  430.000    0.286    0.612   79.443    2.255
  430.250    0.285    0.606   78.204    2.093
  430.500    0.294    0.583   76.349    1.979
  430.750    0.289    0.552   76.339    1.944
  431.000    0.280    0.544   78.174    1.982
  431.250    0.284    0.573   77.547    1.983
  431.500    0.274    0.573   77.538    2.061
  431.750    0.262    0.547   79.989    2.141
  432.000    0.252    0.524   81.208    2.310
  432.250    0.256    0.542   81.810    2.492
  432.500    0.242    0.540   82.416    2.792
  432.750    0.232    0.515   82.406    3.069
  433.000    0.224    0.495   81.783    3.438
  433.250    0.226    0.483   83.001    4.000
  433.500    0.211    0.491   81.763    4.315
  433.750    0.182    0.480   76.835    4.926
  434.000    0.183    0.424   75.595    5.314
  434.250    0.207    0.418   78.658    5.627
  434.500    0.225    0.428   82.952    5.630
  434.750    0.235    0.448   86.013    5.324
  435.000    0.240    0.457   86.619    4.759
  435.250    0.239    0.456   88.455    4.253
  435.500    0.244    0.450   88.445    4.023
  435.750    0.247    0.461   87.206    3.950
  436.000    0.245    0.482   85.352    3.807
  436.250    0.246    0.517   82.267    3.809
  436.500    0.238    0.529   78.570    4.033
  436.750    0.215    0.502   74.871    4.434
  437.000    0.177    0.448   77.320    4.783
  437.250    0.207    0.407   79.155    5.064
  437.500    0.227    0.422   86.521    5.262
  437.750    0.231    0.445   92.658    4.977
  438.000    0.219    0.482   95.105    4.532
  438.250    0.212    0.477   95.713    4.286
  438.500    0.211    0.459   96.932    4.130
  438.750    0.219    0.476   91.388    4.056
  439.000    0.229    0.495   88.305    4.136
  439.250    0.240    0.489   92.599    4.217
  439.500    0.235    0.501   94.431    4.381
  439.750    0.211    0.512   93.193    4.552
  440.000    0.198    0.485   95.643    4.730
  440.250    0.211    0.463  113.460    5.008
