~VERSION INFORMATION
 VERS.                 2.0:   CWLS LOG ASCII STANDARD -VERSION 2.0
 WRAP.                  NO:   ONE LINE PER DEPTH STEP
~WELL INFORMATION BLOCK
#MNEM.UNIT           DATA                    DESCRIPTION OF MNEMONIC
#---------    -------------------            -------------------------------
# Generated from Intellog Unique Number	CW_76_78/WELL/875
WELL.         ASHLAND ET AL PORTAGE 10-12    : Well_name    - WELL
LOC .         00/10-12-077-19W4/0            : Location     - LOCATION
UWI .         00/10-12-077-19W4/0            : Uwi          - UNIQUE WELL ID
ENTR.         JAYE                           : Entered      - ENTERED BY
SRVC.         WESTERN ATLAS                  : Scn          - SERVICE COMPANY
DATE.         21 JAN 72                      : Date         - LOG DATE
STRT.M        198.12                         : top_depth    - START DEPTH
STOP.M        377.87                         : bot_depth    - STOP DEPTH
STEP.M        0.25                           : increment    - STEP LENGTH
 NULL. -999.2500:NULL Value
~CURVE INFORMATION BLOCK
#MNEM UNIT       ERCB CURVE CODE    CURVE DESCRIPTION
#-----------   ------------------   ----------------------------------
DEPT.M        00 001 00 00         : DEPTH        - DEPTH
ILD .OHMM     00 120 00 00         : RESD         - DEEP RESISTIVITY (DIL)
NPHI.V/V      00 330 00 00         : PHIN         - NEUTRON POROSITY (SANDSTONE)
DPHI.V/V      00 890 00 00         : PHID         - DENSITY POROSITY (SANDSTONE)
GR  .API      00 310 00 00         : GR           - GAMMA RAY
CALI.MM       00 280 01 00         : CAL          - CALIPER
~PARAMETER INFORMATION
#MNEM.UNIT           DATA             DESCRIPTION OF MNEMONIC
#---------         -----------     ------------------------------
GL  .M        556.26               : gl           - GROUND LEVEL ELEVATION
EREF.M        561.137              : kb           - ELEVATION OF DEPTH REFERENCE
DATM.M        556.26               : datum        - DATUM ELEVATION
TDD .M        399.288              : tdd          - TOTAL DEPTH DRILLER
RUN .         ONE                  : Run          - RUN NUMBER
MATR.         SANDSTONE            : Logunit      - NEUTRON MATRIX
TMAX.C        22.2222              : BHT          - MAXIMUM RECORDED TEMPERATURE
BHTD.M        399.288              : BHTDEP       - MAXIMUM RECORDED TEMPERATURE
RMT .C        23.3333              : MDTP         - TEMPERATURE OF MUD
MUDD.KG/M     0                    : MWT          - MUD DENSITY
NEUT.         1                    : NEUTRON      - NEUTRON TYPE
RESI.         0                    : RESIST       - RESISTIVITY TYPE
RM  .OHMM     2.2                  : RM           - RESISTIVITY OF MUD
RMC .OHMM     2.6                  : RMC          - RESISTIVITY OF MUD CAKE
RMF .OHMM     1.6                  : RMF          - RESISTIVITY OF MUD FILTRATE
SUFT.C        -17.7778             : SUFT         - SURFACE TEMPERATURE
~A  DEPTH     RESD     PHIN     PHID       GR      CAL
# ...
  344.120    7.297    0.381    0.237   87.115  166.293
  344.370    7.233    0.371    0.233   82.959  165.839
  344.620    7.251    0.345    0.230   81.337  165.721
  344.870    7.446    0.348    0.230   81.064  165.361
  345.120    7.950    0.350    0.230   81.538  164.796
  345.370    8.566    0.338    0.228   81.152  163.506
  345.620    9.214    0.314    0.215   81.002  161.798
  345.870    9.656    0.330    0.193   79.436  161.142
  346.120    9.398    0.338    0.179   78.118  161.514
  346.370    8.509    0.341    0.187   79.766  162.011
  346.620    7.776    0.365    0.215   84.067  162.709
  346.870    7.306    0.409    0.253   90.220  163.192
  347.120    7.018    0.385    0.255   93.842  163.479
  347.370    6.920    0.396    0.246   91.969  163.649
  347.620    6.835    0.387    0.231   91.702  163.930
  347.870    6.826    0.364    0.216   94.153  164.313
  348.120    6.831    0.383    0.211   97.032  165.430
  348.370    6.849    0.378    0.231   97.074  166.328
  348.620    6.866    0.372    0.242   98.228  167.018
  348.870    6.896    0.384    0.249  101.606  166.567
  349.120    6.950    0.367    0.247  102.321  162.558
  349.370    6.955    0.375    0.222   95.013  162.628
  349.620    6.972    0.368    0.192   97.592  166.459
  349.870    7.028    0.368    0.177  102.137  170.083
  350.120    7.126    0.376    0.176  107.245  171.617
  350.370    7.195    0.385    0.173  109.012  171.268
  350.620    7.240    0.381    0.167  105.840  171.760
  350.870    7.191    0.389    0.174  105.263  172.989
  351.120    7.077    0.401    0.174  108.207  174.621
  351.370    6.938    0.376    0.167  112.756  176.458
  351.620    6.765    0.382    0.158  114.711  179.245
  351.870    6.633    0.397    0.149  117.591  183.401
  352.120    6.552    0.403    0.141  115.042  183.989
  352.370    6.496    0.390    0.133  119.030  178.617
  352.620    6.488    0.372    0.162  123.766  179.743
  352.870    6.540    0.381    0.175  124.179  180.643
  353.120    6.728    0.384    0.189  124.034  178.520
  353.370    7.013    0.378    0.208  124.138  178.590
  353.620    7.336    0.369    0.216  124.985  177.503
  353.870    7.617    0.359    0.199  124.346  175.693
  354.120    8.013    0.348    0.156  123.208  173.982
  354.370    8.509    0.351    0.147  122.014  170.806
  354.620    8.885    0.343    0.166  118.104  168.065
  354.870    9.242    0.345    0.163  111.598  167.714
  355.120    9.685    0.327    0.056  106.452  168.192
  355.370   10.151    0.309    0.095   98.835  168.678
  355.620   10.444    0.312    0.123  104.870  169.488
  355.870   10.508    0.347    0.131  112.811  170.297
  356.120   10.379    0.359    0.118  109.395  170.880
  356.370    9.990    0.361    0.103  111.907  171.681
  356.620    9.669    0.378    0.135  116.761  172.478
  356.870    9.409    0.376    0.153  113.345  172.768
  357.120    9.174    0.358    0.164  114.744  173.042
  357.370    9.113    0.356    0.162  118.613  173.325
  357.620    9.203    0.360    0.151  116.616  173.392
  357.870    9.451    0.348    0.134  113.880  173.463
  358.120    9.831    0.328    0.117  109.782  173.518
  358.370   10.419    0.312    0.114  103.031  173.183
  358.620   11.165    0.319    0.112  106.284  172.929
  358.870   11.920    0.315    0.104  102.804  172.474
  359.120   11.731    0.301    0.087  107.232  171.497
  359.370   11.042    0.302    0.105  111.841  170.209
  359.620   10.337    0.332    0.146  115.896  169.752
  359.870    9.640    0.353    0.142  111.491  169.301
  360.120    9.041    0.329    0.144  110.611  171.562
  360.370    8.573    0.343    0.155  115.711  175.713
  360.620    8.236    0.353    0.153  120.997  176.724
  360.870    7.855    0.350    0.144  114.123  168.327
  361.120    7.602    0.358    0.123  116.386  165.044
  361.370    7.453    0.365    0.168  122.109  168.462
  361.620    7.349    0.375    0.173  128.140  174.383
  361.870    7.312    0.380    0.171  125.712  178.743
  362.120    7.290    0.358    0.143  121.057  176.631
  362.370    7.308    0.328    0.110  120.050  175.540
  362.620    7.463    0.342    0.164  117.622  174.252
  362.870    7.678    0.360    0.170  114.266  173.909
  363.120    7.768    0.374    0.168  117.145  174.074
  363.370    7.645    0.377    0.159  121.941  175.305
  363.620    7.290    0.379    0.148  125.625  175.775
  363.870    6.255    0.383    0.133  119.738  176.159
  364.120    4.785    0.391    0.173  117.062  176.233
  364.370    3.667    0.410    0.232  117.783  174.418
  364.620    2.960    0.443    0.233  116.961  170.822
  364.870    2.466    0.461    0.217  114.222  165.467
  365.120    2.058    0.453    0.214  112.843  161.236
  365.370    1.992    0.451    0.208  114.426  160.268
  365.620    2.526    0.403    0.195  113.358  163.483
  365.870    3.502    0.368    0.188  110.558  165.213
  366.120    5.208    0.343    0.153  103.373  162.665
  366.370    6.581    0.333    0.085   97.856  156.984
  366.620    8.028    0.328    0.072   98.515  157.582
  366.870    9.316    0.315    0.103  108.437  162.038
  367.120   10.456    0.319    0.130  109.965  167.440
  367.370   10.599    0.328    0.153  111.359  167.932
  367.620   10.126    0.326    0.153  113.626  166.325
  367.870    9.621    0.334    0.134  112.304  165.241
  368.120    8.775    0.332    0.113  115.803  164.689
  368.370    7.785    0.348    0.129  119.737  164.446
  368.620    7.036    0.358    0.142  120.515  164.302
  368.870    6.562    0.367    0.134  117.902  164.681
  369.120    6.398    0.374    0.121  117.455  168.417
  369.370    6.474    0.376    0.100  117.860  172.352
  369.620    6.672    0.376    0.082  118.705  167.503
  369.870    6.903    0.373    0.127  121.338  171.126
  370.120    7.181    0.355    0.101  113.229  174.545
  370.370    7.470    0.335    0.035  104.872  175.136
  370.620    7.787    0.355    0.038  112.136  175.097
  370.870    7.762    0.358    0.148  113.785  175.171
  371.120    7.485    0.356    0.148  115.739  174.930
  371.370    7.230    0.368    0.147  119.298  174.692
  371.620    7.024    0.365    0.149  124.896  174.658
  371.870    6.976    0.367    0.144  125.870  174.295
  372.120    7.059    0.373    0.139  127.450  173.951
  372.370    7.236    0.365    0.145  131.012  173.701
  372.620    7.416    0.371    0.160  135.434  173.564
  372.870    7.702    0.392    0.181  139.117  173.839
  373.120    7.938    0.379    0.186  133.912  174.643
  373.370    8.181    0.361    0.176  132.902  176.070
  373.620    8.591    0.352    0.167  128.866  177.916
  373.870    9.325    0.343    0.142  116.929  179.348
  374.120   10.782    0.330    0.122  102.891  177.223
  374.370   12.465    0.321    0.109   81.073  173.628
  374.620   15.490    0.304    0.057   64.134  167.841
  374.870   19.940    0.261    0.052   39.350  166.978
  375.120   25.056    0.235    0.043   36.924  168.085
  375.370   29.400    0.237    0.036   40.547  169.626
  375.620   29.421    0.254    0.050   45.834  170.845
  375.870   27.745    0.261    0.064   51.556  171.650
  376.120   24.432    0.263    0.067   56.845  172.033
  376.370   22.080    0.264    0.062   58.681  171.989
  376.620   21.689    0.265    0.062   58.967  171.543
  376.870   22.027    0.270    0.055   59.005  171.605
  377.120   23.042    0.264    0.034   58.124  171.787
  377.370   24.418    0.271    0.021   56.315  171.851
  377.620   25.878    0.277    0.017   53.324  171.923
  377.870   26.921    0.278    0.053   49.172  171.899
