~VERSION INFORMATION
 VERS.                 2.0:   CWLS LOG ASCII STANDARD -VERSION 2.0
 WRAP.                  NO:   ONE LINE PER DEPTH STEP
~WELL INFORMATION BLOCK
#MNEM.UNIT           DATA                    DESCRIPTION OF MNEMONIC
#---------    -------------------            -------------------------------
# Generated from Intellog Unique Number	CS_69_70/WELL/901
WELL.         MAYNARD EXPLORATION            : Well_name    - WELL
LOC .         00/12-36-070-16W4/0            : Location     - LOCATION
UWI .         00/12-36-070-16W4/0            : Uwi          - UNIQUE WELL ID
ENTR.         SP                             : Entered      - ENTERED BY
SRVC.         SCHLUMBERGER                   : Scn          - SERVICE COMPANY
STRT.M        290                            : top_depth    - START DEPTH
STOP.M        510                            : bot_depth    - STOP DEPTH
STEP.M        0.25                           : increment    - STEP LENGTH
 NULL. -999.2500:NULL Value
~CURVE INFORMATION BLOCK
#MNEM UNIT       ERCB CURVE CODE    CURVE DESCRIPTION
#-----------   ------------------   ----------------------------------
DEPT.M        00 001 00 00         : DEPTH        - DEPTH
DPHI.V/V      00 890 00 00         : PHID         - DENSITY POROSITY (LIMESTONE)
NPHI.V/V      00 330 00 00         : PHIN         - NEUTRON POROSITY (LIMESTONE)
GR  .API      00 310 00 00         : GR           - GAMMA RAY
ILD .OHMM     00 120 00 00         : RESD         - DEEP RESISTIVITY (DIL)
~PARAMETER INFORMATION
#MNEM.UNIT           DATA             DESCRIPTION OF MNEMONIC
#---------         -----------     ------------------------------
GL  .M        589.04               : gl           - GROUND LEVEL ELEVATION
EREF.M        592.24               : kb           - ELEVATION OF DEPTH REFERENCE
DATM.M        589.04               : datum        - DATUM ELEVATION
TDD .M        509                  : tdd          - TOTAL DEPTH DRILLER
RUN .         ONE                  : Run          - RUN NUMBER
ENG .         BILL                 : Engineer     - RECORDING ENGINEER
WIT .         JIM                  : Witness      - WITNESSED BY
MUD .         GEL                  : Mud_type     - MUD TYPE
MATR.         LIMESTONE            : Logunit      - NEUTRON MATRIX
TMAX.C        21                   : BHT          - MAXIMUM RECORDED TEMPERATURE
BHTD.M        509                  : BHTDEP       - MAXIMUM RECORDED TEMPERATURE
MATR.         1                    : LOGUNIT      - NEUTRON MATRIX
RMT .C        25                   : MDTP         - TEMPERATURE OF MUD
NEUT.         1                    : NEUTRON      - NEUTRON TYPE
RESI.         0                    : RESIST       - RESISTIVITY TYPE
RMC .OHMM     0.25                 : RMC          - RESISTIVITY OF MUD CAKE
RMF .OHMM     0.25                 : RMF          - RESISTIVITY OF MUD FILTRATE
SUFT.C        15                   : SUFT         - SURFACE TEMPERATURE
~A  DEPTH     PHID     PHIN       GR     RESD
  290.000    0.235    0.473  101.141    2.853
  290.250    0.243    0.461  101.945    2.764
  290.500    0.251    0.452  102.135    2.691
  290.750    0.250    0.459  102.632    2.651
  291.000    0.255    0.471  103.739    2.636
  291.250    0.243    0.486  103.931    2.629
  291.500    0.241    0.497  103.942    2.696
  291.750    0.237    0.495  104.012    2.754
  292.000    0.230    0.499  104.022    2.861
  292.250    0.228    0.488  104.276    2.936
  292.500    0.228    0.477  104.714    3.035
  292.750    0.229    0.471  105.394    3.208
  293.000    0.242    0.464  105.950    3.364
  293.250    0.244    0.475  106.875    3.569
  293.500    0.243    0.470  108.346    3.726
  293.750    0.253    0.455  109.819    3.899
  294.000    0.247    0.429  109.949    3.998
  294.250    0.228    0.428  108.497    4.015
  294.500    0.221    0.445  105.888    3.934
  294.750    0.216    0.465  102.972    3.780
  295.000    0.221    0.475   99.449    3.593
  295.250    0.231    0.490   97.388    3.398
  295.500    0.238    0.474   95.934    3.203
  295.750    0.233    0.476   96.492    3.024
  296.000    0.232    0.481  100.037    2.960
  296.250    0.226    0.483  103.092    2.912
  296.500    0.223    0.482  106.149    2.970
  296.750    0.228    0.479  108.229    3.045
  297.000    0.226    0.474  109.337    3.095
  297.250    0.216    0.469  109.163    3.129
  297.500    0.210    0.464  107.040    3.097
  297.750    0.215    0.459  105.101    3.033
  298.000    0.224    0.452  103.466    2.976
  298.250    0.232    0.444  101.769    3.141
  298.500    0.206    0.436   99.464    3.297
  298.750    0.188    0.432   96.793    3.315
  299.000    0.180    0.428   95.157    3.201
  299.250    0.176    0.434   93.522    3.153
  299.500    0.216    0.443   89.632    3.244
  299.750    0.234    0.432   80.930    3.417
  300.000    0.213    0.404   71.008    3.598
  300.250    0.205    0.384   63.402    4.073
  300.500    0.181    0.370   61.950    4.900
  300.750    0.242    0.357   65.373    5.546
  301.000    0.276    0.353   67.880    6.046
  301.250    0.274    0.352   69.109    5.875
  301.500    0.264    0.348   69.972    5.525
  301.750    0.255    0.347   70.531    5.322
  302.000    0.244    0.352   72.610    5.241
  302.250    0.243    0.358   78.896    5.340
  302.500    0.250    0.362   84.693    5.480
  302.750    0.248    0.363   88.420    5.628
  303.000    0.238    0.350   88.612    5.817
  303.250    0.225    0.329   82.469    6.350
  303.500    0.233    0.317   75.168    6.907
  303.750    0.235    0.311   68.962    7.578
  304.000    0.276    0.314   57.030    8.584
  304.250    0.323    0.338   48.389    9.673
  304.500    0.372    0.332   40.782   11.210
  304.750    0.391    0.316   35.491   13.018
  305.000    0.378    0.287   32.454    2.640
  305.250    0.352    0.256   31.489    2.816
  305.500    0.336    0.239   31.926    3.026
  305.750    0.325    0.236   34.373    6.014
  306.000    0.319    0.240   38.282    7.412
  306.250    0.328    0.244   39.571    6.244
  306.500    0.340    0.257   42.020    4.731
  306.750    0.332    0.271   44.709   10.451
  307.000    0.323    0.284   46.670    6.742
  307.250    0.309    0.299   47.409    4.381
  307.500    0.289    0.318   47.176    3.507
  307.750    0.278    0.329   47.185    3.083
  308.000    0.272    0.339   50.184    2.528
  308.250    0.269    0.348   52.201    2.292
  308.500    0.279    0.356   62.264    2.081
  308.750    0.291    0.360   68.672    2.327
  309.000    0.304    0.360   72.032    2.851
  309.250    0.291    0.360   74.479    3.163
  309.500    0.276    0.358   77.535    3.434
  309.750    0.265    0.353   80.714    3.639
  310.000    0.263    0.348   82.856    3.738
  310.250    0.270    0.343   84.084    3.756
  310.500    0.285    0.338   73.187    3.749
  310.750    0.289    0.338   64.667    3.709
  311.000    0.259    0.347   56.208    3.669
  311.250    0.238    0.354   59.021    3.670
  311.500    0.227    0.356   62.504    3.687
  311.750    0.223    0.357   66.352    3.680
  312.000    0.239    0.358   69.164    3.649
  312.250    0.259    0.359   64.545    3.535
  312.500    0.271    0.363   61.203    3.365
  312.750    0.239    0.368   59.019    3.325
  313.000    0.228    0.375   70.424    3.473
  313.250    0.205    0.384   77.622    3.605
  313.500    0.199    0.397   85.491    3.884
  313.750    0.223    0.409   97.077    4.040
  314.000    0.203    0.422  105.495    4.278
  314.250    0.193    0.429  109.952    4.402
  314.500    0.172    0.437  110.146    4.509
  314.750    0.158    0.446  107.536    4.461
  315.000    0.174    0.458  106.448    4.406
  315.250    0.184    0.468  105.361    4.374
  315.500    0.185    0.465  105.980    4.276
  315.750    0.191    0.460  107.330    4.130
  316.000    0.191    0.464  109.290    4.009
  316.250    0.220    0.476  111.493    3.863
  316.500    0.232    0.486  114.917    3.611
  316.750    0.232    0.495  117.119    3.358
  317.000    0.227    0.501  120.908    3.163
  317.250    0.245    0.497  122.073    3.066
  317.500    0.257    0.474  123.057    3.034
  317.750    0.264    0.449  120.326    3.264
  318.000    0.259    0.426  116.071    3.666
  318.250    0.260    0.415  110.475    4.108
  318.500    0.249    0.423  105.306    4.682
  318.750    0.240    0.424  102.575    5.083
  319.000    0.234    0.423   99.721    5.411
  319.250    0.221    0.422   95.892    5.592
  319.500    0.208    0.420   91.759    5.781
  319.750    0.204    0.421   92.255    5.864
  320.000    0.203    0.423  102.257    5.840
  320.250    0.204    0.435  110.858    5.621
  320.500    0.202    0.447  118.423    5.311
  320.750    0.199    0.456  122.395    4.993
  321.000    0.199    0.462  121.185    4.562
  321.250    0.208    0.464  113.457    4.366
  321.500    0.206    0.458  111.333    4.212
  321.750    0.212    0.435  111.770    4.009
  322.000    0.226    0.412  109.952    3.952
  322.250    0.239    0.396  103.443    3.937
  322.500    0.249    0.384   99.188    4.102
  322.750    0.251    0.378  102.122    4.340
  323.000    0.246    0.377  102.741    4.545
  323.250    0.251    0.377   99.278    4.628
  323.500    0.245    0.382   93.683    4.449
  323.750    0.241    0.397   83.456    4.418
  324.000    0.241    0.409   76.398    4.541
  324.250    0.250    0.416   85.181    4.747
  324.500    0.254    0.409   91.955    5.001
  324.750    0.259    0.398   95.742    5.345
  325.000    0.255    0.391   96.422    5.616
  325.250    0.254    0.390   97.650    5.887
  325.500    0.243    0.398  102.047    6.043
  325.750    0.229    0.404  105.712    6.167
  326.000    0.217    0.402  106.820    6.209
  326.250    0.207    0.399  105.183    6.096
  326.500    0.199    0.399  101.842    5.892
  326.750    0.212    0.400  104.170    5.754
  327.000    0.207    0.400  108.199    5.617
  327.250    0.209    0.401  113.265    5.568
  327.500    0.218    0.400  117.053    5.512
  327.750    0.250    0.403  119.744    5.472
  328.000    0.261    0.411  114.271    5.482
  328.250    0.248    0.414  110.441    5.581
  328.500    0.226    0.405  105.759    5.696
  328.750    0.209    0.396  106.440    5.886
  329.000    0.183    0.392  110.532    6.165
  329.250    0.165    0.389  113.405    6.288
  329.500    0.162    0.389  115.365    6.232
  329.750    0.159    0.393  116.471    5.980
  330.000    0.158    0.400  117.699    5.629
  330.250    0.157    0.412  118.197    5.238
  330.500    0.157    0.422  116.685    4.863
  330.750    0.176    0.430  115.110    4.505
  331.000    0.185    0.431  113.719    4.228
  331.250    0.201    0.423  113.606    4.073
  331.500    0.217    0.419  113.920    3.935
  331.750    0.225    0.417  113.320    3.814
  332.000    0.234    0.423  108.212    3.782
  332.250    0.241    0.429  101.398    3.734
  332.500    0.242    0.434   91.172    3.678
  332.750    0.246    0.425   90.146    3.695
  333.000    0.250    0.411   94.909    3.762
  333.250    0.256    0.403   98.208    3.853
