~VERSION INFORMATION
 VERS.                 2.0:   CWLS LOG ASCII STANDARD -VERSION 2.0
 WRAP.                  NO:   ONE LINE PER DEPTH STEP
~WELL INFORMATION BLOCK
#MNEM.UNIT           DATA                    DESCRIPTION OF MNEMONIC
#---------    -------------------            -------------------------------
# Generated from Intellog Unique Number	CS_67_68/WELL/2211
WELL.         12-08-067-01W4                 : Well_name    - WELL
LOC .         00/12-08-067-01W4/0            : Location     - LOCATION
UWI .         00/12-08-067-01W4/0            : Uwi          - UNIQUE WELL ID
ENTR.         SP                             : Entered      - ENTERED BY
SRVC.         SCHLUMBERGER                   : Scn          - SERVICE COMPANY
STRT.M        315                            : top_depth    - START DEPTH
STOP.M        570                            : bot_depth    - STOP DEPTH
STEP.M        0.25                           : increment    - STEP LENGTH
 NULL. -999.2500:NULL Value
~CURVE INFORMATION BLOCK
#MNEM UNIT       ERCB CURVE CODE    CURVE DESCRIPTION
#-----------   ------------------   ----------------------------------
DEPT.M        00 001 00 00         : DEPTH        - DEPTH
ILD .OHMM     00 120 00 00         : RESD         - DEEP RESISTIVITY (DIL)
DPHI.V/V      00 890 00 00         : PHID         - DENSITY POROSITY (LIMESTONE)
NPHI.V/V      00 330 00 00         : PHIN         - NEUTRON POROSITY (LIMESTONE)
GR  .API      00 310 00 00         : GR           - GAMMA RAY
CALI.MM       00 280 01 00         : CAL          - CALIPER
~PARAMETER INFORMATION
#MNEM.UNIT           DATA             DESCRIPTION OF MNEMONIC
#---------         -----------     ------------------------------
GL  .M        609.53               : gl           - GROUND LEVEL ELEVATION
EREF.M        613.4                : kb           - ELEVATION OF DEPTH REFERENCE
DATM.M        613.4                : datum        - DATUM ELEVATION
TDD .M        576                  : tdd          - TOTAL DEPTH DRILLER
RUN .         ONE                  : Run          - RUN NUMBER
ENG .         BILL                 : Engineer     - RECORDING ENGINEER
WIT .         JIM                  : Witness      - WITNESSED BY
MUD .         GEL                  : Mud_type     - MUD TYPE
MATR.         LIMESTONE            : Logunit      - NEUTRON MATRIX
TMAX.C        25                   : BHT          - MAXIMUM RECORDED TEMPERATURE
BHTD.M        575                  : BHTDEP       - MAXIMUM RECORDED TEMPERATURE
MATR.         1                    : LOGUNIT      - NEUTRON MATRIX
RMT .C        25                   : MDTP         - TEMPERATURE OF MUD
NEUT.         1                    : NEUTRON      - NEUTRON TYPE
RESI.         0                    : RESIST       - RESISTIVITY TYPE
RMC .OHMM     0.25                 : RMC          - RESISTIVITY OF MUD CAKE
RMF .OHMM     0.25                 : RMF          - RESISTIVITY OF MUD FILTRATE
SUFT.C        15                   : SUFT         - SURFACE TEMPERATURE
~A  DEPTH     RESD     PHID     PHIN       GR      CAL
# ...
  424.500    6.640    0.358    0.503   63.848  152.634
  424.750    6.727    0.361    0.496   63.841  152.828
  425.000    6.788    0.360    0.494   62.910  153.330
  425.250    6.915    0.354    0.488   60.992  154.141
  425.500    7.110    0.349    0.477   58.767  154.743
  425.750    7.351    0.343    0.462   57.219  155.247
  426.000    7.615    0.335    0.449   56.781  155.647
  426.250    7.976    0.333    0.444   56.834  155.736
  426.500    8.417    0.335    0.430   57.199  155.624
  426.750    8.883    0.336    0.423   58.178  155.407
  427.000    9.305    0.342    0.431   59.096  155.290
  427.250    9.657    0.349    0.444   58.349  155.383
  427.500    9.892    0.356    0.449   58.034  155.165
  427.750   10.094    0.353    0.441   58.706  154.848
  428.000    9.944    0.346    0.434   60.546  154.322
  428.250    9.759    0.340    0.438   62.450  154.106
  428.500    9.348    0.336    0.439   64.416  154.093
  428.750    8.437    0.338    0.436   67.490  154.494
  429.000    7.515    0.317    0.431   70.934  154.893
  429.250    6.695    0.293    0.428   75.795  155.909
  429.500    6.031    0.271    0.460   78.994  157.130
  429.750    5.372    0.251    0.503   81.329  158.453
  430.000    5.061    0.277    0.513   73.186  158.544
  430.250    5.679    0.300    0.493   68.989  157.505
  430.500    6.198    0.317    0.476   65.285  155.541
  430.750    6.553    0.326    0.458   62.567  154.196
  431.000    6.877    0.327    0.447   63.361  153.568
  431.250    6.914    0.332    0.437   65.448  153.352
  431.500    6.773    0.338    0.458   66.058  153.235
  431.750    6.772    0.347    0.472   65.867  153.328
  432.000    6.963    0.354    0.476   66.045  153.522
  432.250    7.226    0.346    0.483   66.716  153.818
  432.500    7.429    0.338    0.500   68.065  154.013
  432.750    7.076    0.336    0.498   69.845  154.413
  433.000    6.507    0.323    0.484   72.303  156.559
  433.250    4.811    0.307    0.476   75.931  162.298
  433.500    4.053    0.293    0.478   77.898  169.580
  433.750    3.551    0.297    0.527   77.090  181.482
  434.000    3.363    0.326    0.571   78.868  186.299
  434.250    3.413    0.345    0.570   79.910  179.404
  434.500    3.629    0.350    0.546   78.979  173.642
  434.750    3.997    0.320    0.520   82.053  166.440
  435.000    4.354    0.289    0.492   86.484  161.294
  435.250    4.779    0.273    0.484   91.284  157.585
  435.500    4.716    0.258    0.501   92.078  159.935
  435.750    4.047    0.243    0.500   92.749  164.237
  436.000    3.592    0.249    0.487   94.838  167.409
  436.250    3.170    0.223    0.492   97.357  169.248
  436.500    2.931    0.219    0.516  100.493  169.955
  436.750    2.808    0.238    0.528  102.520  169.533
  437.000    2.797    0.256    0.531  101.958  168.905
  437.250    2.924    0.270    0.539   96.960  167.764
  437.500    3.251    0.287    0.551   88.695  166.211
  437.750    3.844    0.296    0.539   79.814  168.871
  438.000    4.761    0.305    0.483   70.624  168.859
  438.250    5.393    0.301    0.484   75.487  166.691
  438.500    6.189    0.291    0.535   78.376  167.604
  438.750    6.340    0.314    0.575   73.684  168.619
  439.000    6.374    0.331    0.530   71.152  167.375
  439.250    6.493    0.336    0.502   70.098  165.104
  439.500    6.651    0.321    0.487   70.520  163.552
  439.750    6.116    0.312    0.477   70.947  163.952
  440.000    4.398    0.305    0.466   78.766  166.406
  440.250    3.110    0.279    0.495   84.983  168.036
  440.500    2.615    0.255    0.525   89.968  168.540
  440.750    2.486    0.241    0.538   94.892  167.501
  441.000    2.486    0.274    0.557   89.831  163.585
  441.250    2.758    0.286    0.497   81.997  159.158
  441.500    3.261    0.277    0.466   78.170  157.298
  441.750    4.336    0.283    0.464   76.868  158.416
  442.000    4.820    0.298    0.489   78.586  159.638
  442.250    4.856    0.299    0.506   79.629  160.961
  442.500    4.774    0.294    0.517   80.608  162.285
  442.750    5.152    0.291    0.507   78.814  161.555
  443.000    5.200    0.288    0.487   76.773  160.412
  443.250    5.248    0.280    0.468   77.628  161.018
  443.500    5.365    0.271    0.451   79.470  163.779
  443.750    5.149    0.279    0.474   81.004  170.136
  444.000    4.726    0.304    0.496   83.400  177.314
  444.250    4.394    0.310    0.512   85.674  176.275
  444.500    4.032    0.295    0.523   88.009  168.458
  444.750    3.994    0.281    0.534   87.448  162.490
  445.000    4.208    0.262    0.519   86.209  158.370
  445.250    4.499    0.248    0.506   85.336  155.686
  445.500    4.891    0.259    0.503   85.332  154.649
  445.750    5.468    0.261    0.495   85.756  153.815
  446.000    5.946    0.254    0.459   86.118  153.598
  446.250    6.428    0.249    0.440   84.633  152.663
  446.500    6.835    0.262    0.451   80.189  151.214
  446.750    7.119    0.269    0.462   75.314  149.353
  447.000    7.654    0.279    0.486   70.747  148.213
  447.250    8.654    0.097    0.303   61.620  147.789
  447.500    9.712    0.068    0.277   48.733  147.573
  447.750   10.461    0.115    0.312   49.772  147.254
  448.000   11.040    0.199    0.391   55.373  147.550
  448.250   11.479    0.267    0.443   59.188  147.846
  448.500   11.736    0.304    0.474   61.215  147.527
  448.750   11.475    0.318    0.488   61.886  146.283
  449.000   10.810    0.323    0.476   61.077  145.860
  449.250   10.808    0.323    0.464   61.009  145.541
  449.500   11.175    0.317    0.463   61.865  145.941
  449.750   11.511    0.310    0.458   61.304  146.441
  450.000   11.617    0.305    0.447   61.667  146.740
  450.250   11.232    0.303    0.439   65.974  147.548
  450.500   10.174    0.295    0.437   71.205  148.257
  450.750    9.013    0.279    0.435   77.238  149.887
  451.000    7.288    0.256    0.430   83.948  152.240
  451.250    5.773    0.221    0.431   90.164  154.077
  451.500    4.964    0.232    0.450   92.808  155.193
  451.750    4.556    0.237    0.465   94.034  155.800
  452.000    4.308    0.230    0.475   95.999  156.301
  452.250    4.142    0.225    0.483   98.026  156.700
  452.500    3.894    0.222    0.500   99.128  156.793
  452.750    3.723    0.231    0.494   97.642  156.780
  453.000    3.620    0.235    0.503   96.156  156.770
  453.250    3.391    0.239    0.496   94.794  156.244
  453.500    3.010    0.239    0.491   92.322  155.822
  453.750    2.632    0.243    0.523   88.432  155.606
  454.000    2.335    0.263    0.546   85.898  155.389
  454.250    2.172    0.276    0.557   84.165  155.275
  454.500    2.065    0.280    0.554   83.235  155.366
  454.750    1.989    0.282    0.547   81.809  155.046
  455.000    1.930    0.283    0.540   81.003  154.724
  455.250    1.905    0.284    0.554   79.948  154.716
  455.500    1.922    0.291    0.570   79.387  154.292
  455.750    1.926    0.295    0.577   79.626  154.075
  456.000    1.929    0.295    0.571   79.804  153.960
  456.250    1.947    0.293    0.554   80.167  154.155
  456.500    1.976    0.291    0.556   79.729  154.143
  456.750    2.001    0.292    0.561   81.694  154.338
  457.000    2.061    0.290    0.542   83.721  154.634
  457.250    2.131    0.284    0.527   85.624  154.932
  457.500    2.275    0.278    0.522   86.232  154.714
  457.750    2.432    0.283    0.549   85.611  154.394
  458.000    2.897    0.290    0.569   83.632  153.972
  458.250    3.815    0.294    0.587   78.264  153.551
  458.500    4.596    0.296    0.510   71.293  152.717
  458.750    5.333    0.298    0.490   66.294  151.679
  459.000    5.919    0.300    0.485   69.615  150.127
  459.250    6.387    0.307    0.480   71.086  148.883
  459.500    6.616    0.313    0.479   70.156  147.740
  459.750    6.739    0.322    0.476   68.485  147.729
  460.000    6.751    0.312    0.472   65.951  148.027
  460.250    6.993    0.304    0.468   63.172  148.734
  460.500    7.862    0.313    0.474   63.904  149.542
  460.750    8.989    0.322    0.484   62.664  150.148
