~VERSION INFORMATION
 VERS.                 2.0:   CWLS LOG ASCII STANDARD -VERSION 2.0
 WRAP.                  NO:   ONE LINE PER DEPTH STEP
~WELL INFORMATION BLOCK
#MNEM.UNIT           DATA                    DESCRIPTION OF MNEMONIC
#---------    -------------------            -------------------------------
# Generated from Intellog Unique Number	CC_80_83/WELL/2384
NULL.         -999.25                        : NULL_VALUE
WELL.         BVX ET AL WATCHUSK             : Well_name    - WELL
LOC .         10-29-081-02W4                 : Location     - LOCATION          
UWI .         00/10-29-081-02W400            : Uwi          - UNIQUE WELL ID    
ENTR.         DW                             : Entered      - ENTERED BY        
SRVC.         SCHLUMBERGER                   : Scn          - SERVICE COMPANY   
DATE.         14 FEB 79                      : Date         - LOG DATE
STRT.M        125                            : top_depth    - START DEPTH       
STOP.M        265.101                        : bot_depth    - STOP DEPTH        
STEP.M        0.3                            : increment    - STEP LENGTH       
~CURVE INFORMATION BLOCK
#MNEM UNIT       ERCB CURVE CODE    CURVE DESCRIPTION
#-----------   ------------------   ----------------------------------
DEPT.M        00 001 00 00         : DEPTH        - DEPTH                       
DPHI.V/V      00 890 00 00         : PHID         - DENSITY POROSITY (LIMESTONE)
NPHI.V/V      00 330 00 00         : PHIN         - NEUTRON POROSITY (LIMESTONE)
GR  .API      00 310 00 00         : GR           - GAMMA RAY                   
ILD .OHMM     00 120 00 00         : RESD         - DEEP RESISTIVITY (DIL)      
~PARAMETER INFORMATION       
#MNEM.UNIT           DATA             DESCRIPTION OF MNEMONIC
#---------         -----------     ------------------------------
GL  .M        474                  : gl           - GROUND LEVEL ELEVATION      
EREF.M        477                  : kb           - ELEVATION OF DEPTH REFERENCE
DATM.M        477                  : datum        - DATUM ELEVATION             
TDD .M        276                  : tdd          - TOTAL DEPTH DRILLER         
RUN .         ONE                  : Run          - RUN NUMBER                  
ENG .         BILL                 : Engineer     - RECORDING ENGINEER          
WIT .         JIM                  : Witness      - WITNESSED BY                
MUD .         GEL                  : Mud_type     - MUD TYPE                    
MATR.         LIMESTONE            : Logunit      - NEUTRON MATRIX              
TMAX.C        24.4                 : BHT          - MAXIMUM RECORDED TEMPERATURE
BHTD.M        276                  : BHTDEP       - MAXIMUM RECORDED TEMPERATURE
MATR.         1                    : LOGUNIT      - NEUTRON MATRIX              
RMT .C        25                   : MDTP         - TEMPERATURE OF MUD          
NEUT.         1                    : NEUTRON      - NEUTRON TYPE                
RESI.         0                    : RESIST       - RESISTIVITY TYPE            
RMC .OHMM     0.25                 : RMC          - RESISTIVITY OF MUD CAKE     
RMF .OHMM     0.25                 : RMF          - RESISTIVITY OF MUD FILTRATE 
SUFT.C        15                   : SUFT         - SURFACE TEMPERATURE         
~A  DEPTH     PHID     PHIN       GR     RESD
# ...
  229.401    0.292    0.421   69.559    2.720
  229.701    0.288    0.417   73.257    2.987
  230.001    0.269    0.426   65.886    3.159
  230.301    0.289    0.416   68.355    3.219
  230.601    0.263    0.411   73.900    3.042
  230.901    0.256    0.417   73.910    3.099
  231.201    0.260    0.425   72.074    3.278
  231.501    0.282    0.432   65.316    3.668
  231.801    0.329    0.456   56.714    4.028
  232.101    0.337    0.463   51.186    3.879
  232.401    0.318    0.436   55.500    3.401
  232.701    0.301    0.415   62.276    2.871
  233.001    0.299    0.410   65.977    2.565
  233.301    0.289    0.428   64.758    2.517
  233.601    0.278    0.447   63.534    2.613
  233.901    0.277    0.460   60.467    2.816
  234.201    0.289    0.470   53.095    3.035
  234.501    0.317    0.475   43.879    3.034
  234.801    0.334    0.444   42.656    2.977
  235.101    0.327    0.423   42.666    2.761
  235.401    0.322    0.424   45.135    2.610
  235.701    0.322    0.415   48.837    2.513
  236.001    0.330    0.409   48.228    2.420
  236.301    0.336    0.407   45.164    2.465
  236.601    0.333    0.422   46.402    2.511
  236.901    0.331    0.439   50.101    2.559
  237.201    0.327    0.435   59.337    2.464
  237.501    0.307    0.433   73.494    2.510
  237.801    0.269    0.449   84.576    2.705
  238.101    0.229    0.467   84.585    2.971
  238.401    0.240    0.439   72.907    3.651
  238.701    0.257    0.428   62.458    4.085
  239.001    0.263    0.423   58.161    4.162
  239.301    0.285    0.418   57.556    3.789
  239.601    0.286    0.441   45.877    3.449
  239.901    0.300    0.423   43.428    2.967
  240.201    0.318    0.416   45.280    2.651
  240.501    0.317    0.422   45.904    2.505
  240.801    0.322    0.424   43.454    2.412
  241.101    0.330    0.417   38.544    2.412
  241.401    0.340    0.408   39.167    2.322
  241.701    0.345    0.407   42.866    2.236
  242.001    0.325    0.412   52.718    2.154
  242.301    0.306    0.427   52.728    2.113
  242.601    0.318    0.444   52.735    2.113
  242.901    0.324    0.446   60.126    2.152
  243.201    0.288    0.417   61.980    2.193
  243.501    0.286    0.430   53.378    2.276
  243.801    0.316    0.447   52.773    2.276
  244.101    0.316    0.424   55.242    2.275
  244.401    0.303    0.397   61.401    2.318
  244.701    0.271    0.393   73.097    2.361
  245.001    0.210    0.398   80.489    2.497
  245.301    0.242    0.409   81.113    2.743
  245.601    0.249    0.417   82.968    3.069
  245.901    0.234    0.419   97.125    3.633
  246.201    0.200    0.426   97.135    4.465
  246.501    0.203    0.432   92.836    4.812
  246.801    0.210    0.426   84.849    5.090
  247.101    0.225    0.431   83.627    5.284
  247.401    0.240    0.440   68.874    5.088
  247.701    0.275    0.446   52.891    3.986
  248.001    0.324    0.442   49.825    2.738
  248.301    0.346    0.443   52.909    2.185
  248.601    0.337    0.448   58.455    1.845
  248.901    0.337    0.462   62.155    1.744
  249.201    0.332    0.460   64.622    1.711
  249.501    0.319    0.443   71.399    1.743
  249.801    0.289    0.426   76.943    1.951
  250.101    0.251    0.415   88.024    2.183
  250.401    0.207    0.409   91.111    2.633
  250.701    0.188    0.400   91.119    3.297
  251.001    0.187    0.399   84.363    3.690
  251.301    0.211    0.397   76.990    4.052
  251.601    0.219    0.365   59.159    3.829
  251.901    0.240    0.344   49.942    2.835
  252.201    0.288    0.372   43.184    2.439
  252.501    0.305    0.404   41.966    2.179
  252.801    0.294    0.397   46.281    1.947
  253.101    0.304    0.392   50.593    1.875
  253.401    0.307    0.398   59.829    1.739
  253.701    0.294    0.403   70.911    1.674
  254.001    0.265    0.421   83.221    1.738
  254.301    0.219    0.458   83.230    1.804
  254.601    0.183    0.443   61.096    2.259
  254.901    0.191    0.395   56.798    2.830
  255.201    0.194    0.318   94.946    3.544
  255.501    0.163    0.329  111.562    4.274
  255.801    0.157    0.348  114.648    4.783
  256.101    0.162    0.390  117.118    5.557
  256.401    0.163    0.388  128.198    6.456
  256.701    0.142    0.362  131.283    7.934
  257.001    0.131    0.340  115.299    8.392
  257.301    0.131    0.327  112.848    8.235
  257.601    0.142    0.323  130.695    8.080
  257.901    0.153    0.337  146.697    7.494
  258.201    0.163    0.414  147.323    6.694
  258.501    0.165    0.451  139.335    6.326
  258.801    0.152    0.477  124.580    5.979
  259.101    0.107    0.486  107.981    5.145
  259.401    0.068    0.481   87.076    4.772
  259.701    0.091    0.453   66.172    4.682
  260.001    0.050    0.292   59.414    4.952
  260.301    0.043    0.255   53.887    7.343
  260.601    0.052    0.236   52.667    8.693
  260.901    0.054    0.231   57.597   12.650
  261.201    0.039    0.235   62.527   13.634
  261.501    0.037    0.250   66.842   13.629
  261.801    0.052    0.267   68.082   13.374
  262.101    0.065    0.296   71.166   12.638
  262.401    0.076    0.322   69.945   12.171
  262.701    0.070    0.281   58.883   12.169
  263.001    0.060    0.263   66.886   12.632
  263.301    0.061    0.285   76.738   13.614
  263.601    0.037    0.314   71.212   14.400
  263.901    0.015    0.290   60.147   15.231
  264.201    0.010    0.258   49.700   16.727
  264.501    0.021    0.232   47.864   18.369
  264.801    0.048    0.216   66.326   19.796
  265.101    0.064    0.255   76.177   19.064
