~VERSION INFORMATION
 VERS.                 2.0:   CWLS LOG ASCII STANDARD -VERSION 2.0
 WRAP.                  NO:   ONE LINE PER DEPTH STEP
~WELL INFORMATION BLOCK
#MNEM.UNIT           DATA                    DESCRIPTION OF MNEMONIC
#---------    -------------------            -------------------------------
# Generated from Intellog Unique Number	CS_77_79/WELL/989
WELL.         PARAMOUNT RESOURCES LTD.       : Well_name    - WELL
LOC .         00/11-06-077-09W4/0            : Location     - LOCATION
UWI .         00/11-06-077-09W4/0            : Uwi          - UNIQUE WELL ID
ENTR.         SP                             : Entered      - ENTERED BY
SRVC.         SCHLUMBERGER                   : Scn          - SERVICE COMPANY
STRT.M        210                            : top_depth    - START DEPTH
STOP.M        425                            : bot_depth    - STOP DEPTH
STEP.M        0.25                           : increment    - STEP LENGTH
 NULL. -999.2500:NULL Value
~CURVE INFORMATION BLOCK
#MNEM UNIT       ERCB CURVE CODE    CURVE DESCRIPTION
#-----------   ------------------   ----------------------------------
DEPT.M        00 001 00 00         : DEPTH        - DEPTH
ILD .OHMM     00 120 00 00         : RESD         - DEEP RESISTIVITY (DIL)
GR  .API      00 310 00 00         : GR           - GAMMA RAY
NPHI.V/V      00 330 00 00         : PHIN         - NEUTRON POROSITY (LIMESTONE)
DPHI.V/V      00 890 00 00         : PHID         - DENSITY POROSITY (LIMESTONE)
~PARAMETER INFORMATION
#MNEM.UNIT           DATA             DESCRIPTION OF MNEMONIC
#---------         -----------     ------------------------------
GL  .M        627.96               : gl           - GROUND LEVEL ELEVATION
EREF.M        631                  : kb           - ELEVATION OF DEPTH REFERENCE
DATM.M        627.96               : datum        - DATUM ELEVATION
TDD .M        431                  : tdd          - TOTAL DEPTH DRILLER
RUN .         ONE                  : Run          - RUN NUMBER
ENG .         BILL                 : Engineer     - RECORDING ENGINEER
WIT .         JIM                  : Witness      - WITNESSED BY
MUD .         GEL                  : Mud_type     - MUD TYPE
MATR.         LIMESTONE            : Logunit      - NEUTRON MATRIX
TMAX.C        21                   : BHT          - MAXIMUM RECORDED TEMPERATURE
BHTD.M        431                  : BHTDEP       - MAXIMUM RECORDED TEMPERATURE
MATR.         1                    : LOGUNIT      - NEUTRON MATRIX
RMT .C        25                   : MDTP         - TEMPERATURE OF MUD
NEUT.         1                    : NEUTRON      - NEUTRON TYPE
RESI.         0                    : RESIST       - RESISTIVITY TYPE
RMC .OHMM     0.25                 : RMC          - RESISTIVITY OF MUD CAKE
RMF .OHMM     0.25                 : RMF          - RESISTIVITY OF MUD FILTRATE
SUFT.C        15                   : SUFT         - SURFACE TEMPERATURE
~A  DEPTH     RESD       GR     PHIN     PHID
  210.000    3.454  102.026    0.545    0.322
  210.250    3.300  102.638    0.548    0.318
  210.500    3.221  102.034    0.533    0.326
  210.750    3.064  100.217    0.545    0.330
  211.000    2.907   99.614    0.564    0.333
  211.250    2.911   97.796    0.578    0.332
  211.500    2.913   95.979    0.586    0.328
  211.750    2.918   94.768    0.588    0.316
  212.000    2.920   95.380    0.597    0.309
  212.250    2.845   97.206    0.603    0.305
  212.500    2.847   98.425    0.543    0.293
  212.750    3.013   98.428    0.561    0.283
  213.000    3.016   96.611    0.573    0.301
  213.250    3.099   96.007    0.578    0.309
  213.500    3.102   94.798    0.552    0.306
  213.750    3.105   93.588    0.557    0.304
  214.000    3.190   92.376    0.568    0.273
  214.250    3.194   89.952    0.574    0.258
  214.500    3.277   88.134    0.551    0.258
  214.750    3.362   86.924    0.544    0.270
  215.000    3.445   89.357    0.547    0.279
  215.250    3.529   91.791    0.552    0.288
  215.500    3.613   93.617    0.544    0.289
  215.750    3.697   94.835    0.499    0.272
  216.000    3.781   96.055    0.508    0.278
  216.250    3.783   98.489    0.527    0.290
  216.500    3.949  100.314    0.546    0.291
  216.750    3.952  101.533    0.558    0.265
  217.000    4.035   99.715    0.537    0.256
  217.250    4.281  100.934    0.522    0.271
  217.500    4.363  101.545    0.518    0.257
  217.750    4.527  100.942    0.522    0.262
  218.000    4.612   97.303    0.534    0.260
  218.250    4.695   94.271    0.544    0.258
  218.500    4.779   93.667    0.549    0.267
  218.750    4.703   95.493    0.544    0.277
  219.000    4.625   97.927    0.542    0.283
  219.250    4.629  100.360    0.553    0.270
  219.500    4.632  102.186    0.543    0.272
  219.750    4.799  100.368    0.531    0.285
  220.000    4.881   97.337    0.549    0.273
  220.250    5.126   97.340    0.533    0.267
  220.500    5.371   88.843    0.545    0.295
  220.750    5.776   76.094    0.562    0.343
  221.000    6.181   70.632    0.579    0.414
  221.250    6.585   66.385    0.591    0.494
  221.500    7.312   63.354    0.603    0.550
  221.750    8.038   65.788    0.500    0.393
  222.000    9.407   67.613    0.448    0.299
  222.250   11.901   70.654    0.409    0.268
  222.500   12.467   73.088    0.424    0.265
  222.750   13.193   74.306    0.409    0.274
  223.000   14.241   63.986    0.400    0.283
  223.250   16.172   57.310    0.381    0.303
  223.500   17.461   48.205    0.377    0.315
  223.750   18.669   43.958    0.385    0.299
  224.000   19.797   43.963    0.397    0.312
  224.250   20.283   46.396    0.412    0.322
  224.500   20.447   45.186    0.401    0.333
  224.750   20.450   44.583    0.386    0.309
  225.000   20.374   45.803    0.386    0.318
  225.250   20.297   46.413    0.395    0.324
  225.500   20.220   48.240    0.385    0.328
  225.750   20.223   50.065    0.375    0.325
  226.000   20.227   53.714    0.401    0.268
  226.250   20.311   55.539    0.408    0.197
  226.500   20.476   48.863    0.383    0.196
  226.750   20.559   45.831    0.374    0.276
  227.000   20.562   46.442    0.397    0.296
  227.250   20.406   49.483    0.421    0.311
  227.500   20.169   50.095    0.423    0.307
  227.750   20.011   49.492    0.412    0.301
  228.000   19.935   50.711    0.404    0.296
  228.250   19.938   57.395    0.404    0.283
  228.500   19.941   64.079    0.424    0.277
  228.750   20.106   70.764    0.441    0.266
  229.000   20.350   71.983    0.463    0.291
  229.250   20.594   71.988    0.440    0.302
  229.500   20.598   73.206    0.428    0.314
  229.750   20.521   77.462    0.423    0.316
  230.000   20.043   79.894    0.428    0.304
  230.250   18.922   84.757    0.430    0.314
  230.500   18.041   88.405    0.436    0.319
  230.750   17.001   90.839    0.458    0.337
  231.000   16.041   92.665    0.471    0.339
  231.250   15.240   96.312    0.446    0.311
  231.500   14.602   98.138    0.458    0.294
  231.750   14.364   90.855    0.476    0.307
  232.000   14.288   98.754    0.486    0.302
  232.250   14.210   94.508    0.496    0.265
  232.500   14.216   87.224    0.498    0.275
  232.750   14.218   83.584    0.476    0.280
  233.000   14.221   85.411    0.483    0.297
  233.250   14.064   87.237    0.485    0.320
  233.500   13.746   87.848    0.489    0.299
  233.750   12.223   91.497    0.480    0.311
  234.000   10.540   90.893    0.470    0.274
  234.250   10.142   86.040    0.476    0.272
  234.500    9.985   84.221    0.478    0.289
  234.750   10.471   78.153    0.481    0.322
  235.000   11.357   61.760    0.481    0.350
  235.250   14.413   50.833    0.444    0.332
  235.500   15.782   46.587    0.422    0.330
  235.750   15.866   45.983    0.426    0.351
  236.000   15.549   56.919    0.445    0.363
  236.250   15.873   63.603    0.512    0.375
  236.500   16.600   67.251    0.584    0.320
  236.750   17.486   66.648    0.534    0.316
  237.000   18.615   66.044    0.490    0.306
  237.250   19.181   67.264    0.455    0.314
  237.500   19.425   68.483    0.456    0.324
  237.750   19.189   72.739    0.450    0.329
  238.000   19.032   75.779    0.451    0.329
  238.250   18.713   70.317    0.456    0.322
  238.500   18.315   66.677    0.460    0.330
  238.750   18.319   69.719    0.450    0.335
  239.000   18.403   72.759    0.461    0.337
  239.250   18.728   64.261    0.454    0.338
  239.500   19.052   66.088    0.443    0.338
  239.750   19.376   66.699    0.449    0.333
  240.000   19.782   66.096    0.463    0.343
  240.250   19.866   68.530    0.472    0.332
  240.500   19.709   72.180    0.468    0.326
  240.750   19.150   74.004    0.478    0.328
  241.000   18.591   75.830    0.479    0.338
  241.250   17.631   74.012    0.463    0.336
  241.500   16.269   77.053    0.445    0.309
  241.750   15.227   78.878    0.456    0.276
  242.000   13.866   74.025    0.463    0.262
  242.250   12.424   79.496    0.459    0.297
  242.500   11.543   83.750    0.449    0.306
  242.750   10.904   88.005    0.441    0.287
  243.000   10.426   90.438    0.432    0.288
  243.250   10.509   96.516    0.432    0.293
  243.500   10.593   95.305    0.440    0.291
  243.750   10.196   95.309    0.430    0.280
  244.000    9.797   98.957    0.424    0.253
  244.250    8.836  105.034    0.420    0.218
  244.500    7.715  112.326    0.432    0.226
  244.750    6.515  119.010    0.447    0.240
  245.000    5.956  122.051    0.456    0.231
  245.250    5.720  122.663    0.475    0.198
  245.500    5.641  121.452    0.495    0.201
  245.750    5.967  120.849    0.511    0.215
  246.000    6.612  126.927    0.491    0.231
  246.250    7.499  129.967    0.460    0.243
  246.500    9.029  131.186    0.456    0.249
  246.750    9.996  129.368    0.461    0.262
  247.000   11.205  128.158    0.447    0.270
  247.250   12.092  120.269    0.442    0.284
  247.500   12.658  117.235    0.453    0.282
  247.750   12.581  111.167    0.456    0.278
  248.000   12.345  106.920    0.439    0.249
  248.250   11.866  105.710    0.408    0.234
  248.500   11.306  113.002    0.417    0.239
  248.750   10.828  117.864    0.446    0.240
  249.000   10.832  120.904    0.460    0.254
  249.250   10.917  120.301    0.471    0.261
  249.500   10.999  119.092    0.427    0.254
  249.750   11.164  118.488    0.429    0.233
  250.000   11.409  115.456    0.433    0.241
  250.250   11.733  111.209    0.446    0.258
  250.500   12.459  103.926    0.467    0.278
  250.750   13.668   96.642    0.428    0.298
  251.000   15.438   86.930    0.431    0.309
  251.250   16.566   77.824    0.434    0.310
  251.500   17.052   68.719    0.421    0.296
  251.750   16.734   74.796    0.416    0.297
  252.000   15.935   82.090    0.414    0.274
  252.250   14.733   85.737    0.408    0.250
  252.500   12.568   90.599    0.396    0.222
  252.750   10.402   96.676    0.394    0.220
  253.000    8.879  105.183    0.409    0.232
  253.250    8.080  114.904    0.448    0.243
