~VERSION INFORMATION
 VERS.                 2.0:   CWLS LOG ASCII STANDARD -VERSION 2.0
 WRAP.                  NO:   ONE LINE PER DEPTH STEP
~WELL INFORMATION BLOCK
#MNEM.UNIT           DATA                    DESCRIPTION OF MNEMONIC
#---------    -------------------            -------------------------------
# Generated from Intellog Unique Number	CW_79_81/WELL/222
WELL.         MEGA ET AL MISTAHAE 10-06      : Well_name    - WELL
LOC .         00/10-06-080-01W5/0            : Location     - LOCATION
UWI .         00/10-06-080-01W5/0            : Uwi          - UNIQUE WELL ID
ENTR.         JJ                             : Entered      - ENTERED BY
SRVC.         COMPUTALOG                     : Scn          - SERVICE COMPANY
DATE.         3 MAR 89                       : Date         - LOG DATE
STRT.M        285                            : top_depth    - START DEPTH
STOP.M        535                            : bot_depth    - STOP DEPTH
STEP.M        0.25                           : increment    - STEP LENGTH
 NULL. -999.2500:NULL Value
~CURVE INFORMATION BLOCK
#MNEM UNIT       ERCB CURVE CODE    CURVE DESCRIPTION
#-----------   ------------------   ----------------------------------
DEPT.M        00 001 00 00         : DEPTH        - DEPTH
DPHI.V/V      00 890 00 00         : PHID         - DENSITY POROSITY (SANDSTONE)
NPHI.V/V      00 330 00 00         : PHIN         - NEUTRON POROSITY (SANDSTONE)
GR  .API      00 310 00 00         : GR           - GAMMA RAY
CALI.MM       00 280 01 00         : CAL          - CALIPER
ILD .OHMM     00 120 00 00         : RESD         - DEEP RESISTIVITY (DIL)
~PARAMETER INFORMATION
#MNEM.UNIT           DATA             DESCRIPTION OF MNEMONIC
#---------         -----------     ------------------------------
GL  .M        605                  : gl           - GROUND LEVEL ELEVATION
EREF.M        608.64               : kb           - ELEVATION OF DEPTH REFERENCE
DATM.M        608.64               : datum        - DATUM ELEVATION
TDD .M        555                  : tdd          - TOTAL DEPTH DRILLER
RUN .         ONE                  : Run          - RUN NUMBER
ENG .         GAIR                 : Engineer     - RECORDING ENGINEER
WIT .         STRONG               : Witness      - WITNESSED BY
BASE.         RED DEER             : Branch       - HOME BASE OF LOGGING UNIT
MUD .         GEL CHEM             : Mud_type     - MUD TYPE
MATR.         SANDSTONE            : Logunit      - NEUTRON MATRIX
TMAX.C        37                   : BHT          - MAXIMUM RECORDED TEMPERATURE
BHTD.M        554.9                : BHTDEP       - MAXIMUM RECORDED TEMPERATURE
RMT .C        19                   : MDTP         - TEMPERATURE OF MUD
MUDD.KG/M     1140                 : MWT          - MUD DENSITY
NEUT.         1                    : NEUTRON      - NEUTRON TYPE
RESI.         0                    : RESIST       - RESISTIVITY TYPE
RM  .OHMM     4.1                  : RM           - RESISTIVITY OF MUD
RMC .OHMM     2.8                  : RMC          - RESISTIVITY OF MUD CAKE
RMF .OHMM     4.3                  : RMF          - RESISTIVITY OF MUD FILTRATE
SUFT.C        5                    : SUFT         - SURFACE TEMPERATURE
~A  DEPTH     PHID     PHIN       GR      CAL     RESD
# ...
  504.000    0.133    0.433   88.200  165.634    6.146
  504.250    0.157    0.436   96.990  168.458    6.281
  504.500    0.180    0.425  100.615  173.074    6.452
  504.750    0.168    0.408   92.968  170.959    6.948
  505.000    0.137    0.396   86.360  163.277    7.217
  505.250    0.078    0.388   83.986  162.864    7.584
  505.500    0.100    0.388   86.993  162.702    7.763
  505.750    0.198    0.408   94.359  162.639    7.388
  506.000    0.196    0.413  101.338  162.783    7.286
  506.250    0.165    0.412  108.949  163.051    7.584
  506.500    0.150    0.405  105.255  163.538    8.091
  506.750    0.177    0.395   89.038  163.508    8.596
  507.000    0.194    0.377   79.332  164.007    9.395
  507.250    0.200    0.342   86.567  164.874   10.114
  507.500    0.195    0.356   91.502  165.754   10.528
  507.750    0.177    0.392   96.692  166.635    9.871
  508.000    0.186    0.389   99.829  166.672    8.981
  508.250    0.218    0.385   94.340  175.228    8.097
  508.500    0.228    0.390   96.800  178.493    7.451
  508.750    0.240    0.420  100.501  168.413    7.012
  509.000    0.243    0.447  105.008  165.802    7.245
  509.250    0.253    0.460  110.500  165.649    7.889
  509.500    0.271    0.454  102.544  166.123    8.782
  509.750    0.200    0.404   82.212  164.937   10.075
  510.000    0.128    0.369   65.886  162.236   12.021
  510.250    0.102    0.326   63.738  161.781   15.896
  510.500    0.130    0.307   74.201  161.727   15.896
  510.750    0.175    0.299   81.802  161.895   18.806
  511.000    0.169    0.303   89.301  162.266   15.823
  511.250    0.166    0.317   95.101  162.629   13.588
  511.500    0.191    0.344  101.894  163.293   11.494
  511.750    0.215    0.365  104.533  163.519   10.114
  512.000    0.223    0.364  101.656  163.424   10.450
  512.250    0.225    0.362   90.090  163.617   11.419
  512.500    0.226    0.353   72.835  163.806   13.124
  512.750    0.232    0.344   64.923  163.959   16.409
  513.000    0.234    0.336   59.427  163.793   18.720
  513.250    0.235    0.324   55.180  163.961   19.635
  513.500    0.240    0.333   68.190  163.915   18.613
  513.750    0.250    0.363   77.154  163.857   15.401
  514.000    0.263    0.383   86.068  164.005   14.249
  514.250    0.282    0.395   84.683  164.326   13.637
  514.500    0.271    0.387   80.188  162.678   13.397
  514.750    0.255    0.361   80.836  162.851   13.435
  515.000    0.241    0.347   83.546  162.908   13.447
  515.250    0.237    0.339   81.299  162.763   13.360
  515.500    0.234    0.326   81.207  163.130   13.275
  515.750    0.227    0.309   84.341  163.439   13.310
  516.000    0.215    0.311   85.998  163.566   13.275
  516.250    0.217    0.320   83.235  163.132   13.137
  516.500    0.222    0.327   79.976  162.549   12.906
  516.750    0.213    0.336   77.610  161.586   12.799
  517.000    0.197    0.331   75.216  161.044   12.502
  517.250    0.177    0.330   70.788  160.395   11.723
  517.500    0.158    0.335   76.845  160.659   10.847
  517.750    0.158    0.341   90.710  161.715   10.019
  518.000    0.174    0.347  103.090  162.747    9.411
  518.250    0.189    0.356  111.318  162.899    9.007
  518.500    0.200    0.371  108.944  163.055    8.831
  518.750    0.199    0.363  107.051  163.129    8.775
  519.000    0.193    0.344  106.466  163.108    8.966
  519.250    0.184    0.335  108.559  162.905    9.197
  519.500    0.174    0.334  107.107  162.974    9.394
  519.750    0.167    0.332  103.224  163.032    9.705
  520.000    0.174    0.329   97.996  163.006   10.010
  520.250    0.166    0.324   94.192  162.865   10.401
  520.500    0.149    0.317   90.879  162.418   10.626
  520.750    0.123    0.311   87.316  161.935   10.776
  521.000    0.101    0.304   84.919  161.385   10.767
  521.250    0.060    0.303   86.012  161.847   10.518
  521.500    0.069    0.308   93.759  162.870   10.315
  521.750    0.111    0.317   99.422  163.654   10.132
  522.000    0.143    0.324  102.705  164.112    9.863
  522.250    0.158    0.336  103.594  163.966    9.798
  522.500    0.159    0.348  103.712  163.726    9.808
  522.750    0.156    0.363  103.487  163.899    9.853
  523.000    0.162    0.357  100.917  163.977    9.843
  523.250    0.170    0.349   98.523  164.001    9.761
  523.500    0.173    0.342   96.585  164.384    9.660
  523.750    0.170    0.348   99.095  164.565    9.093
  524.000    0.164    0.367  103.613  164.841    8.197
  524.250    0.157    0.388  107.667  165.068    7.541
  524.500    0.165    0.407  113.102  165.331    6.648
  524.750    0.174    0.457  112.829  165.810    6.175
  525.000    0.170    0.473  110.453  166.854    5.630
  525.250    0.161    0.485  111.852  166.977    5.229
  525.500    0.147    0.494  114.250  166.316    4.921
  525.750    0.113    0.500  110.563  165.947    4.605
  526.000    0.042    0.481  100.912  166.735    4.319
  526.250    0.099    0.471  106.843  168.465    4.163
  526.500    0.133    0.463  116.010  170.182    4.067
  526.750    0.124    0.461  120.812  170.950    4.063
  527.000    0.123    0.468  115.152  171.217    4.090
  527.250    0.143    0.485  114.758  170.857    4.109
  527.500    0.144    0.480  118.328  171.253    4.083
  527.750    0.138    0.473  122.574  171.930    4.064
  528.000    0.143    0.476  122.678  170.220    4.014
  528.250    0.136    0.483  114.095  167.708    3.936
  528.500    0.132    0.488  109.528  167.249    3.867
  528.750    0.128    0.495  110.566  169.685    3.771
  529.000    0.114    0.495  113.080  171.518    3.476
  529.250    0.096    0.438  110.391  170.439    3.087
  529.500    0.070    0.402  103.052  167.089    2.726
  529.750    0.034    0.333   81.486  163.120    2.391
  530.000    0.005    0.261   52.985  159.440    2.752
  530.250    0.061    0.221   24.420  157.743    3.714
  530.500    0.088    0.200   17.014  157.197    5.464
  530.750    0.111    0.196   13.394  157.555   11.743
  531.000    0.117    0.208   12.811  158.125   19.725
  531.250    0.110    0.217   12.736  158.211   24.113
  531.500    0.111    0.223   12.937  158.474   26.402
  531.750    0.124    0.227   13.360  158.746   28.264
  532.000    0.121    0.225   14.269  158.935   31.408
  532.250    0.109    0.219   14.860  159.059   33.627
  532.500    0.092    0.211   14.944  159.070   33.598
  532.750    0.082    0.216   14.240  158.971   32.157
  533.000    0.092    0.224   14.302  158.838   30.828
  533.250    0.109    0.230   15.196  158.986   29.343
  533.500    0.115    0.234   16.469  159.274   28.395
  533.750    0.118    0.237   17.616  159.748   26.772
  534.000    0.120    0.239   17.596  159.896   25.291
  534.250    0.127    0.239   16.336  160.280   23.979
  534.500    0.142    0.235   15.806  160.329   23.336
  534.750    0.143    0.228   15.662  159.977   23.184
  535.000    0.124    0.218   15.956  159.828   23.162
