~VERSION INFORMATION
 VERS.                 2.0:   CWLS LOG ASCII STANDARD -VERSION 2.0
 WRAP.                  NO:   ONE LINE PER DEPTH STEP
~WELL INFORMATION BLOCK
#MNEM.UNIT           DATA                    DESCRIPTION OF MNEMONIC
#---------    -------------------            -------------------------------
# Generated from Intellog Unique Number	CS_69_70/WELL/886
NULL.         -999.25                        : NULL_VALUE
WELL.         MAYNARD ENERGY                 : Well_name    - WELL              
LOC .         00/11-06-070-15W4/0            : Location     - LOCATION          
UWI .         00/11-06-070-15W4/0            : Uwi          - UNIQUE WELL ID    
ENTR.         SP                             : Entered      - ENTERED BY        
SRVC.         SCHLUMBERGER                   : Scn          - SERVICE COMPANY   
STRT.M        270                            : top_depth    - START DEPTH       
STOP.M        492                            : bot_depth    - STOP DEPTH        
STEP.M        0.25                           : increment    - STEP LENGTH       
~CURVE INFORMATION BLOCK
#MNEM UNIT       ERCB CURVE CODE    CURVE DESCRIPTION
#-----------   ------------------   ----------------------------------
DEPT.M        00 001 00 00         : DEPTH        - DEPTH                       
ILD .OHMM     00 120 00 00         : RESD         - DEEP RESISTIVITY (DIL)      
DPHI.V/V      00 890 00 00         : PHID         - DENSITY POROSITY (LIMESTONE)
NPHI.V/V      00 330 00 00         : PHIN         - NEUTRON POROSITY (LIMESTONE)
GR  .API      00 310 00 00         : GR           - GAMMA RAY                   
~PARAMETER INFORMATION       
#MNEM.UNIT           DATA             DESCRIPTION OF MNEMONIC
#---------         -----------     ------------------------------
GL  .M        562.71               : gl           - GROUND LEVEL ELEVATION      
EREF.M        565.41               : kb           - ELEVATION OF DEPTH REFERENCE
DATM.M        562.71               : datum        - DATUM ELEVATION             
TDD .M        494                  : tdd          - TOTAL DEPTH DRILLER         
RUN .         ONE                  : Run          - RUN NUMBER                  
ENG .         BILL                 : Engineer     - RECORDING ENGINEER          
WIT .         JIM                  : Witness      - WITNESSED BY                
MUD .         GEL                  : Mud_type     - MUD TYPE                    
MATR.         LIMESTONE            : Logunit      - NEUTRON MATRIX              
TMAX.C        21                   : BHT          - MAXIMUM RECORDED TEMPERATURE
BHTD.M        494                  : BHTDEP       - MAXIMUM RECORDED TEMPERATURE
MATR.         1                    : LOGUNIT      - NEUTRON MATRIX              
RMT .C        25                   : MDTP         - TEMPERATURE OF MUD          
NEUT.         1                    : NEUTRON      - NEUTRON TYPE                
RESI.         0                    : RESIST       - RESISTIVITY TYPE            
RMC .OHMM     0.25                 : RMC          - RESISTIVITY OF MUD CAKE     
RMF .OHMM     0.25                 : RMF          - RESISTIVITY OF MUD FILTRATE 
SUFT.C        15                   : SUFT         - SURFACE TEMPERATURE         
~A  DEPTH     RESD     PHID     PHIN       GR
# ...
  400.500    3.479    0.317    0.387   70.356
  400.750    3.546    0.337    0.391   70.915
  401.000    3.596    0.330    0.396   72.328
  401.250    3.679    0.317    0.402   73.804
  401.500    3.772    0.307    0.404   74.973
  401.750    3.740    0.298    0.397   75.840
  402.000    3.742    0.293    0.389   75.243
  402.250    3.776    0.291    0.384   74.524
  402.500    3.787    0.301    0.381   74.290
  402.750    3.813    0.309    0.377   75.764
  403.000    3.871    0.296    0.379   78.094
  403.250    3.987    0.281    0.383   80.057
  403.500    4.316    0.278    0.385   81.167
  403.750    4.398    0.267    0.379   81.300
  404.000    4.621    0.239    0.372   84.301
  404.250    4.695    0.196    0.369   87.972
  404.500    4.779    0.160    0.373   91.092
  404.750    4.788    0.159    0.381   95.008
  405.000    4.725    0.181    0.389   97.885
  405.250    4.645    0.197    0.393   97.166
  405.500    4.598    0.204    0.394   94.739
  405.750    4.608    0.211    0.393   92.678
  406.000    4.659    0.214    0.392   91.777
  406.250    4.734    0.213    0.392   91.481
  406.500    4.809    0.213    0.392   91.557
  406.750    4.901    0.218    0.394   92.301
  407.000    4.976    0.226    0.400   92.311
  407.250    5.092    0.240    0.407   91.714
  407.500    5.232    0.249    0.411   91.175
  407.750    5.324    0.253    0.414   92.651
  408.000    5.383    0.237    0.416   94.675
  408.250    5.392    0.222    0.417   97.250
  408.500    5.166    0.210    0.414   99.033
  408.750    4.940    0.204    0.410   99.223
  409.000    4.616    0.205    0.405   96.796
  409.250    4.252    0.220    0.410   98.149
  409.500    3.943    0.230    0.422  100.909
  409.750    3.790    0.236    0.445  103.665
  410.000    3.743    0.241    0.461  105.808
  410.250    3.729    0.229    0.476  108.443
  410.500    3.764    0.220    0.480  109.368
  410.750    3.807    0.212    0.482  109.016
  411.000    3.841    0.208    0.488  108.722
  411.250    3.899    0.205    0.496  109.222
  411.500    3.974    0.219    0.501  110.212
  411.750    4.000    0.229    0.503  110.769
  412.000    3.961    0.236    0.497  110.906
  412.250    3.817    0.230    0.492  108.964
  412.500    3.615    0.225    0.485  109.830
  412.750    3.470    0.221    0.482  111.915
  413.000    3.423    0.228    0.481  113.818
  413.250    3.433    0.229    0.485  114.805
  413.500    3.484    0.224    0.483  115.001
  413.750    3.551    0.221    0.469  114.161
  414.000    3.659    0.203    0.452  112.468
  414.250    3.807    0.193    0.439  111.682
  414.500    4.118    0.200    0.432  110.901
  414.750    4.364    0.214    0.423  109.757
  415.000    4.684    0.226    0.409  107.145
  415.250    4.946    0.217    0.390   99.597
  415.500    5.274    0.194    0.376   95.706
  415.750    5.610    0.182    0.360   91.939
  416.000    6.093    0.186    0.344   90.181
  416.250    6.567    0.187    0.326   87.451
  416.500    7.155    0.197    0.296   83.438
  416.750    7.816    0.153    0.256   79.181
  417.000    8.625    0.108    0.234   75.900
  417.250    9.140    0.040    0.226   75.058
  417.500    8.734    0.009    0.244   79.948
  417.750    7.734    0.083    0.270   84.900
  418.000    6.645    0.170    0.303   89.058
  418.250    5.832    0.207    0.339   92.669
  418.500    5.092    0.236    0.371   94.386
  418.750    4.752    0.249    0.388   94.949
  419.000    5.023    0.246    0.399   93.679
  419.250    5.212    0.238    0.407   93.693
  419.500    5.417    0.216    0.400   94.801
  419.750    5.598    0.196    0.396   95.910
  420.000    5.780    0.180    0.391   97.448
  420.250    5.790    0.172    0.389   98.803
  420.500    5.719    0.173    0.392  100.098
  420.750    5.655    0.169    0.393  100.721
  421.000    5.591    0.169    0.396  100.670
  421.250    5.512    0.177    0.400  100.434
  421.500    5.457    0.184    0.403   99.714
  421.750    5.458    0.192    0.403  100.584
  422.000    5.485    0.182    0.401  101.322
  422.250    5.626    0.171    0.399  102.371
  422.500    5.765    0.164    0.399  103.176
  422.750    5.889    0.157    0.402  103.616
  423.000    6.022    0.147    0.405  103.749
  423.250    6.023    0.139    0.407  103.212
  423.500    6.025    0.144    0.408  100.237
  423.750    6.027    0.188    0.405   98.907
  424.000    6.029    0.184    0.397   98.614
  424.250    5.998    0.184    0.388   99.296
  424.500    5.862    0.188    0.383  100.042
  424.750    5.814    0.185    0.383  100.479
  425.000    5.719    0.178    0.384  101.350
  425.250    5.712    0.166    0.389  101.662
  425.500    5.722    0.153    0.395  102.773
  425.750    5.790    0.150    0.402  103.516
  426.000    5.865    0.154    0.404  104.015
  426.250    5.964    0.158    0.407  104.698
  426.500    6.071    0.165    0.393  104.526
  426.750    6.310    0.171    0.376  102.955
  427.000    6.466    0.153    0.362  101.258
  427.250    6.590    0.127    0.348   98.162
  427.500    6.559    0.085    0.337   95.733
  427.750    6.056    0.068    0.338   93.611
  428.000    5.528    0.105    0.356   94.415
  428.250    4.927    0.147    0.374   96.380
  428.500    4.367    0.155    0.393   98.466
  428.750    3.978    0.169    0.406  100.430
  429.000    3.605    0.158    0.420  102.026
  429.250    3.420    0.175    0.441  103.441
  429.500    3.218    0.195    0.464  104.794
  429.750    3.130    0.211    0.486  106.516
  430.000    3.319    0.219    0.464  107.743
  430.250    3.745    0.220    0.432  109.220
  430.500    4.422    0.207    0.408  107.036
  430.750    5.369    0.195    0.390  101.866
  431.000    6.405    0.175    0.372   98.159
  431.250    7.564    0.151    0.357   95.366
  431.500    8.307    0.140    0.344   93.730
  431.750    8.602    0.128    0.334   92.462
  432.000    8.539    0.120    0.329   90.891
  432.250    8.321    0.109    0.339   89.986
  432.500    7.858    0.111    0.348   87.986
  432.750    7.697    0.147    0.361   87.570
  433.000    8.359    0.188    0.373   87.833
  433.250    8.890    0.184    0.358   87.900
  433.500    9.332    0.171    0.298   85.046
  433.750    9.554    0.063    0.277   78.961
  434.000    9.116    0.055    0.268   78.240
  434.250    8.229    0.091    0.269   86.058
  434.500    7.009    0.130    0.290   93.936
  434.750    6.319    0.154    0.312  100.533
  435.000    5.856    0.178    0.343  103.654
  435.250    5.606    0.186    0.369  105.069
  435.500    5.388    0.176    0.379  105.202
  435.750    5.211    0.166    0.379  103.873
  436.000    5.074    0.160    0.382  103.338
  436.250    4.921    0.164    0.388  103.656
  436.500    4.849    0.177    0.398  104.093
  436.750    4.664    0.184    0.407  104.653
  437.000    4.585    0.173    0.411  103.933
  437.250    4.562    0.161    0.414  105.287
  437.500    4.564    0.153    0.418  107.677
  437.750    4.589    0.143    0.420  110.433
  438.000    4.624    0.133    0.421  112.091
  438.250    4.691    0.135    0.418  111.432
  438.500    4.693    0.140    0.414  108.456
  438.750    4.687    0.159    0.412  106.947
  439.000    4.688    0.164    0.411  106.956
  439.250    4.698    0.154    0.414  108.311
  439.500    4.708    0.147    0.418  110.159
  439.750    4.653    0.165    0.419  110.590
  440.000    4.582    0.155    0.417  111.335
  440.250    4.494    0.148    0.412  111.467
  440.500    4.366    0.142    0.407  110.751
  440.750    4.245    0.135    0.402  110.214
  441.000    4.206    0.129    0.399  110.227
  441.250    4.061    0.126    0.405  110.357
  441.500    3.916    0.137    0.415  112.015
  441.750    3.747    0.163    0.427  113.124
  442.000    3.651    0.188    0.440  114.053
  442.250    3.571    0.203    0.448  114.002
  442.500    3.524    0.193    0.451  112.246
  442.750    3.551    0.180    0.437  111.953
  443.000    3.593    0.170    0.430  113.734
  443.250    3.546    0.161    0.419  113.990
  443.500    3.393    0.153    0.413  110.831
  443.750    3.281    0.149    0.412  108.343
