~VERSION INFORMATION
 VERS.                 2.0:   CWLS LOG ASCII STANDARD -VERSION 2.0
 WRAP.                  NO:   ONE LINE PER DEPTH STEP
~WELL INFORMATION BLOCK
#MNEM.UNIT           DATA                    DESCRIPTION OF MNEMONIC
#---------    -------------------            -------------------------------
# Generated from Intellog Unique Number	CS_77_79/WELL/947
WELL.         CDN-SUP THORNBURY              : Well_name    - WELL
LOC .         00/10-11-078-14W4/0            : Location     - LOCATION
UWI .         00/10-11-078-14W4/0            : Uwi          - UNIQUE WELL ID
ENTR.         JHS                            : Entered      - ENTERED BY
SRVC.         SCHLUMBERGER                   : Scn          - SERVICE COMPANY
STRT.M        275                            : top_depth    - START DEPTH
STOP.M        514                            : bot_depth    - STOP DEPTH
STEP.M        0.25                           : increment    - STEP LENGTH
 NULL. -999.2500:NULL Value
~CURVE INFORMATION BLOCK
#MNEM UNIT       ERCB CURVE CODE    CURVE DESCRIPTION
#-----------   ------------------   ----------------------------------
DEPT.M        00 001 00 00         : DEPTH        - DEPTH
DPHI.V/V      00 890 00 00         : PHID         - DENSITY POROSITY (LIMESTONE)
NPHI.V/V      00 330 00 00         : PHIN         - NEUTRON POROSITY (LIMESTONE)
GR  .API      00 310 00 00         : GR           - GAMMA RAY
ILD .OHMM     00 120 00 00         : RESD         - DEEP RESISTIVITY (DIL)
~PARAMETER INFORMATION
#MNEM.UNIT           DATA             DESCRIPTION OF MNEMONIC
#---------         -----------     ------------------------------
GL  .M        682.2                : gl           - GROUND LEVEL ELEVATION
EREF.M        686.7                : kb           - ELEVATION OF DEPTH REFERENCE
DATM.M        686.7                : datum        - DATUM ELEVATION
TDD .M        635                  : tdd          - TOTAL DEPTH DRILLER
RUN .         ONE                  : Run          - RUN NUMBER
ENG .         BILL                 : Engineer     - RECORDING ENGINEER
WIT .         JIM                  : Witness      - WITNESSED BY
MUD .         GEL                  : Mud_type     - MUD TYPE
MATR.         LIMESTONE            : Logunit      - NEUTRON MATRIX
TMAX.C        21                   : BHT          - MAXIMUM RECORDED TEMPERATURE
BHTD.M        635                  : BHTDEP       - MAXIMUM RECORDED TEMPERATURE
MATR.         1                    : LOGUNIT      - NEUTRON MATRIX
RMT .C        25                   : MDTP         - TEMPERATURE OF MUD
NEUT.         1                    : NEUTRON      - NEUTRON TYPE
RESI.         0                    : RESIST       - RESISTIVITY TYPE
RMC .OHMM     0.25                 : RMC          - RESISTIVITY OF MUD CAKE
RMF .OHMM     0.25                 : RMF          - RESISTIVITY OF MUD FILTRATE
SUFT.C        15                   : SUFT         - SURFACE TEMPERATURE
~A  DEPTH     PHID     PHIN       GR     RESD
# ...
  449.000    0.156    0.422   94.376    6.092
  449.250    0.202    0.455   91.321    5.757
  449.500    0.203    0.473   86.431    5.545
  449.750    0.186    0.457   87.048    5.340
  450.000    0.186    0.455   90.728    5.142
  450.250    0.207    0.500   91.347    4.681
  450.500    0.244    0.555   87.681    4.260
  450.750    0.268    0.571   84.626    3.596
  451.000    0.271    0.546   80.346    2.869
  451.250    0.260    0.535   84.027    2.515
  451.500    0.249    0.535   85.870    2.289
  451.750    0.249    0.519   83.428    2.123
  452.000    0.252    0.511   85.271    2.123
  452.250    0.223    0.515   89.564    2.163
  452.500    0.202    0.483   88.348    2.205
  452.750    0.199    0.459   87.741    2.377
  453.000    0.181    0.432   84.073    2.661
  453.250    0.172    0.430   85.305    3.152
  453.500    0.176    0.437   88.986    3.665
  453.750    0.154    0.437   87.157    4.260
  454.000    0.171    0.442   87.775    5.142
  454.250    0.135    0.434   90.843    5.978
  454.500    0.135    0.426   92.686    6.207
  454.750    0.171    0.446   95.754    6.325
  455.000    0.145    0.459   93.313    6.092
  455.250    0.174    0.465   90.869    5.650
  455.500    0.177    0.459   88.428    5.441
  455.750    0.187    0.438   87.210    5.340
  456.000    0.203    0.413   83.542    5.441
  456.250    0.181    0.397   81.712    5.978
  456.500    0.152    0.393   84.169    6.820
  456.750    0.158    0.417   86.623    7.353
  457.000    0.190    0.432   87.245    7.216
  457.250    0.174    0.447   87.249    6.693
  457.500    0.178    0.454   87.868    6.325
  457.750    0.164    0.468   91.549    5.545
  458.000    0.184    0.486   95.842    4.952
  458.250    0.192    0.489   99.521    4.026
  458.500    0.179    0.496  101.977    3.734
  458.750    0.198    0.498  103.821    3.596
  459.000    0.196    0.455  103.214    3.665
  459.250    0.183    0.443  106.282    3.665
  459.500    0.189    0.462  102.004    3.805
  459.750    0.198    0.460  100.173    3.951
  460.000    0.186    0.434   98.956    4.181
  460.250    0.158    0.427   95.289    4.341
  460.500    0.151    0.431   99.583    4.508
  460.750    0.179    0.457  100.813    4.508
  461.000    0.198    0.484   98.372    4.424
  461.250    0.182    0.459   97.152    4.424
  461.500    0.167    0.452   94.710    4.593
  461.750    0.175    0.442   90.431    4.770
  462.000    0.136    0.437   91.661    5.240
  462.250    0.137    0.436   91.668    5.441
  462.500    0.194    0.431   84.328    5.978
  462.750    0.206    0.413   76.377    6.820
  463.000    0.199    0.390   71.486    7.635
  463.250    0.213    0.378   71.491    8.548
  463.500    0.223    0.408   76.398    9.217
  463.750    0.204    0.381   77.629    9.937
  464.000    0.199    0.356   77.635   10.515
  464.250    0.202    0.344   76.416   10.918
  464.500    0.187    0.344   72.136   11.126
  464.750    0.216    0.360   61.124   12.456
  465.000    0.260    0.373   59.905   13.179
  465.250    0.259    0.368   67.874   12.692
  465.500    0.235    0.373   72.163   11.995
  465.750    0.206    0.385   75.843   11.337
  466.000    0.210    0.387   80.136   10.918
  466.250    0.218    0.397   86.878   10.515
  466.500    0.203    0.413   94.231   10.126
  466.750    0.185    0.429  104.034    9.045
  467.000    0.187    0.443  108.327    8.232
  467.250    0.168    0.425  108.947    8.232
  467.500    0.164    0.406  109.565    8.548
  467.750    0.174    0.396  104.061    9.392
  468.000    0.197    0.370   90.598   11.772
  468.250    0.230    0.361   78.972   14.210
  468.500    0.251    0.348   70.407   17.811
  468.750    0.275    0.329   71.028   19.940
  469.000    0.278    0.322   73.482   21.908
  469.250    0.292    0.328   75.937   24.070
  469.500    0.272    0.341   77.168   26.445
  469.750    0.259    0.365   77.176   26.948
  470.000    0.246    0.369   80.856   25.952
  470.250    0.222    0.381   83.311   24.070
  470.500    0.181    0.377   82.094   21.908
  470.750    0.186    0.377   78.427   20.705
  471.000    0.214    0.376   73.536   20.705
  471.250    0.177    0.353   72.932   21.099
  471.500    0.146    0.356   71.714   21.499
  471.750    0.144    0.369   68.658   23.180
  472.000    0.171    0.380   64.991   24.993
  472.250    0.240    0.386   69.283   25.952
  472.500    0.210    0.382   74.800   25.952
  472.750    0.198    0.380   80.930   23.621
  473.000    0.180    0.387   86.448   20.705
  473.250    0.159    0.387   88.289   17.479
  473.500    0.175    0.393   90.747   15.321
  473.750    0.188    0.387   93.815   14.480
  474.000    0.165    0.382   96.271   14.210
  474.250    0.173    0.382   97.500   14.480
  474.500    0.180    0.396   93.833   15.612
  474.750    0.188    0.399   71.187   17.153
  475.000    0.189    0.384   62.622   19.568
  475.250    0.187    0.371   55.281   23.621
  475.500    0.175    0.387   50.391   29.607
  475.750    0.178    0.392   45.499   36.417
  476.000    0.258    0.376   48.569   41.546
  476.250    0.250    0.367   51.635   47.397
  476.500    0.235    0.364   55.927   53.063
  476.750    0.229    0.382   59.608   55.099
  477.000    0.276    0.395   58.391   54.072
  477.250    0.266    0.384   61.458   54.072
  477.500    0.264    0.366   67.587   57.213
  477.750    0.253    0.362   74.329   53.063
  478.000    0.247    0.370   76.784   46.513
  478.250    0.242    0.363   79.852   38.533
  478.500    0.241    0.374   85.981   33.776
  478.750    0.241    0.393   86.600   34.418
  479.000    0.251    0.413   82.934   36.417
  479.250    0.248    0.414   79.879   37.109
  479.500    0.231    0.415   86.009   37.109
  479.750    0.236    0.403   93.362   35.072
  480.000    0.235    0.383  101.940   31.922
  480.250    0.232    0.371  104.396   27.981
  480.500    0.235    0.388  101.953   24.993
  480.750    0.229    0.399   98.900   23.621
  481.000    0.225    0.395  106.864   21.099
  481.250    0.199    0.388  114.832   19.203
  481.500    0.198    0.385  116.677   17.153
  481.750    0.200    0.389  119.131   15.612
  482.000    0.179    0.395  123.422   13.685
  482.250    0.161    0.401  122.205   11.995
  482.500    0.138    0.411  119.762   10.126
  482.750    0.132    0.432  122.218    9.392
  483.000    0.141    0.437  121.612    8.876
  483.250    0.147    0.430  114.885    8.711
  483.500    0.169    0.415  110.606    9.045
  483.750    0.183    0.404  106.326    9.937
  484.000    0.218    0.404   92.864   12.223
  484.250    0.253    0.399   73.278   14.755
  484.500    0.260    0.380   67.774   17.811
  484.750    0.222    0.372   76.965   20.705
  485.000    0.213    0.364   84.319   22.324
  485.250    0.204    0.369   88.611   20.319
  485.500    0.193    0.364   94.128   17.811
  485.750    0.190    0.372   99.645   16.211
  486.000    0.157    0.388  103.325   15.909
  486.250    0.170    0.389   98.434   15.909
  486.500    0.179    0.370   94.767   16.211
  486.750    0.168    0.358   97.224   16.211
  487.000    0.163    0.347   98.455   15.909
  487.250    0.162    0.353   96.625   15.612
  487.500    0.184    0.376   92.345   14.755
  487.750    0.194    0.392   86.230   14.210
  488.000    0.195    0.418   78.889   16.211
  488.250    0.232    0.415   60.528   17.811
  488.500    0.250    0.394   52.575   19.203
  488.750    0.258    0.395   56.868   19.940
  489.000    0.247    0.401   55.038   22.748
  489.250    0.256    0.400   51.372   24.527
  489.500    0.270    0.384   47.705   27.459
  489.750    0.271    0.375   44.037   31.922
  490.000    0.269    0.379   39.147   37.109
  490.250    0.260    0.392   36.705   45.646
  490.500    0.281    0.398   34.873   54.072
  490.750    0.286    0.397   36.717   57.213
  491.000    0.272    0.391   37.336   60.536
  491.250    0.266    0.384   36.119   67.774
  491.500    0.269    0.374   33.677   74.462
  491.750    0.271    0.365   33.072   74.462
  492.000    0.282    0.358   37.976   69.062
  492.250    0.294    0.360   47.165   45.646
