~VERSION INFORMATION
 VERS.                 2.0:   CWLS LOG ASCII STANDARD -VERSION 2.0
 WRAP.                  NO:   ONE LINE PER DEPTH STEP
~WELL INFORMATION BLOCK
#MNEM.UNIT           DATA                    DESCRIPTION OF MNEMONIC
#---------    -------------------            -------------------------------
# Generated from Intellog Unique Number	CW_76_78/WELL/2822
WELL.         PELICAN EAST 11-36             : Well_name    - WELL
LOC .         00/11-36-078-21W4/0            : Location     - LOCATION
UWI .         00/11-36-078-21W4/0            : Uwi          - UNIQUE WELL ID
ENTR.         JJ                             : Entered      - ENTERED BY
SRVC.         WESTERN ATLAS                  : Scn          - SERVICE COMPANY
DATE.         15 MAR 77                      : Date         - LOG DATE
STRT.M        198.12                         : top_depth    - START DEPTH
STOP.M        399.37                         : bot_depth    - STOP DEPTH
STEP.M        0.25                           : increment    - STEP LENGTH
 NULL. -999.2500:NULL Value
~CURVE INFORMATION BLOCK
#MNEM UNIT       ERCB CURVE CODE    CURVE DESCRIPTION
#-----------   ------------------   ----------------------------------
DEPT.M        00 001 00 00         : DEPTH        - DEPTH
ILD .OHMM     00 120 00 00         : RESD         - DEEP RESISTIVITY (DIL)
CALI.MM       00 280 01 00         : CAL          - CALIPER
GR  .API      00 310 00 00         : GR           - GAMMA RAY
NPHI.V/V      00 330 00 00         : PHIN         - NEUTRON POROSITY (SANDSTONE)
DPHI.V/V      00 890 00 00         : PHID         - DENSITY POROSITY (SANDSTONE)
~PARAMETER INFORMATION
#MNEM.UNIT           DATA             DESCRIPTION OF MNEMONIC
#---------         -----------     ------------------------------
GL  .M        561.35               : gl           - GROUND LEVEL ELEVATION
EREF.M        565.343              : kb           - ELEVATION OF DEPTH REFERENCE
DATM.M        565.343              : datum        - DATUM ELEVATION
TDD .M        508.406              : tdd          - TOTAL DEPTH DRILLER
RUN .         ONE                  : Run          - RUN NUMBER
ENG .         OFFORD               : Engineer     - RECORDING ENGINEER
BASE.         BROOKS               : Branch       - HOME BASE OF LOGGING UNIT
MATR.         SANDSTONE            : Logunit      - NEUTRON MATRIX
TMAX.C        20                   : BHT          - MAXIMUM RECORDED TEMPERATURE
BHTD.M        505.054              : BHTDEP       - MAXIMUM RECORDED TEMPERATURE
RMT .C        20                   : MDTP         - TEMPERATURE OF MUD
MUDD.KG/M     1044                 : MWT          - MUD DENSITY
NEUT.         1                    : NEUTRON      - NEUTRON TYPE
RESI.         0                    : RESIST       - RESISTIVITY TYPE
RM  .OHMM     9                    : RM           - RESISTIVITY OF MUD
RMC .OHMM     0                    : RMC          - RESISTIVITY OF MUD CAKE
RMF .OHMM     0                    : RMF          - RESISTIVITY OF MUD FILTRATE
SUFT.C        5                    : SUFT         - SURFACE TEMPERATURE
~A  DEPTH     RESD      CAL       GR     PHIN     PHID
  198.120    3.234  201.900  100.405    0.471    0.472
  198.370    3.331  199.133  102.967    0.477    0.477
  198.620    3.358  198.778  103.371    0.480    0.473
  198.870    3.366  203.002  102.417    0.487    0.399
  199.120    3.362  201.808   99.248    0.500    0.384
  199.370    3.389  200.923   98.663    0.495    0.459
  199.620    3.379  193.678  100.727    0.489    0.519
  199.870    3.308  180.806   91.214    0.486    0.510
  200.120    3.554  171.052   87.428    0.481    0.223
  200.370    3.674  188.318   93.132    0.473    0.402
  200.620    3.565  198.814   95.256    0.467    0.388
  200.870    3.632  203.559   94.985    0.463    0.381
  201.120    3.776  212.271   97.664    0.462    0.400
  201.370    3.848  210.140   98.682    0.473    0.410
  201.620    3.830  211.966   94.406    0.478    0.571
  201.870    3.743  210.253   90.811    0.480    0.577
  202.120    3.665  206.968   89.430    0.487    0.529
  202.370    3.479  208.695   89.024    0.489    0.542
  202.620    3.285  208.025   88.997    0.486    0.551
  202.870    3.102  209.123   92.294    0.482    0.460
  203.120    2.908  196.353   87.029    0.478    0.454
  203.370    2.822  188.998   80.593    0.472    0.474
  203.620    2.923  184.359   76.076    0.464    0.341
  203.870    3.622  182.858   74.931    0.452    0.331
  204.120    4.690  183.138   77.681    0.434    0.324
  204.370    5.576  183.487   79.802    0.433    0.316
  204.620    7.636  183.752   82.734    0.435    0.309
  204.870    9.396  184.539   86.465    0.437    0.300
  205.120    9.786  185.434   88.099    0.439    0.295
  205.370    9.513  186.854   82.832    0.439    0.290
  205.620    9.281  188.051   73.317    0.433    0.307
  205.870    9.354  189.571   63.994    0.431    0.331
  206.120    9.812  193.485   58.971    0.439    0.346
  206.370   10.653  197.502   57.715    0.441    0.371
  206.620   11.196  197.664   57.128    0.436    0.391
  206.870   11.408  195.214   56.425    0.427    0.393
  207.120   11.520  188.280   54.922    0.425    0.391
  207.370   11.783  174.989   52.920    0.424    0.385
  207.620   11.983  180.576   51.047    0.418    0.377
  207.870   12.639  198.984   49.978    0.407    0.374
  208.120   13.774  205.403   50.126    0.403    0.374
  208.370   14.981  209.116   50.463    0.411    0.373
  208.620   16.326  211.476   51.606    0.419    0.371
  208.870   17.002  213.294   53.120    0.425    0.377
  209.120   17.015  215.335   55.124    0.436    0.454
  209.370   16.271  218.622   56.879    0.455    0.512
  209.620   13.930  226.712   59.625    0.470    0.538
  209.870   11.926  265.252   61.628    0.488    0.558
  210.120    9.740  280.645   64.988    0.493    0.578
  210.370    7.969  272.776   71.426    0.485    0.570
  210.620    6.652  258.540   79.282    0.475    0.558
  210.870    5.354  267.044   83.509    0.466    0.544
  211.120    4.477  230.492   82.490    0.467    0.556
  211.370    4.122  279.780   77.478    0.477    0.564
  211.620    4.087  246.671   74.248    0.483    0.551
  211.870    4.627  219.603   72.491    0.488    0.558
  212.120    5.745  179.296   70.433    0.486    0.563
  212.370    7.941  179.666   68.797    0.471    0.515
  212.620    9.038  175.031   66.000    0.465    0.379
  212.870   10.552  166.844   63.447    0.477    0.360
  213.120   11.251  169.927   55.105    0.476    0.312
  213.370   11.361  196.476   49.898    0.466    0.331
  213.620   11.124  291.865   51.536    0.465    0.359
  213.870   10.185  357.426   64.690    0.481    0.368
  214.120    9.358  320.873   74.329    0.492    0.371
  214.370    8.174  207.653   79.229    0.463    0.361
  214.620    8.120  187.690   75.505    0.453    0.350
  214.870    8.978  170.011   68.272    0.446    0.367
  215.120   10.294  174.442   62.328    0.435    0.380
  215.370   11.506  180.238   55.277    0.423    0.380
  215.620   12.677  184.888   58.271    0.421    0.443
  215.870   13.369  187.033   60.704    0.430    0.516
  216.120   13.922  186.142   58.398    0.428    0.446
  216.370   14.474  180.884   57.632    0.433    0.364
  216.620   14.829  181.882   61.050    0.441    0.326
  216.870   15.002  190.491   63.609    0.447    0.386
  217.120   14.957  194.413   64.815    0.451    0.406
  217.370   14.751  195.100   66.449    0.452    0.413
  217.620   13.954  195.350   65.989    0.450    0.406
  217.870   12.752  195.617   68.669    0.442    0.385
  218.120   11.018  196.712   72.030    0.434    0.364
  218.370   10.236  198.029   67.381    0.439    0.360
  218.620   10.223  199.457   66.007    0.450    0.359
  218.870   10.533  200.339   67.267    0.453    0.348
  219.120   11.436  201.014   68.902    0.464    0.338
  219.370   11.823  202.013   71.524    0.479    0.330
  219.620   11.745  201.861   73.094    0.486    0.338
  219.870   10.970  202.326   74.358    0.484    0.538
  220.120   10.007  217.087   75.378    0.479    0.559
  220.370    8.821  311.447   77.503    0.472    0.549
  220.620    8.090  310.142   82.342    0.454    0.549
  220.870    7.585  250.321   88.165    0.454    0.549
  221.120    7.828  206.361   87.585    0.462    0.528
  221.370    8.468  212.573   83.059    0.462    0.516
  221.620    9.227  203.761   84.329    0.475    0.513
  221.870   10.296  197.979   81.277    0.479    0.508
  222.120   10.957  255.406   80.696    0.475    0.492
  222.370   11.854  246.182   84.178    0.476    0.289
  222.620   12.189  191.891   81.751    0.464    0.292
  222.870   12.089  190.390   77.098    0.440    0.520
  223.120   11.921  196.292   73.261    0.445    0.554
  223.370   11.929  215.318   71.560    0.442    0.531
  223.620   11.981  250.944   67.712    0.434    0.544
  223.870   11.882  225.967   65.468    0.441    0.519
  224.120   11.465  188.786   62.547    0.437    0.477
  224.370   11.267  189.469   58.084    0.430    0.467
  224.620   11.481  198.288   54.424    0.425    0.562
  224.870   12.375  189.898   50.881    0.425    0.324
  225.120   13.267  179.839   49.066    0.433    0.302
  225.370   13.717  179.687   48.483    0.423    0.293
  225.620   13.579  184.333   52.217    0.416    0.308
  225.870   13.008  196.379   63.639    0.412    0.355
  226.120   12.173  273.725   75.194    0.420    0.565
  226.370   11.226  280.561   77.196    0.446    0.557
  226.620   10.523  309.096   76.430    0.464    0.560
  226.870    9.583  345.456   75.784    0.473    0.547
  227.120    8.869  353.018   78.286    0.482    0.523
  227.370    8.004  365.486   81.521    0.490    0.566
  227.620    7.119  257.793   86.052    0.493    0.598
  227.870    6.389  239.492   91.133    0.499    0.590
  228.120    5.870  246.433   95.047    0.489    0.593
  228.370    5.384  236.996   94.033    0.483    0.597
  228.620    4.842  238.523   90.370    0.494    0.584
  228.870    4.457  272.577   89.911    0.496    0.567
  229.120    4.029  265.540   93.274    0.497    0.550
  229.370    3.917  243.480   95.709    0.500    0.541
  229.620    3.849  247.405   97.591    0.512    0.545
  229.870    3.803  240.054  100.397    0.519    0.559
  230.120    3.785  237.080  100.428    0.516    0.585
  230.370    3.733  226.184   99.358    0.503    0.602
  230.620    3.655  242.929  100.747    0.497    0.588
  230.870    3.598  246.011  102.253    0.510    0.552
  231.120    3.713  229.170  103.641    0.512    0.505
  231.370    4.098  179.264  104.109    0.504    0.429
  231.620    4.863  172.331  103.831    0.492    0.460
  231.870    6.006  232.259  100.969    0.481    0.514
  232.120    6.936  272.062   91.453    0.476    0.592
  232.370    7.316  282.648   92.041    0.473    0.582
  232.620    7.035  230.968   96.697    0.474    0.578
  232.870    6.728  203.185  102.521    0.471    0.555
  233.120    6.552  210.327  101.751    0.476    0.552
  233.370    6.567  189.110   99.136    0.465    0.565
  233.620    6.852  182.384   91.162    0.452    0.310
  233.870    7.631  166.071   86.333    0.440    0.290
  234.120    8.529  167.787   86.918    0.422    0.272
  234.370    9.482  178.712   87.688    0.409    0.281
