~VERSION INFORMATION
 VERS.                 2.0:   CWLS LOG ASCII STANDARD -VERSION 2.0
 WRAP.                  NO:   ONE LINE PER DEPTH STEP
~WELL INFORMATION BLOCK
#MNEM.UNIT           DATA                    DESCRIPTION OF MNEMONIC
#---------    -------------------            -------------------------------
# Generated from Intellog Unique Number	CS_73_76/WELL/2185
WELL.         AMOCO KIRBEY                   : Well_name    - WELL
LOC .         00/10-08-074-04W4/0            : Location     - LOCATION
UWI .         00/10-08-074-04W4/0            : Uwi          - UNIQUE WELL ID
ENTR.         SP                             : Entered      - ENTERED BY
SRVC.         SCHLUMBERGER                   : Scn          - SERVICE COMPANY
STRT.M        207.264                        : top_depth    - START DEPTH
STOP.M        405.014                        : bot_depth    - STOP DEPTH
STEP.M        0.25                           : increment    - STEP LENGTH
 NULL. -999.2500:NULL Value
~CURVE INFORMATION BLOCK
#MNEM UNIT       ERCB CURVE CODE    CURVE DESCRIPTION
#-----------   ------------------   ----------------------------------
DEPT.M        00 001 00 00         : DEPTH        - DEPTH
GR  .API      00 310 00 00         : GR           - GAMMA RAY
DPHI.V/V      00 890 00 00         : PHID         - DENSITY POROSITY (SANDSTONE)
NPHI.V/V      00 330 00 00         : PHIN         - NEUTRON POROSITY (SANDSTONE)
ILD .OHMM     00 120 00 00         : RESD         - DEEP RESISTIVITY (DIL)
~PARAMETER INFORMATION
#MNEM.UNIT           DATA             DESCRIPTION OF MNEMONIC
#---------         -----------     ------------------------------
GL  .M        613.867              : gl           - GROUND LEVEL ELEVATION
EREF.M        616.915              : kb           - ELEVATION OF DEPTH REFERENCE
DATM.M        613.867              : datum        - DATUM ELEVATION
TDD .M        417.576              : tdd          - TOTAL DEPTH DRILLER
RUN .         ONE                  : Run          - RUN NUMBER
ENG .         BILL                 : Engineer     - RECORDING ENGINEER
WIT .         JIM                  : Witness      - WITNESSED BY
MUD .         GEL                  : Mud_type     - MUD TYPE
MATR.         SANDSTONE            : Logunit      - NEUTRON MATRIX
TMAX.C        23.3333              : BHT          - MAXIMUM RECORDED TEMPERATURE
BHTD.M        417.576              : BHTDEP       - MAXIMUM RECORDED TEMPERATURE
MATR.         1                    : LOGUNIT      - NEUTRON MATRIX
RMT .C        25                   : MDTP         - TEMPERATURE OF MUD
NEUT.         1                    : NEUTRON      - NEUTRON TYPE
RESI.         0                    : RESIST       - RESISTIVITY TYPE
RMC .OHMM     0.25                 : RMC          - RESISTIVITY OF MUD CAKE
RMF .OHMM     0.25                 : RMF          - RESISTIVITY OF MUD FILTRATE
SUFT.C        15                   : SUFT         - SURFACE TEMPERATURE
~A  DEPTH       GR     PHID     PHIN     RESD
# ...
  337.764   71.215    0.237    0.366    2.551
  338.014   71.871    0.238    0.354    2.475
  338.264   73.579    0.220    0.364    2.407
  338.514   75.235    0.194    0.393    2.285
  338.764   77.904    0.184    0.407    2.219
  339.014   79.084    0.172    0.417    2.220
  339.264   77.943    0.175    0.416    2.174
  339.514   76.460    0.183    0.417    2.148
  339.764   76.210    0.191    0.429    2.075
  340.014   76.858    0.201    0.438    1.910
  340.264   76.886    0.204    0.447    1.746
  340.514   76.008    0.206    0.451    1.707
  340.764   75.647    0.208    0.451    1.682
  341.014   76.017    0.199    0.455    1.686
  341.264   76.185    0.198    0.450    1.650
  341.514   74.584    0.208    0.451    1.654
  341.764   73.732    0.208    0.458    1.653
  342.014   75.359    0.208    0.450    1.694
  342.264   77.881    0.207    0.448    1.719
  342.514   79.477    0.207    0.455    1.768
  342.764   79.404    0.214    0.463    1.822
  343.014   79.865    0.218    0.436    1.892
  343.264   81.033    0.226    0.420    2.072
  343.514   78.162    0.243    0.408    2.200
  343.764   75.648    0.260    0.399    2.526
  344.014   72.190    0.278    0.385    2.903
  344.264   70.420    0.299    0.326    4.000
  344.514   67.538    0.322    0.273    6.003
  344.764   63.537    0.339    0.224    9.357
  345.014   60.318    0.343    0.184   14.779
  345.264   54.918    0.330    0.192   21.342
  345.514   51.862    0.319    0.192   24.656
  345.764   48.409    0.317    0.191   24.666
  346.014   46.251    0.319    0.193   23.498
  346.264   45.944    0.324    0.201   22.386
  346.514   46.519    0.329    0.211   20.921
  346.764   47.318    0.335    0.207   20.343
  347.014   48.966    0.338    0.200   19.741
  347.264   48.957    0.336    0.190   19.919
  347.514   48.903    0.336    0.178   21.109
  347.764   47.829    0.335    0.166   22.097
  348.014   47.823    0.327    0.163   22.196
  348.264   47.870    0.311    0.172   21.223
  348.514   48.920    0.297    0.184   20.679
  348.764   49.920    0.315    0.197   19.759
  349.014   50.927    0.337    0.209   19.836
  349.264   51.998    0.359    0.221   19.763
  349.514   52.277    0.366    0.214   21.508
  349.764   53.347    0.370    0.199   23.090
  350.014   55.070    0.377    0.186   24.746
  350.264   55.287    0.381    0.168   26.172
  350.514   56.390    0.378    0.156   27.317
  350.764   56.711    0.373    0.153   27.868
  351.014   57.792    0.367    0.162   28.462
  351.264   58.215    0.362    0.166   28.880
  351.514   58.623    0.361    0.164   29.567
  351.764   58.235    0.358    0.152   30.257
  352.014   57.168    0.355    0.110   32.211
  352.264   55.915    0.320    0.109   34.191
  352.514   54.541    0.237    0.134   33.068
  352.764   51.210    0.086    0.146   30.802
  353.014   50.173    0.077    0.148   27.212
  353.264   49.179    0.097    0.170   23.762
  353.514   48.399    0.162    0.195   22.114
  353.764   50.004    0.202    0.220   20.723
  354.014   50.973    0.231    0.234   20.453
  354.264   51.012    0.240    0.242   21.049
  354.514   51.056    0.246    0.245   22.196
  354.764   50.112    0.249    0.249   22.901
  355.014   47.112    0.239    0.254   23.015
  355.264   44.862    0.235    0.262   22.040
  355.514   44.309    0.228    0.250   21.100
  355.764   45.651    0.222    0.227   19.488
  356.014   47.423    0.208    0.197   18.390
  356.264   49.795    0.200    0.218   17.319
  356.514   52.589    0.209    0.229   16.376
  356.764   53.486    0.215    0.247   15.618
  357.014   54.191    0.221    0.263   15.212
  357.264   54.187    0.215    0.272   16.358
  357.514   53.589    0.210    0.270   17.680
  357.764   52.931    0.221    0.270   18.971
  358.014   52.234    0.227    0.273   17.492
  358.264   51.013    0.232    0.277   14.770
  358.514   51.771    0.234    0.285   11.947
  358.764   52.434    0.225    0.293    9.760
  359.014   54.139    0.228    0.305    8.589
  359.264   54.595    0.242    0.307    8.147
  359.514   55.431    0.247    0.307    7.178
  359.764   56.110    0.244    0.321    6.235
  360.014   56.096    0.239    0.336    5.200
  360.264   55.494    0.234    0.349    4.771
  360.514   55.462    0.235    0.343    4.813
  360.764   55.388    0.237    0.330    4.975
  361.014   54.401    0.240    0.320    4.904
  361.264   52.682    0.229    0.307    4.431
  361.514   51.727    0.230    0.305    3.543
  361.764   49.651    0.223    0.311    2.708
  362.014   48.578    0.214    0.319    2.284
  362.264   47.572    0.208    0.321    1.949
  362.514   47.969    0.200    0.323    1.651
  362.764   48.962    0.197    0.328    1.457
  363.014   50.598    0.208    0.339    1.400
  363.264   51.554    0.224    0.351    1.357
  363.514   53.324    0.226    0.362    1.350
  363.764   53.730    0.220    0.373    1.351
  364.014   53.726    0.221    0.377    1.375
  364.264   53.718    0.219    0.365    1.433
  364.514   54.251    0.216    0.350    1.501
  364.764   54.456    0.205    0.337    1.595
  365.014   56.931    0.170    0.343    1.734
  365.264   60.788    0.155    0.362    1.909
  365.514   64.849    0.155    0.387    1.996
  365.764   67.184    0.164    0.419    2.085
  366.014   69.274    0.177    0.411    2.237
  366.264   69.412    0.187    0.389    2.364
  366.514   66.754    0.199    0.380    2.469
  366.764   63.361    0.210    0.369    2.558
  367.014   60.865    0.200    0.358    2.447
  367.264   59.940    0.193    0.362    2.273
  367.514   59.526    0.185    0.372    2.096
  367.764   59.901    0.184    0.363    1.935
  368.014   60.439    0.186    0.362    1.819
  368.264   60.778    0.178    0.374    1.800
  368.514   61.177    0.176    0.374    1.743
  368.764   62.263    0.174    0.369    1.743
  369.014   62.393    0.178    0.375    1.800
  369.264   62.409    0.183    0.368    1.881
  369.514   62.127    0.183    0.361    1.938
  369.764   60.172    0.174    0.372    1.982
  370.014   60.904    0.166    0.381    1.891
  370.264   64.671    0.160    0.387    1.714
  370.514   66.768    0.163    0.378    1.553
  370.764   66.788    0.165    0.372    1.434
  371.014   64.831    0.166    0.360    1.438
  371.264   60.435    0.163    0.361    1.519
  371.514   58.101    0.159    0.362    1.637
  371.764   61.682    0.154    0.363    1.870
  372.014   64.315    0.150    0.362    2.043
  372.264   67.030    0.151    0.359    2.146
  372.514   68.042    0.155    0.357    2.273
  372.764   67.479    0.160    0.360    2.372
  373.014   64.348    0.167    0.366    2.522
  373.264   58.977    0.173    0.369    2.684
  373.514   55.976    0.173    0.359    2.809
  373.764   58.570    0.162    0.358    2.876
  374.014   62.215    0.155    0.364    2.872
  374.264   65.306    0.163    0.364    2.704
  374.514   67.944    0.162    0.370    2.522
  374.764   70.549    0.151    0.376    2.298
  375.014   71.478    0.147    0.378    2.217
  375.264   72.254    0.141    0.377    2.011
  375.514   70.562    0.146    0.382    1.986
  375.764   67.692    0.162    0.386    2.031
  376.014   63.189    0.171    0.375    1.973
  376.264   58.567    0.159    0.343    1.854
  376.514   55.158    0.161    0.328    1.718
  376.764   52.787    0.168    0.330    1.525
  377.014   50.037    0.176    0.324    1.464
  377.264   49.564    0.178    0.327    1.377
  377.514   49.936    0.172    0.327    1.296
  377.764   51.975    0.165    0.326    1.258
  378.014   54.274    0.161    0.322    1.262
  378.264   58.410    0.162    0.331    1.303
  378.514   59.809    0.163    0.339    1.426
  378.764   61.192    0.162    0.348    1.659
  379.014   62.093    0.160    0.349    2.130
  379.264   62.482    0.175    0.348    2.932
  379.514   61.857    0.186    0.355    3.616
  379.764   59.333    0.194    0.360    4.425
  380.014   54.974    0.199    0.364    5.109
  380.264   52.095    0.205    0.360    5.890
  380.514   48.424    0.207    0.357    6.558
  380.764   46.589    0.206    0.367    7.372
  381.014   45.645    0.206    0.376    8.509
