~VERSION INFORMATION
 VERS.                 2.0:   CWLS LOG ASCII STANDARD -VERSION 2.0
 WRAP.                  NO:   ONE LINE PER DEPTH STEP
~WELL INFORMATION BLOCK
#MNEM.UNIT           DATA                    DESCRIPTION OF MNEMONIC
#---------    -------------------            -------------------------------
# Generated from Intellog Unique Number	CS_71_72/WELL/842
WELL.         AEE IPIATIK                    : Well_name    - WELL
LOC .         00/10-14-071-05W4/0            : Location     - LOCATION
UWI .         00/10-14-071-05W4/0            : Uwi          - UNIQUE WELL ID
ENTR.         SP                             : Entered      - ENTERED BY
SRVC.         SCHLUMBERGER                   : Scn          - SERVICE COMPANY
STRT.M        290                            : top_depth    - START DEPTH
STOP.M        510                            : bot_depth    - STOP DEPTH
STEP.M        0.25                           : increment    - STEP LENGTH
 NULL. -999.2500:NULL Value
~CURVE INFORMATION BLOCK
#MNEM UNIT       ERCB CURVE CODE    CURVE DESCRIPTION
#-----------   ------------------   ----------------------------------
DEPT.M        00 001 00 00         : DEPTH        - DEPTH
GR  .API      00 310 00 00         : GR           - GAMMA RAY
NPHI.V/V      00 330 00 00         : PHIN         - NEUTRON POROSITY (LIMESTONE)
DPHI.V/V      00 890 00 00         : PHID         - DENSITY POROSITY (LIMESTONE)
ILD .OHMM     00 120 00 00         : RESD         - DEEP RESISTIVITY (DIL)
~PARAMETER INFORMATION
#MNEM.UNIT           DATA             DESCRIPTION OF MNEMONIC
#---------         -----------     ------------------------------
GL  .M        661.74               : gl           - GROUND LEVEL ELEVATION
EREF.M        665.55               : kb           - ELEVATION OF DEPTH REFERENCE
DATM.M        661.74               : datum        - DATUM ELEVATION
TDD .M        520                  : tdd          - TOTAL DEPTH DRILLER
RUN .         ONE                  : Run          - RUN NUMBER
ENG .         BILL                 : Engineer     - RECORDING ENGINEER
WIT .         JIM                  : Witness      - WITNESSED BY
MUD .         GEL                  : Mud_type     - MUD TYPE
MATR.         LIMESTONE            : Logunit      - NEUTRON MATRIX
TMAX.C        16                   : BHT          - MAXIMUM RECORDED TEMPERATURE
BHTD.M        520                  : BHTDEP       - MAXIMUM RECORDED TEMPERATURE
MATR.         1                    : LOGUNIT      - NEUTRON MATRIX
RMT .C        25                   : MDTP         - TEMPERATURE OF MUD
NEUT.         1                    : NEUTRON      - NEUTRON TYPE
RESI.         0                    : RESIST       - RESISTIVITY TYPE
RMC .OHMM     0.25                 : RMC          - RESISTIVITY OF MUD CAKE
RMF .OHMM     0.25                 : RMF          - RESISTIVITY OF MUD FILTRATE
SUFT.C        15                   : SUFT         - SURFACE TEMPERATURE
~A  DEPTH       GR     PHIN     PHID     RESD
# ...
  377.000   77.140    0.465    0.299    4.351
  377.250   79.099    0.492    0.300    4.351
  377.500   79.238    0.509    0.309    4.352
  377.750   78.406    0.520    0.319    4.369
  378.000   78.728    0.529    0.315    4.378
  378.250   77.656    0.524    0.300    4.387
  378.500   77.062    0.511    0.291    4.396
  378.750   79.327    0.495    0.284    4.463
  379.000   84.144    0.490    0.253    4.539
  379.250   89.509    0.484    0.229    4.617
  379.500   92.561    0.502    0.235    4.669
  379.750   94.826    0.521    0.255    4.635
  380.000   91.746    0.535    0.264    4.359
  380.250   90.548    0.544    0.260    4.130
  380.500   92.510    0.553    0.270    3.921
  380.750   92.956    0.565    0.275    3.813
  381.000   92.302    0.576    0.277    3.786
  381.250   93.413    0.565    0.276    3.779
  381.500   99.265    0.548    0.267    3.717
  381.750  101.953    0.560    0.248    3.568
  382.000  104.221    0.591    0.235    3.406
  382.250  105.085    0.606    0.230    3.233
  382.500  106.137    0.611    0.225    3.069
  382.750  107.611    0.593    0.230    2.946
  383.000  109.273    0.584    0.232    2.834
  383.250  110.263    0.583    0.225    2.776
  383.500  110.520    0.581    0.227    2.762
  383.750  108.471    0.587    0.242    2.883
  384.000  103.203    0.580    0.253    2.987
  384.250   98.849    0.548    0.236    3.213
  384.500   96.012    0.512    0.242    3.753
  384.750   94.269    0.485    0.246    3.852
  385.000   93.129    0.488    0.235    4.490
  385.250   94.122    0.483    0.226    4.731
  385.500   95.718    0.475    0.219    5.032
  385.750   96.767    0.486    0.229    5.313
  386.000   95.631    0.485    0.240    5.485
  386.250   94.069    0.478    0.241    5.610
  386.500   92.993    0.474    0.248    5.674
  386.750   92.709    0.478    0.242    5.644
  387.000   93.089    0.477    0.246    5.458
  387.250   94.018    0.481    0.231    5.038
  387.500   94.947    0.494    0.210    4.573
  387.750   96.300    0.490    0.210    4.128
  388.000   98.882    0.480    0.220    3.740
  388.250   99.314    0.474    0.223    3.583
  388.500  100.304    0.476    0.227    3.665
  388.750  100.745    0.494    0.230    3.891
  389.000  101.317    0.520    0.231    4.108
  389.250  101.570    0.535    0.237    4.289
  389.500  102.804    0.539    0.239    4.395
  389.750  104.277    0.532    0.220    4.421
  390.000  103.019    0.536    0.218    4.332
  390.250  104.919    0.532    0.229    4.221
  390.500  109.738    0.532    0.229    4.044
  390.750  112.307    0.539    0.216    3.832
  391.000  113.477    0.553    0.218    3.610
  391.250  113.736    0.573    0.227    3.466
  391.500  113.815    0.548    0.219    3.434
  391.750  114.562    0.533    0.218    3.512
  392.000  115.249    0.551    0.225    3.599
  392.250  115.084    0.573    0.212    3.654
  392.500  114.190    0.601    0.205    3.682
  392.750  111.899    0.604    0.212    3.669
  393.000  109.366    0.584    0.219    3.602
  393.250  109.566    0.578    0.230    3.503
  393.500  110.436    0.568    0.241    3.413
  393.750  109.177    0.552    0.250    3.351
  394.000  105.791    0.561    0.263    3.345
  394.250  101.497    0.562    0.265    3.421
  394.500   98.963    0.532    0.252    3.646
  394.750   97.097    0.515    0.240    3.980
  395.000   96.145    0.495    0.231    4.290
  395.250   97.863    0.493    0.221    4.571
  395.500   99.460    0.490    0.213    4.799
  395.750  100.085    0.490    0.216    4.992
  396.000   98.825    0.493    0.230    4.983
  396.250   95.686    0.496    0.220    4.856
  396.500   93.090    0.506    0.228    4.653
  396.750   91.045    0.517    0.242    4.433
  397.000   90.391    0.522    0.252    4.295
  397.250   92.476    0.527    0.263    4.193
  397.500   93.585    0.509    0.277    4.233
  397.750   88.745    0.495    0.294    4.528
  398.000   83.418    0.489    0.304    4.825
  398.250   81.856    0.493    0.290    5.075
  398.500   82.057    0.510    0.269    5.349
  398.750   81.889    0.451    0.255    5.764
  399.000   79.052    0.426    0.234    6.340
  399.250   73.238    0.401    0.201    6.922
  399.500   69.126    0.380    0.135    7.615
  399.750   72.605    0.381    0.135    7.847
  400.000   75.479    0.452    0.202    7.732
  400.250   77.682    0.484    0.292    7.123
  400.500   79.828    0.515    0.299    6.252
  400.750   80.879    0.509    0.285    5.550
  401.000   80.349    0.498    0.277    5.229
  401.250   79.030    0.487    0.271    5.086
  401.500   76.617    0.478    0.293    5.086
  401.750   75.784    0.473    0.307    5.125
  402.000   75.561    0.476    0.315    5.165
  402.250   76.005    0.468    0.306    5.204
  402.500   78.395    0.461    0.292    5.264
  402.750   80.842    0.466    0.283    5.344
  403.000   83.165    0.473    0.274    5.425
  403.250   85.184    0.486    0.270    5.518
  403.500   87.389    0.508    0.275    5.581
  403.750   90.078    0.526    0.271    5.644
  404.000   93.922    0.539    0.263    5.677
  404.250   97.644    0.534    0.270    5.625
  404.500   99.124    0.521    0.255    5.637
  404.750   98.531    0.510    0.237    5.680
  405.000   96.847    0.500    0.259    5.756
  405.250   95.104    0.504    0.271    5.746
  405.500   95.062    0.527    0.254    5.619
  405.750   96.172    0.531    0.261    5.275
  406.000   97.771    0.510    0.262    4.815
  406.250   99.612    0.509    0.242    4.218
  406.500  100.840    0.539    0.238    3.655
  406.750  101.587    0.551    0.257    3.202
  407.000  101.543    0.565    0.268    2.810
  407.250  102.776    0.576    0.263    2.537
  407.500  103.522    0.583    0.261    2.355
  407.750  101.658    0.594    0.263    2.235
  408.000  100.704    0.607    0.273    2.186
  408.250  101.814    0.594    0.274    2.150
  408.500  103.717    0.575    0.258    2.134
  408.750  104.643    0.588    0.243    2.155
  409.000  104.724    0.574    0.231    2.192
  409.250  104.196    0.563    0.240    2.254
  409.500  104.030    0.571    0.234    2.314
  409.750  104.048    0.572    0.216    2.394
  410.000  103.336    0.561    0.227    2.448
  410.250   99.954    0.544    0.237    2.561
  410.500   96.991    0.521    0.259    2.859
  410.750   93.365    0.502    0.259    3.133
  411.000   89.130    0.500    0.249    3.604
  411.250   85.868    0.498    0.260    4.264
  411.500   83.456    0.479    0.262    4.869
  411.750   81.468    0.463    0.249    5.237
  412.000   80.636    0.454    0.243    5.581
  412.250   80.049    0.455    0.249    5.892
  412.500   80.002    0.459    0.258    6.095
  412.750   80.081    0.453    0.265    6.187
  413.000   80.221    0.449    0.281    6.258
  413.250   79.814    0.452    0.295    6.224
  413.500   79.223    0.443    0.302    6.179
  413.750   79.425    0.440    0.285    6.123
  414.000   80.655    0.459    0.263    6.044
  414.250   83.649    0.480    0.246    6.023
  414.500   86.279    0.497    0.248    6.024
  414.750   85.021    0.494    0.253    6.093
  415.000   84.735    0.474    0.204    6.162
  415.250   86.515    0.464    0.185    6.221
  415.500   89.755    0.467    0.195    6.187
  415.750   91.590    0.469    0.225    6.029
  416.000   93.067    0.483    0.202    5.798
  416.250   91.808    0.489    0.192    5.566
  416.500   92.251    0.493    0.206    5.363
  416.750   93.851    0.500    0.214    5.304
  417.000   91.132    0.510    0.215    5.305
  417.250   85.925    0.518    0.200    5.569
  417.500   78.715    0.479    0.070    6.277
  417.750   70.046    0.416    0.024    7.824
  418.000   64.658    0.259    0.012   10.085
  418.250   56.232    0.233    0.008   11.975
  418.500   56.918    0.234    0.126   13.421
  418.750   61.430    0.281    0.179   13.907
  419.000   66.370    0.328    0.214   13.226
  419.250   69.242    0.372    0.240   11.163
  419.500   69.623    0.392    0.254    9.635
  419.750   66.790    0.389    0.241    9.249
  420.000   65.104    0.368    0.146    9.875
  420.250   63.002    0.344    0.108   10.310
