~VERSION INFORMATION
 VERS.                 2.0:   CWLS LOG ASCII STANDARD -VERSION 2.0
 WRAP.                  NO:   ONE LINE PER DEPTH STEP
~WELL INFORMATION BLOCK
#MNEM.UNIT           DATA                    DESCRIPTION OF MNEMONIC
#---------    -------------------            -------------------------------
# Generated from Intellog Unique Number	CS_77_79/WELL/989
WELL.         PARAMOUNT RESOURCES LTD.       : Well_name    - WELL
LOC .         00/11-06-077-09W4/0            : Location     - LOCATION
UWI .         00/11-06-077-09W4/0            : Uwi          - UNIQUE WELL ID
ENTR.         SP                             : Entered      - ENTERED BY
SRVC.         SCHLUMBERGER                   : Scn          - SERVICE COMPANY
STRT.M        210                            : top_depth    - START DEPTH
STOP.M        425                            : bot_depth    - STOP DEPTH
STEP.M        0.25                           : increment    - STEP LENGTH
 NULL. -999.2500:NULL Value
~CURVE INFORMATION BLOCK
#MNEM UNIT       ERCB CURVE CODE    CURVE DESCRIPTION
#-----------   ------------------   ----------------------------------
DEPT.M        00 001 00 00         : DEPTH        - DEPTH
ILD .OHMM     00 120 00 00         : RESD         - DEEP RESISTIVITY (DIL)
GR  .API      00 310 00 00         : GR           - GAMMA RAY
NPHI.V/V      00 330 00 00         : PHIN         - NEUTRON POROSITY (LIMESTONE)
DPHI.V/V      00 890 00 00         : PHID         - DENSITY POROSITY (LIMESTONE)
~PARAMETER INFORMATION
#MNEM.UNIT           DATA             DESCRIPTION OF MNEMONIC
#---------         -----------     ------------------------------
GL  .M        627.96               : gl           - GROUND LEVEL ELEVATION
EREF.M        631                  : kb           - ELEVATION OF DEPTH REFERENCE
DATM.M        627.96               : datum        - DATUM ELEVATION
TDD .M        431                  : tdd          - TOTAL DEPTH DRILLER
RUN .         ONE                  : Run          - RUN NUMBER
ENG .         BILL                 : Engineer     - RECORDING ENGINEER
WIT .         JIM                  : Witness      - WITNESSED BY
MUD .         GEL                  : Mud_type     - MUD TYPE
MATR.         LIMESTONE            : Logunit      - NEUTRON MATRIX
TMAX.C        21                   : BHT          - MAXIMUM RECORDED TEMPERATURE
BHTD.M        431                  : BHTDEP       - MAXIMUM RECORDED TEMPERATURE
MATR.         1                    : LOGUNIT      - NEUTRON MATRIX
RMT .C        25                   : MDTP         - TEMPERATURE OF MUD
NEUT.         1                    : NEUTRON      - NEUTRON TYPE
RESI.         0                    : RESIST       - RESISTIVITY TYPE
RMC .OHMM     0.25                 : RMC          - RESISTIVITY OF MUD CAKE
RMF .OHMM     0.25                 : RMF          - RESISTIVITY OF MUD FILTRATE
SUFT.C        15                   : SUFT         - SURFACE TEMPERATURE
~A  DEPTH     RESD       GR     PHIN     PHID
# ...
  384.000    4.620  112.258    0.507    0.228
  384.250    5.266  106.189    0.498    0.233
  384.500    5.831   96.476    0.455    0.235
  384.750    8.004   89.193    0.411    0.242
  385.000    9.533   82.517    0.360    0.274
  385.250   10.019   80.092    0.328    0.284
  385.500    9.943   80.705    0.347    0.265
  385.750    9.947   80.710    0.363    0.257
  386.000   10.031   80.712    0.365    0.229
  386.250   10.275   80.716    0.361    0.232
  386.500   10.600   84.364    0.367    0.239
  386.750   10.924   89.227    0.369    0.226
  387.000   11.571   91.660    0.379    0.209
  387.250   12.055   92.272    0.380    0.221
  387.500   13.103   89.847    0.368    0.197
  387.750   14.793   88.029    0.372    0.152
  388.000   20.500   86.819    0.366    0.129
  388.250   25.323   81.359    0.378    0.117
  388.500   28.781   76.504    0.387    0.195
  388.750   31.435   70.435    0.393    0.229
  389.000   32.644   65.581    0.384    0.247
  389.250   31.282   67.406    0.373    0.292
  389.500   27.269   74.700    0.381    0.288
  389.750   25.104   80.776    0.396    0.293
  390.000   23.019   87.461    0.402    0.290
  390.250   21.415   92.323    0.404    0.251
  390.500   19.812   94.149    0.398    0.259
  390.750   17.968   94.154    0.387    0.262
  391.000   16.446   94.157    0.399    0.245
  391.250   15.164   95.983    0.403    0.243
  391.500   14.123   97.202    0.391    0.226
  391.750   13.323   98.421    0.372    0.215
  392.000   12.203   97.211    0.362    0.205
  392.250   11.643   94.178    0.353    0.191
  392.500   10.844   97.826    0.376    0.171
  392.750   10.366  105.726    0.397    0.215
  393.000   10.208  109.981    0.386    0.222
  393.250   10.534  113.629    0.360    0.227
  393.500   11.421  117.884    0.373    0.222
  393.750   13.674  117.281    0.390    0.233
  394.000   14.881  106.354    0.394    0.246
  394.250   16.652   91.783    0.375    0.258
  394.500   18.423   75.998    0.354    0.240
  394.750   19.712   76.610    0.353    0.239
  395.000   20.197   80.259    0.362    0.230
  395.250   20.522   81.476    0.365    0.227
  395.500   20.204   82.695    0.347    0.237
  395.750   19.003   85.130    0.344    0.241
  396.000   17.641   86.347    0.349    0.218
  396.250   16.118   88.173    0.357    0.209
  396.500   15.479   88.784    0.352    0.208
  396.750   15.322   90.003    0.356    0.200
  397.000   15.808   93.044    0.367    0.197
  397.250   16.855   89.404    0.389    0.224
  397.500   19.509   82.729    0.403    0.268
  397.750   19.834   80.912    0.412    0.275
  398.000   19.918   81.524    0.396    0.276
  398.250   19.198   82.134    0.370    0.257
  398.500   16.953   83.960    0.361    0.233
  398.750   16.716   86.394    0.367    0.226
  399.000   17.442   88.827    0.390    0.243
  399.250   18.972   81.544    0.416    0.269
  399.500   34.800   70.009    0.438    0.277
  399.750   35.928   63.334    0.410    0.281
  400.000   36.012   62.123    0.393    0.283
  400.250   33.124   68.808    0.385    0.291
  400.500   31.279   74.278    0.396    0.294
  400.750   22.768   82.785    0.398    0.295
  401.000   18.836   87.040    0.400    0.282
  401.250   16.590   91.294    0.394    0.256
  401.500   14.585   96.764    0.379    0.244
  401.750   13.224  102.234    0.375    0.234
  402.000   12.665  105.882    0.371    0.216
  402.250   12.187  106.494    0.376    0.209
  402.500   12.029  104.069    0.360    0.203
  402.750   11.953  104.073    0.381    0.203
  403.000   12.036  109.543    0.405    0.210
  403.250   12.763  112.583    0.422    0.220
  403.500   13.570  114.409    0.424    0.303
  403.750   14.939   91.336    0.412    0.310
  404.000   16.147   78.588    0.403    0.304
  404.250   16.471   78.592    0.394    0.299
  404.500   16.476   81.026    0.396    0.298
  404.750   14.952   84.674    0.398    0.310
  405.000   13.430   91.965    0.396    0.305
  405.250   11.988   97.435    0.411    0.299
  405.500   11.027   94.403    0.416    0.293
  405.750   10.309   90.157    0.411    0.284
  406.000    9.910   88.339    0.403    0.287
  406.250    9.511   87.128    0.401    0.268
  406.500    9.193   88.347    0.400    0.271
  406.750    8.796   94.424    0.407    0.268
  407.000    8.559   98.679    0.397    0.248
  407.250    8.401  101.112    0.391    0.251
  407.500    8.324   98.688    0.389    0.235
  407.750    8.168   98.084    0.377    0.219
  408.000    8.171  103.554    0.378    0.211
  408.250    8.094  107.810    0.390    0.217
  408.500    7.937  105.992    0.387    0.215
  408.750    7.699  102.353    0.372    0.201
  409.000    7.542   98.105    0.367    0.204
  409.250    7.546   99.324    0.372    0.196
  409.500    7.551  101.758    0.384    0.182
  409.750    7.554  106.013    0.385    0.201
  410.000    7.556  109.662    0.390    0.182
  410.250    7.480  111.487    0.390    0.170
  410.500    7.564  116.959    0.390    0.163
  410.750    7.647  118.176    0.391    0.156
  411.000    7.891  119.394    0.393    0.202
  411.250    8.216  118.185    0.403    0.179
  411.500    9.025  113.330    0.409    0.173
  411.750    9.347   94.508    0.415    0.194
  412.000   10.797   86.619    0.400    0.196
  412.250   12.729   85.408    0.378    0.197
  412.500   13.857   85.412    0.370    0.250
  412.750   13.941   87.237    0.378    0.243
  413.000   12.980   92.709    0.378    0.223
  413.250   11.538   98.178    0.366    0.210
  413.500   10.577  101.825    0.361    0.188
  413.750    9.697  103.652    0.363    0.175
  414.000    9.299  104.263    0.378    0.154
  414.250    9.143   98.801    0.384    0.154
  414.500    9.628   81.194    0.387    0.152
  414.750   11.237   71.482    0.383    0.147
  415.000   15.659   41.129    0.378    0.104
  415.250   32.070   18.750    0.315    0.086
  415.500   38.530   15.726    0.238    0.059
  415.750   40.986   14.516    0.178    0.044
  416.000   43.441   14.516    0.165    0.033
  416.250   45.118   15.726    0.161    0.040
  416.500   44.358   16.936    0.167    0.058
  416.750   42.828   17.540    0.172    0.058
  417.000   42.087   18.145    0.180    0.037
  417.250   42.157   16.936    0.188    0.041
  417.500   42.987   15.726    0.201    0.058
  417.750   43.867   14.516    0.207    0.058
  418.000   43.910   12.702    0.208    0.053
  418.250   45.594   12.097    0.202    0.065
  418.500   46.438   13.306    0.186    0.060
  418.750   47.285   13.911    0.185    0.050
  419.000   48.963   13.306    0.186    0.055
  419.250   50.598   12.097    0.187    0.065
  419.500   52.252   12.702    0.187    0.059
  419.750   52.323   14.516    0.184    0.054
  420.000   51.578   16.331    0.181    0.050
  420.250   50.830   18.750    0.180    0.060
  420.500   50.898   19.960    0.178    0.055
  420.750   51.768   20.564    0.175    0.048
  421.000   52.633   19.960    0.173    0.047
  421.250   53.465   19.960    0.170    0.047
  421.500   55.133   19.960    0.168    0.045
  421.750   56.794   21.169    0.168    0.045
  422.000   57.630   23.589    0.173    0.040
  422.250   57.697   26.613    0.171    0.034
  422.500   57.769   28.427    0.175    0.029
  422.750   57.004   30.242    0.171    0.032
  423.000   55.475   32.661    0.170    0.039
  423.250   55.546   33.266    0.170    0.034
  423.500   55.590   32.661    0.193    0.021
  423.750   58.052   30.847    0.192    0.015
  424.000   59.703   27.823    0.183    0.041
  424.250   60.555   24.194    0.173    0.041
  424.500   59.012   19.960    0.163    0.039
  424.750   54.275   17.540    0.161    0.033
  425.000   49.536   16.331    0.165    0.027
