~VERSION INFORMATION
 VERS.                 2.0:   CWLS LOG ASCII STANDARD -VERSION 2.0
 WRAP.                  NO:   ONE LINE PER DEPTH STEP
~WELL INFORMATION BLOCK
#MNEM.UNIT           DATA                    DESCRIPTION OF MNEMONIC
#---------    -------------------            -------------------------------
# Generated from Intellog Unique Number	CS_67_68/WELL/852
WELL.         GLOBAL ARTIC ISLAND            : Well_name    - WELL
LOC .         00/12-18-068-17W4/0            : Location     - LOCATION
UWI .         00/12-18-068-17W4/0            : Uwi          - UNIQUE WELL ID
ENTR.         SP                             : Entered      - ENTERED BY
SRVC.         SCHLUMBERGER                   : Scn          - SERVICE COMPANY
STRT.M        385                            : top_depth    - START DEPTH
STOP.M        525                            : bot_depth    - STOP DEPTH
STEP.M        0.25                           : increment    - STEP LENGTH
 NULL. -999.2500:NULL Value
~CURVE INFORMATION BLOCK
#MNEM UNIT       ERCB CURVE CODE    CURVE DESCRIPTION
#-----------   ------------------   ----------------------------------
DEPT.M        00 001 00 00         : DEPTH        - DEPTH
ILD .OHMM     00 120 00 00         : RESD         - DEEP RESISTIVITY (DIL)
DPHI.V/V      00 890 00 00         : PHID         - DENSITY POROSITY (LIMESTONE)
NPHI.V/V      00 330 00 00         : PHIN         - NEUTRON POROSITY (LIMESTONE)
GR  .API      00 310 00 00         : GR           - GAMMA RAY
~PARAMETER INFORMATION
#MNEM.UNIT           DATA             DESCRIPTION OF MNEMONIC
#---------         -----------     ------------------------------
GL  .M        568                  : gl           - GROUND LEVEL ELEVATION
EREF.M        571.3                : kb           - ELEVATION OF DEPTH REFERENCE
DATM.M        568                  : datum        - DATUM ELEVATION
TDD .M        538                  : tdd          - TOTAL DEPTH DRILLER
RUN .         ONE                  : Run          - RUN NUMBER
ENG .         BILL                 : Engineer     - RECORDING ENGINEER
WIT .         JIM                  : Witness      - WITNESSED BY
MUD .         GEL                  : Mud_type     - MUD TYPE
MATR.         LIMESTONE            : Logunit      - NEUTRON MATRIX
TMAX.C        26                   : BHT          - MAXIMUM RECORDED TEMPERATURE
BHTD.M        538                  : BHTDEP       - MAXIMUM RECORDED TEMPERATURE
MATR.         1                    : LOGUNIT      - NEUTRON MATRIX
RMT .C        25                   : MDTP         - TEMPERATURE OF MUD
NEUT.         1                    : NEUTRON      - NEUTRON TYPE
RESI.         0                    : RESIST       - RESISTIVITY TYPE
RMC .OHMM     0.25                 : RMC          - RESISTIVITY OF MUD CAKE
RMF .OHMM     0.25                 : RMF          - RESISTIVITY OF MUD FILTRATE
SUFT.C        15                   : SUFT         - SURFACE TEMPERATURE
~A  DEPTH     RESD     PHID     PHIN       GR
  385.000    2.877    0.263    0.364   86.040
  385.250    3.056    0.217    0.359   91.492
  385.500    3.234    0.205    0.358   97.735
  385.750    3.390    0.192    0.385  102.823
  386.000    3.547    0.180    0.399  105.607
  386.250    3.697    0.174    0.377  105.780
  386.500    3.796    0.176    0.361  103.224
  386.750    3.898    0.179    0.368   98.604
  387.000    3.972    0.178    0.364   97.322
  387.250    4.003    0.171    0.350  101.013
  387.500    3.959    0.165    0.340  104.040
  387.750    3.908    0.171    0.333  106.702
  388.000    3.843    0.179    0.327  101.839
  388.250    3.647    0.179    0.338   95.096
  388.500    3.481    0.178    0.354   98.303
  388.750    3.347    0.185    0.339   99.206
  389.000    3.194    0.193    0.331   95.132
  389.250    3.065    0.195    0.376   92.029
  389.500    2.931    0.197    0.396   89.957
  389.750    2.813    0.206    0.412   91.892
  390.000    2.689    0.224    0.378   94.370
  390.250    2.591    0.244    0.342   92.482
  390.500    2.519    0.259    0.330   84.222
  390.750    2.492    0.268    0.349   78.145
  391.000    2.478    0.268    0.370   74.376
  391.250    2.460    0.200    0.349   68.603
  391.500    2.447    0.184    0.323   64.406
  391.750    2.415    0.235    0.383   62.700
  392.000    2.393    0.266    0.404   64.998
  392.250    2.416    0.270    0.387   73.606
  392.500    2.523    0.262    0.352   80.455
  392.750    2.640    0.226    0.329   85.422
  393.000    2.778    0.202    0.316   92.695
  393.250    2.868    0.189    0.351  100.090
  393.500    2.978    0.194    0.405  103.419
  393.750    3.081    0.207    0.421  103.835
  394.000    3.099    0.221    0.414   96.181
  394.250    3.059    0.224    0.412   91.683
  394.500    3.037    0.219    0.388   92.100
  394.750    3.021    0.219    0.372   96.520
  395.000    3.027    0.223    0.359   97.484
  395.250    3.044    0.226    0.374   95.594
  395.500    3.085    0.228    0.394   95.343
  395.750    3.156    0.222    0.401   98.550
  396.000    3.205    0.214    0.359   98.907
  396.250    3.260    0.208    0.350   98.838
  396.500    3.335    0.206    0.367  105.382
  396.750    3.386    0.200    0.370  108.530
  397.000    3.477    0.180    0.350  107.733
  397.250    3.517    0.163    0.328  106.328
  397.500    3.471    0.160    0.355  111.659
  397.750    3.401    0.180    0.369  116.568
  398.000    3.320    0.195    0.365  119.897
  398.250    3.192    0.200    0.360  116.065
  398.500    3.081    0.186    0.372  109.746
  398.750    2.945    0.183    0.377  108.646
  399.000    2.713    0.198    0.410  103.541
  399.250    2.653    0.211    0.435   96.918
  399.500    2.503    0.230    0.461   91.023
  399.750    2.367    0.252    0.443   87.801
  400.000    2.288    0.266    0.398   85.002
  400.250    2.238    0.263    0.358   83.780
  400.500    2.217    0.261    0.345   85.652
  400.750    2.185    0.260    0.366   90.255
  401.000    2.165    0.263    0.385   94.373
  401.250    2.157    0.266    0.396   97.095
  401.500    2.161    0.268    0.394   95.571
  401.750    2.190    0.262    0.383   87.977
  402.000    2.249    0.253    0.371   80.143
  402.250    2.358    0.241    0.365   76.554
  402.500    2.476    0.232    0.378   81.461
  402.750    2.533    0.226    0.375   84.790
  403.000    2.533    0.225    0.360   88.360
  403.250    2.548    0.227    0.345   90.962
  403.500    2.478    0.232    0.372   91.621
  403.750    2.396    0.241    0.401   90.886
  404.000    2.387    0.251    0.416   88.207
  404.250    2.429    0.257    0.391   87.653
  404.500    2.484    0.249    0.375   87.703
  404.750    2.532    0.234    0.364   88.121
  405.000    2.580    0.218    0.397   91.330
  405.250    2.660    0.201    0.437   98.239
  405.500    2.705    0.191    0.459  103.024
  405.750    2.731    0.182    0.451  107.992
  406.000    2.778    0.176    0.422  111.746
  406.250    2.869    0.188    0.397  105.790
  406.500    2.929    0.195    0.378  102.566
  406.750    3.008    0.204    0.372  100.858
  407.000    3.077    0.212    0.386  100.123
  407.250    3.113    0.215    0.408   98.355
  407.500    3.166    0.205    0.397   95.798
  407.750    3.197    0.197    0.384   95.305
  408.000    3.156    0.186    0.374   97.116
  408.250    3.098    0.177    0.374  100.385
  408.500    2.984    0.174    0.374  103.472
  408.750    2.869    0.183    0.386  102.918
  409.000    2.913    0.200    0.404  107.642
  409.250    3.392    0.219    0.412  105.753
  409.500    3.862    0.237    0.418   94.459
  409.750    4.472    0.217    0.293   84.923
  410.000    5.217    0.030    0.109   75.814
  410.250    5.851   -0.001    0.095   67.979
  410.500    6.261    0.145    0.110   61.478
  410.750    5.409    0.188    0.202   54.673
  411.000    4.604    0.226    0.240   54.908
  411.250    4.192    0.248    0.318   67.276
  411.500    3.568    0.244    0.344   71.639
  411.750    3.129    0.237    0.332   77.334
  412.000    2.871    0.244    0.345   80.663
  412.250    2.678    0.247    0.361   83.264
  412.500    2.610    0.242    0.379   86.168
  412.750    2.659    0.237    0.390   89.558
  413.000    2.788    0.222    0.370   92.038
  413.250    2.928    0.212    0.355   91.059
  413.500    3.035    0.199    0.343   95.238
  413.750    3.145    0.193    0.347   98.202
  414.000    3.254    0.191    0.335   99.893
  414.250    3.298    0.199    0.332  100.369
  414.500    3.361    0.205    0.353   99.938
  414.750    3.406    0.204    0.376   96.652
  415.000    3.458    0.197    0.368   93.732
  415.250    3.531    0.197    0.349   92.509
  415.500    3.619    0.185    0.335   92.442
  415.750    3.688    0.171    0.342   98.075
  416.000    3.724    0.163    0.351  100.251
  416.250    3.703    0.169    0.351  100.487
  416.500    3.628    0.186    0.326   98.961
  416.750    3.582    0.196    0.309   98.529
  417.000    3.569    0.188    0.323   99.309
  417.250    3.583    0.177    0.348  102.396
  417.500    3.631    0.171    0.363  106.756
  417.750    3.694    0.178    0.346  106.263
  418.000    3.779    0.187    0.359  102.007
  418.250    3.822    0.195    0.332   99.511
  418.500    3.888    0.183    0.310   99.928
  418.750    3.962    0.175    0.320  102.164
  419.000    4.046    0.167    0.327  101.488
  419.250    4.131    0.166    0.332  102.511
  419.500    4.266    0.159    0.351  107.236
  419.750    4.480    0.142    0.372  110.565
  420.000    4.697    0.102    0.300  109.282
  420.250    4.697    0.082    0.265  100.901
  420.500    4.698    0.111    0.278   95.250
  420.750    4.637    0.128    0.316   95.242
  421.000    4.543    0.140    0.340  101.966
  421.250    4.435    0.151    0.311  104.206
  421.500    4.280    0.160    0.328  106.988
  421.750    4.193    0.162    0.362  108.316
  422.000    4.078    0.153    0.382  109.825
  422.250    4.003    0.148    0.368  110.482
  422.500    3.900    0.149    0.354  110.779
  422.750    3.835    0.152    0.342  110.163
  423.000    3.750    0.153    0.338  109.184
  423.250    3.667    0.150    0.349  110.754
  423.500    3.217    0.148    0.348  114.508
  423.750    3.169    0.148    0.362  118.323
  424.000    3.087    0.157    0.389  118.496
  424.250    3.002    0.170    0.405  115.756
  424.500    2.914    0.175    0.418  111.320
  424.750    2.797    0.185    0.397  103.667
  425.000    2.595    0.201    0.387   96.255
  425.250    2.490    0.213    0.390   93.334
  425.500    2.324    0.229    0.407   91.808
  425.750    2.136    0.228    0.400   91.012
  426.000    2.000    0.219    0.333   93.613
  426.250    1.881    0.211    0.328  101.857
  426.500    1.812    0.208    0.387  111.497
  426.750    1.826    0.216    0.443  118.346
  427.000    1.921    0.213    0.418  121.553
  427.250    2.233    0.199    0.382  118.328
  427.500    2.345    0.184    0.379  110.979
  427.750    2.528    0.175    0.368  106.116
  428.000    2.685    0.161    0.352  105.198
  428.250    2.706    0.148    0.358  108.952
