~VERSION INFORMATION
 VERS.                 2.0:   CWLS LOG ASCII STANDARD -VERSION 2.0
 WRAP.                  NO:   ONE LINE PER DEPTH STEP
~WELL INFORMATION BLOCK
#MNEM.UNIT           DATA                    DESCRIPTION OF MNEMONIC
#---------    -------------------            -------------------------------
# Generated from Intellog Unique Number	CS_71_72/WELL/891
WELL.         CAVALIER ENERGY INC            : Well_name    - WELL
LOC .         00/11-08-072-14W4/0            : Location     - LOCATION
UWI .         00/11-08-072-14W4/0            : Uwi          - UNIQUE WELL ID
ENTR.         SP                             : Entered      - ENTERED BY
SRVC.         SCHLUMBERGER                   : Scn          - SERVICE COMPANY
STRT.M        277.368                        : top_depth    - START DEPTH
STOP.M        481.368                        : bot_depth    - STOP DEPTH
STEP.M        0.25                           : increment    - STEP LENGTH
 NULL. -999.2500:NULL Value
~CURVE INFORMATION BLOCK
#MNEM UNIT       ERCB CURVE CODE    CURVE DESCRIPTION
#-----------   ------------------   ----------------------------------
DEPT.M        00 001 00 00         : DEPTH        - DEPTH
GR  .API      00 310 00 00         : GR           - GAMMA RAY
DPHI.V/V      00 890 00 00         : PHID         - DENSITY POROSITY (SANDSTONE)
NPHI.V/V      00 330 00 00         : PHIN         - NEUTRON POROSITY (SANDSTONE)
ILD .OHMM     00 120 00 00         : RESD         - DEEP RESISTIVITY (DIL)
~PARAMETER INFORMATION
#MNEM.UNIT           DATA             DESCRIPTION OF MNEMONIC
#---------         -----------     ------------------------------
GL  .M        606.552              : gl           - GROUND LEVEL ELEVATION
EREF.M        609.6                : kb           - ELEVATION OF DEPTH REFERENCE
DATM.M        606.552              : datum        - DATUM ELEVATION
TDD .M        482.194              : tdd          - TOTAL DEPTH DRILLER
RUN .         ONE                  : Run          - RUN NUMBER
ENG .         BILL                 : Engineer     - RECORDING ENGINEER
WIT .         JIM                  : Witness      - WITNESSED BY
MUD .         GEL                  : Mud_type     - MUD TYPE
MATR.         SANDSTONE            : Logunit      - NEUTRON MATRIX
TMAX.C        23.3333              : BHT          - MAXIMUM RECORDED TEMPERATURE
BHTD.M        482.194              : BHTDEP       - MAXIMUM RECORDED TEMPERATURE
MATR.         1                    : LOGUNIT      - NEUTRON MATRIX
RMT .C        25                   : MDTP         - TEMPERATURE OF MUD
NEUT.         1                    : NEUTRON      - NEUTRON TYPE
RESI.         0                    : RESIST       - RESISTIVITY TYPE
RMC .OHMM     0.25                 : RMC          - RESISTIVITY OF MUD CAKE
RMF .OHMM     0.25                 : RMF          - RESISTIVITY OF MUD FILTRATE
SUFT.C        15                   : SUFT         - SURFACE TEMPERATURE
~A  DEPTH       GR     PHID     PHIN     RESD
  277.368  103.383    0.214    0.546    3.120
  277.618  100.933    0.206    0.529    3.254
  277.868   98.607    0.197    0.532    3.404
  278.118   99.763    0.188    0.553    3.593
  278.368   98.656    0.200    0.559    3.860
  278.618   93.086    0.200    0.534    4.018
  278.868   91.164    0.183    0.514    4.089
  279.118   94.044    0.167    0.525    3.963
  279.368   98.365    0.171    0.522    3.834
  279.618  100.743    0.232    0.552    3.638
  279.868  100.275    0.220    0.567    3.490
  280.118   96.882    0.213    0.585    3.356
  280.368   93.504    0.218    0.563    3.200
  280.618   94.984    0.198    0.564    3.092
  280.868   98.129    0.162    0.588    3.042
  281.118   99.457    0.181    0.564    3.133
  281.368   98.323    0.215    0.563    3.139
  281.618   99.430    0.200    0.549    3.277
  281.868   99.540    0.185    0.524    3.414
  282.118   98.897    0.199    0.509    3.444
  282.368  100.451    0.212    0.535    3.445
  282.618  102.106    0.197    0.530    3.419
  282.868  100.648    0.208    0.558    3.285
  283.118  100.114    0.228    0.575    3.227
  283.368  101.379    0.208    0.554    3.215
  283.618  103.775    0.219    0.538    3.127
  283.868  106.450    0.227    0.549    3.184
  284.118  101.948    0.225    0.558    3.216
  284.368   97.994    0.232    0.558    3.442
  284.618   96.722    0.212    0.541    3.482
  284.868   94.986    0.216    0.529    3.602
  285.118   96.654    0.246    0.505    3.461
  285.368   98.168    0.229    0.586    3.356
  285.618   91.270    0.209    0.608    3.460
  285.868   85.156    0.210    0.567    3.647
  286.118   79.060    0.206    0.533    4.072
  286.368   74.529    0.209    0.438    4.422
  286.618   71.562    0.189    0.426    4.954
  286.868   74.114    0.144    0.420    5.463
  287.118   77.058    0.236    0.426    5.767
  287.368   77.909    0.234    0.423    5.991
  287.618   80.324    0.229    0.421    5.996
  287.868   82.310    0.218    0.427    5.862
  288.118   85.689    0.214    0.432    5.801
  288.368   87.340    0.216    0.429    5.935
  288.618   86.921    0.214    0.421    5.996
  288.868   85.230    0.226    0.423    6.138
  289.118   84.317    0.232    0.429    6.179
  289.368   83.704    0.224    0.433    6.251
  289.618   84.282    0.234    0.426    6.350
  289.868   83.846    0.225    0.432    6.253
  290.118   85.843    0.211    0.420    6.057
  290.368   87.811    0.205    0.412    5.980
  290.618   89.282    0.218    0.424    5.779
  290.868   90.105    0.224    0.454    5.644
  291.118   95.123    0.232    0.467    5.633
  291.368   98.056    0.204    0.468    5.699
  291.618  100.210    0.194    0.467    5.721
  291.868   99.123    0.200    0.458    5.947
  292.118   97.015    0.205    0.445    5.934
  292.368   98.535    0.192    0.443    5.910
  292.618  103.313    0.202    0.446    5.773
  292.868  106.377    0.190    0.470    5.648
  293.118  106.392    0.186    0.492    5.400
  293.368   94.913    0.228    0.506    5.143
  293.618   85.679    0.195    0.519    4.794
  293.868   78.153    0.274    0.522    4.552
  294.118   69.446    0.339    0.463    4.427
  294.368   71.035    0.350    0.447    4.245
  294.618   75.502    0.339    0.443    4.182
  294.868   78.422    0.323    0.449    4.238
  295.118   80.863    0.318    0.475    4.489
  295.368   83.191    0.319    0.479    4.843
  295.618   85.434    0.299    0.458    5.092
  295.868   83.905    0.276    0.445    5.459
  296.118   75.077    0.258    0.434    5.625
  296.368   65.794    0.235    0.420    5.844
  296.618   58.095    0.224    0.395    5.990
  296.868   52.049    0.211    0.360    6.180
  297.118   53.255    0.197    0.353    6.360
  297.368   58.298    0.223    0.347    6.523
  297.618   65.156    0.217    0.354    6.587
  297.868   71.335    0.207    0.355    6.618
  298.118   75.237    0.210    0.358    6.751
  298.368   78.242    0.192    0.373    6.676
  298.618   78.339    0.168    0.382    6.629
  298.868   74.588    0.174    0.392    6.173
  299.118   72.328    0.189    0.404    5.932
  299.368   73.597    0.166    0.419    5.749
  299.618   72.498    0.192    0.431    5.387
  299.868   67.836    0.206    0.446    5.216
  300.118   65.470    0.240    0.442    4.964
  300.368   66.867    0.267    0.430    4.759
  300.618   71.541    0.248    0.419    4.627
  300.868   81.358    0.248    0.418    4.502
  301.118   93.743    0.250    0.421    4.509
  301.368   99.480    0.197    0.429    4.532
  301.618  103.362    0.174    0.447    4.762
  301.868  104.251    0.155    0.470    4.888
  302.118  106.448    0.161    0.486    5.019
  302.368  109.137    0.158    0.490    5.151
  302.618  111.600    0.160    0.492    5.146
  302.868  112.868    0.185    0.511    5.127
  303.118  113.914    0.170    0.531    5.069
  303.368  113.900    0.180    0.544    5.020
  303.618  114.845    0.197    0.556    4.985
  303.868  116.252    0.205    0.548    4.762
  304.118  118.982    0.185    0.543    4.686
  304.368  120.346    0.175    0.551    4.417
  304.618  123.745    0.197    0.564    4.231
  304.868  121.478    0.206    0.550    4.042
  305.118  123.740    0.212    0.549    3.783
  305.368  122.859    0.222    0.571    3.742
  305.618  116.046    0.221    0.586    3.602
  305.868  112.302    0.201    0.557    3.554
  306.118  120.620    0.209    0.512    3.692
  306.368  125.791    0.227    0.490    3.867
  306.618  120.399    0.235    0.468    4.343
  306.868  112.384    0.233    0.456    4.767
  307.118  104.384    0.243    0.468    5.338
  307.368  106.272    0.239    0.478    5.596
  307.618  106.979    0.226    0.488    5.834
  307.868  105.434    0.215    0.498    5.952
  308.118   91.794    0.240    0.509    5.873
  308.368   77.177    0.259    0.490    5.909
  308.618   73.742    0.260    0.476    5.959
  308.868   78.921    0.256    0.471    6.039
  309.118   83.595    0.250    0.486    5.999
  309.368   92.578    0.249    0.494    5.723
  309.618  104.527    0.240    0.504    5.499
  309.868  113.908    0.225    0.509    5.342
  310.118  113.162    0.205    0.513    5.090
  310.368  105.218    0.184    0.518    4.910
  310.618  101.189    0.143    0.538    4.949
  310.868  103.195    0.106    0.551    5.228
  311.118  102.113    0.140    0.527    5.508
  311.368  103.322    0.141    0.492    5.808
  311.618  107.435    0.080    0.492    6.001
  311.868  109.963    0.097    0.474    6.174
  312.118  107.881    0.205    0.470    6.361
  312.368  104.873    0.199    0.453    6.406
  312.618  101.174    0.201    0.435    6.527
  312.868   94.858    0.220    0.422    6.522
  313.118   95.100    0.229    0.450    6.524
  313.368   96.894    0.247    0.463    6.536
  313.618   98.846    0.262    0.477    6.605
  313.868  100.314    0.271    0.466    6.604
  314.118  100.160    0.258    0.452    6.605
  314.368   98.540    0.228    0.455    6.544
  314.618   98.542    0.249    0.449    6.406
  314.868  102.969    0.228    0.452    6.365
  315.118  108.708    0.235    0.457    6.365
  315.368  110.842    0.235    0.473    6.370
  315.618  107.532    0.239    0.464    6.287
  315.868  107.607    0.232    0.458    6.340
  316.118  105.537    0.226    0.465    6.378
  316.368   98.932    0.217    0.475    6.516
  316.618   91.099    0.239    0.471    6.576
  316.868   86.486    0.213    0.448    6.437
  317.118   92.431    0.176    0.429    6.578
  317.368   99.122    0.136    0.426    6.720
  317.618  106.641    0.209    0.442    6.851
  317.868  107.790    0.200    0.432    6.844
  318.118  107.395    0.210    0.426    6.814
  318.368  108.885    0.196    0.441    6.850
  318.618  108.108    0.197    0.453    6.931
  318.868  110.733    0.194    0.446    6.916
  319.118  113.029    0.178    0.457    6.698
  319.368  115.707    0.187    0.479    6.390
  319.618  116.717    0.198    0.498    6.101
  319.868  117.793    0.192    0.514    5.755
  320.118  119.032    0.184    0.534    5.575
  320.368  120.003    0.166    0.528    5.408
  320.618  113.601    0.218    0.517    5.412
