~VERSION INFORMATION
 VERS.                 2.0:   CWLS LOG ASCII STANDARD -VERSION 2.0
 WRAP.                  NO:   ONE LINE PER DEPTH STEP
~WELL INFORMATION BLOCK
#MNEM.UNIT           DATA                    DESCRIPTION OF MNEMONIC
#---------    -------------------            -------------------------------
# Generated from Intellog Unique Number	CW_82_90/WELL/3438
WELL.         TEXEX WOODEN                   : Well_name    - WELL
LOC .         00/10-13-089-24W4/0            : Location     - LOCATION
UWI .         00/10-13-089-24W4/0            : Uwi          - UNIQUE WELL ID
ENTR.         MAX                            : Entered      - ENTERED BY
SRVC.         SCHLUMBERGER                   : Scn          - SERVICE COMPANY
STRT.M        121.92                         : top_depth    - START DEPTH
STOP.M        270.67                         : bot_depth    - STOP DEPTH
STEP.M        0.25                           : increment    - STEP LENGTH
 NULL. -999.2500:NULL Value
~CURVE INFORMATION BLOCK
#MNEM UNIT       ERCB CURVE CODE    CURVE DESCRIPTION
#-----------   ------------------   ----------------------------------
DEPT.M        00 001 00 00         : DEPTH        - DEPTH
ILD .OHMM     00 120 00 00         : RESD         - DEEP RESISTIVITY (DIL)
NPHI.V/V      00 330 00 00         : PHIN         - NEUTRON POROSITY (SANDSTONE)
DPHI.V/V      00 890 00 00         : PHID         - DENSITY POROSITY (SANDSTONE)
CALI.MM       00 280 01 00         : CAL          - CALIPER
GR  .API      00 310 00 00         : GR           - GAMMA RAY
~PARAMETER INFORMATION
#MNEM.UNIT           DATA             DESCRIPTION OF MNEMONIC
#---------         -----------     ------------------------------
GL  .M        508.65               : gl           - GROUND LEVEL ELEVATION
EREF.M        512.003              : kb           - ELEVATION OF DEPTH REFERENCE
DATM.M        508.65               : datum        - DATUM ELEVATION
TDD .M        263.347              : tdd          - TOTAL DEPTH DRILLER
RUN .         ONE                  : Run          - RUN NUMBER
ENG .         BILL                 : Engineer     - RECORDING ENGINEER
WIT .         JIM                  : Witness      - WITNESSED BY
MUD .         GEL                  : Mud_type     - MUD TYPE
MATR.         SANDSTONE            : Logunit      - NEUTRON MATRIX
TMAX.C        15.5556              : BHT          - MAXIMUM RECORDED TEMPERATURE
BHTD.M        263.347              : BHTDEP       - MAXIMUM RECORDED TEMPERATURE
MATR.         1                    : LOGUNIT      - NEUTRON MATRIX
RMT .C        15.5556              : MDTP         - TEMPERATURE OF MUD
NEUT.         1                    : NEUTRON      - NEUTRON TYPE
RESI.         0                    : RESIST       - RESISTIVITY TYPE
RMC .OHMM     5.35                 : RMC          - RESISTIVITY OF MUD CAKE
RMF .OHMM     5.35                 : RMF          - RESISTIVITY OF MUD FILTRATE
SUFT.C        -12.2222             : SUFT         - SURFACE TEMPERATURE
~A  DEPTH     RESD     PHIN     PHID      CAL       GR
  121.920    9.985    0.468    0.251  220.672   78.855
  122.170   10.641    0.476    0.237  214.646   75.005
  122.420   11.236    0.491    0.256  212.112   72.035
  122.670   11.543    0.496    0.256  220.539   73.183
  122.920   11.751    0.494    0.252  222.479   71.981
  123.170   11.533    0.489    0.240  221.938   73.725
  123.420   11.113    0.487    0.264  223.396   78.110
  123.670   10.806    0.485    0.265  226.841   78.673
  123.920   10.702    0.479    0.254  227.784   77.177
  124.170   10.697    0.480    0.266  223.253   80.683
  124.420   10.594    0.467    0.226  220.730   83.305
  124.670   10.589    0.466    0.195  220.179   83.568
  124.920   10.681    0.458    0.176  221.133   81.487
  125.170   11.700    0.442    0.152  220.597   74.692
  125.420   12.019    0.429    0.113  220.550   72.898
  125.670   11.581    0.359    0.056  221.000   71.994
  125.920   10.468    0.440    0.190  222.452   71.966
  126.170    8.711    0.488    0.245  224.901   75.180
  126.420    7.317    0.526    0.253  229.347   82.510
  126.670    5.455    0.543    0.249  237.271   90.429
  126.920    4.143    0.568    0.244  239.221   95.406
  127.170    3.676    0.578    0.249  235.188   97.434
  127.420    3.414    0.576    0.244  230.662  100.060
  127.670    3.413    0.586    0.239  227.630   96.795
  127.920    3.411    0.581    0.232  226.093   94.119
  128.170    3.441    0.573    0.232  224.058   94.388
  128.420    3.503    0.569    0.245  223.512   94.955
  128.670    3.599    0.588    0.239  225.457   94.338
  128.920    3.663    0.594    0.230  227.402   90.779
  129.170    3.729    0.589    0.232  227.370   86.930
  129.420    3.832    0.572    0.231  228.817   82.782
  129.670    4.083    0.555    0.208  229.766   82.761
  129.920    4.352    0.553    0.210  229.723   84.200
  130.170    4.854    0.559    0.208  228.192   82.998
  130.420    5.367    0.544    0.211  228.139   80.322
  130.670    6.384    0.519    0.200  228.102   78.538
  130.920    8.171    0.489    0.193  227.561   75.271
  131.170    8.627    0.448    0.145  226.024   73.484
  131.420    7.448    0.400    0.092  225.473   72.576
  131.670    6.731    0.423    0.080  224.932   74.316
  131.920    5.918    0.473    0.113  224.890   79.289
  132.170    5.252    0.510    0.214  225.346   82.501
  132.420    4.575    0.535    0.250  225.298   84.829
  132.670    4.250    0.552    0.243  225.255   88.332
  132.920    3.806    0.572    0.224  224.715   90.663
  133.170    3.503    0.578    0.216  223.172   95.346
  133.420    3.314    0.565    0.191  222.134  102.970
  133.670    3.467    0.537    0.167  222.097  109.124
  133.920    3.764    0.531    0.219  221.551  102.917
  134.170    4.122    0.560    0.210  220.512   88.763
  134.420    4.274    0.546    0.199  220.469   89.915
  134.670    4.311    0.535    0.195  221.423   92.835
  134.920    4.232    0.540    0.204  221.869   94.576
  135.170    4.115    0.561    0.213  222.330   94.551
  135.420    4.075    0.526    0.215  227.762   91.286
  135.670    4.036    0.518    0.222  229.718   93.321
  135.920    4.034    0.547    0.228  230.168   94.469
  136.170    4.144    0.568    0.228  234.106   92.382
  136.420    4.416    0.557    0.244  235.065   92.062
  136.670    4.750    0.538    0.239  233.528   90.569
  136.920    5.299    0.507    0.224  231.488   88.184
  137.170    5.858    0.499    0.207  231.445   87.277
  137.420    5.964    0.502    0.203  232.399   87.252
  137.670    6.016    0.515    0.209  234.344   88.112
  137.920    6.068    0.517    0.219  234.800   89.555
  138.170    6.121    0.503    0.231  236.252   90.704
  138.420    6.118    0.495    0.227  236.703   93.036
  138.670    6.004    0.493    0.227  234.668   95.364
  138.920    5.785    0.489    0.212  234.625   96.222
  139.170    5.524    0.477    0.199  237.074  101.192
  139.420    5.226    0.488    0.192  235.033  104.109
  139.670    5.035    0.520    0.186  233.995  104.084
  139.920    4.897    0.559    0.179  233.952  102.585
  140.170    4.806    0.565    0.173  233.406  103.145
  140.420    4.760    0.558    0.170  231.869  103.418
  140.670    4.501    0.546    0.179  229.834  101.042
  140.920    4.460    0.541    0.178  230.290   98.654
  141.170    4.417    0.541    0.181  235.229   98.635
  141.420    4.415    0.548    0.198  233.194   99.787
  141.670    4.453    0.571    0.201  230.655  100.939
  141.920    4.533    0.578    0.204  230.608   97.965
  142.170    4.572    0.550    0.210  231.562   92.647
  142.420    4.613    0.529    0.194  235.510   85.852
  142.670    4.653    0.539    0.223  237.953   78.178
  142.920    4.483    0.553    0.218  237.408   89.039
  143.170    4.400    0.560    0.210  236.374   98.134
  143.420    4.520    0.538    0.234  234.826   99.286
  143.670    4.686    0.524    0.214  231.795   95.433
  143.920    4.859    0.516    0.209  228.265   90.701
  144.170    5.037    0.513    0.212  226.224   88.025
  144.420    5.128    0.528    0.214  226.675   89.467
  144.670    5.126    0.507    0.214  227.131   89.442
  144.920    5.170    0.499    0.215  227.099   87.652
  145.170    5.264    0.506    0.216  227.051   83.802
  145.420    5.457    0.518    0.214  227.507   81.715
  145.670    5.607    0.505    0.213  227.465   81.398
  145.920    5.760    0.499    0.233  226.919   81.367
  146.170    5.550    0.504    0.233  226.373   83.699
  146.420    4.748    0.526    0.219  226.325   87.793
  146.670    4.291    0.539    0.212  226.288   90.121
  146.920    3.913    0.535    0.208  226.240   91.567
  147.170    3.669    0.534    0.208  226.198   93.301
  147.420    3.567    0.544    0.201  226.155   95.924
  147.670    3.566    0.565    0.197  226.113   95.608
  147.920    3.663    0.569    0.218  226.569   92.344
  148.170    3.798    0.560    0.233  227.019   88.494
  148.420    4.085    0.545    0.240  226.977   85.229
  148.670    4.434    0.492    0.236  224.449   84.322
  148.920    4.901    0.487    0.232  223.897   81.355
  149.170    5.320    0.499    0.220  225.843   75.151
  149.420    5.827    0.514    0.204  226.298   75.414
  149.670    6.501    0.512    0.190  225.758   78.334
  149.920    6.618    0.505    0.191  223.723   82.428
  150.170    6.494    0.499    0.202  222.684   85.930
  150.420    6.258    0.500    0.204  223.145   87.674
  150.670    6.029    0.533    0.206  224.093   89.999
  150.920    5.972    0.528    0.206  224.051   91.442
  151.170    6.024    0.502    0.197  225.503   91.414
  151.420    6.021    0.490    0.198  228.445   91.095
  151.670    6.186    0.500    0.196  225.901   90.190
  151.920    6.414    0.503    0.196  224.867   88.985
  152.170    6.898    0.470    0.193  224.830   87.489
  152.420    7.152    0.455    0.186  227.273   86.876
  152.670    7.214    0.464    0.177  228.222   86.556
  152.920    7.344    0.484    0.167  228.683   86.237
  153.170    7.545    0.482    0.181  226.150   85.915
  153.420    7.823    0.477    0.185  224.602   84.713
  153.670    7.963    0.487    0.188  224.051   84.393
  153.920    8.106    0.473    0.194  223.521   83.777
  154.170    8.177    0.463    0.199  223.484   82.869
  154.420    8.173    0.488    0.203  222.932   84.312
  154.670    8.169    0.496    0.196  223.892   83.702
  154.920    8.166    0.488    0.196  224.835   81.617
  155.170    8.161    0.476    0.188  225.296   80.409
  155.420    8.158    0.462    0.187  225.254   79.504
  155.670    8.153    0.462    0.205  224.713   78.008
  155.920    8.076    0.466    0.200  224.167   75.038
  156.170    7.853    0.468    0.208  223.621   71.777
  156.420    7.429    0.458    0.209  223.086   72.046
  156.670    6.965    0.450    0.198  223.044   78.788
  156.920    6.013    0.483    0.183  223.499   87.001
  157.170    5.484    0.514    0.183  222.455   88.734
  157.420    4.866    0.532    0.192  223.409   88.121
  157.670    4.520    0.542    0.195  224.363   86.919
  157.920    4.476    0.552    0.198  223.319   87.188
  158.170    4.434    0.558    0.216  223.277   91.871
