~VERSION INFORMATION
 VERS.                 2.0:   CWLS LOG ASCII STANDARD -VERSION 2.0
 WRAP.                  NO:   ONE LINE PER DEPTH STEP
~WELL INFORMATION BLOCK
#MNEM.UNIT           DATA                    DESCRIPTION OF MNEMONIC
#---------    -------------------            -------------------------------
# Generated from Intellog Unique Number	CS_77_79/WELL/981
WELL.         CANON SIEBANS COWPAR           : Well_name    - WELL
LOC .         00/10-33-079-04W4/0            : Location     - LOCATION
UWI .         00/10-33-079-04W4/0            : Uwi          - UNIQUE WELL ID
ENTR.         JHS                            : Entered      - ENTERED BY
SRVC.         SCHLUMBERGER                   : Scn          - SERVICE COMPANY
STRT.M        103.632                        : top_depth    - START DEPTH
STOP.M        319.882                        : bot_depth    - STOP DEPTH
STEP.M        0.25                           : increment    - STEP LENGTH
 NULL. -999.2500:NULL Value
~CURVE INFORMATION BLOCK
#MNEM UNIT       ERCB CURVE CODE    CURVE DESCRIPTION
#-----------   ------------------   ----------------------------------
DEPT.M        00 001 00 00         : DEPTH        - DEPTH
RHOB.KG/M3    00 350 00 00         : DENS         - BULK DENSITY
GR  .API      00 310 00 00         : GR           - GAMMA RAY
DPHI.V/V      00 890 00 00         : PHID         - DENSITY POROSITY (SANDSTONE)
NPHI.V/V      00 330 00 00         : PHIN         - NEUTRON POROSITY (SANDSTONE)
ILD .OHMM     00 120 00 00         : RESD         - DEEP RESISTIVITY (DIL)
~PARAMETER INFORMATION
#MNEM.UNIT           DATA             DESCRIPTION OF MNEMONIC
#---------         -----------     ------------------------------
GL  .M        470.916              : gl           - GROUND LEVEL ELEVATION
EREF.M        474.269              : kb           - ELEVATION OF DEPTH REFERENCE
DATM.M        474.269              : datum        - DATUM ELEVATION
TDD .M        329.184              : tdd          - TOTAL DEPTH DRILLER
RUN .         ONE                  : Run          - RUN NUMBER
ENG .         BILL                 : Engineer     - RECORDING ENGINEER
WIT .         JIM                  : Witness      - WITNESSED BY
MUD .         GEL                  : Mud_type     - MUD TYPE
MATR.         SANDSTONE            : Logunit      - NEUTRON MATRIX
TMAX.C        60                   : BHT          - MAXIMUM RECORDED TEMPERATURE
BHTD.M        329.184              : BHTDEP       - MAXIMUM RECORDED TEMPERATURE
MATR.         1                    : LOGUNIT      - NEUTRON MATRIX
RMT .C        25                   : MDTP         - TEMPERATURE OF MUD
NEUT.         1                    : NEUTRON      - NEUTRON TYPE
RESI.         0                    : RESIST       - RESISTIVITY TYPE
RMC .OHMM     0.25                 : RMC          - RESISTIVITY OF MUD CAKE
RMF .OHMM     0.25                 : RMF          - RESISTIVITY OF MUD FILTRATE
SUFT.C        15                   : SUFT         - SURFACE TEMPERATURE
~A  DEPTH     DENS       GR     PHID     PHIN     RESD
# ...
  176.632    0.000   74.161    0.232    0.514    9.341
  176.882    0.000   74.127    0.244    0.492    9.619
  177.132    0.000   73.852    0.278    0.478    9.867
  177.382   -0.000   70.731    0.249    0.462   10.036
  177.632   -0.000   69.931    0.253    0.451   10.151
  177.882   -0.000   71.555    0.244    0.463   10.272
  178.132    0.000   74.792    0.287    0.488   10.926
  178.382    0.000   72.455    0.278    0.501   11.957
  178.632    0.000   73.764    0.271    0.495   12.804
  178.882   -0.000   71.283    0.262    0.482   13.852
  179.132   -0.000   67.852    0.263    0.453   14.219
  179.382   -0.000   62.169    0.236    0.406   14.197
  179.632    0.000   55.873    0.134    0.304   13.425
  179.882    0.000   65.188    0.090    0.286   12.509
  180.132   -0.000   75.374    0.080    0.373   11.613
  180.382   -0.000   79.274    0.253    0.491   10.883
  180.632   -0.000   78.313    0.283    0.485   11.037
  180.882    0.000   75.306    0.282    0.473   11.334
  181.132    0.000   73.675    0.280    0.468   12.393
  181.382    0.000   71.385    0.275    0.475   13.225
  181.632   -0.000   68.110    0.267    0.451   13.425
  181.882   -0.000   64.939    0.238    0.354   12.933
  182.132   -0.000   63.792    0.124    0.297   12.403
  182.382    0.000   69.531    0.092    0.283   11.119
  182.632    0.000   75.549    0.123    0.440    9.928
  182.882    0.000   77.571    0.237    0.470    8.466
  183.132   -0.000   78.516    0.290    0.491    7.733
  183.382   -0.000   82.293    0.266    0.504    7.229
  183.632    0.000   83.449    0.248    0.511    7.039
  183.882    0.000   88.886    0.271    0.503    7.219
  184.132    0.000   89.580    0.244    0.466    7.752
  184.382   -0.000   89.172    0.236    0.441    7.719
  184.632   -0.000   87.545    0.243    0.434    7.428
  184.882   -0.000   85.931    0.253    0.479    6.348
  185.132    0.000   85.501    0.227    0.503    5.532
  185.382    0.000   86.070    0.234    0.524    4.307
  185.632    0.000   89.173    0.248    0.541    4.287
  185.882   -0.000   90.010    0.240    0.576    4.337
  186.132   -0.000   87.896    0.250    0.570    4.467
  186.382    0.000   86.748    0.241    0.543    4.691
  186.632    0.000   88.461    0.259    0.534    5.045
  186.882    0.000   89.663    0.244    0.528    5.241
  187.132   -0.000   89.194    0.230    0.515    5.239
  187.382   -0.000   91.381    0.218    0.495    5.008
  187.632   -0.000   94.193    0.231    0.494    4.576
  187.882    0.000   95.742    0.235    0.526    4.186
  188.132    0.000   96.883    0.224    0.563    3.864
  188.382    0.000   98.811    0.243    0.568    3.763
  188.632   -0.006   97.238    0.251    0.573    3.833
  188.882   -0.069   95.656    0.245    0.577    3.809
  189.132   -0.027   93.481    0.265    0.534    3.620
  189.382    4.797   90.013    0.249    0.511    3.034
  189.632   39.568   89.066    0.250    0.519    2.923
  189.882  -85.805   94.638    0.246    0.560    2.956
  190.132 2484.220   96.781    0.254    0.573    3.446
  190.382 2259.980   94.975    0.272    0.531    4.643
  190.632 2259.950   90.438    0.262    0.501    5.873
  190.882 2234.190   86.606    0.278    0.459    6.916
  191.132 2247.830   85.082    0.270    0.422    7.405
  191.382 2180.400   83.022    0.310    0.423    7.416
  191.632 2247.510   81.240    0.270    0.451    7.335
  191.882 2360.790   83.774    0.204    0.466    7.249
  192.132 2439.800   88.912    0.158    0.463    7.340
  192.382 2456.480   88.407    0.148    0.467    7.646
  192.632 2327.180   86.607    0.224    0.477    8.228
  192.882 2319.520   83.216    0.228    0.482    9.486
  193.132 2334.710   78.558    0.219    0.473   10.721
  193.382 2238.690   74.191    0.276    0.443   10.876
  193.632 2221.980   72.154    0.285    0.433    8.983
  193.882 2325.070   67.026    0.225    0.402    6.902
  194.132 2397.150   62.920    0.183    0.355    5.446
  194.382 2525.900   73.440    0.108    0.346    4.220
  194.632 2540.740   85.278    0.099    0.482    3.948
  194.882 2296.650   89.153    0.242    0.522    3.998
  195.132 2274.320   87.715    0.255    0.541    4.115
  195.382 2281.710   84.309    0.250    0.526    4.327
  195.632 2321.790   81.031    0.227    0.514    4.524
  195.882 2290.430   82.207    0.245    0.507    4.429
  196.132 2282.160   86.133    0.250    0.496    4.249
  196.382 2244.210   87.491    0.272    0.497    4.080
  196.632 2244.060   87.355    0.272    0.517    4.244
  196.882 2268.560   86.312    0.258    0.521    5.034
  197.132 2268.790   86.567    0.258    0.526    5.586
  197.382 2283.770   87.656    0.249    0.523    6.051
  197.632 2241.100   88.718    0.274    0.497    6.633
  197.882 2199.320   88.225    0.299    0.425    6.818
  198.132 2153.580   86.814    0.325    0.409    6.806
  198.382 2142.530   82.326    0.332    0.428    6.128
  198.632 2181.210   84.840    0.309    0.448    5.434
  198.882 2226.390   88.750    0.283    0.451    4.729
  199.132 2258.300   90.179    0.264    0.468    3.929
  199.382 2301.770   86.822    0.239    0.484    2.884
  199.632 2264.540   86.597    0.261    0.489    2.406
  199.882 2249.660   81.454    0.269    0.528    2.279
  200.132 2231.770   77.371    0.280    0.575    2.260
  200.382 2167.380   77.573    0.317    0.575    2.223
  200.632 2169.130   76.487    0.316    0.602    2.223
  200.882 2173.710   73.829    0.314    0.606    2.223
  201.132 2216.780   73.990    0.288    0.622    2.254
  201.382 2181.130   78.859    0.309    0.582    2.245
  201.632 2187.070   81.247    0.306    0.562    2.265
  201.882 2209.860   83.591    0.292    0.548    2.436
  202.132 2189.850   85.529    0.304    0.544    2.692
  202.382 2232.240   84.853    0.279    0.552    3.076
  202.632 2242.390   81.258    0.273    0.558    3.498
  202.882 2282.050   82.721    0.250    0.532    3.905
  203.132 2305.200   88.129    0.237    0.524    4.192
  203.382 2311.830   89.999    0.233    0.511    4.621
  203.632 2310.410   86.467    0.234    0.489    5.090
  203.882 2346.790   84.034    0.212    0.470    5.402
  204.132 2359.880   82.612    0.205    0.441    5.490
  204.382 2235.640   81.953    0.277    0.425    4.933
  204.632 2280.840   79.290    0.251    0.441    4.319
  204.882 2244.790   80.827    0.272    0.449    3.854
  205.132 2244.510   84.413    0.272    0.443    3.565
  205.382 2307.350   89.145    0.235    0.474    3.463
  205.632 2304.820   91.116    0.237    0.537    3.372
  205.882 2238.040   88.154    0.276    0.547    3.314
  206.132 2284.920   84.242    0.249    0.521    3.284
  206.382 2318.350   90.456    0.229    0.510    3.188
  206.632 2322.830   90.398    0.226    0.513    3.142
  206.882 2324.870   92.396    0.225    0.512    3.044
  207.132 2319.360   92.938    0.228    0.520    3.023
  207.382 2293.290   91.867    0.244    0.539    3.071
  207.632 2337.500   93.121    0.218    0.534    3.156
  207.882 2296.090   92.305    0.242    0.521    3.184
  208.132 2344.210   88.239    0.214    0.518    3.190
  208.382 2364.260   86.181    0.202    0.524    3.116
  208.632 2295.070   85.827    0.243    0.531    3.181
  208.882 2329.260   86.864    0.223    0.524    3.382
  209.132 2288.950   86.978    0.246    0.535    3.733
  209.382 2308.550   85.463    0.235    0.547    4.074
  209.632 2314.600   82.365    0.231    0.533    4.645
  209.882 2321.150   82.444    0.227    0.492    5.050
  210.132 2321.030   84.380    0.227    0.478    5.213
  210.382 2264.950   86.297    0.260    0.464    4.976
  210.632 2253.580   85.805    0.267    0.452    4.741
  210.882 2308.310   82.771    0.235    0.452    4.591
  211.132 2329.680   79.384    0.222    0.479    4.692
  211.382 2360.200   79.461    0.205    0.495    5.020
  211.632 2309.280   84.164    0.234    0.502    5.840
  211.882 2343.250   85.072    0.214    0.493    6.572
  212.132 2354.810   79.694    0.208    0.481    6.841
  212.382 2423.310   70.121    0.168    0.379    6.786
  212.632 2516.350   68.700    0.113    0.353    6.394
  212.882 2621.900   78.802    0.052    0.423    6.213
