~VERSION INFORMATION
 VERS.                 2.0:   CWLS LOG ASCII STANDARD -VERSION 2.0
 WRAP.                  NO:   ONE LINE PER DEPTH STEP
~WELL INFORMATION BLOCK
#MNEM.UNIT           DATA                    DESCRIPTION OF MNEMONIC
#---------    -------------------            -------------------------------
# Generated from Intellog Unique Number	CW_79_81/WELL/2464
WELL.         TEXEX WABASCA                  : Well_name    - WELL
LOC .         00/10-07-081-24W4/0            : Location     - LOCATION
UWI .         00/10-07-081-24W4/0            : Uwi          - UNIQUE WELL ID
ENTR.         MAX                            : Entered      - ENTERED BY
SRVC.         WESTERN ATLAS                  : Scn          - SERVICE COMPANY
STRT.M        243.84                         : top_depth    - START DEPTH
STOP.M        453.84                         : bot_depth    - STOP DEPTH
STEP.M        0.25                           : increment    - STEP LENGTH
 NULL. -999.2500:NULL Value
~CURVE INFORMATION BLOCK
#MNEM UNIT       ERCB CURVE CODE    CURVE DESCRIPTION
#-----------   ------------------   ----------------------------------
DEPT.M        00 001 00 00         : DEPTH        - DEPTH
ILD .OHMM     00 120 00 00         : RESD         - DEEP RESISTIVITY (DIL)
NPHI.V/V      00 330 00 00         : PHIN         - NEUTRON POROSITY (SANDSTONE)
DPHI.V/V      00 890 00 00         : PHID         - DENSITY POROSITY (SANDSTONE)
GR  .API      00 310 00 00         : GR           - GAMMA RAY
CALI.MM       00 280 01 00         : CAL          - CALIPER
~PARAMETER INFORMATION
#MNEM.UNIT           DATA             DESCRIPTION OF MNEMONIC
#---------         -----------     ------------------------------
GL  .M        600.761              : gl           - GROUND LEVEL ELEVATION
EREF.M        604.418              : kb           - ELEVATION OF DEPTH REFERENCE
DATM.M        600.761              : datum        - DATUM ELEVATION
TDD .M        457.2                : tdd          - TOTAL DEPTH DRILLER
RUN .         ONE                  : Run          - RUN NUMBER
ENG .         BILL                 : Engineer     - RECORDING ENGINEER
WIT .         JIM                  : Witness      - WITNESSED BY
MUD .         GEL                  : Mud_type     - MUD TYPE
MATR.         SANDSTONE            : Logunit      - NEUTRON MATRIX
TMAX.C        26.6667              : BHT          - MAXIMUM RECORDED TEMPERATURE
BHTD.M        457.2                : BHTDEP       - MAXIMUM RECORDED TEMPERATURE
MATR.         1                    : LOGUNIT      - NEUTRON MATRIX
RMT .C        18.3333              : MDTP         - TEMPERATURE OF MUD
NEUT.         1                    : NEUTRON      - NEUTRON TYPE
RESI.         0                    : RESIST       - RESISTIVITY TYPE
RMC .OHMM     11                   : RMC          - RESISTIVITY OF MUD CAKE
RMF .OHMM     11                   : RMF          - RESISTIVITY OF MUD FILTRATE
SUFT.C        -20.5556             : SUFT         - SURFACE TEMPERATURE
~A  DEPTH     RESD     PHIN     PHID       GR      CAL
# ...
  280.340   31.543    0.383    0.306   37.547  280.911
  280.590   30.335    0.394    0.318   40.604  269.682
  280.840   29.854    0.401    0.318   43.718  263.596
  281.090   29.907    0.403    0.336   44.523  264.449
  281.340   30.140    0.405    0.336   42.602  266.543
  281.590   30.146    0.397    0.342   43.091  268.163
  281.840   29.016    0.399    0.344   42.882  268.003
  282.090   26.964    0.399    0.346   43.022  265.476
  282.340   24.063    0.393    0.347   44.094  261.465
  282.590   19.371    0.382    0.344   46.512  257.433
  282.840   15.318    0.381    0.340   47.995  252.947
  283.090   12.738    0.375    0.316   48.484  252.191
  283.340   11.117    0.376    0.281   50.551  253.515
  283.590    9.987    0.376    0.257   51.157  254.344
  283.840    9.239    0.372    0.255   50.245  253.887
  284.090    8.846    0.372    0.284   50.935  252.980
  284.340    8.523    0.378    0.294   51.929  252.193
  284.590    8.341    0.373    0.294   51.020  250.654
  284.840    8.208    0.371    0.294   49.583  249.702
  285.090    8.092    0.372    0.294   48.669  249.147
  285.340    8.007    0.374    0.292   48.632  248.792
  285.590    8.009    0.376    0.289   49.178  248.273
  285.840    8.011    0.381    0.292   49.444  247.485
  286.090    8.012    0.385    0.290   49.233  246.741
  286.340    8.014    0.381    0.281   49.373  246.284
  286.590    8.016    0.370    0.277   48.928  245.531
  286.840    8.003    0.361    0.277   48.542  244.484
  287.090    7.947    0.368    0.272   50.094  243.654
  287.340    7.949    0.376    0.277   48.418  243.282
  287.590    7.951    0.382    0.277   48.207  242.530
  287.840    7.953    0.383    0.279   48.343  241.481
  288.090    7.955    0.381    0.283   49.180  240.728
  288.340    7.970    0.379    0.290   50.138  240.468
  288.590    8.066    0.377    0.297   49.362  240.589
  288.840    8.252    0.375    0.305   47.681  241.040
  289.090    8.557    0.374    0.313   48.637  240.683
  289.340    8.826    0.377    0.315   48.191  240.033
  289.590    8.990    0.382    0.313   47.746  239.678
  289.840    9.042    0.386    0.311   48.119  239.617
  290.090    9.071    0.384    0.313   49.160  239.268
  290.340    9.211    0.386    0.310   47.238  239.308
  290.590    9.213    0.387    0.306   48.661  239.737
  290.840    9.165    0.386    0.301   49.559  240.472
  291.090    9.035    0.382    0.302   49.697  241.301
  291.340    8.859    0.380    0.311   49.368  242.223
  291.590    8.760    0.383    0.322   49.393  243.702
  291.840    8.896    0.385    0.321   49.416  244.977
  292.090    9.224    0.371    0.319   49.674  245.407
  292.340    9.615    0.338    0.317   47.128  244.950
  292.590   10.009    0.311    0.312   46.218  244.595
  292.840   10.362    0.296    0.302   47.352  245.129
  293.090   10.702    0.276    0.277   46.811  247.148
  293.340   10.868    0.240    0.248   46.350  247.192
  293.590   10.870    0.219    0.059   43.338  250.392
  293.840   10.755    0.212    0.028   42.252  250.626
  294.090   10.525    0.214    0.046   42.040  249.083
  294.340   10.247    0.222    0.062   42.586  246.851
  294.590    9.953    0.243    0.080   45.055  244.755
  294.840    9.588    0.277    0.077   46.783  243.967
  295.090    9.521    0.298    0.157   46.568  244.005
  295.340    9.557    0.294    0.159   46.359  247.014
  295.590    9.836    0.278    0.130   45.682  250.610
  295.840   10.332    0.258    0.092   44.478  253.114
  296.090   10.907    0.244    0.043   43.106  253.558
  296.340   11.504    0.240    0.028   43.128  253.590
  296.590   12.100    0.237    0.020   42.450  253.628
  296.840   12.864    0.234    0.019   42.121  253.669
  297.090   13.543    0.233    0.022   42.376  253.905
  297.340   13.871    0.235    0.029   43.274  254.336
  297.590   13.485    0.241    0.048   44.753  254.782
  297.840   12.610    0.251    0.062   45.020  254.821
  298.090   11.898    0.260    0.089   44.809  254.860
  298.340   11.104    0.271    0.087   44.944  254.598
  298.590   10.173    0.281    0.085   45.433  253.846
  298.840    9.183    0.294    0.095   46.215  252.603
  299.090    8.112    0.320    0.131   47.320  250.655
  299.340    7.473    0.359    0.214   48.073  248.632
  299.590    7.052    0.371    0.258   48.331  247.488
  299.840    6.805    0.372    0.290   48.936  246.635
  300.090    6.685    0.370    0.302   48.725  245.880
  300.340    6.650    0.371    0.299   47.874  244.732
  300.590    6.662    0.371    0.298   48.193  242.239
  300.840    6.714    0.366    0.307   49.676  241.459
  301.090    6.813    0.370    0.311   48.996  240.706
  301.340    6.877    0.381    0.315   47.447  240.547
  301.590    6.928    0.390    0.321   46.186  240.583
  301.840    6.980    0.392    0.325   45.620  240.718
  302.090    7.043    0.386    0.315   45.559  241.244
  302.340    7.098    0.381    0.301   46.312  241.688
  302.590    7.255    0.382    0.303   48.200  241.730
  302.840    7.415    0.379    0.301   47.640  241.766
  303.090    7.553    0.374    0.302   47.313  241.805
  303.340    7.637    0.366    0.307   47.800  241.845
  303.590    7.650    0.363    0.312   47.450  241.887
  303.840    7.710    0.362    0.311   46.751  241.927
  304.090    7.768    0.362    0.310   46.300  241.965
  304.340    7.868    0.363    0.313   45.855  241.710
  304.590    7.984    0.365    0.315   45.644  241.356
  304.840    8.103    0.367    0.314   45.840  241.099
  305.090    8.236    0.371    0.311   46.713  241.138
  305.340    8.299    0.369    0.316   47.464  241.177
  305.590    8.361    0.374    0.314   48.658  240.824
  305.840    8.424    0.379    0.315   48.974  240.169
  306.090    8.487    0.380    0.316   48.879  239.612
  306.340    8.550    0.378    0.318   48.608  239.848
  306.590    8.627    0.375    0.319   48.023  241.952
  306.840    8.694    0.378    0.327   47.319  242.400
  307.090    8.823    0.392    0.317   46.403  242.438
  307.340    8.857    0.400    0.312   45.843  241.290
  307.590    8.859    0.405    0.310   45.400  239.352
  307.840    8.845    0.407    0.309   45.305  237.513
  308.090    8.770    0.399    0.310   46.558  237.827
  308.340    8.706    0.386    0.320   48.038  241.161
  308.590    8.583    0.379    0.313   46.658  238.037
  308.840    8.369    0.374    0.300   45.804  236.691
  309.090    7.981    0.373    0.288   45.594  236.332
  309.340    7.482    0.377    0.281   46.377  236.663
  309.590    7.005    0.388    0.288   48.591  238.139
  309.840    6.954    0.385    0.310   47.890  239.418
  310.090    7.108    0.384    0.314   47.443  240.243
  310.340    7.421    0.390    0.315   46.997  241.071
  310.590    7.863    0.395    0.314   47.019  241.704
  310.840    8.381    0.396    0.311   47.802  242.041
  311.090    8.900    0.389    0.304   49.704  242.165
  311.340    8.970    0.374    0.298   50.946  242.617
  311.590    8.218    0.374    0.294   53.536  243.054
  311.840    7.321    0.380    0.271   55.602  244.082
  312.090    6.475    0.382    0.254   56.790  244.912
  312.340    5.857    0.379    0.247   57.395  245.349
  312.590    5.577    0.374    0.241   58.696  245.955
  312.840    5.413    0.372    0.230   60.422  246.818
  313.090    5.375    0.375    0.213   64.180  247.244
  313.340    5.425    0.382    0.208   64.787  247.376
  313.590    5.466    0.386    0.209   64.695  247.612
  313.840    5.427    0.389    0.213   64.484  247.950
  314.090    5.226    0.395    0.220   62.925  247.913
  314.340    4.997    0.398    0.218   63.189  247.537
  314.590    4.926    0.388    0.212   64.615  247.575
  314.840    4.963    0.375    0.207   67.087  247.023
  315.090    5.197    0.365    0.199   68.976  246.468
  315.340    5.704    0.357    0.192   70.050  246.109
  315.590    6.798    0.346    0.196   71.090  245.682
  315.840    8.301    0.332    0.210   69.163  245.310
  316.090   10.748    0.322    0.224   66.852  244.554
  316.340   14.188    0.315    0.264   62.614  243.797
  316.590   17.438    0.309    0.302   57.150  242.849
