~VERSION INFORMATION
 VERS.                 2.0:   CWLS LOG ASCII STANDARD -VERSION 2.0
 WRAP.                  NO:   ONE LINE PER DEPTH STEP
~WELL INFORMATION BLOCK
#MNEM.UNIT           DATA                    DESCRIPTION OF MNEMONIC
#---------    -------------------            -------------------------------
# Generated from Intellog Unique Number	CC_80_83/WELL/2360
NULL.         -999.25                        : NULL_VALUE
WELL.         NUMAC SURMONT                  : Well_name    - WELL
LOC .         10-20-082-06W4                 : Location     - LOCATION          
UWI .         00/10-20-082-06W4/0            : Uwi          - UNIQUE WELL ID    
ENTR.         DW                             : Entered      - ENTERED BY        
SRVC.         DRESSER ATLAS                  : Scn          - SERVICE COMPANY   
DATE.         07 MAR 73                      : Date         - LOG DATE
STRT.M        67.056                         : top_depth    - START DEPTH       
STOP.M        295.655                        : bot_depth    - STOP DEPTH        
STEP.M        0.3048                         : increment    - STEP LENGTH       
~CURVE INFORMATION BLOCK
#MNEM UNIT       ERCB CURVE CODE    CURVE DESCRIPTION
#-----------   ------------------   ----------------------------------
DEPT.M        00 001 00 00         : DEPTH        - DEPTH                       
NPHI.V/V      00 330 00 00         : PHIN         - NEUTRON POROSITY (LIMESTONE)
GR  .API      00 310 00 00         : GR           - GAMMA RAY                   
RHOB.KG/M3    00 350 00 00         : DENS         - BULK DENSITY                
ILD .OHMM     00 120 00 00         : RESD         - DEEP RESISTIVITY (DIL)      
~PARAMETER INFORMATION       
#MNEM.UNIT           DATA             DESCRIPTION OF MNEMONIC
#---------         -----------     ------------------------------
GL  .M        529.133              : gl           - GROUND LEVEL ELEVATION      
EREF.M        530.962              : kb           - ELEVATION OF DEPTH REFERENCE
DATM.M        530.962              : datum        - DATUM ELEVATION             
TDD .M        295.351              : tdd          - TOTAL DEPTH DRILLER         
RUN .         ONE                  : Run          - RUN NUMBER                  
ENG .         BILL                 : Engineer     - RECORDING ENGINEER          
WIT .         JIM                  : Witness      - WITNESSED BY                
MUD .         GEL                  : Mud_type     - MUD TYPE                    
MATR.         LIMESTONE            : Logunit      - NEUTRON MATRIX              
TMAX.C        17.7778              : BHT          - MAXIMUM RECORDED TEMPERATURE
BHTD.M        295.351              : BHTDEP       - MAXIMUM RECORDED TEMPERATURE
MATR.         1                    : LOGUNIT      - NEUTRON MATRIX              
RMT .C        25                   : MDTP         - TEMPERATURE OF MUD          
NEUT.         0                    : NEUTRON      - NEUTRON TYPE                
RESI.         0                    : RESIST       - RESISTIVITY TYPE            
RMC .OHMM     0.25                 : RMC          - RESISTIVITY OF MUD CAKE     
RMF .OHMM     0.25                 : RMF          - RESISTIVITY OF MUD FILTRATE 
SUFT.C        15                   : SUFT         - SURFACE TEMPERATURE         
~A  DEPTH     PHIN       GR     DENS     RESD
# ...
  173.126    0.340   67.579 2191.910   10.174
  173.431    0.329   62.754 2145.160   12.510
  173.736    0.338   58.534 2082.150   12.993
  174.040    0.343   55.521 2100.440   12.516
  174.345    0.343   54.925 2116.700   12.285
  174.650    0.344   56.745 2084.180   11.615
  174.955    0.343   57.352 2063.850   11.401
  175.260    0.327   57.962 2076.040   11.402
  175.564    0.302   57.365 2069.940   11.405
  175.869    0.300   57.980 2088.230   11.195
  176.174    0.309   57.381 2069.930   10.784
  176.479    0.319   57.385 2104.480   10.006
  176.783    0.302   58.599 2104.480   12.304
  177.088    0.295   59.812 2106.510   12.777
  177.393    0.326   58.007 2126.830   12.541
  177.698    0.290   54.392 2114.630   11.857
  178.003    0.293   53.793 2092.270   11.211
  178.307    0.308   54.403 2065.840   11.213
  178.612    0.346   57.429 2057.710   11.214
  178.917    0.344   59.852 2043.480   11.867
  179.222    0.339   58.046 2039.410   11.869
  179.527    0.336   56.241 2047.540   12.096
  179.831    0.338   56.247 2055.670   12.327
  180.136    0.342   59.876 2045.500   12.101
  180.441    0.344   58.073 2023.140   12.104
  180.746    0.336   55.060 2051.590   12.335
  181.051    0.336   53.858 2132.880   12.571
  181.355    0.342   52.055 2104.430   12.573
  181.660    0.340   51.454 2106.460   12.113
  181.965    0.330   54.483 2116.610   11.668
  182.270    0.329   56.905 2134.900   11.670
  182.575    0.335   56.910 2157.250   11.034
  182.879    0.340   56.312 2134.890   10.629
  183.184    0.344   57.525 2110.500   10.631
  183.489    0.335   56.929 2100.340   10.633
  183.794    0.334   56.935 2096.270   10.636
  184.099    0.347   60.567 2090.170   10.637
  184.403    0.351   61.177 2134.880   10.247
  184.708    0.354   59.974 2175.520   10.443
  185.013    0.359   58.774 2159.260   10.643
  185.318    0.362   56.362 2069.830   11.054
  185.623    0.353   55.162 2041.380   11.055
  185.927    0.341   56.979 2079.990   11.481
  186.232    0.340   56.987 2088.110   11.700
  186.537    0.334   55.785 2071.850   11.702
  186.842    0.334   58.811 2061.690    9.701
  187.146    0.342   60.628 2039.330    9.887
  187.451    0.341   60.635 2039.330   10.267
  187.756    0.338   60.038 2063.710   10.078
  188.061    0.341   60.045 2069.800    9.893
  188.366    0.334   60.052 2116.540    9.530
  188.670    0.329   59.454 2140.930    9.713
  188.975    0.330   56.440 2142.960   10.086
  189.280    0.338   57.657 2138.890   10.473
  189.585    0.335   58.265 2096.210   10.876
  189.890    0.341   58.272 2077.910   10.477
  190.194    0.336   58.277 2075.880   10.093
  190.499    0.310   58.284 2061.650    9.908
  190.804    0.315   60.102 2071.810   10.484
  191.109    0.330   63.734 2094.160   10.684
  191.414    0.349   63.741 2090.090   10.488
  191.718    0.323   63.745 2083.990   10.689
  192.023    0.321   61.337 2071.790   10.691
  192.328    0.333   60.134 2088.050   10.692
  192.633    0.336   59.538 2077.880   10.694
  192.938    0.338   59.545 2096.170    9.923
  193.242    0.353   59.549 2077.880    9.035
  193.547    0.359   58.349 2031.130    9.383
  193.852    0.346   58.359 2037.220   10.703
  194.157    0.335   58.967 2063.640   10.310
  194.462    0.333   60.182 2085.990    9.214
  194.766    0.339   58.978 2090.050    9.216
  195.071    0.337   60.192 2098.180    9.937
  195.376    0.319   61.407 2110.370   10.916
  195.681    0.322   60.205 2124.590   11.125
  195.986    0.318   57.797 2130.690   10.717
  196.290    0.311   56.596 2185.560    9.759
  196.595    0.328   57.206 2189.620    9.055
  196.900    0.326   57.818 2098.160    8.888
  197.205    0.320   59.031 2075.800    9.059
  197.509    0.321   60.848 2079.860   10.332
  197.814    0.319   62.063 2071.730   11.140
  198.119    0.311   61.465 2063.600    9.955
  198.424    0.306   60.264 2087.980   11.145
  198.729    0.305   59.668 2110.330   12.016
  199.033    0.304   59.673 2098.140   11.575
  199.338    0.305   59.679 2079.840   11.151
  199.643    0.308   59.686 2085.930   11.799
  199.948    0.306   59.089 2094.060   12.025
  200.253    0.304   58.493 2087.960    9.601
  200.557    0.303   58.496 2075.760   10.159
  200.862    0.303   59.713 2096.080   10.162
  201.167    0.303   60.321 2140.790    8.912
  201.472    0.304   62.140 2165.180    7.964
  201.777    0.308   64.561 2181.430    6.727
  202.081    0.311   71.211 2187.530    4.369
  202.386    0.318   78.464 2226.140    3.905
  202.691    0.327   86.321 2254.590    4.290
  202.996    0.327   90.555 2246.450    4.455
  203.301    0.328   89.958 2218.000    4.456
  203.605    0.333   86.945 2238.320    4.292
  203.910    0.340   88.160 2228.150    3.626
  204.215    0.361   90.581 2207.820    3.180
  204.520    0.385   93.608 2197.660    2.896
  204.825    0.402   95.426 2179.370    2.896
  205.129    0.410   95.431 2169.200    2.843
  205.434    0.396   97.248 2179.360    2.897
  205.739    0.391   99.068 2193.580    2.898
  206.044    0.391   99.072 2187.480    3.009
  206.349    0.380   97.871 2197.640    3.244
  206.653    0.371   96.673 2228.120    3.564
  206.958    0.357   94.262 2234.220    3.916
  207.263    0.339   90.040 2276.890    4.638
  207.568    0.334   90.653 2303.310    5.192
  207.872    0.322   90.657 2307.370    5.812
  208.177    0.318   90.060 2272.820    6.150
  208.482    0.312   87.048 2307.360    5.924
  208.787    0.306   84.639 2278.910    5.815
  209.092    0.299   84.644 2244.350    6.388
  209.396    0.285   84.653 2158.990    9.301
  209.701    0.272   85.263 2093.950   12.562
  210.006    0.248   84.664 2075.660   12.102
  210.311    0.240   81.046 2167.110   10.416
  210.616    0.255   81.656 2232.140    6.394
  210.920    0.271   85.288 2258.560    7.025
  211.225    0.268   88.918 2262.620    8.013
  211.530    0.255   90.132 2268.710    9.141
  211.835    0.257   90.741 2278.870    9.856
  212.140    0.280   89.539 2274.810    9.857
  212.444    0.278   88.339 2242.280    8.019
  212.749    0.274   89.556 2234.150    6.648
  213.054    0.288   90.769 2254.470    6.054
  213.359    0.307   91.378 2262.600    5.513
  213.664    0.307   92.592 2244.300    5.212
  213.968    0.301   92.597 2219.910    5.116
  214.273    0.291   94.419 2230.070    5.835
  214.578    0.285   94.424 2230.070    7.735
  214.883    0.282   90.805 2211.770    8.184
  215.188    0.275   85.981 2201.610    8.034
  215.492    0.273   85.988 2197.540    8.662
  215.797    0.309   83.579 2201.600    8.828
  216.102    0.325   82.983 2225.990    7.318
  216.407    0.329   84.800 2246.310    5.319
  216.712    0.341   86.617 2270.690    4.579
  217.016    0.346   89.039 2276.780    4.016
  217.321    0.347   94.482 2276.780    4.249
  217.626    0.348   93.279 2274.750    4.756
  217.931    0.347   91.476 2240.190    4.018
  218.236    0.347   87.861 2217.830    3.728
  218.540    0.348   86.657 2205.640    4.096
  218.845    0.347   86.058 2201.570    6.191
  219.150    0.328   84.859 2164.980    8.053
  219.455    0.322   82.447 2128.400    8.522
  219.759    0.329   76.415 2158.880    7.335
  220.064    0.343   77.629 2201.550    5.641
  220.369    0.363   82.469 2223.910    3.399
  220.674    0.382   83.680 2193.420    3.037
  220.979    0.387   85.499 2164.960    3.337
  221.283    0.362   83.695 2152.760    4.592
  221.588    0.334   81.284 2138.540    6.686
  221.893    0.308   76.461 2146.660    6.943
  222.198    0.325   74.656 2132.430    6.944
  222.503    0.336   73.455 2130.400    7.487
  222.807    0.348   71.648 2116.170    8.540
  223.112    0.343   68.032 2108.030    8.542
  223.417    0.330   64.417 2136.480    8.228
  223.722    0.319   62.609 2177.130    8.230
  224.027    0.310   60.200 2223.870    8.388
  224.331    0.290   59.605 2250.280   10.313
  224.636    0.263   60.214 2297.020   16.494
  224.941    0.236   59.011 2425.060   17.128
  225.246    0.206   57.208 2229.950    7.934
  225.551    0.234   62.649 2193.360    8.717
  225.855    0.310   66.881 2242.140    9.944
