~VERSION INFORMATION
 VERS.                 2.0:   CWLS LOG ASCII STANDARD -VERSION 2.0
 WRAP.                  NO:   ONE LINE PER DEPTH STEP
~WELL INFORMATION BLOCK
#MNEM.UNIT           DATA                    DESCRIPTION OF MNEMONIC
#---------    -------------------            -------------------------------
# Generated from Intellog Unique Number	CS_69_70/WELL/891
WELL.         MANVILLE OIL & GAS LTD.        : Well_name    - WELL
LOC .         00/11-21-069-17W4/0            : Location     - LOCATION
UWI .         00/11-21-069-17W4/0            : Uwi          - UNIQUE WELL ID
ENTR.         SP                             : Entered      - ENTERED BY
SRVC.         SCHLUMBERGER                   : Scn          - SERVICE COMPANY
STRT.M        290                            : top_depth    - START DEPTH
STOP.M        502                            : bot_depth    - STOP DEPTH
STEP.M        0.25                           : increment    - STEP LENGTH
 NULL. -999.2500:NULL Value
~CURVE INFORMATION BLOCK
#MNEM UNIT       ERCB CURVE CODE    CURVE DESCRIPTION
#-----------   ------------------   ----------------------------------
DEPT.M        00 001 00 00         : DEPTH        - DEPTH
ILD .OHMM     00 120 00 00         : RESD         - DEEP RESISTIVITY (DIL)
DPHI.V/V      00 890 00 00         : PHID         - DENSITY POROSITY (LIMESTONE)
NPHI.V/V      00 330 00 00         : PHIN         - NEUTRON POROSITY (LIMESTONE)
GR  .API      00 310 00 00         : GR           - GAMMA RAY
~PARAMETER INFORMATION
#MNEM.UNIT           DATA             DESCRIPTION OF MNEMONIC
#---------         -----------     ------------------------------
GL  .M        556.93               : gl           - GROUND LEVEL ELEVATION
EREF.M        560.03               : kb           - ELEVATION OF DEPTH REFERENCE
DATM.M        556.93               : datum        - DATUM ELEVATION
TDD .M        504                  : tdd          - TOTAL DEPTH DRILLER
RUN .         ONE                  : Run          - RUN NUMBER
ENG .         BILL                 : Engineer     - RECORDING ENGINEER
WIT .         JIM                  : Witness      - WITNESSED BY
MUD .         GEL                  : Mud_type     - MUD TYPE
MATR.         LIMESTONE            : Logunit      - NEUTRON MATRIX
TMAX.C        23                   : BHT          - MAXIMUM RECORDED TEMPERATURE
BHTD.M        504                  : BHTDEP       - MAXIMUM RECORDED TEMPERATURE
MATR.         1                    : LOGUNIT      - NEUTRON MATRIX
RMT .C        25                   : MDTP         - TEMPERATURE OF MUD
NEUT.         1                    : NEUTRON      - NEUTRON TYPE
RESI.         0                    : RESIST       - RESISTIVITY TYPE
RMC .OHMM     0.25                 : RMC          - RESISTIVITY OF MUD CAKE
RMF .OHMM     0.25                 : RMF          - RESISTIVITY OF MUD FILTRATE
SUFT.C        15                   : SUFT         - SURFACE TEMPERATURE
~A  DEPTH     RESD     PHID     PHIN       GR
# ...
  464.000    2.989    0.185    0.454  121.824
  464.250    3.407    0.181    0.454  121.089
  464.500    3.818    0.185    0.461  118.034
  464.750    4.286    0.197    0.465  115.529
  465.000    4.940    0.193    0.446  108.811
  465.250    5.557    0.164    0.405  100.078
  465.500    6.226    0.128    0.378   95.375
  465.750    7.123    0.069    0.349   91.831
  466.000    8.367    0.032    0.310   79.985
  466.250   10.477    0.009    0.246   69.238
  466.500   14.041    0.012    0.192   62.459
  466.750   11.595    0.035    0.165   58.305
  467.000    8.880    0.058    0.192   56.105
  467.250    7.936    0.101    0.243   59.887
  467.500    7.053    0.157    0.293   62.754
  467.750    6.707    0.206    0.314   61.103
  468.000    6.284    0.223    0.328   63.420
  468.250    6.056    0.224    0.339   65.677
  468.500    5.936    0.224    0.333   65.186
  468.750    5.841    0.229    0.327   64.878
  469.000    5.812    0.233    0.323   65.180
  469.250    5.871    0.225    0.323   62.614
  469.500    5.999    0.218    0.328   60.352
  469.750    6.130    0.210    0.329   60.533
  470.000    6.239    0.205    0.324   63.216
  470.250    6.434    0.208    0.316   66.266
  470.500    6.788    0.199    0.310   68.156
  470.750    7.014    0.183    0.307   67.604
  471.000    7.059    0.171    0.302   66.747
  471.250    6.932    0.163    0.302   67.050
  471.500    6.569    0.180    0.306   69.733
  471.750    6.188    0.193    0.309   72.722
  472.000    5.831    0.203    0.305   75.832
  472.250    5.725    0.201    0.308   78.272
  472.500    5.708    0.198    0.315   80.101
  472.750    5.965    0.200    0.325   77.901
  473.000    6.246    0.193    0.332   80.828
  473.250    6.602    0.182    0.326   81.864
  473.500    6.938    0.176    0.319   79.481
  473.750    7.062    0.145    0.313   74.105
  474.000    6.794    0.097    0.307   68.914
  474.250    6.377    0.068    0.300   70.621
  474.500    6.019    0.091    0.298   89.665
  474.750    5.735    0.118    0.317  113.533
  475.000    5.517    0.149    0.331  126.717
  475.250    5.357    0.166    0.362  138.680
  475.500    5.252    0.172    0.393  145.148
  475.750    5.186    0.163    0.422  145.879
  476.000    5.113    0.165    0.431  136.840
  476.250    5.077    0.175    0.425  126.704
  476.500    5.034    0.199    0.458  113.026
  476.750    5.047    0.219    0.571   99.349
  477.000    5.060    0.317    0.540   97.087
  477.250    5.150    0.234    0.407   96.841
  477.500    5.373    0.204    0.352   96.105
  477.750    5.583    0.200    0.350   97.080
  478.000    5.791    0.202    0.355   99.702
  478.250    5.949    0.204    0.349  103.789
  478.500    6.182    0.195    0.343  105.741
  478.750    6.424    0.179    0.348  105.128
  479.000    6.804    0.161    0.337  102.500
  479.250    7.071    0.140    0.331  105.428
  479.500    7.183    0.134    0.327  108.356
  479.750    7.067    0.132    0.325  106.643
  480.000    6.659    0.133    0.321  103.466
  480.250    6.262    0.137    0.318  105.539
  480.500    5.955    0.139    0.321  110.115
  480.750    5.675    0.099    0.339  112.799
  481.000    5.427    0.062    0.368  116.032
  481.250    5.172    0.145    0.404  104.675
  481.500    5.079    0.177    0.368   93.195
  481.750    5.150    0.194    0.335   93.131
  482.000    5.363    0.175    0.324  104.850
  482.250    5.530    0.157    0.318  114.554
  482.500    5.934    0.140    0.317  120.534
  482.750    6.273    0.129    0.346  122.546
  483.000    6.408    0.113    0.361  114.241
  483.250    6.523    0.097    0.339  106.058
  483.500    6.490    0.124    0.316  122.539
  483.750    6.350    0.139    0.298  135.784
  484.000    6.177    0.153    0.331  146.159
  484.250    6.055    0.165    0.353  142.982
  484.500    6.233    0.134    0.421  141.026
  484.750    6.577    0.089    0.426  130.462
  485.000    6.821    0.045    0.402  120.631
  485.250    7.116    0.042    0.364  120.567
  485.500    7.257    0.064    0.349  130.332
  485.750    7.330    0.089    0.353  132.527
  486.000    7.280    0.118    0.339  132.525
  486.250    7.162    0.116    0.322  132.278
  486.500    6.401    0.109    0.314  126.415
  486.750    5.625    0.100    0.312  112.310
  487.000    5.123    0.110    0.302   94.786
  487.250    4.426    0.148    0.294   77.446
  487.500    3.978    0.196    0.290   69.385
  487.750    3.609    0.227    0.300   61.629
  488.000    3.293    0.247    0.309   52.103
  488.250    3.086    0.259    0.312   44.835
  488.500    3.002    0.276    0.316   38.239
  488.750    3.010    0.286    0.321   42.022
  489.000    3.516    0.263    0.327   69.369
  489.250    3.865    0.105    0.312  111.979
  489.500    4.316    0.104    0.289  127.300
  489.750    4.518    0.108    0.272  137.736
  490.000    4.811    0.118    0.398  137.245
  490.250    5.066    0.074    0.376  127.048
  490.500    5.235    0.061    0.348  128.937
  490.750    5.278    0.111    0.327  136.505
  491.000    5.087    0.147    0.372  127.345
  491.250    4.838    0.179    0.364  114.583
  491.500    4.797    0.197    0.313   96.022
  491.750    4.994    0.177    0.292  105.848
  492.000    5.111    0.160    0.305  113.965
  492.250    5.302    0.159    0.317  110.788
  492.500    5.489    0.174    0.329   95.401
  492.750    5.682    0.158    0.321   88.561
  493.000    5.872    0.139    0.285  101.684
  493.250    6.160    0.124    0.272  114.929
  493.500    6.364    0.113    0.278  118.284
  493.750    6.552    0.110    0.290  119.075
  494.000    6.644    0.112    0.298  119.256
  494.250    6.549    0.144    0.297  113.637
  494.500    6.492    0.165    0.289  102.401
  494.750    6.546    0.160    0.282  106.244
  495.000    6.778    0.154    0.277  114.666
  495.250    7.002    0.148    0.287  120.890
  495.500    7.168    0.144    0.303  124.734
  495.750    7.269    0.145    0.316  116.856
  496.000    7.301    0.154    0.315  110.566
  496.250    7.238    0.157    0.304  109.769
  496.500    7.136    0.157    0.296  109.645
  496.750    7.167    0.153    0.280  109.337
  497.000    6.960    0.149    0.287  108.907
  497.250    6.496    0.147    0.284  108.904
  497.500    6.062    0.158    0.279  108.963
  497.750    5.637    0.155    0.275  108.838
  498.000    5.291    0.142    0.291  109.935
  498.250    4.883    0.132    0.326  111.397
  498.500    4.498    0.128    0.307  110.052
  498.750    4.214    0.150    0.271  105.775
  499.000    3.831    0.212    0.243  103.758
  499.250    3.650    0.234    0.254  103.877
  499.500    3.394    0.256    0.244  104.180
  499.750    3.474    0.266    0.241  104.300
  500.000    3.679    0.259    0.236  104.297
  500.250    3.780    0.260    0.234  104.295
  500.500    3.782    0.271    0.233  104.231
  500.750    3.821    0.267    0.234  104.412
  501.000    4.155    0.250    0.235  104.592
  501.250    4.682    0.217    0.233  104.651
  501.500    5.071    0.188    0.233  104.892
  501.750    5.493    0.164    0.235  104.951
  502.000    5.773    0.152    0.235  104.948
