~VERSION INFORMATION
 VERS.                 2.0:   CWLS LOG ASCII STANDARD -VERSION 2.0
 WRAP.                  NO:   ONE LINE PER DEPTH STEP
~WELL INFORMATION BLOCK
#MNEM.UNIT           DATA                    DESCRIPTION OF MNEMONIC
#---------    -------------------            -------------------------------
# Generated from Intellog Unique Number	CW_73_75/WELL/2980
WELL.         PINNACLE ET AL MARTENH 15-24   : Well_name    - WELL
LOC .         00/15-24-074-02W5/0            : Location     - LOCATION
UWI .         00/15-24-074-02W5/0            : Uwi          - UNIQUE WELL ID
ENTR.         J                              : Entered      - ENTERED BY
SRVC.         SCHLUMBERGER                   : Scn          - SERVICE COMPANY
DATE.         20 JAN 89                      : Date         - LOG DATE
STRT.M        400                            : top_depth    - START DEPTH
STOP.M        615                            : bot_depth    - STOP DEPTH
STEP.M        0.25                           : increment    - STEP LENGTH
 NULL. -999.2500:NULL Value
~CURVE INFORMATION BLOCK
#MNEM UNIT       ERCB CURVE CODE    CURVE DESCRIPTION
#-----------   ------------------   ----------------------------------
DEPT.M        00 001 00 00         : DEPTH        - DEPTH
ILD .OHMM     00 120 00 00         : RESD         - DEEP RESISTIVITY (DIL)
CALI.MM       00 280 01 00         : CAL          - CALIPER
GR  .API      00 310 00 00         : GR           - GAMMA RAY
NPHI.V/V      00 330 00 00         : PHIN         - NEUTRON POROSITY (SANDSTONE)
DPHI.V/V      00 890 00 00         : PHID         - DENSITY POROSITY (SANDSTONE)
~PARAMETER INFORMATION
#MNEM.UNIT           DATA             DESCRIPTION OF MNEMONIC
#---------         -----------     ------------------------------
GL  .M        670.3                : gl           - GROUND LEVEL ELEVATION
EREF.M        673.7                : kb           - ELEVATION OF DEPTH REFERENCE
DATM.M        670.3                : datum        - DATUM ELEVATION
TDD .M        624.2                : tdd          - TOTAL DEPTH DRILLER
RUN .         ONE                  : Run          - RUN NUMBER
ENG .         ZACHYSTAL            : Engineer     - RECORDING ENGINEER
WIT .         COX                  : Witness      - WITNESSED BY
BASE.         SLAVE LAKE           : Branch       - HOME BASE OF LOGGING UNIT
MUD .         POLYMER              : Mud_type     - MUD TYPE
MATR.         SANDSTONE            : Logunit      - NEUTRON MATRIX
TMAX.C        36                   : BHT          - MAXIMUM RECORDED TEMPERATURE
BHTD.M        619.3                : BHTDEP       - MAXIMUM RECORDED TEMPERATURE
RMT .C        16                   : MDTP         - TEMPERATURE OF MUD
MUDD.KG/M     1045                 : MWT          - MUD DENSITY
NEUT.         1                    : NEUTRON      - NEUTRON TYPE
RESI.         0                    : RESIST       - RESISTIVITY TYPE
RM  .OHMM     7.4                  : RM           - RESISTIVITY OF MUD
RMC .OHMM     0.25                 : RMC          - RESISTIVITY OF MUD CAKE
RMF .OHMM     2.1                  : RMF          - RESISTIVITY OF MUD FILTRATE
SUFT.C        -17.7778             : SUFT         - SURFACE TEMPERATURE
~A  DEPTH     RESD      CAL       GR     PHIN     PHID
# ...
  546.000    7.660  194.801   53.021    0.391    0.298
  546.250    7.467  194.918   53.701    0.410    0.312
  546.500    7.081  194.936   57.302    0.415    0.294
  546.750    6.890  194.949   55.303    0.414    0.282
  547.000    6.716  195.272   53.181    0.423    0.279
  547.250    6.607  195.286   52.764    0.431    0.284
  547.500    6.572  195.202   52.836    0.403    0.275
  547.750    6.573  195.015   52.601    0.389    0.268
  548.000    6.575  195.233   52.185    0.376    0.275
  548.250    6.445  195.250   51.585    0.389    0.283
  548.500    6.282  195.061   50.924    0.410    0.293
  548.750    6.191  194.977   49.900    0.423    0.302
  549.000    6.159  194.891   50.943    0.412    0.306
  549.250    6.297  194.804   52.902    0.390    0.292
  549.500    6.546  194.822   53.763    0.390    0.280
  549.750    7.086  194.632   54.321    0.402    0.268
  550.000    7.798  194.953   54.269    0.395    0.256
  550.250    8.242  196.694   55.679    0.385    0.245
  550.500    8.615  198.840   56.540    0.394    0.241
  550.750    8.857  201.190   56.489    0.384    0.242
  551.000    8.990  202.119   58.203    0.365    0.233
  551.250    9.142  202.034   58.517    0.362    0.224
  551.500    9.296  201.947   55.483    0.367    0.218
  551.750    9.471  201.760   53.361    0.372    0.217
  552.000    9.630  201.676   57.267    0.371    0.214
  552.250    9.739  201.588   59.651    0.365    0.211
  552.500    9.976  201.401   56.981    0.357    0.207
  552.750   10.107  201.114   57.782    0.355    0.202
  553.000    9.980  200.925   59.132    0.361    0.195
  553.250    9.534  200.537   57.132    0.359    0.177
  553.500    8.635  199.942   56.350    0.363    0.193
  553.750    7.821  197.929   57.455    0.383    0.210
  554.000    7.175  196.829   60.691    0.404    0.243
  554.250    6.607  197.556   60.761    0.441    0.266
  554.500    6.254  200.819   59.797    0.426    0.281
  554.750    5.996  203.472   62.120    0.394    0.273
  555.000    5.665  205.009   70.105    0.389    0.240
  555.250    5.372  206.242   78.089    0.407    0.216
  555.500    5.141  205.144   83.212    0.400    0.204
  555.750    5.003  204.045   81.335    0.396    0.212
  556.000    4.985  203.449   76.717    0.400    0.214
  556.250    5.051  202.654   76.728    0.408    0.209
  556.500    5.108  202.262   76.675    0.412    0.205
  556.750    5.194  201.771   75.285    0.406    0.202
  557.000    5.262  201.787   72.981    0.400    0.211
  557.250    5.321  202.515   69.520    0.412    0.225
  557.500    5.332  204.659   68.739    0.413    0.231
  557.750    5.304  206.401   69.782    0.406    0.229
  558.000    5.276  205.098   68.392    0.406    0.216
  558.250    5.267  204.910   67.428    0.402    0.216
  558.500    5.268  210.710   69.020    0.397    0.224
  558.750    5.328  209.306   70.978    0.391    0.232
  559.000    5.388  206.480   67.760    0.396    0.244
  559.250    5.479  204.263   63.448    0.403    0.246
  559.500    5.706  203.063   62.726    0.405    0.238
  559.750    6.019  202.266   64.806    0.409    0.236
  560.000    6.420  201.469   66.704    0.399    0.237
  560.250    7.131  201.081   68.294    0.398    0.240
  560.500    7.704  200.893   66.356    0.402    0.242
  560.750    8.401  200.908   62.774    0.396    0.233
  561.000    9.161  200.925   59.313    0.376    0.220
  561.250   10.156  200.737   57.009    0.366    0.190
  561.500   11.135  200.651   55.496    0.344    0.156
  561.750   11.470  200.768   53.923    0.315    0.103
  562.000   10.237  200.785   53.750    0.308    0.116
  562.250    8.937  199.785   58.691    0.322    0.172
  562.500    7.874  197.062   65.519    0.342    0.200
  562.750    7.277  195.758   69.729    0.365    0.215
  563.000    6.615  194.657   73.391    0.392    0.221
  563.250    6.216  193.359   76.201    0.403    0.228
  563.500    6.059  192.762   74.019    0.389    0.233
  563.750    6.027  192.371   73.237    0.378    0.225
  564.000    6.095  194.214   72.881    0.367    0.206
  564.250    6.453  195.955   73.377    0.385    0.196
  564.500    6.947  193.534   74.969    0.404    0.187
  564.750    7.687  196.189   74.310    0.384    0.135
  565.000    8.825  203.003   59.160    0.271    0.059
  565.250    9.570  201.497   46.507    0.229   -0.007
  565.500    9.346  199.788   45.420    0.271    0.013
  565.750    8.205  199.295   61.319    0.334    0.038
  566.000    7.110  199.820   70.826    0.384    0.162
  566.250    6.299  200.951   76.010    0.423    0.178
  566.500    5.952  201.577   80.829    0.392    0.184
  566.750    5.738  201.896   85.405    0.369    0.180
  567.000    5.739  201.911   87.545    0.372    0.175
  567.250    5.868  201.928   88.589    0.375    0.167
  567.500    6.011  202.453   87.868    0.371    0.163
  567.750    6.124  203.280   86.600    0.376    0.167
  568.000    6.239  203.701   87.340    0.372    0.176
  568.250    6.298  203.716   86.984    0.374    0.157
  568.500    6.276  203.833   83.341    0.362    0.128
  568.750    6.288  203.849   84.385    0.371    0.124
  569.000    6.336  203.866   90.969    0.379    0.153
  569.250    6.408  204.186   91.162    0.377    0.170
  569.500    6.552  204.303   85.204    0.379    0.155
  569.750    6.675  204.216   81.135    0.389    0.136
  570.000    6.775  203.930   84.675    0.402    0.126
  570.250    6.851  203.842   91.016    0.416    0.150
  570.500    7.031  203.555   98.149    0.426    0.153
  570.750    7.363  203.063   96.514    0.409    0.143
  571.000    8.531  202.571   88.731    0.397    0.150
  571.250    9.633  201.878   81.192    0.389    0.180
  571.500   10.758  201.387   73.469    0.378    0.200
  571.750   12.237  201.095   73.966    0.352    0.197
  572.000   13.344  200.604   79.334    0.367    0.183
  572.250   14.102  198.692   79.099    0.356    0.180
  572.500   14.499  196.273   74.786    0.349    0.177
  572.750   14.343  195.477   71.874    0.344    0.179
  573.000   13.879  196.102   70.726    0.331    0.164
  573.250   13.114  201.902   72.259    0.339    0.159
  573.500   12.527  203.641   75.859    0.358    0.172
  573.750   11.492  203.962   80.739    0.345    0.167
  574.000   10.486  203.472   85.314    0.338    0.162
  574.250    9.445  202.676   84.471    0.344    0.167
  574.500    9.622  201.878   81.559    0.362    0.178
  574.750   10.415  201.082   76.637    0.369    0.167
  575.000   12.066  197.649   67.576    0.281    0.060
  575.250   13.451  196.043   62.105    0.250    0.023
  575.500   13.932  198.087   66.316    0.274    0.071
  575.750   13.656  201.350   72.353    0.294    0.097
  576.000   13.141  203.699   76.380    0.319    0.129
  576.250   12.212  205.744   79.860    0.332    0.157
  576.500   11.266  207.788   80.174    0.328    0.161
  576.750   10.355  208.415   79.696    0.322    0.155
  577.000    9.587  208.227   79.462    0.323    0.157
  577.250    8.926  207.228   80.689    0.346    0.167
  577.500    8.295  205.012   85.629    0.375    0.164
  577.750    7.895  203.809   98.059    0.399    0.161
  578.000    8.014  200.781   87.109    0.408    0.150
  578.250    9.267  196.028   74.578    0.345    0.114
  578.500   10.388  196.956   67.038    0.274    0.049
  578.750   11.453  202.148   71.918    0.288    0.117
  579.000   11.539  202.671   79.903    0.325    0.142
  579.250   10.337  202.281   82.225    0.352    0.152
  579.500    8.860  203.919   81.748    0.376    0.154
  579.750    7.792  204.443   80.419    0.399    0.160
  580.000    7.201  198.674   83.472    0.395    0.162
  580.250    6.968  198.487   82.933    0.402    0.148
  580.500    6.995  203.274   80.142    0.391    0.139
  580.750    7.166  204.911   77.899    0.367    0.136
  581.000    7.560  202.289   77.361    0.353    0.130
  581.250    8.319  200.580   77.187    0.368    0.113
  581.500    9.498  198.973   75.919    0.345    0.093
  581.750   10.319  196.958   68.684    0.292    0.067
  582.000   10.826  195.858   61.813    0.236    0.010
  582.250   10.968  199.121   60.484    0.236    0.047
