~VERSION INFORMATION
 VERS.                 2.0:   CWLS LOG ASCII STANDARD -VERSION 2.0
 WRAP.                  NO:   ONE LINE PER DEPTH STEP
~WELL INFORMATION BLOCK
#MNEM.UNIT           DATA                    DESCRIPTION OF MNEMONIC
#---------    -------------------            -------------------------------
# Generated from Intellog Unique Number	CW_79_81/WELL/2465
WELL.         10-10-080-24W4                 : Well_name    - WELL
LOC .         00/10-10-080-24W4/0            : Location     - LOCATION
UWI .         00/10-10-080-24W4/0            : Uwi          - UNIQUE WELL ID
ENTR.         MAX                            : Entered      - ENTERED BY
SRVC.         SCHLUMBERGER                   : Scn          - SERVICE COMPANY
STRT.M        200                            : top_depth    - START DEPTH
STOP.M        455                            : bot_depth    - STOP DEPTH
STEP.M        0.25                           : increment    - STEP LENGTH
 NULL. -999.2500:NULL Value
~CURVE INFORMATION BLOCK
#MNEM UNIT       ERCB CURVE CODE    CURVE DESCRIPTION
#-----------   ------------------   ----------------------------------
DEPT.M        00 001 00 00         : DEPTH        - DEPTH
ILD .OHMM     00 120 00 00         : RESD         - DEEP RESISTIVITY (DIL)
NPHI.V/V      00 330 00 00         : PHIN         - NEUTRON POROSITY (SANDSTONE)
DPHI.V/V      00 890 00 00         : PHID         - DENSITY POROSITY (SANDSTONE)
GR  .API      00 310 00 00         : GR           - GAMMA RAY
CALI.MM       00 280 01 00         : CAL          - CALIPER
~PARAMETER INFORMATION
#MNEM.UNIT           DATA             DESCRIPTION OF MNEMONIC
#---------         -----------     ------------------------------
GL  .M        558.63               : gl           - GROUND LEVEL ELEVATION
EREF.M        562.83               : kb           - ELEVATION OF DEPTH REFERENCE
DATM.M        558.63               : datum        - DATUM ELEVATION
TDD .M        456.5                : tdd          - TOTAL DEPTH DRILLER
RUN .         ONE                  : Run          - RUN NUMBER
ENG .         BILL                 : Engineer     - RECORDING ENGINEER
WIT .         JIM                  : Witness      - WITNESSED BY
MUD .         GEL                  : Mud_type     - MUD TYPE
MATR.         SANDSTONE            : Logunit      - NEUTRON MATRIX
TMAX.C        24.5                 : BHT          - MAXIMUM RECORDED TEMPERATURE
BHTD.M        456.5                : BHTDEP       - MAXIMUM RECORDED TEMPERATURE
MATR.         1                    : LOGUNIT      - NEUTRON MATRIX
RMT .C        18.5                 : MDTP         - TEMPERATURE OF MUD
NEUT.         1                    : NEUTRON      - NEUTRON TYPE
RESI.         0                    : RESIST       - RESISTIVITY TYPE
RMC .OHMM     7.95                 : RMC          - RESISTIVITY OF MUD CAKE
RMF .OHMM     5.82                 : RMF          - RESISTIVITY OF MUD FILTRATE
SUFT.C        -20                  : SUFT         - SURFACE TEMPERATURE
~A  DEPTH     RESD     PHIN     PHID       GR      CAL
# ...
  346.000    8.707    0.468    0.218   79.822  211.111
  346.250    8.933    0.460    0.215   76.369  211.706
  346.500    9.318    0.450    0.204   75.714  212.302
  346.750    9.888    0.443    0.201   78.522  212.302
  347.000    9.890    0.431    0.215   84.226  212.302
  347.250    9.606    0.441    0.217   87.083  212.698
  347.500    9.174    0.455    0.216   87.083  213.095
  347.750    8.685    0.457    0.216   84.107  213.691
  348.000    8.272    0.447    0.216   79.941  214.187
  348.250    8.108    0.437    0.214   79.018  213.542
  348.500    8.172    0.430    0.209   82.738  212.302
  348.750    8.294    0.443    0.214   86.785  213.492
  349.000    8.190    0.458    0.223   88.869  215.278
  349.250    8.013    0.463    0.222   89.345  216.667
  349.500    7.885    0.458    0.209   88.334  217.262
  349.750    7.958    0.450    0.198   84.871  217.262
  350.000    8.334    0.460    0.193   80.655  217.262
  350.250    8.709    0.471    0.196   81.845  217.262
  350.500    8.906    0.474    0.196   84.643  217.560
  350.750    8.941    0.468    0.198   87.143  218.155
  351.000    8.895    0.454    0.204   88.214  219.147
  351.250    8.924    0.436    0.219   87.054  221.147
  351.500    9.063    0.424    0.229   84.821  223.214
  351.750    9.402    0.437    0.236   87.202  222.817
  352.000   10.712    0.448    0.234   87.262  219.742
  352.250   12.560    0.457    0.226   84.047  217.361
  352.500   14.852    0.464    0.223   78.810  216.766
  352.750   19.820    0.458    0.237   73.264  216.849
  353.000   24.849    0.422    0.229   64.583  217.262
  353.250   24.855    0.384    0.187   60.298  217.262
  353.500   23.911    0.348    0.156   66.012  217.262
  353.750   20.882    0.336    0.137   73.393  217.262
  354.000   17.132    0.356    0.136   78.571  217.064
  354.250   13.771    0.405    0.176   83.035  215.609
  354.500   11.853    0.430    0.219   87.500  212.302
  354.750   11.512    0.419    0.209   87.976  209.524
  355.000   11.621    0.412    0.203   83.274  208.829
  355.250   11.796    0.417    0.202   79.345  210.020
  355.500   11.776    0.428    0.203   78.452  212.202
  355.750   11.370    0.418    0.199   78.919  213.707
  356.000   11.032    0.405    0.196   77.679  213.294
  356.250   11.278    0.420    0.135   70.774  212.500
  356.500   12.163    0.409    0.105   65.655  212.897
  356.750   12.781    0.359    0.089   66.607  213.889
  357.000   12.494    0.309    0.096   72.916  214.980
  357.250   11.332    0.369    0.165   80.307  215.774
  357.500   10.748    0.470    0.193   87.500  215.774
  357.750   10.362    0.459    0.185   87.976  214.980
  358.000   10.103    0.454    0.187   88.274  214.187
  358.250    9.959    0.454    0.191   88.036  213.790
  358.500    9.943    0.452    0.194   86.786  213.790
  358.750   10.108    0.436    0.197   83.631  213.955
  359.000   10.188    0.422    0.204   82.143  214.782
  359.250   10.190    0.431    0.209   83.095  215.179
  359.500   10.137    0.450    0.203   84.226  215.873
  359.750   10.028    0.463    0.194   85.774  216.071
  360.000    9.866    0.466    0.190   87.321  215.575
  360.250    9.610    0.460    0.199   87.451  214.864
  360.500    9.395    0.446    0.205   85.714  215.278
  360.750    9.058    0.445    0.188   86.428  216.071
  361.000    8.734    0.443    0.186   87.143  216.270
  361.250    8.485    0.444    0.193   88.452  216.071
  361.500    8.271    0.447    0.202   90.595  215.675
  361.750    7.940    0.452    0.203   93.998  215.691
  362.000    7.763    0.445    0.198   96.726  217.758
  362.250    7.595    0.459    0.190   94.584  218.552
  362.500    7.432    0.475    0.199   91.191  218.452
  362.750    7.326    0.478    0.210   88.809  219.246
  363.000    7.314    0.463    0.222   87.738  221.032
  363.250    7.637    0.443    0.246   85.566  221.726
  363.500    8.918    0.473    0.249   81.845  219.246
  363.750   11.118    0.465    0.235   79.941  213.294
  364.000   13.173    0.446    0.230   81.428  210.913
  364.250   14.340    0.434    0.224   83.929  210.317
  364.500   14.087    0.434    0.217   84.881  210.317
  364.750   12.278    0.441    0.220   80.804  210.317
  365.000   10.726    0.467    0.236   77.083  210.317
  365.250    9.034    0.452    0.224   74.703  211.508
  365.500    8.408    0.440    0.211   72.500  212.103
  365.750    8.380    0.429    0.197   70.595  212.302
  366.000    8.801    0.419    0.183   68.929  211.905
  366.250    9.845    0.396    0.164   66.816  209.243
  366.500   11.142    0.355    0.153   64.583  203.869
  366.750   11.897    0.363    0.181   64.821  198.711
  367.000   12.171    0.393    0.178   66.667  197.123
  367.250   12.129    0.403    0.168   69.524  199.107
  367.500   11.933    0.385    0.165   71.964  202.877
  367.750   11.569    0.370    0.176   71.825  204.778
  368.000   11.056    0.381    0.182   72.321  204.365
  368.250   10.502    0.407    0.176   70.179  203.968
  368.500    9.922    0.423    0.167   68.929  204.464
  368.750    9.431    0.421    0.157   68.095  204.861
  369.000    9.130    0.393    0.149   67.262  204.762
  369.250    9.254    0.331    0.150   65.923  204.365
  369.500    9.919    0.308    0.172   65.179  204.365
  369.750   10.668    0.333    0.198   68.988  204.762
  370.000   10.284    0.369    0.226   73.690  204.861
  370.250    9.075    0.404    0.247   76.786  204.861
  370.500    7.953    0.431    0.263   77.203  205.059
  370.750    7.695    0.448    0.276   75.000  206.349
  371.000    8.122    0.458    0.262   73.512  208.829
  371.250    8.425    0.458    0.261   73.274  210.020
  371.500    8.740    0.453    0.253   76.250  210.615
  371.750    9.165    0.447    0.244   79.583  211.409
  372.000    9.706    0.440    0.239   80.893  212.500
  372.250   10.388    0.433    0.241   77.828  213.459
  372.500   11.309    0.435    0.242   75.595  214.286
  372.750   13.059    0.435    0.244   77.500  214.286
  373.000   14.568    0.425    0.241   78.512  214.286
  373.250   16.244    0.429    0.239   77.559  214.286
  373.500   18.480    0.445    0.238   75.060  214.385
  373.750   21.878    0.445    0.234   72.520  214.699
  374.000   25.347    0.428    0.225   70.536  214.286
  374.250   27.066    0.430    0.218   69.822  214.286
  374.500   29.680    0.430    0.212   71.428  214.583
  374.750   32.222    0.425    0.209   73.691  214.980
  375.000   32.934    0.412    0.210   75.357  215.278
  375.250   28.634    0.394    0.213   75.893  215.278
  375.500   22.742    0.405    0.218   77.381  215.278
  375.750   17.334    0.424    0.231   79.762  215.278
  376.000   14.689    0.440    0.233   81.607  214.980
  376.250   13.805    0.458    0.231   82.083  214.583
  376.500   14.009    0.468    0.229   81.310  214.187
  376.750   14.690    0.447    0.231   80.308  213.872
  377.000   15.504    0.440    0.228   80.059  214.286
  377.250   15.170    0.442    0.231   82.202  213.889
  377.500   14.189    0.436    0.232   85.595  213.790
  377.750   13.194    0.431    0.232   88.572  213.790
  378.000   12.478    0.431    0.232   90.179  213.790
  378.250   12.048    0.433    0.229   90.079  213.790
  378.500   11.689    0.431    0.225   89.583  213.790
  378.750   11.521    0.437    0.213   88.155  213.393
  379.000   11.609    0.449    0.207   83.869  213.294
  379.250   11.911    0.449    0.206   82.083  213.294
  379.500   12.271    0.436    0.206   84.642  213.294
  379.750   12.326    0.423    0.208   89.732  213.294
  380.000   12.143    0.428    0.205   88.988  213.294
  380.250   11.969    0.417    0.189   87.084  213.294
  380.500   11.928    0.412    0.181   86.607  213.889
  380.750   11.930    0.417    0.175   88.036  214.286
  381.000   11.933    0.428    0.170   90.655  214.286
  381.250   11.955    0.430    0.168   92.708  214.120
  381.500   12.049    0.435    0.184   93.452  213.294
  381.750   12.140    0.438    0.193   89.405  212.500
  382.000   12.099    0.434    0.189   87.500  211.706
  382.250   12.057    0.435    0.189   88.929  212.103
