~VERSION INFORMATION
 VERS.                 2.0:   CWLS LOG ASCII STANDARD -VERSION 2.0
 WRAP.                  NO:   ONE LINE PER DEPTH STEP
~WELL INFORMATION BLOCK
#MNEM.UNIT           DATA                    DESCRIPTION OF MNEMONIC
#---------    -------------------            -------------------------------
# Generated from Intellog Unique Number	CS_71_72/WELL/906
WELL.         PETRO-CANADA EXPLORATION       : Well_name    - WELL
LOC .         00/11-26-072-08W4/0            : Location     - LOCATION
UWI .         00/11-26-072-08W4/0            : Uwi          - UNIQUE WELL ID
ENTR.         SP                             : Entered      - ENTERED BY
SRVC.         SCHLUMBERGER                   : Scn          - SERVICE COMPANY
STRT.M        305                            : top_depth    - START DEPTH
STOP.M        543                            : bot_depth    - STOP DEPTH
STEP.M        0.25                           : increment    - STEP LENGTH
 NULL. -999.2500:NULL Value
~CURVE INFORMATION BLOCK
#MNEM UNIT       ERCB CURVE CODE    CURVE DESCRIPTION
#-----------   ------------------   ----------------------------------
DEPT.M        00 001 00 00         : DEPTH        - DEPTH
ILD .OHMM     00 120 00 00         : RESD         - DEEP RESISTIVITY (DIL)
DPHI.V/V      00 890 00 00         : PHID         - DENSITY POROSITY (LIMESTONE)
NPHI.V/V      00 330 00 00         : PHIN         - NEUTRON POROSITY (LIMESTONE)
GR  .API      00 310 00 00         : GR           - GAMMA RAY
~PARAMETER INFORMATION
#MNEM.UNIT           DATA             DESCRIPTION OF MNEMONIC
#---------         -----------     ------------------------------
GL  .M        680.2                : gl           - GROUND LEVEL ELEVATION
EREF.M        683.7                : kb           - ELEVATION OF DEPTH REFERENCE
DATM.M        680.2                : datum        - DATUM ELEVATION
TDD .M        545                  : tdd          - TOTAL DEPTH DRILLER
RUN .         ONE                  : Run          - RUN NUMBER
ENG .         BILL                 : Engineer     - RECORDING ENGINEER
WIT .         JIM                  : Witness      - WITNESSED BY
MUD .         GEL                  : Mud_type     - MUD TYPE
MATR.         LIMESTONE            : Logunit      - NEUTRON MATRIX
TMAX.C        24                   : BHT          - MAXIMUM RECORDED TEMPERATURE
BHTD.M        545                  : BHTDEP       - MAXIMUM RECORDED TEMPERATURE
MATR.         1                    : LOGUNIT      - NEUTRON MATRIX
RMT .C        25                   : MDTP         - TEMPERATURE OF MUD
NEUT.         1                    : NEUTRON      - NEUTRON TYPE
RESI.         0                    : RESIST       - RESISTIVITY TYPE
RMC .OHMM     0.25                 : RMC          - RESISTIVITY OF MUD CAKE
RMF .OHMM     0.25                 : RMF          - RESISTIVITY OF MUD FILTRATE
SUFT.C        15                   : SUFT         - SURFACE TEMPERATURE
~A  DEPTH     RESD     PHID     PHIN       GR
# ...
  479.000   13.470    0.317    0.407   73.933
  479.250   12.187    0.316    0.418   70.591
  479.500   11.211    0.311    0.426   71.744
  479.750   10.276    0.304    0.431   75.024
  480.000    9.560    0.281    0.417   75.995
  480.250    8.877    0.283    0.388   67.489
  480.500    8.428    0.316    0.415   70.222
  480.750    8.138    0.323    0.442   76.114
  481.000    7.975    0.262    0.423   78.968
  481.250    8.096    0.235    0.414   80.850
  481.500    8.373    0.227    0.404   76.961
  481.750    8.612    0.231    0.378   74.166
  482.000    8.841    0.238    0.367   71.552
  482.250    9.025    0.246    0.377   69.425
  482.500    9.352    0.251    0.388   69.606
  482.750    9.512    0.251    0.390   72.036
  483.000    9.876    0.247    0.386   73.493
  483.250   10.025    0.235    0.388   71.183
  483.500   10.102    0.232    0.391   66.018
  483.750   10.237    0.240    0.399   65.531
  484.000   10.238    0.230    0.404   71.484
  484.250   10.183    0.220    0.409   75.432
  484.500    9.998    0.215    0.413   78.712
  484.750    9.726    0.219    0.415   79.318
  485.000    9.620    0.225    0.417   78.709
  485.250    9.550    0.232    0.418   79.134
  485.500    9.499    0.240    0.417   79.984
  485.750    9.483    0.244    0.408   81.319
  486.000    9.450    0.243    0.402   85.571
  486.250    9.348    0.229    0.394   88.243
  486.500    9.110    0.214    0.393   84.779
  486.750    8.944    0.203    0.397   78.885
  487.000    8.635    0.191    0.412   75.239
  487.250    8.063    0.196    0.340   72.383
  487.500    7.656    0.214    0.345   76.209
  487.750    7.109    0.236    0.362   79.610
  488.000    6.864    0.251    0.372   81.979
  488.250    6.457    0.248    0.381   83.436
  488.500    6.257    0.236    0.396   83.678
  488.750    6.189    0.218    0.387   83.312
  489.000    6.295    0.200    0.359   81.428
  489.250    6.633    0.187    0.339   79.119
  489.500    6.911    0.188    0.334   76.505
  489.750    7.081    0.189    0.328   80.150
  490.000    6.966    0.189    0.329   86.528
  490.250    6.826    0.188    0.345   88.896
  490.500    6.739    0.197    0.384   82.577
  490.750    6.842    0.205    0.389   77.533
  491.000    7.440    0.202    0.396   81.117
  491.250    8.076    0.212    0.394   75.769
  491.500    9.081    0.230    0.378   67.810
  491.750    9.986    0.250    0.369   63.131
  492.000   10.759    0.268    0.370   57.602
  492.250   11.315    0.306    0.393   53.773
  492.500   11.402    0.309    0.401   49.337
  492.750   11.070    0.304    0.395   44.537
  493.000   10.590    0.306    0.382   41.559
  493.250   10.187    0.310    0.368   39.553
  493.500    9.726    0.306    0.354   38.823
  493.750    9.287    0.300    0.344   46.295
  494.000    8.786    0.293    0.349   53.888
  494.250    8.467    0.288    0.364   59.780
  494.500    8.282    0.288    0.378   59.961
  494.750    8.071    0.278    0.372   60.750
  495.000    7.749    0.260    0.358   67.918
  495.250    7.330    0.246    0.351   71.258
  495.500    6.769    0.231    0.357   71.500
  495.750    6.181    0.230    0.363   68.097
  496.000    5.793    0.241    0.366   65.788
  496.250    5.562    0.257    0.374   61.534
  496.500    5.360    0.277    0.376   55.154
  496.750    5.533    0.289    0.356   55.761
  497.000    5.809    0.247    0.336   64.083
  497.250    6.086    0.217    0.318   70.157
  497.500    6.342    0.223    0.336   74.105
  497.750    6.486    0.238    0.351   67.361
  498.000    6.344    0.245    0.344   69.790
  498.250    6.013    0.215    0.334   73.495
  498.500    5.430    0.204    0.347   70.638
  498.750    4.707    0.233    0.368   58.244
  499.000    4.180    0.275    0.377   48.583
  499.250    3.740    0.289    0.379   41.109
  499.500    3.371    0.301    0.370   36.188
  499.750    3.218    0.316    0.362   38.495
  500.000    3.107    0.328    0.358   44.569
  500.250    3.184    0.333    0.355   50.158
  500.500    3.469    0.314    0.366   54.106
  500.750    3.689    0.294    0.374   58.054
  501.000    3.923    0.283    0.351   62.548
  501.250    4.212    0.283    0.348   65.403
  501.500    4.356    0.291    0.362   66.678
  501.750    4.564    0.297    0.382   63.518
  502.000    4.738    0.297    0.404   65.400
  502.250    4.946    0.278    0.409   67.951
  502.500    5.134    0.254    0.401   66.856
  502.750    5.251    0.240    0.382   71.594
  503.000    5.472    0.233    0.371   78.397
  503.250    5.544    0.239    0.400   79.855
  503.500    5.660    0.220    0.408   82.527
  503.750    5.757    0.210    0.395   87.872
  504.000    5.833    0.210    0.383   95.708
  504.250    5.922    0.207    0.377  104.516
  504.500    6.034    0.195    0.367  111.016
  504.750    6.206    0.188    0.386  113.080
  505.000    6.336    0.196    0.406   97.891
  505.250    6.469    0.215    0.398   83.431
  505.500    6.506    0.224    0.368   74.499
  505.750    6.580    0.208    0.328   77.961
  506.000    6.631    0.178    0.312   88.592
  506.250    6.657    0.160    0.333   92.054
  506.500    6.670    0.151    0.349   91.263
  506.750    6.697    0.154    0.347   89.865
  507.000    6.661    0.164    0.340   89.014
  507.250    6.613    0.169    0.362   87.555
  507.500    6.566    0.176    0.388   86.825
  507.750    6.434    0.164    0.395   87.796
  508.000    6.436    0.118    0.398   89.374
  508.250    6.366    0.126    0.380   92.046
  508.500    6.308    0.153    0.369   93.990
  508.750    6.239    0.163    0.384   94.961
  509.000    6.114    0.160    0.398   95.263
  509.250    5.937    0.158    0.407   94.898
  509.500    5.829    0.156    0.410   94.958
  509.750    5.787    0.162    0.401   94.774
  510.000    5.745    0.177    0.407   94.591
  510.250    5.682    0.180    0.410   95.137
  510.500    5.652    0.174    0.400   94.954
  510.750    5.675    0.170    0.406   93.130
  511.000    5.739    0.169    0.411   89.849
  511.250    5.970    0.170    0.411   88.390
  511.500    6.026    0.176    0.402   86.931
  511.750    6.279    0.184    0.394   84.257
  512.000    6.591    0.166    0.371   80.550
  512.250    6.766    0.148    0.353   77.876
  512.500    6.869    0.155    0.345   76.660
  512.750    6.871    0.164    0.360   78.421
  513.000    6.771    0.167    0.370   82.065
  513.250    6.647    0.163    0.360   85.101
  513.500    6.575    0.156    0.350   86.801
  513.750    6.540    0.153    0.344   87.712
  514.000    6.469    0.156    0.341   88.136
  514.250    6.411    0.161    0.362   87.649
  514.500    6.376    0.158    0.374   87.101
  514.750    6.331    0.156    0.352   85.521
  515.000    6.320    0.158    0.355   83.819
  515.250    6.263    0.167    0.349   82.663
  515.500    6.160    0.164    0.325   82.845
  515.750    5.992    0.145    0.322   86.003
  516.000    5.949    0.144    0.356   87.703
  516.250    5.995    0.175    0.368   80.108
  516.500    6.064    0.185    0.363   73.303
  516.750    6.156    0.169    0.362   74.274
  517.000    6.191    0.151    0.372   80.348
  517.250    6.193    0.146    0.370   85.207
  517.500    6.114    0.154    0.370   86.421
  517.750    5.914    0.174    0.372   78.766
  518.000    5.872    0.192    0.367   71.657
  518.250    5.808    0.199    0.354   67.160
  518.500    5.809    0.201    0.342   68.374
  518.750    5.778    0.204    0.339   72.626
  519.000    5.736    0.193    0.341   77.242
  519.250    5.695    0.176    0.351   79.793
  519.500    5.654    0.163    0.361   77.362
  519.750    5.624    0.161    0.369   73.776
  520.000    5.615    0.175    0.360   72.256
  520.250    5.605    0.190    0.344   72.559
  520.500    5.514    0.214    0.347   73.044
  520.750    5.434    0.202    0.353   75.838
  521.000    5.335    0.184    0.347   78.388
  521.250    5.277    0.181    0.349   81.365
  521.500    5.248    0.189    0.351   78.265
  521.750    5.279    0.201    0.343   75.530
  522.000    5.349    0.198    0.338   74.557
  522.250    5.390    0.206    0.343   74.070
