~VERSION INFORMATION
 VERS.                 2.0:   CWLS LOG ASCII STANDARD -VERSION 2.0
 WRAP.                  NO:   ONE LINE PER DEPTH STEP
~WELL INFORMATION BLOCK
#MNEM.UNIT           DATA                    DESCRIPTION OF MNEMONIC
#---------    -------------------            -------------------------------
# Generated from Intellog Unique Number	CS_73_76/WELL/829
WELL.         BRASCAN RESOURCES LIMITED      : Well_name    - WELL
LOC .         00/10-22-073-18W4/0            : Location     - LOCATION
UWI .         00/10-22-073-18W4/0            : Uwi          - UNIQUE WELL ID
ENTR.         SP                             : Entered      - ENTERED BY
SRVC.         SCHLUMBERGER                   : Scn          - SERVICE COMPANY
STRT.M        243.84                         : top_depth    - START DEPTH
STOP.M        438.09                         : bot_depth    - STOP DEPTH
STEP.M        0.25                           : increment    - STEP LENGTH
 NULL. -999.2500:NULL Value
~CURVE INFORMATION BLOCK
#MNEM UNIT       ERCB CURVE CODE    CURVE DESCRIPTION
#-----------   ------------------   ----------------------------------
DEPT.M        00 001 00 00         : DEPTH        - DEPTH
GR  .API      00 310 00 00         : GR           - GAMMA RAY
DPHI.V/V      00 890 00 00         : PHID         - DENSITY POROSITY (SANDSTONE)
NPHI.V/V      00 330 00 00         : PHIN         - NEUTRON POROSITY (SANDSTONE)
ILD .OHMM     00 120 00 00         : RESD         - DEEP RESISTIVITY (DIL)
~PARAMETER INFORMATION
#MNEM.UNIT           DATA             DESCRIPTION OF MNEMONIC
#---------         -----------     ------------------------------
GL  .M        574.243              : gl           - GROUND LEVEL ELEVATION
EREF.M        577.596              : kb           - ELEVATION OF DEPTH REFERENCE
DATM.M        574.243              : datum        - DATUM ELEVATION
TDD .M        439.826              : tdd          - TOTAL DEPTH DRILLER
RUN .         ONE                  : Run          - RUN NUMBER
ENG .         BILL                 : Engineer     - RECORDING ENGINEER
WIT .         JIM                  : Witness      - WITNESSED BY
MUD .         GEL                  : Mud_type     - MUD TYPE
MATR.         SANDSTONE            : Logunit      - NEUTRON MATRIX
TMAX.C        15.5556              : BHT          - MAXIMUM RECORDED TEMPERATURE
BHTD.M        439.826              : BHTDEP       - MAXIMUM RECORDED TEMPERATURE
MATR.         1                    : LOGUNIT      - NEUTRON MATRIX
RMT .C        25                   : MDTP         - TEMPERATURE OF MUD
NEUT.         1                    : NEUTRON      - NEUTRON TYPE
RESI.         0                    : RESIST       - RESISTIVITY TYPE
RMC .OHMM     0.25                 : RMC          - RESISTIVITY OF MUD CAKE
RMF .OHMM     0.25                 : RMF          - RESISTIVITY OF MUD FILTRATE
SUFT.C        15                   : SUFT         - SURFACE TEMPERATURE
~A  DEPTH       GR     PHID     PHIN     RESD
  243.840  111.145    0.221    0.602    2.775
  244.090  113.740    0.213    0.605    2.800
  244.340  115.657    0.214    0.607    2.952
  244.590  114.934    0.222    0.606    3.036
  244.840  110.758    0.219    0.599    3.123
  245.090  106.858    0.212    0.591    3.291
  245.340  105.417    0.204    0.582    3.331
  245.590  106.892    0.197    0.569    3.285
  245.840  110.776    0.209    0.579    3.088
  246.090  111.700    0.212    0.589    3.001
  246.340  109.696    0.214    0.602    2.928
  246.590  108.453    0.212    0.609    2.933
  246.840  110.514    0.209    0.604    2.973
  247.090  109.044    0.203    0.594    2.998
  247.340  107.252    0.197    0.610    3.098
  247.590  108.553    0.189    0.611    3.134
  247.840  113.710    0.183    0.601    3.158
  248.090  116.696    0.190    0.583    3.104
  248.340  116.219    0.195    0.562    3.076
  248.590  114.927    0.187    0.582    2.979
  248.840  112.999    0.191    0.602    2.932
  249.090  109.093    0.191    0.582    2.912
  249.340  107.286    0.193    0.550    2.883
  249.590  106.190    0.208    0.531    2.884
  249.840  105.632    0.233    0.514    2.902
  250.090  104.431    0.250    0.510    2.936
  250.340  102.806    0.266    0.532    2.871
  250.590  100.059    0.287    0.531    2.780
  250.840   98.147    0.325    0.562    2.776
  251.090   85.861    0.398    0.588    3.073
  251.340   75.795    0.426    0.410    3.522
  251.590   64.633    0.447    0.441    4.110
  251.840   60.919    0.415    0.454    5.291
  252.090   67.402    0.361    0.468    8.119
  252.340   70.985    0.335    0.370   10.019
  252.590   66.958    0.362    0.350   10.923
  252.840   62.787    0.377    0.358   11.110
  253.090   62.850    0.326    0.373   10.638
  253.340   62.918    0.298    0.397    9.862
  253.590   61.707    0.285    0.420    8.943
  253.840   60.052    0.299    0.409    8.260
  254.090   59.996    0.287    0.427    7.826
  254.340   64.867    0.273    0.449    7.465
  254.590   69.355    0.267    0.474    7.378
  254.840   73.307    0.274    0.476    7.298
  255.090   78.910    0.257    0.460    7.183
  255.340   82.276    0.246    0.450    6.943
  255.590   86.606    0.236    0.469    6.534
  255.840   90.291    0.226    0.492    6.155
  256.090   93.644    0.226    0.512    5.791
  256.340   98.373    0.228    0.524    5.565
  256.590   99.415    0.220    0.524    5.460
  256.840   98.968    0.216    0.513    5.460
  257.090   99.542    0.220    0.503    5.564
  257.340  100.996    0.223    0.487    5.606
  257.590  100.701    0.219    0.467    6.105
  257.840  100.993    0.216    0.439    6.434
  258.090   96.535    0.216    0.421    6.965
  258.340   98.245    0.231    0.421    7.226
  258.590  101.741    0.240    0.423    7.456
  258.840  103.645    0.248    0.421    7.619
  259.090  103.225    0.263    0.405    7.446
  259.340   99.864    0.281    0.407    7.319
  259.590   95.922    0.292    0.385    7.347
  259.840   92.056    0.303    0.321    7.869
  260.090   84.028    0.311    0.291    9.568
  260.340   73.924    0.333    0.183   13.137
  260.590   65.707    0.351    0.166   17.376
  260.840   56.363    0.361    0.155   20.266
  261.090   49.451    0.369    0.150   22.383
  261.340   43.406    0.379    0.152   23.034
  261.590   40.221    0.386    0.160   22.766
  261.840   42.348    0.393    0.170   21.383
  262.090   45.813    0.322    0.191   19.115
  262.340   55.224    0.274    0.215   15.280
  262.590   61.895    0.259    0.243   11.722
  262.840   73.326    0.245    0.314    9.532
  263.090   87.790    0.239    0.383    7.706
  263.340   93.918    0.242    0.446    6.486
  263.590   95.501    0.226    0.467    5.530
  263.840  100.397    0.203    0.485    4.800
  264.090  109.525    0.154    0.501    4.267
  264.340  115.884    0.141    0.531    3.988
  264.590  117.396    0.137    0.573    3.644
  264.840  119.750    0.158    0.599    3.484
  265.090  125.074    0.166    0.614    3.359
  265.340  128.970    0.161    0.614    3.226
  265.590  132.427    0.166    0.607    3.176
  265.840  134.321    0.183    0.602    3.126
  266.090  131.326    0.188    0.593    3.173
  266.340  129.770    0.193    0.590    3.121
  266.590  129.001    0.204    0.594    2.973
  266.840  130.672    0.212    0.600    2.798
  267.090  132.895    0.213    0.604    2.809
  267.340  135.749    0.206    0.603    3.216
  267.590  134.248    0.200    0.583    3.706
  267.840  125.011    0.199    0.522    4.500
  268.090  116.954    0.196    0.440    5.130
  268.340  116.964    0.190    0.468    5.778
  268.590  116.509    0.181    0.485    6.344
  268.840  114.104    0.172    0.496    6.466
  269.090  111.657    0.186    0.503    6.517
  269.340  111.721    0.209    0.517    6.312
  269.590  109.560    0.232    0.542    6.126
  269.840  104.448    0.249    0.559    6.012
  270.090   91.146    0.270    0.577    6.072
  270.340   76.963    0.287    0.603    6.550
  270.590   68.462    0.289    0.612    7.406
  270.840   64.121    0.284    0.542    8.784
  271.090   67.240    0.274    0.523   11.204
  271.340   67.451    0.274    0.514   13.872
  271.590   72.707    0.281    0.510   15.560
  271.840   77.506    0.288    0.505   15.389
  272.090   83.168    0.299    0.528   14.691
  272.340   85.162    0.300    0.538   13.910
  272.590   81.921    0.286    0.554   13.103
  272.840   80.179    0.275    0.534   12.401
  273.090   79.799    0.264    0.508   11.837
  273.340   81.964    0.257    0.491   11.398
  273.590   85.603    0.249    0.506   10.465
  273.840   87.046    0.243    0.506    9.584
  274.090   86.077    0.259    0.499    8.559
  274.340   86.589    0.268    0.507    8.212
  274.590   87.689    0.286    0.517    8.464
  274.840   85.717    0.292    0.521    8.978
  275.090   84.795    0.290    0.522    9.336
  275.340   85.711    0.280    0.518    9.682
  275.590   89.935    0.261    0.503    9.572
  275.840   98.995    0.252    0.486    8.376
  276.090  105.953    0.232    0.473    7.662
  276.340  110.015    0.219    0.470    6.777
  276.590  112.380    0.219    0.493    6.182
  276.840  111.418    0.222    0.511    5.953
  277.090  115.995    0.223    0.533    6.153
  277.340  120.787    0.225    0.549    6.260
  277.590  125.436    0.236    0.537    6.128
  277.840  129.976    0.223    0.513    6.003
  278.090  131.647    0.218    0.505    5.812
  278.340  127.880    0.217    0.517    5.730
  278.590  121.390    0.216    0.524    5.810
  278.840  107.124    0.218    0.515    5.984
  279.090   99.119    0.221    0.487    6.347
  279.340   96.499    0.211    0.431    6.836
  279.590   96.044    0.201    0.419    7.120
  279.840   98.788    0.202    0.424    7.386
  280.090  104.444    0.197    0.426    7.036
  280.340  107.813    0.189    0.429    6.380
  280.590  111.121    0.177    0.439    5.644
  280.840  113.412    0.172    0.478    4.919
  281.090  118.183    0.195    0.517    4.366
  281.340  120.572    0.213    0.547    3.956
  281.590  119.954    0.227    0.577    3.718
  281.840  114.248    0.242    0.599    3.703
  282.090  103.323    0.254    0.607    3.890
  282.340   96.210    0.259    0.604    4.352
  282.590   91.346    0.259    0.596    4.944
  282.840   87.849    0.252    0.575    5.391
  283.090   86.814    0.244    0.553    5.776
  283.340   86.664    0.242    0.532    6.165
  283.590   90.211    0.243    0.514    6.444
  283.840   95.538    0.244    0.500    6.864
  284.090   87.337    0.241    0.502    6.980
  284.340   83.716    0.237    0.497    6.907
  284.590   84.084    0.246    0.487    6.548
  284.840   87.948    0.246    0.478    6.370
  285.090   93.570    0.240    0.473    5.952
  285.340   96.585    0.239    0.485    5.605
  285.590   95.876    0.242    0.507    5.589
  285.840   89.974    0.250    0.538    6.184
  286.090   86.214    0.258    0.545    6.552
  286.340   82.827    0.257    0.521    6.933
  286.590   81.264    0.257    0.505    7.692
  286.840   82.887    0.263    0.496    7.957
  287.090   85.856    0.271    0.521    8.213
