~VERSION INFORMATION
 VERS.                 2.0:   CWLS LOG ASCII STANDARD -VERSION 2.0
 WRAP.                  NO:   ONE LINE PER DEPTH STEP
~WELL INFORMATION BLOCK
#MNEM.UNIT           DATA                    DESCRIPTION OF MNEMONIC
#---------    -------------------            -------------------------------
# Generated from Intellog Unique Number	CS_67_68/WELL/813
WELL.         BURNT LAKE                     : Well_name    - WELL
LOC .         00/11-02-068-04W4/0            : Location     - LOCATION
UWI .         00/11-02-068-04W4/0            : Uwi          - UNIQUE WELL ID
ENTR.         SP                             : Entered      - ENTERED BY
SRVC.         SCHLUMBERGER                   : Scn          - SERVICE COMPANY
STRT.M        360                            : top_depth    - START DEPTH
STOP.M        580                            : bot_depth    - STOP DEPTH
STEP.M        0.25                           : increment    - STEP LENGTH
 NULL. -999.2500:NULL Value
~CURVE INFORMATION BLOCK
#MNEM UNIT       ERCB CURVE CODE    CURVE DESCRIPTION
#-----------   ------------------   ----------------------------------
DEPT.M        00 001 00 00         : DEPTH        - DEPTH
GR  .API      00 310 00 00         : GR           - GAMMA RAY
NPHI.V/V      00 330 00 00         : PHIN         - NEUTRON POROSITY (LIMESTONE)
DPHI.V/V      00 890 00 00         : PHID         - DENSITY POROSITY (LIMESTONE)
ILD .OHMM     00 120 00 00         : RESD         - DEEP RESISTIVITY (DIL)
~PARAMETER INFORMATION
#MNEM.UNIT           DATA             DESCRIPTION OF MNEMONIC
#---------         -----------     ------------------------------
GL  .M        705.39               : gl           - GROUND LEVEL ELEVATION
EREF.M        709.24               : kb           - ELEVATION OF DEPTH REFERENCE
DATM.M        705.39               : datum        - DATUM ELEVATION
TDD .M        582                  : tdd          - TOTAL DEPTH DRILLER
RUN .         ONE                  : Run          - RUN NUMBER
ENG .         BILL                 : Engineer     - RECORDING ENGINEER
WIT .         JIM                  : Witness      - WITNESSED BY
MUD .         GEL                  : Mud_type     - MUD TYPE
MATR.         LIMESTONE            : Logunit      - NEUTRON MATRIX
TMAX.C        20                   : BHT          - MAXIMUM RECORDED TEMPERATURE
BHTD.M        582                  : BHTDEP       - MAXIMUM RECORDED TEMPERATURE
MATR.         1                    : LOGUNIT      - NEUTRON MATRIX
RMT .C        25                   : MDTP         - TEMPERATURE OF MUD
NEUT.         1                    : NEUTRON      - NEUTRON TYPE
RESI.         0                    : RESIST       - RESISTIVITY TYPE
RMC .OHMM     0.25                 : RMC          - RESISTIVITY OF MUD CAKE
RMF .OHMM     0.25                 : RMF          - RESISTIVITY OF MUD FILTRATE
SUFT.C        15                   : SUFT         - SURFACE TEMPERATURE
~A  DEPTH       GR     PHIN     PHID     RESD
# ...
  490.500   67.586    0.480    0.353   25.218
  490.750   68.916    0.480    0.354   27.564
  491.000   66.458    0.476    0.353   28.251
  491.250   59.905    0.475    0.356   28.316
  491.500   61.542    0.470    0.351   26.032
  491.750   66.781    0.470    0.349   24.385
  492.000   65.177    0.493    0.359   24.859
  492.250   60.397    0.480    0.369   27.531
  492.500   62.523    0.464    0.368   30.541
  492.750   63.241    0.479    0.343   34.719
  493.000   61.394    0.475    0.289   39.104
  493.250   54.657    0.435    0.145   41.002
  493.500   48.228    0.170    0.020   39.434
  493.750   45.586    0.128    0.006   36.456
  494.000   50.704    0.175    0.038   33.140
  494.250   57.777    0.244    0.177   32.294
  494.500   63.262    0.371    0.297   33.546
  494.750   66.058    0.428    0.357   15.854
  495.000   64.210    0.483    0.363    7.189
  495.250   63.524    0.456    0.347    5.033
  495.500   64.852    0.441    0.330    3.720
  495.750   68.321    0.496    0.318    2.850
  496.000   72.034    0.522    0.307    2.453
  496.250   74.584    0.532    0.297    2.124
  496.500   74.815    0.539    0.304    1.989
  496.750   75.412    0.542    0.324    1.935
  497.000   74.970    0.544    0.333    1.936
  497.250   72.451    0.555    0.331    1.937
  497.500   75.915    0.559    0.330    1.960
  497.750   77.981    0.551    0.331    1.998
  498.000   80.041    0.548    0.334    2.048
  498.250   80.332    0.548    0.332    2.120
  498.500   80.502    0.561    0.325    2.189
  498.750   83.116    0.567    0.317    2.313
  499.000   85.666    0.565    0.308    2.398
  499.250   87.424    0.557    0.297    2.463
  499.500   88.997    0.550    0.291    2.530
  499.750   89.413    0.540    0.286    2.546
  500.000   90.376    0.544    0.286    2.523
  500.250   93.048    0.552    0.289    2.534
  500.500   95.661    0.558    0.293    2.559
  500.750   95.892    0.550    0.292    2.579
  501.000   94.105    0.545    0.302    2.600
  501.250   93.358    0.551    0.314    2.656
  501.500   89.860    0.562    0.313    2.702
  501.750   90.640    0.569    0.300    2.734
  502.000   90.869    0.564    0.294    3.005
  502.250   88.656    0.553    0.285    3.429
  502.500   83.569    0.547    0.280    3.747
  502.750   80.440    0.521    0.308    4.049
  503.000   80.972    0.491    0.320    4.434
  503.250   84.015    0.463    0.307    4.649
  503.500   87.602    0.435    0.296    4.740
  503.750   89.058    0.462    0.288    4.750
  504.000   90.385    0.478    0.285    4.771
  504.250   91.168    0.471    0.285    4.667
  504.500   92.498    0.474    0.290    4.616
  504.750   92.788    0.492    0.271    4.895
  505.000   93.935    0.507    0.243    5.452
  505.250  101.373    0.502    0.188    5.925
  505.500  100.444    0.384    0.054    6.342
  505.750   89.064    0.288    0.037    6.675
  506.000   82.880    0.363    0.146    6.767
  506.250   84.759    0.401    0.214    6.375
  506.500   90.915    0.435    0.237    5.676
  506.750   92.551    0.460    0.160    5.111
  507.000   96.935    0.443    0.172    4.753
  507.250  104.069    0.471    0.221    4.588
  507.500  100.877    0.496    0.261    4.388
  507.750  100.739    0.487    0.273    4.267
  508.000  103.536    0.476    0.262    4.120
  508.250  106.271    0.481    0.260    4.014
  508.500   94.404    0.503    0.272    4.139
  508.750   83.270    0.508    0.261    4.626
  509.000   74.273    0.431    0.248    5.260
  509.250   69.067    0.359    0.239    6.434
  509.500   63.737    0.326    0.171    7.552
  509.750   62.867    0.301    0.057    8.039
  510.000   72.200    0.293    0.121    8.242
  510.250   77.868    0.349    0.181    8.199
  510.500   74.187    0.405    0.259    7.624
  510.750   70.567    0.430    0.296    6.865
  511.000   71.042    0.412    0.324    6.323
  511.250   74.816    0.392    0.301    6.035
  511.500   72.358    0.423    0.287    5.740
  511.750   61.835    0.447    0.310    5.657
  512.000   59.254    0.434    0.324    5.627
  512.250   65.774    0.422    0.329    5.715
  512.500   72.176    0.429    0.334    6.005
  512.750   79.493    0.419    0.340    6.155
  513.000   84.735    0.411    0.350    6.406
  513.250   81.360    0.442    0.360    6.667
  513.500   75.784    0.464    0.344    7.004
  513.750   72.044    0.449    0.357    7.358
  514.000   69.219    0.423    0.373    7.878
  514.250   72.809    0.426    0.365    8.183
  514.500   77.009    0.418    0.356    8.436
  514.750   80.234    0.429    0.347    8.585
  515.000   83.334    0.451    0.338    8.476
  515.250   86.315    0.441    0.326    8.277
  515.500   90.149    0.428    0.315    8.156
  515.750   93.557    0.437    0.310    7.978
  516.000   82.421    0.430    0.301    7.658
  516.250   73.977    0.402    0.292    7.337
  516.500   64.431    0.368    0.283    7.017
  516.750   59.834    0.346    0.289    6.761
  517.000   67.638    0.358    0.282    6.715
  517.250   72.878    0.369    0.277    6.743
  517.500   78.241    0.378    0.278    6.783
  517.750   85.863    0.375    0.261    7.020
  518.000   90.309    0.366    0.245    7.320
  518.250   93.534    0.381    0.257    7.350
  518.500   93.398    0.412    0.276    6.925
  518.750   92.589    0.445    0.295    6.647
  519.000   97.461    0.482    0.306    6.441
  519.250   98.486    0.459    0.288    6.219
  519.500   95.233    0.450    0.277    6.117
  519.750   95.889    0.426    0.272    6.120
  520.000   98.748    0.436    0.275    6.134
  520.250   93.723    0.473    0.270    6.137
  520.500   80.023    0.500    0.266    6.197
  520.750   48.666    0.431    0.284    6.474
  521.000   43.031    0.343    0.299    6.738
  521.250   57.924    0.301    0.288    7.159
  521.500   74.098    0.307    0.183    7.450
  521.750   91.009    0.339    0.170    7.653
  522.000   99.793    0.371    0.238    7.401
  522.250   95.196    0.393    0.232    7.025
  522.500   84.000    0.399    0.257    6.833
  522.750   69.628    0.389    0.295    6.697
  523.000   63.993    0.379    0.333    6.599
  523.250   68.560    0.372    0.320    6.480
  523.500   72.149    0.372    0.304    6.434
  523.750   74.275    0.384    0.294    6.413
  524.000   72.306    0.393    0.303    6.356
  524.250   77.544    0.398    0.328    6.336
  524.500   81.317    0.393    0.331    6.373
  524.750   83.930    0.400    0.318    6.498
  525.000   84.590    0.404    0.309    6.725
  525.250   84.269    0.402    0.305    7.011
  525.500   89.265    0.397    0.296    7.422
  525.750   93.404    0.397    0.287    7.623
  526.000   92.412    0.400    0.277    7.831
  526.250   92.947    0.382    0.257    7.819
  526.500   97.149    0.372    0.239    7.590
  526.750  101.836    0.394    0.221    7.164
  527.000  104.816    0.418    0.220    6.762
  527.250   86.475    0.433    0.278    6.639
  527.500   52.673    0.374    0.308    6.580
  527.750   49.236    0.336    0.311    6.546
  528.000   59.060    0.329    0.291    6.587
  528.250   71.874    0.348    0.271    6.665
  528.500   81.209    0.365    0.258    6.768
  528.750   92.865    0.372    0.259    7.137
  529.000   78.308    0.357    0.302    7.414
  529.250   63.753    0.390    0.353    7.515
  529.500   49.076    0.544    0.394    7.310
  529.750   38.431    0.396    0.391    7.043
  530.000   31.328    0.359    0.360    6.599
  530.250   31.375    0.339    0.340    6.310
  530.500   35.271    0.352    0.324    6.091
  530.750   36.967    0.364    0.320    5.947
  531.000   37.869    0.364    0.331    5.894
  531.250   45.917    0.356    0.320    5.864
  531.500   51.403    0.360    0.325    5.867
  531.750   56.705    0.380    0.333    5.858
  532.000   54.797    0.392    0.339    5.849
  532.250   50.810    0.401    0.343    5.830
  532.500   50.489    0.397    0.349    5.811
  532.750   55.790    0.394    0.354    5.760
  533.000   59.626    0.392    0.358    5.741
  533.250   59.123    0.382    0.352    5.732
  533.500   57.641    0.370    0.340    5.768
  533.750   59.766    0.361    0.332    5.868
