~VERSION INFORMATION
 VERS.                 2.0:   CWLS LOG ASCII STANDARD -VERSION 2.0
 WRAP.                  NO:   ONE LINE PER DEPTH STEP
~WELL INFORMATION BLOCK
#MNEM.UNIT           DATA                    DESCRIPTION OF MNEMONIC
#---------    -------------------            -------------------------------
# Generated from Intellog Unique Number	CX_WELLS/WELL/2330
WELL.         CHIEFCO ET AL SALESKI          : Well_name    - WELL
LOC .         00/15-04-088-18W4/0            : Location     - LOCATION
UWI .         00/15-04-088-18W400            : Uwi          - UNIQUE WELL ID
ENTR.         RJA                            : Entered      - ENTERED BY
SRVC.         SCHLUMBERGER                   : Scn          - SERVICE COMPANY
STRT.M        100                            : top_depth    - START DEPTH
STOP.M        226                            : bot_depth    - STOP DEPTH
STEP.M        0.25                           : increment    - STEP LENGTH
 NULL. -999.2500:NULL Value
~CURVE INFORMATION BLOCK
#MNEM UNIT       ERCB CURVE CODE    CURVE DESCRIPTION
#-----------   ------------------   ----------------------------------
DEPT.M        00 001 00 00         : DEPTH        - DEPTH
GR  .API      00 310 00 00         : GR           - GAMMA RAY
NPHI.V/V      00 330 00 00         : PHIN         - NEUTRON POROSITY (SANDSTONE)
DPHI.V/V      00 890 00 00         : PHID         - DENSITY POROSITY (SANDSTONE)
ILD .OHMM     00 120 00 00         : RESD         - DEEP RESISTIVITY (DIL)
~PARAMETER INFORMATION
#MNEM.UNIT           DATA             DESCRIPTION OF MNEMONIC
#---------         -----------     ------------------------------
GL  .M        518.8                : gl           - GROUND LEVEL ELEVATION
EREF.M        522.2                : kb           - ELEVATION OF DEPTH REFERENCE
DATM.M        522.2                : datum        - DATUM ELEVATION
TDD .M        227.3                : tdd          - TOTAL DEPTH DRILLER
RUN .         ONE                  : Run          - RUN NUMBER
ENG .         BILL                 : Engineer     - RECORDING ENGINEER
WIT .         JIM                  : Witness      - WITNESSED BY
MUD .         GEL                  : Mud_type     - MUD TYPE
MATR.         SANDSTONE            : Logunit      - NEUTRON MATRIX
TMAX.C        27                   : BHT          - MAXIMUM RECORDED TEMPERATURE
BHTD.M        227.3                : BHTDEP       - MAXIMUM RECORDED TEMPERATURE
MATR.         1                    : LOGUNIT      - NEUTRON MATRIX
RMT .C        25                   : MDTP         - TEMPERATURE OF MUD
NEUT.         1                    : NEUTRON      - NEUTRON TYPE
RESI.         0                    : RESIST       - RESISTIVITY TYPE
RMC .OHMM     0.25                 : RMC          - RESISTIVITY OF MUD CAKE
RMF .OHMM     0.25                 : RMF          - RESISTIVITY OF MUD FILTRATE
SUFT.C        15                   : SUFT         - SURFACE TEMPERATURE
~A  DEPTH       GR     PHIN     PHID     RESD
# ...
  143.500   81.774    0.330    0.157    9.741
  143.750   84.304    0.328    0.186    9.955
  144.000   89.953    0.334    0.198   10.367
  144.250   93.726    0.340    0.197   10.594
  144.500   95.635    0.343    0.194   10.432
  144.750   96.921    0.343    0.188   10.454
  145.000   98.208    0.342    0.187   10.294
  145.250   99.506    0.341    0.187   10.520
  145.500   98.939    0.337    0.184   11.385
  145.750   95.242    0.331    0.175   12.074
  146.000   90.313    0.328    0.164   12.814
  146.250   87.238    0.324    0.150   13.598
  146.500   82.941    0.321    0.144   14.707
  146.750   82.985    0.321    0.151   15.337
  147.000   85.515    0.328    0.158   14.270
  147.250   89.299    0.340    0.182   13.512
  147.500   92.451    0.344    0.188   12.795
  147.750   95.602    0.347    0.202   11.888
  148.000   96.878    0.349    0.209   10.249
  148.250   97.565    0.347    0.207    8.671
  148.500   94.490    0.342    0.196    7.336
  148.750   88.940    0.335    0.097    7.084
  149.000   84.632    0.331    0.074    8.108
  149.250   81.579    0.328    0.065    9.827
  149.500   79.136    0.327    0.070   11.037
  149.750   79.790    0.328    0.081   10.861
  150.000   82.942    0.337    0.130   10.106
  150.250   87.337    0.345    0.159    9.576
  150.500   92.986    0.349    0.196    9.240
  150.750   95.505    0.354    0.225    8.591
  151.000   99.910    0.359    0.235    8.141
  151.250  103.073    0.360    0.238    7.714
  151.500  106.236    0.362    0.238    7.172
  151.750  107.501    0.366    0.222    6.549
  152.000  110.663    0.367    0.209    6.319
  152.250  113.193    0.368    0.203    5.875
  152.500  116.966    0.369    0.161    5.365
  152.750  120.118    0.374    0.153    5.080
  153.000  122.648    0.377    0.176    4.723
  153.250  124.556    0.377    0.194    4.478
  153.500  125.233    0.377    0.191    4.494
  153.750  125.276    0.375    0.186    4.500
  154.000  124.077    0.372    0.183    4.602
  154.250  121.645    0.371    0.181    4.612
  154.500  119.202    0.367    0.179    4.803
  154.750  115.516    0.363    0.200    5.721
  155.000  112.441    0.362    0.216    6.063
  155.250  107.512    0.356    0.229    6.944
  155.500  104.437    0.351    0.244    7.804
  155.750   99.508    0.346    0.249    8.601
  156.000   97.087    0.335    0.239    9.128
  156.250   96.509    0.329    0.222    9.687
  156.500   97.796    0.321    0.123   10.088
  156.750  100.948    0.315    0.086    9.572
  157.000  104.088    0.312    0.094    9.406
  157.250  109.115    0.315    0.115    8.913
  157.500  112.889    0.337    0.144    8.451
  157.750  116.051    0.348    0.191    8.161
  158.000  114.852    0.355    0.188    8.025
  158.250  113.020    0.359    0.186    7.896
  158.500  111.820    0.362    0.190    7.770
  158.750  111.253    0.358    0.199    7.946
  159.000  110.065    0.354    0.211    8.275
  159.250  108.843    0.351    0.213    8.456
  159.500  105.790    0.350    0.210    8.806
  159.750  103.969    0.352    0.211    9.177
  160.000  102.148    0.353    0.217    9.379
  160.250  100.327    0.354    0.223    9.577
  160.500   97.884    0.356    0.236    9.611
  160.750   94.809    0.357    0.258    9.644
  161.000   89.891    0.358    0.260    9.658
  161.250   86.205    0.358    0.266    9.504
  161.500   85.005    0.357    0.278    9.537
  161.750   83.173    0.356    0.273    9.570
  162.000   83.217    0.355    0.279    9.590
  162.250   83.260    0.355    0.292    9.623
  162.500   83.937    0.355    0.296    9.470
  162.750   83.980    0.356    0.289    9.496
  163.000   84.035    0.359    0.281    9.523
  163.250   84.079    0.360    0.274    9.542
  163.500   84.744    0.362    0.271    9.569
  163.750   84.787    0.361    0.274    9.596
  164.000   84.210    0.358    0.281    9.629
  164.250   83.632    0.356    0.282    9.656
  164.500   83.675    0.352    0.284    9.508
  164.750   83.719    0.352    0.287    9.535
  165.000   85.028    0.352    0.290    9.555
  165.250   85.682    0.351    0.279    9.409
  165.500   86.336    0.350    0.266    9.252
  165.750   87.012    0.353    0.258    9.284
  166.000   87.678    0.355    0.251    9.310
  166.250   88.965    0.356    0.248    8.996
  166.500   90.251    0.356    0.252    9.009
  166.750   91.538    0.355    0.252    8.871
  167.000   92.825    0.350    0.254    8.896
  167.250   94.734    0.346    0.259    8.921
  167.500   98.518    0.344    0.258    8.790
  167.750  101.048    0.343    0.253    8.803
  168.000  103.578    0.342    0.244    8.662
  168.250  104.864    0.341    0.246    8.060
  168.500  102.422    0.338    0.249    8.236
  168.750  100.590    0.336    0.247    8.571
  169.000   97.536    0.334    0.238    9.817
  169.250   95.105    0.331    0.098   10.426
  169.500   93.894    0.328    0.104   11.065
  169.750   92.095    0.323    0.114   11.307
  170.000   91.517    0.320    0.145   10.714
  170.250   93.425    0.324    0.207    9.775
  170.500   94.691    0.331    0.220    8.746
  170.750   96.599    0.339    0.224    7.125
  171.000   96.642    0.345    0.232    5.915
  171.250   96.686    0.347    0.234    5.292
  171.500  101.081    0.350    0.234    5.307
  171.750  110.459    0.356    0.227    5.640
  172.000  117.962    0.360    0.202    6.212
  172.250  120.492    0.361    0.125    7.245
  172.500  116.806    0.361    0.114    8.788
  172.750  111.877    0.361    0.105    9.504
  173.000  108.813    0.359    0.115    9.713
  173.250  107.613    0.359    0.161    9.740
  173.500  107.657    0.359    0.168    9.767
  173.750  108.333    0.362    0.169    9.611
  174.000  109.631    0.361    0.170    9.287
  174.250  112.161    0.360    0.171    8.967
  174.500  113.437    0.356    0.175    8.824
  174.750  114.735    0.349    0.181    8.683
  175.000  114.789    0.344    0.188    8.701
  175.250  114.190    0.338    0.191    9.068
  175.500  114.233    0.332    0.197    9.443
  175.750  113.056    0.327    0.200   10.220
  176.000  112.456    0.321    0.203   11.053
  176.250  111.278    0.313    0.204   11.730
  176.500  110.090    0.307    0.204   12.457
  176.750  109.490    0.299    0.204   12.713
  177.000  108.301    0.296    0.199   13.257
  177.250  106.480    0.296    0.096   13.538
  177.500  103.416    0.293    0.063   13.854
  177.750  100.973    0.288    0.049   14.148
  178.000   97.909    0.285    0.115   14.197
  178.250   94.844    0.283    0.141   14.217
  178.500   92.402    0.292    0.159   14.257
  178.750   90.570    0.295    0.161   14.569
  179.000   86.895    0.296    0.163   14.336
  179.250   85.074    0.293    0.168   14.107
  179.500   85.117    0.291    0.170   14.437
  179.750   85.150    0.286    0.162   15.024
  180.000   85.815    0.283    0.146   16.259
  180.250   85.248    0.279    0.107   16.944
  180.500   84.049    0.276    0.086   16.968
  180.750   84.093    0.271    0.081   17.027
  181.000   84.158    0.271    0.078   15.536
  181.250   84.812    0.270    0.096   14.165
  181.500   85.478    0.272    0.109   12.445
  181.750   86.143    0.278    0.109   11.143
  182.000   86.797    0.286    0.114   10.566
  182.250   88.706    0.294    0.196   11.213
  182.500   93.111    0.305    0.203   12.118
  182.750   95.031    0.315    0.194   14.154
  183.000   92.599    0.317    0.179   16.189
  183.250   90.767    0.315    0.146   19.997
  183.500   88.935    0.314    0.125   21.222
  183.750   87.735    0.308    0.094   20.898
  184.000   87.779    0.304    0.090   20.550
  184.250   90.320    0.297    0.090   19.857
  184.500   92.218    0.286    0.088   17.434
  184.750   96.002    0.295    0.083   13.169
  185.000  102.261    0.313    0.081   11.570
  185.250  108.521    0.329    0.114   10.750
  185.500  114.791    0.341    0.162    9.815
  185.750  120.418    0.352    0.162    9.301
  186.000  117.354    0.360    0.162    8.813
  186.250  113.668    0.362    0.158    8.843
  186.500  111.225    0.361    0.155    9.025
  186.750  109.415    0.359    0.153    9.405
