~VERSION INFORMATION
 VERS.                 2.0:   CWLS LOG ASCII STANDARD -VERSION 2.0
 WRAP.                  NO:   ONE LINE PER DEPTH STEP
~WELL INFORMATION BLOCK
#MNEM.UNIT           DATA                    DESCRIPTION OF MNEMONIC
#---------    -------------------            -------------------------------
# Generated from Intellog Unique Number	nealta/WELL/2304
WELL.         AMOCO PELICAN                  : Well_name    - WELL
LOC .         10-29-077-24W4                 : Location     - LOCATION
UWI .         00/10-29-077-24W4/0            : Uwi          - UNIQUE WELL ID
ENTR.         JAYE                           : Entered      - ENTERED BY
SRVC.         WESTERN ATLAS                  : Scn          - SERVICE COMPANY
DATE.         4 FEB 79                       : Date         - LOG DATE
STRT.M        365                            : top_depth    - START DEPTH
STOP.M        640                            : bot_depth    - STOP DEPTH
STEP.M        0.25                           : increment    - STEP LENGTH
 NULL. -999.2500:NULL Value
~CURVE INFORMATION BLOCK
#MNEM UNIT       ERCB CURVE CODE    CURVE DESCRIPTION
#-----------   ------------------   ----------------------------------
DEPT.M        00 001 00 00         : DEPTH        - DEPTH
GR  .API      00 310 00 00         : GR           - GAMMA RAY
ILD .OHMM     00 120 00 00         : RESD         - DEEP RESISTIVITY (DIL)
CALI.MM       00 280 01 00         : CAL          - CALIPER
NPHI.V/V      00 330 00 00         : PHIN         - NEUTRON POROSITY (SANDSTONE)
DPHI.V/V      00 890 00 00         : PHID         - DENSITY POROSITY (SANDSTONE)
~PARAMETER INFORMATION
#MNEM.UNIT           DATA             DESCRIPTION OF MNEMONIC
#---------         -----------     ------------------------------
GL  .M        666.57               : gl           - GROUND LEVEL ELEVATION
EREF.M        670.67               : kb           - ELEVATION OF DEPTH REFERENCE
DATM.M        666.57               : datum        - DATUM ELEVATION
TDD .M        642                  : tdd          - TOTAL DEPTH DRILLER
RUN .         ONE                  : Run          - RUN NUMBER
ENG .         FRENNETTE            : Engineer     - RECORDING ENGINEER
WIT .         LAMPEN               : Witness      - WITNESSED BY
BASE.         R.D.                 : Branch       - HOME BASE OF LOGGING UNIT
MUD .         GEL CHEM             : Mud_type     - MUD TYPE
MATR.         SANDSTONE            : Logunit      - NEUTRON MATRIX
TMAX.C        29                   : BHT          - MAXIMUM RECORDED TEMPERATURE
BHTD.M        643.4                : BHTDEP       - MAXIMUM RECORDED TEMPERATURE
RMT .C        15.5                 : MDTP         - TEMPERATURE OF MUD
MUDD.KG/M     1050                 : MWT          - MUD DENSITY
NEUT.         1                    : NEUTRON      - NEUTRON TYPE
RESI.         0                    : RESIST       - RESISTIVITY TYPE
RM  .OHMM     5.1                  : RM           - RESISTIVITY OF MUD
RMC .OHMM     6.87                 : RMC          - RESISTIVITY OF MUD CAKE
RMF .OHMM     5.5                  : RMF          - RESISTIVITY OF MUD FILTRATE
SUFT.C        4.5                  : SUFT         - SURFACE TEMPERATURE
~A  DEPTH       GR     RESD      CAL     PHIN     PHID
# ...
  474.500   86.374    8.001  190.329    0.404    0.252
  474.750   87.683    7.704  190.123    0.397    0.248
  475.000   90.373    7.457  190.193    0.400    0.236
  475.250   89.675    6.971  190.628    0.402    0.224
  475.500   89.853    6.699  191.151    0.410    0.210
  475.750   91.353    6.593  191.531    0.411    0.203
  476.000   93.483    6.600  192.029    0.401    0.217
  476.250   94.534    6.778  192.430    0.386    0.239
  476.500   91.077    7.305  192.937    0.353    0.251
  476.750   84.733    8.199  193.033    0.329    0.043
  477.000   80.833    9.238  193.870    0.318    0.065
  477.250   80.517    9.864  195.115    0.329    0.248
  477.500   83.642   10.340  196.345    0.352    0.241
  477.750   86.836   10.310  197.480    0.425    0.247
  478.000   89.776   10.001  198.409    0.430    0.256
  478.250   90.837    9.699  199.646    0.422    0.240
  478.500   90.886    9.513  200.896    0.405    0.207
  478.750   89.946    9.502  201.815    0.398    0.193
  479.000   88.680    9.688  203.279    0.401    0.191
  479.250   87.801   10.062  204.311    0.411    0.178
  479.500   86.719   10.626  203.452    0.405    0.156
  479.750   85.769   10.976  201.142    0.394    0.116
  480.000   84.955   11.127  199.043    0.389    0.136
  480.250   85.310   10.913  198.305    0.401    0.227
  480.500   90.198   10.662  198.181    0.407    0.238
  480.750   93.264   10.323  198.050    0.430    0.245
  481.000   94.761    9.667  197.635    0.428    0.232
  481.250   98.580    9.084  197.496    0.416    0.201
  481.500  100.516    8.507  197.497    0.411    0.209
  481.750   95.365    8.071  197.382    0.406    0.222
  482.000   99.436    7.798  197.569    0.404    0.201
  482.250  102.563    7.102  199.014    0.413    0.192
  482.500  105.567    6.614  201.423    0.423    0.203
  482.750  106.688    6.583  203.066    0.440    0.201
  483.000  106.053    6.529  204.533    0.447    0.202
  483.250  107.175    6.522  206.287    0.442    0.203
  483.500  109.112    6.491  208.683    0.435    0.227
  483.750  108.852    6.704  209.608    0.435    0.216
  484.000  108.410    6.963  210.004    0.435    0.184
  484.250  109.088    7.273  209.470    0.429    0.195
  484.500  101.869    7.622  207.269    0.418    0.183
  484.750  102.672    8.049  205.273    0.429    0.187
  485.000  104.296    8.331  205.064    0.410    0.174
  485.250  104.737    8.353  205.349    0.411    0.166
  485.500  103.405    8.252  205.854    0.423    0.175
  485.750  102.516    7.901  207.193    0.427    0.184
  486.000  102.946    7.549  209.495    0.430    0.191
  486.250  104.569    7.309  210.631    0.444    0.211
  486.500  105.504    7.128  211.459    0.460    0.217
  486.750  104.879    7.107  212.062    0.443    0.223
  487.000   96.389    7.180  212.253    0.430    0.206
  487.250   93.811    7.349  210.670    0.404    0.195
  487.500   96.122    7.409  206.376    0.403    0.219
  487.750  100.195    7.485  202.275    0.415    0.199
  488.000  102.633    7.490  200.592    0.407    0.180
  488.250  102.757    7.430  200.059    0.399    0.174
  488.500  103.623    7.354  200.984    0.399    0.172
  488.750  101.292    7.318  203.268    0.410    0.169
  489.000  100.718    7.205  205.982    0.418    0.165
  489.250  101.589    7.130  206.912    0.412    0.173
  489.500  101.458    6.992  207.628    0.402    0.186
  489.750   99.503    6.895  209.385    0.428    0.197
  490.000  100.504    6.940  212.614    0.454    0.238
  490.250  100.993    7.050  215.971    0.438    0.229
  490.500  100.734    7.431  213.320    0.425    0.219
  490.750  101.103    8.082  202.655    0.421    0.204
  491.000  101.971    8.713  199.911    0.422    0.208
  491.250  101.973    9.063  197.291    0.419    0.219
  491.500   98.381    9.661  196.647    0.400    0.224
  491.750   92.349   10.222  197.263    0.385    0.215
  492.000   88.201   10.556  199.036    0.378    0.158
  492.250   87.259   10.884  202.247    0.397    0.170
  492.500   88.627   11.054  204.433    0.413    0.182
  492.750   90.249   11.126  206.731    0.406    0.181
  493.000   92.120   11.196  207.659    0.393    0.171
  493.250   94.255   11.269  208.688    0.382    0.151
  493.500   95.878   11.341  209.816    0.365    0.125
  493.750   96.620   11.435  210.859    0.364    0.145
  494.000   96.106   11.638  210.953    0.366    0.148
  494.250   92.394   11.887  211.042    0.360    0.152
  494.500   89.941   13.693  210.398    0.287    0.135
  494.750   84.727   16.735  209.244    0.256    0.067
  495.000   78.945   20.567  208.376    0.233   -0.002
  495.250   75.297   27.673  207.843    0.207   -0.013
  495.500   72.530   37.097  207.516    0.199   -0.019
  495.750   71.271   72.129  207.294    0.196   -0.023
  496.000   70.819   79.921  206.875    0.192   -0.025
  496.250   69.056   80.732  206.641    0.188   -0.022
  496.500   68.987   78.735  206.324    0.210   -0.005
  496.750   70.171   47.561  206.104    0.226    0.021
  497.000   73.109   13.660  205.763    0.249    0.075
  497.250   86.403   11.363  204.710    0.319    0.127
  497.500   95.178   10.503  203.231    0.370    0.145
  497.750   97.499    9.890  201.857    0.413    0.149
  498.000   97.483    9.452  201.319    0.417    0.153
  498.250  104.063    9.202  201.413    0.402    0.153
  498.500  101.921    9.329  201.818    0.400    0.139
  498.750  100.910    9.600  202.857    0.406    0.120
  499.000  102.785    9.878  204.196    0.401    0.121
  499.250   99.706   10.128  205.014    0.391    0.127
  499.500   97.878   10.137  205.424    0.389    0.129
  499.750   99.626    9.778  203.747    0.407    0.137
  500.000  104.387    9.465  202.369    0.410    0.157
  500.250  104.571    9.112  202.467    0.410    0.174
  500.500  105.059    8.740  203.504    0.412    0.161
  500.750  106.874    8.261  204.104    0.411    0.142
  501.000  107.239    7.850  204.507    0.415    0.145
  501.250  104.407    7.489  205.228    0.435    0.153
  501.500  105.156    7.330  206.998    0.447    0.169
  501.750  109.600    7.256  209.391    0.448    0.183
  502.000  111.915    7.183  212.398    0.439    0.271
  502.250  113.160    7.201  215.843    0.438    0.310
  502.500  115.790    7.452  215.198    0.433    0.203
  502.750  118.288    7.825  207.344    0.409    0.163
  503.000  117.466    8.356  204.523    0.406    0.159
  503.250  113.382    8.663  203.973    0.403    0.173
  503.500  108.729    8.799  203.869    0.410    0.167
  503.750  105.519    8.905  203.838    0.415    0.125
  504.000  106.204    9.014  204.454    0.416    0.131
  504.250  105.381    9.053  205.695    0.420    0.143
  504.500  109.261    9.111  206.830    0.420    0.151
  504.750  108.877    9.170  206.503    0.418    0.133
  505.000  106.234    9.229  205.475    0.416    0.135
  505.250  107.607    9.306  205.043    0.416    0.161
  505.500  105.903    9.331  204.898    0.420    0.165
  505.750  107.216    9.373  204.892    0.421    0.169
  506.000  103.064    9.348  204.975    0.420    0.175
  506.250  102.619    9.355  205.077    0.417    0.176
  506.500  101.669    9.417  204.008    0.416    0.162
  506.750  103.229    9.618  201.811    0.416    0.166
  507.000  105.548    9.915  200.319    0.419    0.174
  507.250  102.774   10.278  198.534    0.420    0.183
  507.500  103.021   10.855  197.069    0.408    0.183
  507.750  102.130   11.440  195.488    0.380    0.174
  508.000   99.236   12.725  193.691    0.366    0.117
  508.250   96.533   14.229  192.306    0.350    0.089
  508.500   94.522   16.728  193.242    0.294    0.026
  508.750   87.982   19.270  195.101    0.257   -0.004
  509.000   78.566   20.050  197.710    0.249   -0.017
  509.250   82.133   20.329  199.372    0.257    0.055
  509.500   88.084   20.122  199.872    0.271    0.172
  509.750   93.412   18.878  198.507    0.349    0.164
  510.000   92.208   17.193  197.449    0.349    0.120
  510.250   91.830   14.953  196.386    0.329    0.037
  510.500   95.267   13.172  196.055    0.315   -0.002
  510.750  102.412   11.887  195.940    0.341    0.080
