~VERSION INFORMATION
 VERS.                 2.0:   CWLS LOG ASCII STANDARD -VERSION 2.0
 WRAP.                  NO:   ONE LINE PER DEPTH STEP
~WELL INFORMATION BLOCK
#MNEM.UNIT           DATA                    DESCRIPTION OF MNEMONIC
#---------    -------------------            -------------------------------
# Generated from Intellog Unique Number	CS_77_79/WELL/957
WELL.         MESA HB LEISMER                : Well_name    - WELL
LOC .         00/10-18-078-10W4/0            : Location     - LOCATION
UWI .         00/10-18-078-10W4/0            : Uwi          - UNIQUE WELL ID
ENTR.         JHS                            : Entered      - ENTERED BY
SRVC.         SCHLUMBERGER                   : Scn          - SERVICE COMPANY
STRT.M        243.84                         : top_depth    - START DEPTH
STOP.M        475.34                         : bot_depth    - STOP DEPTH
STEP.M        0.25                           : increment    - STEP LENGTH
 NULL. -999.2500:NULL Value
~CURVE INFORMATION BLOCK
#MNEM UNIT       ERCB CURVE CODE    CURVE DESCRIPTION
#-----------   ------------------   ----------------------------------
DEPT.M        00 001 00 00         : DEPTH        - DEPTH
RHOB.KG/M3    00 350 00 00         : DENS         - BULK DENSITY
GR  .API      00 310 00 00         : GR           - GAMMA RAY
DPHI.V/V      00 890 00 00         : PHID         - DENSITY POROSITY (SANDSTONE)
NPHI.V/V      00 330 00 00         : PHIN         - NEUTRON POROSITY (SANDSTONE)
ILD .OHMM     00 120 00 00         : RESD         - DEEP RESISTIVITY (DIL)
~PARAMETER INFORMATION
#MNEM.UNIT           DATA             DESCRIPTION OF MNEMONIC
#---------         -----------     ------------------------------
GL  .M        662.33               : gl           - GROUND LEVEL ELEVATION
EREF.M        666.293              : kb           - ELEVATION OF DEPTH REFERENCE
DATM.M        666.293              : datum        - DATUM ELEVATION
TDD .M        487.68               : tdd          - TOTAL DEPTH DRILLER
RUN .         ONE                  : Run          - RUN NUMBER
ENG .         BILL                 : Engineer     - RECORDING ENGINEER
WIT .         JIM                  : Witness      - WITNESSED BY
MUD .         GEL                  : Mud_type     - MUD TYPE
MATR.         SANDSTONE            : Logunit      - NEUTRON MATRIX
TMAX.C        22.2222              : BHT          - MAXIMUM RECORDED TEMPERATURE
BHTD.M        487.68               : BHTDEP       - MAXIMUM RECORDED TEMPERATURE
MATR.         1                    : LOGUNIT      - NEUTRON MATRIX
RMT .C        25                   : MDTP         - TEMPERATURE OF MUD
NEUT.         1                    : NEUTRON      - NEUTRON TYPE
RESI.         0                    : RESIST       - RESISTIVITY TYPE
RMC .OHMM     0.25                 : RMC          - RESISTIVITY OF MUD CAKE
RMF .OHMM     0.25                 : RMF          - RESISTIVITY OF MUD FILTRATE
SUFT.C        15                   : SUFT         - SURFACE TEMPERATURE
~A  DEPTH     DENS       GR     PHID     PHIN     RESD
# ...
  426.340 2312.890   87.349    0.232    0.357   20.588
  426.590 2333.360   90.754    0.220    0.353   18.557
  426.840 2367.230   88.415    0.200    0.342   15.802
  427.090 2383.860   81.657    0.191    0.347   15.217
  427.340 2402.050   74.227    0.180    0.363   15.051
  427.590 2305.590   63.652    0.236    0.378   15.668
  427.840 2187.380   55.212    0.306    0.381   17.052
  428.090 2169.940   55.094    0.316    0.370   19.436
  428.340 2197.320   60.817    0.300    0.376   21.140
  428.590 2232.490   65.393    0.279    0.374   22.837
  428.840 2221.950   69.029    0.285    0.364   25.100
  429.090 2228.180   68.040    0.282    0.359   26.487
  429.340 2256.410   64.626    0.265    0.363   27.288
  429.590 2290.090   65.121    0.246    0.364   27.711
  429.840 2280.950   67.730    0.251    0.356   27.486
  430.090 2276.120   65.601    0.254    0.358   27.185
  430.340 2229.880   69.552    0.281    0.366   26.681
  430.590 2241.660   71.566    0.274    0.378   26.764
  430.840 2255.600   67.552    0.266    0.386   28.758
  431.090 2214.490   61.899    0.290    0.367   31.719
  431.340 2210.510   55.410    0.292    0.364   35.612
  431.590 2183.520   56.630    0.308    0.379   44.428
  431.840 2174.450   58.744    0.313    0.385   52.636
  432.090 2159.670   52.280    0.322    0.380   71.229
  432.340 2195.070   44.362    0.301    0.377  102.836
  432.590 2183.420   39.629    0.308    0.378  160.697
  432.840 2161.770   43.004    0.321    0.369  286.580
  433.090 2166.230   50.680    0.318    0.358  553.343
  433.340 2181.010   57.287    0.309    0.360 1263.070
  433.590 2197.080   63.166    0.300    0.371  870.918
  433.840 2169.200   67.050    0.316    0.381  298.387
  434.090 2165.200   59.360    0.319    0.379  252.122
  434.340 2167.950   64.752    0.317    0.387  294.930
  434.590 2183.560   68.518    0.308    0.394  273.306
  434.840 2187.570   69.888    0.306    0.397  222.494
  435.090 2160.070   74.561    0.322    0.405  186.459
  435.340 2185.950   82.095    0.306    0.421  128.580
  435.590 2211.680   85.587    0.291    0.427   81.181
  435.840 2198.940   82.294    0.299    0.423   66.169
  436.090 2184.120   79.707    0.308    0.413   58.803
  436.340 2214.880   76.289    0.290    0.389   50.882
  436.590 2245.470   69.519    0.272    0.367   46.469
  436.840 2250.890   70.454    0.268    0.358   42.357
  437.090 2260.240   77.853    0.263    0.363   39.474
  437.340 2278.630   80.252    0.252    0.367   33.840
  437.590 2292.050   79.793    0.244    0.367   29.824
  437.840 2313.890   80.779    0.232    0.357   24.636
  438.090 2286.830   86.022    0.247    0.341   21.625
  438.340 2322.920   90.629    0.226    0.330   18.624
  438.590 2357.230   93.028    0.206    0.331   17.010
  438.840 2382.380   87.406    0.192    0.352   16.521
  439.090 2358.450   77.626    0.206    0.395   17.263
  439.340 2289.880   71.169    0.246    0.412   19.756
  439.590 2179.630   69.628    0.310    0.412   23.581
  439.840 2208.130   74.615    0.293    0.404   35.730
  440.090 2266.000   75.642    0.260    0.408   48.110
  440.340 2325.990   73.179    0.225    0.358   58.401
  440.590 2436.660   68.025    0.160    0.331   50.584
  440.840 2459.060   65.386    0.147    0.331   35.255
  441.090 2440.030   85.248    0.158    0.392   23.927
  441.340 2267.620   94.821    0.259    0.383   17.826
  441.590 2313.730  101.010    0.232    0.376   15.281
  441.840 2307.250  106.976    0.236    0.384   12.795
  442.090 2305.880  109.687    0.236    0.389   11.335
  442.340 2329.690  115.377    0.222    0.390   10.330
  442.590 2351.730  120.282    0.210    0.388    9.165
  442.840 2358.250  123.800    0.206    0.391    9.035
  443.090 2370.220  121.533    0.199    0.372    9.055
  443.340 2377.930  116.409    0.194    0.360    9.735
  443.590 2364.300  111.214    0.202    0.368   10.288
  443.840 2332.610  101.541    0.221    0.363   10.761
  444.090 2328.360   93.868    0.223    0.345   11.476
  444.340 2336.820   93.281    0.218    0.308   11.226
  444.590 2388.550  104.316    0.188    0.312   10.983
  444.840 2414.440  113.518    0.173    0.340   10.335
  445.090 2428.700  119.047    0.165    0.383    9.705
  445.340 2432.300  114.257    0.162    0.399    9.564
  445.590 2412.990  105.331    0.174    0.400    9.856
  445.840 2371.150   97.037    0.198    0.401   10.690
  446.090 2313.770   85.747    0.232    0.374   11.341
  446.340 2272.460   87.039    0.256    0.366   12.213
  446.590 2319.540   95.599    0.228    0.372   12.182
  446.840 2356.520  100.495    0.207    0.358   11.947
  447.090 2365.420  105.155    0.202    0.346   11.599
  447.340 2387.530  103.665    0.189    0.337   11.296
  447.590 2377.240   95.767    0.195    0.341   11.114
  447.840 2337.940   90.130    0.218    0.349   11.196
  448.090 2332.310   95.840    0.221    0.354   11.541
  448.340 2351.080   98.975    0.210    0.388   12.268
  448.590 2327.620   94.889    0.224    0.450   13.482
  448.840 2195.080   78.115    0.301    0.414   15.909
  449.090 2186.660   68.996    0.306    0.398   19.801
  449.340 2215.890   68.432    0.289    0.398   26.043
  449.590 2243.010   75.074    0.273    0.379   31.882
  449.840 2287.510   76.900    0.247    0.341   33.354
  450.090 2370.980   72.522    0.198    0.310   29.626
  450.340 2528.360   73.679    0.106    0.304   24.348
  450.590 2460.420   78.317    0.146    0.321   20.564
  450.840 2326.560   84.363    0.224    0.315   16.961
  451.090 2383.690   94.883    0.191    0.318   14.809
  451.340 2400.830  103.183    0.181    0.340   13.598
  451.590 2436.650  105.906    0.160    0.355   13.134
  451.840 2411.510  103.289    0.175    0.373   13.477
  452.090 2322.990   94.511    0.226    0.403   14.787
  452.340 2232.260   85.129    0.279    0.403   15.518
  452.590 2241.570   82.323    0.274    0.386   16.059
  452.840 2289.910   85.823    0.246    0.376   15.727
  453.090 2311.930   92.762    0.233    0.360   14.683
  453.340 2329.970   91.887    0.222    0.337   13.960
  453.590 2342.800   90.149    0.215    0.320   12.690
  453.840 2349.700   89.698    0.211    0.316   11.996
  454.090 2405.400   95.438    0.178    0.333   11.718
  454.340 2442.980   97.660    0.156    0.381   11.988
  454.590 2352.760   93.133    0.209    0.414   12.344
  454.840 2298.790   84.191    0.240    0.425   13.123
  455.090 2262.130   75.939    0.262    0.412   13.936
  455.340 2255.230   78.595    0.266    0.397   14.366
  455.590 2286.390   85.373    0.248    0.381   14.316
  455.840 2319.840   84.688    0.228    0.353   14.160
  456.090 2347.980   90.302    0.212    0.337   13.383
  456.340 2376.890   92.422    0.195    0.334   12.901
  456.590 2436.650   88.470    0.160    0.404   13.136
  456.840 2402.950   79.497    0.180    0.426   14.552
  457.090 2317.940   74.208    0.229    0.440   15.521
  457.340 2203.170   66.696    0.296    0.416   15.031
  457.590 2174.240   68.235    0.313    0.405   13.623
  457.840 2162.790   78.504    0.320    0.399   12.295
  458.090 2165.260   84.432    0.319    0.389   10.025
  458.340 2219.050   87.636    0.287    0.382    8.845
  458.590 2278.350   86.807    0.252    0.382    7.668
  458.840 2296.400   90.211    0.242    0.375    7.324
  459.090 2294.300   97.276    0.243    0.362    7.346
  459.340 2355.790  103.090    0.207    0.349    7.431
  459.590 2402.720  105.049    0.180    0.358    7.487
  459.840 2429.210  103.817    0.164    0.375    7.408
  460.090 2439.220   99.293    0.158    0.377    7.183
  460.340 2356.720   89.646    0.207    0.383    6.570
  460.590 2297.110   83.082    0.241    0.407    6.025
  460.840 2246.090   75.624    0.271    0.427    5.491
  461.090 2243.770   66.401    0.273    0.425    5.140
  461.340 2154.810   62.611    0.325    0.410    4.937
  461.590 2172.920   70.725    0.314    0.379    4.705
  461.840 2229.740   71.086    0.281    0.373    4.596
  462.090 2237.540   75.710    0.276    0.402    4.605
  462.340 2272.350   73.024    0.256    0.411    4.759
  462.590 2188.410   66.773    0.305    0.390    4.794
