~VERSION INFORMATION
 VERS.                 2.0:   CWLS LOG ASCII STANDARD -VERSION 2.0
 WRAP.                  NO:   ONE LINE PER DEPTH STEP
~WELL INFORMATION BLOCK
#MNEM.UNIT           DATA                    DESCRIPTION OF MNEMONIC
#---------    -------------------            -------------------------------
# Generated from Intellog Unique Number	CN_91_93/WELL/3265
WELL.         PARAMOUNT RESOURCES LTD.       : Well_name    - WELL
LOC .         00/14-03-093-19W4/0            : Location     - LOCATION
UWI .         00/14-03-093-19W4/0            : Uwi          - UNIQUE WELL ID
ENTR.         JOETTE                         : Entered      - ENTERED BY
SRVC.         COMPUTALOG                     : Scn          - SERVICE COMPANY
DATE.         04/29/92                       : Date         - LOG DATE
STRT.M        95                             : top_depth    - START DEPTH
STOP.M        260                            : bot_depth    - STOP DEPTH
STEP.M        0.25                           : increment    - STEP LENGTH
 NULL. -999.2500:NULL Value
~CURVE INFORMATION BLOCK
#MNEM UNIT       ERCB CURVE CODE    CURVE DESCRIPTION
#-----------   ------------------   ----------------------------------
DEPT.M        00 001 00 00         : DEPTH        - DEPTH
CALI.MM       00 280 01 00         : CAL          - CALIPER
GR  .API      00 310 00 00         : GR           - GAMMA RAY
NPHI.V/V      00 330 00 00         : PHIN         - NEUTRON POROSITY (SANDSTONE)
DPHI.V/V      00 890 00 00         : PHID         - DENSITY POROSITY (SANDSTONE)
ILD .OHMM     00 120 00 00         : RESD         - DEEP RESISTIVITY (DIL)
~PARAMETER INFORMATION
#MNEM.UNIT           DATA             DESCRIPTION OF MNEMONIC
#---------         -----------     ------------------------------
GL  .M        519.8                : gl           - GROUND LEVEL ELEVATION
EREF.M        523.2                : kb           - ELEVATION OF DEPTH REFERENCE
DATM.M        523.2                : datum        - DATUM ELEVATION
TDD .M        260.5                : tdd          - TOTAL DEPTH DRILLER
RUN .         ONE                  : Run          - RUN NUMBER
ENG .         BILL                 : Engineer     - RECORDING ENGINEER
WIT .         JIM                  : Witness      - WITNESSED BY
MUD .         GEL                  : Mud_type     - MUD TYPE
MATR.         SANDSTONE            : Logunit      - NEUTRON MATRIX
TMAX.C        18                   : BHT          - MAXIMUM RECORDED TEMPERATURE
BHTD.M        260.5                : BHTDEP       - MAXIMUM RECORDED TEMPERATURE
RMT .C        18.9                 : MDTP         - TEMPERATURE OF MUD
MUDD.KG/M     1080                 : MWT          - MUD DENSITY
NEUT.         1                    : NEUTRON      - NEUTRON TYPE
RESI.         0                    : RESIST       - RESISTIVITY TYPE
RM  .OHMM     2.5                  : RM           - RESISTIVITY OF MUD
RMC .OHMM     2.5                  : RMC          - RESISTIVITY OF MUD CAKE
RMF .OHMM     2.5                  : RMF          - RESISTIVITY OF MUD FILTRATE
SUFT.C        4                    : SUFT         - SURFACE TEMPERATURE
~A  DEPTH      CAL       GR     PHIN     PHID     RESD
# ...
  168.000  174.194   92.090    0.406    0.203   12.786
  168.250  173.220   86.090    0.389    0.210   16.125
  168.500  158.211   75.278    0.351    0.118   18.883
  168.750  155.733   63.864    0.299    0.069   21.507
  169.000  155.264   57.867    0.259   -0.019   23.173
  169.250  155.286   58.183    0.257   -0.039   16.610
  169.500  155.314   69.634    0.294    0.033   13.555
  169.750  156.357   83.790    0.314    0.088   12.710
  170.000  158.885   98.549    0.338    0.148   11.484
  170.250  160.418  105.187    0.355    0.176   10.768
  170.500  159.949  107.611    0.374    0.191   10.382
  170.750  159.473  107.325    0.393    0.213   10.387
  171.000  158.499  104.635    0.392    0.232   10.488
  171.250  159.033  100.140    0.379    0.240   10.493
  171.500  154.553  100.460    0.360    0.247    9.839
  171.750  164.609  104.689    0.366    0.243    8.808
  172.000  169.655  104.706    0.375    0.217    8.183
  172.250  172.689  101.415    0.391    0.207    7.817
  172.500  169.709  110.156    0.394    0.200    7.467
  172.750  174.752  117.696    0.389    0.198    6.873
  173.000  176.288  120.124    0.388    0.197    6.565
  173.250  176.314  120.438    0.392    0.195    6.329
  173.500  176.346  121.658    0.410    0.191    6.332
  173.750  174.867  124.084    0.439    0.187    6.574
  174.000  174.398  116.882    0.452    0.177    6.762
  174.250  170.917  108.474    0.428    0.138    7.219
  174.500  161.925  112.404    0.421    0.117    8.222
  174.750  167.465  112.722    0.382    0.160    9.365
  175.000  166.492  106.723    0.357    0.194   10.666
  175.250  164.013  105.236    0.362    0.212   11.926
  175.500  163.545  114.579    0.374    0.208   12.969
  175.750  164.576  117.908    0.367    0.205   13.340
  176.000  165.615  110.103    0.362    0.207   13.471
  176.250  162.628  105.608    0.367    0.206   13.477
  176.500  160.655  109.236    0.370    0.203   13.611
  176.750  159.678  108.350    0.365    0.202   13.743
  177.000  159.209  100.546    0.350    0.192   13.749
  177.250  159.234   95.452    0.325    0.144   13.629
  177.500  159.263   99.378    0.344    0.099   13.138
  177.750  166.816  112.032    0.361    0.172   12.322
  178.000  168.850  116.263    0.374    0.206   11.769
  178.250  166.372  113.269    0.389    0.191   11.241
  178.500  166.408  107.573    0.383    0.175   10.541
  178.750  164.933  107.288    0.383    0.158   10.068
  179.000  160.947  110.915    0.389    0.161    9.888
  179.250  165.989  116.351    0.404    0.176   10.079
  179.500  169.030  114.260    0.410    0.182   10.659
  179.750  169.557  109.465    0.418    0.182   11.698
  180.000  175.602  104.069    0.422    0.189   13.449
  180.250  172.121  100.775    0.401    0.188   15.896
  180.500  163.630   98.687    0.340    0.190   17.284
  180.750  160.149   97.501    0.319    0.210   18.971
  181.000  159.179   93.908    0.309    0.147   18.984
  181.250  156.697   96.334    0.296    0.063   18.642
  181.500  158.732  104.173    0.304    0.158   18.138
  181.750  163.277  106.298    0.315    0.205   17.488
  182.000  161.801  104.809    0.324    0.224   16.859
  182.250  159.821  103.926    0.331    0.226   15.957
  182.500  158.349  103.643    0.333    0.226   15.957
  182.750  155.875  105.166    0.342    0.224   15.679
  183.000  155.900  109.094    0.347    0.210   14.565
  183.250  159.940  109.410    0.332    0.201   13.531
  183.500  161.480  107.622    0.332    0.192   12.925
  183.750  165.011  116.366    0.349    0.191   12.460
  184.000  165.051  117.887    0.367    0.195   12.467
  184.250  167.081  113.994    0.378    0.192   12.589
  184.500  166.108  108.295    0.370    0.184   12.831
  184.750  161.620  106.508    0.369    0.179   12.600
  185.000  153.126  106.826    0.362    0.178   12.261
  185.250  159.175  104.439    0.366    0.171   11.820
  185.500  161.213  105.356    0.382    0.156   11.396
  185.750  160.235  112.896    0.392    0.161   11.508
  186.000  167.283  116.524    0.393    0.178   11.948
  186.250  176.337  105.711    0.388    0.182   12.994
  186.500  172.859   91.289    0.367    0.122   13.120
  186.750  172.885   91.607    0.322    0.052   12.766
  187.000  160.383   98.243    0.348    0.078   12.083
  187.250  165.927  106.685    0.366    0.151   11.540
  187.500  165.458  110.011    0.379    0.180   10.921
  187.750  162.478  107.923    0.385    0.202   10.146
  188.000  159.001  103.428    0.367    0.221    9.254
  188.250  158.020  104.951    0.359    0.221    8.517
  188.500  164.567  113.690    0.401    0.209    7.016
  188.750  170.121  118.224    0.440    0.216    6.578
  189.000  173.155  121.248    0.467    0.226    6.111
  189.250  173.184  120.663    0.485    0.216    5.574
  189.500  169.201  105.038    0.430    0.194    6.348
  189.750  172.740   96.030    0.393    0.157    8.156
  190.000  171.762   87.023    0.331    0.088    9.639
  190.250  157.753   96.970    0.335    0.099   11.288
  190.500  160.793  103.904    0.356    0.145   11.720
  190.750  163.333  110.541    0.378    0.169   11.509
  191.000  161.857  105.745    0.379    0.181   10.694
  191.250  161.886  103.659    0.384    0.163   10.214
  191.500  162.416  104.577    0.400    0.158    9.847
  191.750  159.942  108.206    0.406    0.180    9.761
  192.000  157.460  112.736    0.407    0.185    9.948
  192.250  162.503  114.259    0.405    0.185   10.425
  192.500  165.547  114.878    0.396    0.179   12.436
  192.750  165.569  112.487    0.374    0.148   13.275
  193.000  166.099  100.471    0.333    0.099   14.570
  193.250  158.106   95.679    0.309    0.045   15.992
  193.500  152.619   99.603    0.302    0.111   17.232
  193.750  162.181  108.349    0.313    0.163   17.240
  194.000  164.714  114.382    0.342    0.190   16.164
  194.250  163.740  116.202    0.369    0.183   15.298
  194.500  162.769  109.006    0.372    0.184   15.305
  194.750  163.299  106.009    0.372    0.181   15.312
  195.000  162.827  103.018    0.372    0.179   15.605
  195.250  162.859  107.851    0.354    0.173   15.758
  195.500  162.383  113.285    0.337    0.179   15.918
  195.750  162.917  114.806    0.324    0.178   16.069
  196.000  162.942  111.813    0.330    0.167   16.226
  196.250  162.477  108.521    0.347    0.150   16.384
  196.500  163.003  110.043    0.360    0.141   17.011
  196.750  163.534  112.770    0.367    0.153   18.159
  197.000  163.566  109.480    0.340    0.156   19.565
  197.250  163.591  104.682    0.328    0.165   20.884
  197.500  163.119   88.754    0.347    0.310   22.090
  197.750  163.652   83.059    0.364    0.351   22.304
  198.000  159.169   89.994    0.298    0.327   22.304
  198.250  177.748   95.129    0.285    0.260   22.324
  198.500  177.276   98.453    0.301    0.136   21.525
  198.750  157.250   98.170    0.313    0.172   19.450
  199.000  159.789   99.090    0.320    0.201   17.903
  199.250  159.814  101.513    0.326    0.226   16.787
  199.500  158.346  102.135    0.337    0.205   16.485
  199.750  157.870   97.036    0.358    0.193   17.274
  200.000  157.149   84.393    0.298    0.133   21.174
  200.250  155.699   75.383    0.243    0.059   25.308
  200.500  156.273   69.998    0.224    0.015   30.259
  200.750  155.828   75.151    0.226    0.075   31.152
  201.000  155.390   83.024    0.275    0.138   29.770
  201.250  155.482   89.989    0.281    0.216   27.155
  201.500  155.002   93.342    0.295    0.219   23.645
  201.750  155.051   96.695    0.316    0.209   20.582
  202.000  155.116   96.423    0.343    0.214   17.752
  202.250  155.675   96.156    0.359    0.219   15.312
  202.500  156.227  105.842    0.377    0.183   13.328
  202.750  156.794  104.365    0.369    0.139   12.388
  203.000  156.858   97.167    0.362    0.089   11.949
  203.250  156.908  105.337    0.362    0.053   11.528
  203.500  156.972  108.992    0.366    0.099   11.223
  203.750  159.023  111.742    0.363    0.148   10.929
  204.000  159.597  111.174    0.388    0.177   10.739
  204.250  159.647  113.012    0.407    0.176   10.553
