~VERSION INFORMATION
 VERS.                 2.0:   CWLS LOG ASCII STANDARD -VERSION 2.0
 WRAP.                  NO:   ONE LINE PER DEPTH STEP
~WELL INFORMATION BLOCK
#MNEM.UNIT           DATA                    DESCRIPTION OF MNEMONIC
#---------    -------------------            -------------------------------
# Generated from Intellog Unique Number	CS_73_76/WELL/3271
WELL.         DOME LEISMER                   : Well_name    - WELL
LOC .         00/12-13-076-10W4/0            : Location     - LOCATION
UWI .         00/12-13-076-10W4/0            : Uwi          - UNIQUE WELL ID
ENTR.         SP                             : Entered      - ENTERED BY
SRVC.         SCHLUMBERGER                   : Scn          - SERVICE COMPANY
STRT.M        250                            : top_depth    - START DEPTH
STOP.M        460                            : bot_depth    - STOP DEPTH
STEP.M        0.25                           : increment    - STEP LENGTH
 NULL. -999.2500:NULL Value
~CURVE INFORMATION BLOCK
#MNEM UNIT       ERCB CURVE CODE    CURVE DESCRIPTION
#-----------   ------------------   ----------------------------------
DEPT.M        00 001 00 00         : DEPTH        - DEPTH
DPHI.V/V      00 890 00 00         : PHID         - DENSITY POROSITY (LIMESTONE)
NPHI.V/V      00 330 00 00         : PHIN         - NEUTRON POROSITY (LIMESTONE)
GR  .API      00 310 00 00         : GR           - GAMMA RAY
ILD .OHMM     00 120 00 00         : RESD         - DEEP RESISTIVITY (DIL)
~PARAMETER INFORMATION
#MNEM.UNIT           DATA             DESCRIPTION OF MNEMONIC
#---------         -----------     ------------------------------
GL  .M        662.72               : gl           - GROUND LEVEL ELEVATION
EREF.M        667                  : kb           - ELEVATION OF DEPTH REFERENCE
DATM.M        667                  : datum        - DATUM ELEVATION
TDD .M        465                  : tdd          - TOTAL DEPTH DRILLER
RUN .         ONE                  : Run          - RUN NUMBER
ENG .         BILL                 : Engineer     - RECORDING ENGINEER
WIT .         JIM                  : Witness      - WITNESSED BY
MUD .         GEL                  : Mud_type     - MUD TYPE
MATR.         LIMESTONE            : Logunit      - NEUTRON MATRIX
TMAX.C        23                   : BHT          - MAXIMUM RECORDED TEMPERATURE
BHTD.M        465                  : BHTDEP       - MAXIMUM RECORDED TEMPERATURE
MATR.         1                    : LOGUNIT      - NEUTRON MATRIX
RMT .C        25                   : MDTP         - TEMPERATURE OF MUD
NEUT.         1                    : NEUTRON      - NEUTRON TYPE
RESI.         0                    : RESIST       - RESISTIVITY TYPE
RMC .OHMM     0.25                 : RMC          - RESISTIVITY OF MUD CAKE
RMF .OHMM     0.25                 : RMF          - RESISTIVITY OF MUD FILTRATE
SUFT.C        15                   : SUFT         - SURFACE TEMPERATURE
~A  DEPTH     PHID     PHIN       GR     RESD
  250.000    0.272    0.370   75.308   20.313
  250.250    0.247    0.373   74.092   19.553
  250.500    0.210    0.358   69.814   19.913
  250.750    0.202    0.341   69.821   20.280
  251.000    0.191    0.339   67.993   20.655
  251.250    0.197    0.353   66.164   20.644
  251.500    0.205    0.378   64.947   20.633
  251.750    0.207    0.369   71.691   21.013
  252.000    0.211    0.347   73.534   21.003
  252.250    0.210    0.346   69.870   20.992
  252.500    0.207    0.352   69.265   20.590
  252.750    0.195    0.362   70.498   20.578
  253.000    0.183    0.373   71.118   19.437
  253.250    0.194    0.376   72.964   18.710
  253.500    0.215    0.368   74.808   18.010
  253.750    0.217    0.375   72.980   17.662
  254.000    0.210    0.381   71.763   17.655
  254.250    0.199    0.374   71.770   17.644
  254.500    0.203    0.359   74.839   16.983
  254.750    0.212    0.355   76.072   16.657
  255.000    0.221    0.359   80.978   15.735
  255.250    0.227    0.380   80.986   14.313
  255.500    0.223    0.413   80.996   13.520
  255.750    0.234    0.452   79.777   13.015
  256.000    0.247    0.463   77.949   12.765
  256.250    0.239    0.459   78.569   12.521
  256.500    0.232    0.442   79.801   12.751
  256.750    0.224    0.438   81.034   12.745
  257.000    0.218    0.447   77.369   13.226
  257.250    0.238    0.433   74.927   13.986
  257.500    0.250    0.402   71.875   14.516
  257.750    0.261    0.403   70.046   16.243
  258.000    0.292    0.405   66.994   18.517
  258.250    0.242    0.364   65.163   19.221
  258.500    0.207    0.335   62.723   23.187
  258.750    0.195    0.317   60.283   25.464
  259.000    0.197    0.312   58.453   28.491
  259.250    0.212    0.312   59.073   30.131
  259.500    0.223    0.320   63.367   31.266
  259.750    0.209    0.323   63.988   30.669
  260.000    0.195    0.318   62.770   31.236
  260.250    0.207    0.336   63.391   32.414
  260.500    0.220    0.344   62.174   32.396
  260.750    0.229    0.341   57.285   32.382
  261.000    0.219    0.324   57.292   32.361
  261.250    0.209    0.306   62.198   32.347
  261.500    0.194    0.317   61.594   31.725
  261.750    0.215    0.336   59.765   32.313
  262.000    0.238    0.352   61.610   33.531
  262.250    0.243    0.360   62.842   34.798
  262.500    0.233    0.366   61.013   34.783
  262.750    0.225    0.366   59.185   34.117
  263.000    0.219    0.357   62.867   36.079
  263.250    0.215    0.345   64.712   35.384
  263.500    0.228    0.345   64.107   34.062
  263.750    0.235    0.346   60.441   35.342
  264.000    0.251    0.346   56.164   35.329
  264.250    0.261    0.342   55.561   34.006
  264.500    0.236    0.325   58.017   31.523
  264.750    0.231    0.345   56.188   27.102
  265.000    0.219    0.336   60.482   20.426
  265.250    0.213    0.315   68.450   13.241
  265.500    0.258    0.365   80.089   12.046
  265.750    0.339    0.476   89.894   12.981
  266.000    0.366    0.498   71.534   16.885
  266.250    0.360    0.481   55.011   21.960
  266.500    0.342    0.400   45.223   25.043
  266.750    0.334    0.402   53.191   29.096
  267.000    0.316    0.402   55.648   29.080
  267.250    0.308    0.402   55.044   25.961
  267.500    0.321    0.403   58.112   26.441
  267.750    0.314    0.415   59.957   30.720
  268.000    0.308    0.432   45.883   33.734
  268.250    0.318    0.427   33.647   40.693
  268.500    0.329    0.410   29.369   40.676
  268.750    0.330    0.384   26.315   35.634
  269.000    0.324    0.363   29.997   24.909
  269.250    0.305    0.343   46.536   22.659
  269.500    0.295    0.383   63.687   21.005
  269.750    0.288    0.415   75.328   19.472
  270.000    0.282    0.424   74.725   19.831
  270.250    0.275    0.421   72.896   20.971
  270.500    0.269    0.419   70.454   24.366
  270.750    0.220    0.408   64.339   26.255
  271.000    0.145    0.379   63.123   28.295
  271.250    0.156    0.408   63.131   31.660
  271.500    0.290    0.459   57.016   34.116
  271.750    0.333    0.458   49.678   33.464
  272.000    0.338    0.432   46.624   28.770
  272.250    0.325    0.403   52.142   25.685
  272.500    0.311    0.391   60.721   22.082
  272.750    0.296    0.377   78.486   20.088
  273.000    0.283    0.390   83.391   19.703
  273.250    0.309    0.430   75.440   22.047
  273.500    0.348    0.479   61.978   25.138
  273.750    0.357    0.465   59.537   28.663
  274.000    0.357    0.442   63.218   30.887
  274.250    0.352    0.444   68.737   32.055
  274.500    0.343    0.451   73.643   30.279
  274.750    0.332    0.453   79.773   28.599
  275.000    0.325    0.455   86.516   26.510
  275.250    0.316    0.458   93.259   25.519
  275.500    0.310    0.469   92.655   24.562
  275.750    0.304    0.467   86.541   23.644
  276.000    0.302    0.473   85.324   23.631
  276.250    0.306    0.480   84.107   23.618
  276.500    0.304    0.469   82.892   23.606
  276.750    0.305    0.448   81.675   22.721
  277.000    0.291    0.445   81.070   20.669
  277.250    0.274    0.443   81.692   18.802
  277.500    0.255    0.431   85.984   17.105
  277.750    0.245    0.437   89.053   16.157
  278.000    0.260    0.457   86.002   15.262
  278.250    0.292    0.437   79.274   14.416
  278.500    0.342    0.464   73.772   14.962
  278.750    0.369    0.586   71.331   17.713
  279.000    0.375    0.566   67.052   20.196
  279.250    0.364    0.489   56.040   23.463
  279.500    0.355    0.448   54.823   25.288
  279.750    0.353    0.424   52.996   27.768
  280.000    0.347    0.406   54.839   28.281
  280.250    0.338    0.418   59.133   28.799
  280.500    0.332    0.433   62.203   28.787
  280.750    0.335    0.459   64.047   29.318
  281.000    0.340    0.470   62.832   29.859
  281.250    0.344    0.470   59.165   30.404
  281.500    0.346    0.459   55.500   30.969
  281.750    0.353    0.449   56.733   31.539
  282.000    0.358    0.453   56.128   31.523
  282.250    0.360    0.461   53.688   30.921
  282.500    0.366    0.460   53.697   31.488
  282.750    0.375    0.454   54.927   32.069
  283.000    0.370    0.454   56.160   31.458
  283.250    0.364    0.454   55.556   31.442
  283.500    0.356    0.454   56.788   30.839
  283.750    0.357    0.461   57.409   30.246
  284.000    0.359    0.462   56.194   30.227
  284.250    0.354    0.446   55.587   29.649
  284.500    0.354    0.450   54.371   28.537
  284.750    0.354    0.461   54.994   27.994
  285.000    0.348    0.465   57.449   26.942
  285.250    0.340    0.446   59.905   26.428
  285.500    0.327    0.456   62.363   25.921
  285.750    0.327    0.478   63.595   25.908
  286.000    0.339    0.467   66.053   24.473
  286.250    0.344    0.452   66.060   23.117
  286.500    0.304    0.445   66.680   20.252
  286.750    0.286    0.445   77.098   14.978
  287.000    0.266    0.456   84.451   11.721
  287.250    0.265    0.463   94.256    9.001
  287.500    0.272    0.472  102.223    7.595
  287.750    0.268    0.498  116.312    6.909
  288.000    0.221    0.520  113.259    6.525
  288.250    0.209    0.528  110.206    6.164
  288.500    0.182    0.503  110.216    6.643
  288.750    0.160    0.484  110.222    7.865
  289.000    0.209    0.477  109.006   10.039
  289.250    0.265    0.477  108.402   13.058
  289.500    0.267    0.462  106.572   14.339
  289.750    0.265    0.446  102.295   15.165
  290.000    0.272    0.450   99.242   16.037
  290.250    0.294    0.447   98.026   16.958
  290.500    0.307    0.445   94.972   16.634
  290.750    0.311    0.451   90.082   15.713
  291.000    0.297    0.450   90.703   14.294
  291.250    0.268    0.448   94.996   13.501
  291.500    0.263    0.462  100.515   12.997
  291.750    0.271    0.456  101.746   12.510
  292.000    0.282    0.441  102.368   12.040
  292.250    0.293    0.456  101.150   11.809
  292.500    0.297    0.445  102.995   11.583
  292.750    0.253    0.432  105.452   11.576
  293.000    0.240    0.437   98.725   12.475
  293.250    0.243    0.453   87.101   14.494
