~VERSION INFORMATION
 VERS.                 2.0:   CWLS LOG ASCII STANDARD -VERSION 2.0
 WRAP.                  NO:   ONE LINE PER DEPTH STEP
~WELL INFORMATION BLOCK
#MNEM.UNIT           DATA                    DESCRIPTION OF MNEMONIC
#---------    -------------------            -------------------------------
# Generated from Intellog Unique Number	CS_77_79/WELL/950
WELL.         AMOCO LEISMER                  : Well_name    - WELL
LOC .         00/10-12-079-08W4/0            : Location     - LOCATION
UWI .         00/10-12-079-08W4/0            : Uwi          - UNIQUE WELL ID
ENTR.         JHS                            : Entered      - ENTERED BY
SRVC.         SCHLUMBERGER                   : Scn          - SERVICE COMPANY
STRT.M        125                            : top_depth    - START DEPTH
STOP.M        350                            : bot_depth    - STOP DEPTH
STEP.M        0.25                           : increment    - STEP LENGTH
 NULL. -999.2500:NULL Value
~CURVE INFORMATION BLOCK
#MNEM UNIT       ERCB CURVE CODE    CURVE DESCRIPTION
#-----------   ------------------   ----------------------------------
DEPT.M        00 001 00 00         : DEPTH        - DEPTH
DPHI.V/V      00 890 00 00         : PHID         - DENSITY POROSITY (LIMESTONE)
NPHI.V/V      00 330 00 00         : PHIN         - NEUTRON POROSITY (LIMESTONE)
GR  .API      00 310 00 00         : GR           - GAMMA RAY
ILD .OHMM     00 120 00 00         : RESD         - DEEP RESISTIVITY (DIL)
RHOB.KG/M3    00 350 00 00         : DENS         - BULK DENSITY
~PARAMETER INFORMATION
#MNEM.UNIT           DATA             DESCRIPTION OF MNEMONIC
#---------         -----------     ------------------------------
GL  .M        568.82               : gl           - GROUND LEVEL ELEVATION
EREF.M        573                  : kb           - ELEVATION OF DEPTH REFERENCE
DATM.M        573                  : datum        - DATUM ELEVATION
TDD .M        355                  : tdd          - TOTAL DEPTH DRILLER
RUN .         ONE                  : Run          - RUN NUMBER
ENG .         BILL                 : Engineer     - RECORDING ENGINEER
WIT .         JIM                  : Witness      - WITNESSED BY
MUD .         GEL                  : Mud_type     - MUD TYPE
MATR.         LIMESTONE            : Logunit      - NEUTRON MATRIX
TMAX.C        23.5                 : BHT          - MAXIMUM RECORDED TEMPERATURE
BHTD.M        355                  : BHTDEP       - MAXIMUM RECORDED TEMPERATURE
MATR.         1                    : LOGUNIT      - NEUTRON MATRIX
RMT .C        25                   : MDTP         - TEMPERATURE OF MUD
NEUT.         1                    : NEUTRON      - NEUTRON TYPE
RESI.         0                    : RESIST       - RESISTIVITY TYPE
RMC .OHMM     0.25                 : RMC          - RESISTIVITY OF MUD CAKE
RMF .OHMM     0.25                 : RMF          - RESISTIVITY OF MUD FILTRATE
SUFT.C        15                   : SUFT         - SURFACE TEMPERATURE
~A  DEPTH     PHID     PHIN       GR     RESD     DENS
# ...
  198.000    0.338    0.476   59.383   21.467    0.000
  198.250    0.338    0.462   59.397   21.477    0.000
  198.500    0.340    0.447   60.025   21.893    0.000
  198.750    0.344    0.436   60.650   21.898    0.000
  199.000    0.346    0.433   60.663   22.741    0.000
  199.250    0.342    0.459   63.111   22.746    0.000
  199.500    0.342    0.454   65.563   23.622    0.000
  199.750    0.350    0.443   66.790   24.528    0.000
  200.000    0.363    0.442   67.406   24.084    0.000
  200.250    0.359    0.450   71.072   23.650    0.000
  200.500    0.348    0.445   71.095   23.665    0.000
  200.750    0.342    0.440   69.890   24.116    0.000
  201.000    0.352    0.442   67.472   25.042    0.000
  201.250    0.357    0.454   65.666   26.490    0.000
  201.500    0.357    0.473   65.080   26.994    0.000
  201.750    0.363    0.460   65.697   28.558    0.000
  202.000    0.369    0.449   65.715   28.567    0.000
  202.250    0.355    0.434   64.519   28.058    0.000
  202.500    0.352    0.438   63.323   27.047    0.000
  202.750    0.352    0.469   62.120   26.069    0.000
  203.000    0.354    0.472   60.316   25.129    0.000
  203.250    0.339    0.480   60.330   26.096    0.000
  203.500    0.338    0.467   63.996   26.598    0.000
  203.750    0.345    0.448   64.612   26.123    0.000
  204.000    0.350    0.467   65.239   25.648    0.000
  204.250    0.362    0.486   64.642   24.725    0.000
  204.500    0.372    0.483   61.020   24.284    0.000
  204.750    0.367    0.468   59.825   24.292    0.000
  205.000    0.366    0.475   59.226   24.757    0.000
  205.250    0.368    0.493   58.036   25.708    0.000
  205.500    0.371    0.479   58.044   26.203    0.000
  205.750    0.375    0.464   59.277   26.702    0.000
  206.000    0.380    0.454   59.900   27.727    0.000
  206.250    0.379    0.458   61.140   28.259    0.000
  206.500    0.375    0.467   60.547   28.271    0.000
  206.750    0.374    0.465   59.947   28.813    0.000
  207.000    0.377    0.465   58.144   28.831    0.000
  207.250    0.379    0.466   56.943   28.309    0.000
  207.500    0.379    0.473   57.567   27.803    0.000
  207.750    0.375    0.487   57.588   26.311    0.000
  208.000    0.370    0.487   58.212   25.363    0.000
  208.250    0.370    0.479   58.223   24.910    0.000
  208.500    0.375    0.470   58.245   24.917    0.000
  208.750    0.379    0.455   58.259   24.467    0.000
  209.000    0.379    0.447   57.668   24.485    0.000
  209.250    0.377    0.455   58.294   24.492    0.000
  209.500    0.358    0.465   58.302   24.500    0.000
  209.750    0.330    0.445   57.715   23.623    0.000
  210.000    0.280    0.426   56.516   23.195    0.000
  210.250    0.185    0.405   54.709   21.547    0.000
  210.500    0.175    0.448   54.725   21.155    0.000
  210.750    0.257    0.486   55.361   20.021    0.000
  211.000    0.314    0.509   55.372   20.405    0.000
  211.250    0.378    0.501   55.990   21.186    0.000
  211.500    0.384    0.494   56.006   22.414    0.000
  211.750    0.372    0.502   56.635   23.269    0.000
  212.000    0.378    0.496   56.652   22.020    0.000
  212.250    0.369    0.479   56.669   21.229    0.000
  212.500    0.361    0.472   56.075   20.845    0.000
  212.750    0.360    0.476   56.694   20.468    0.000
  213.000    0.361    0.478   56.706   20.107    0.000
  213.250    0.370    0.469   57.334   19.744    0.000
  213.500    0.378    0.459   57.964   19.750    0.000
  213.750    0.374    0.467   58.581   19.757    0.000
  214.000    0.377    0.484   58.595   19.407    0.000
  214.250    0.371    0.491   57.397   19.055    0.000
  214.500    0.363    0.485   56.809   18.368    0.000
  214.750    0.365    0.471   58.040   17.383    0.000
  215.000    0.368    0.465   58.658   17.389    0.000
  215.250    0.366    0.474   58.678   17.396    0.000
  215.500    0.360    0.478   57.476   17.733    0.000
  215.750    0.358    0.478   56.287   17.413    0.000
  216.000    0.360    0.483   56.301   17.101    0.000
  216.250    0.362    0.472   56.921   16.485    0.000
  216.500    0.363    0.455   56.934   15.313    0.000
  216.750    0.361    0.465   57.563   14.761    0.000
  217.000    0.357    0.473   58.190   14.494    0.000
  217.250    0.351    0.479   58.807   15.051    0.000
  217.500    0.332    0.456   58.220   16.219    0.000
  217.750    0.261    0.379   57.622   17.155    0.000
  218.000    0.220    0.365   57.641   18.834    0.000
  218.250    0.215    0.411   57.654   19.196    0.000
  218.500    0.359    0.465   58.278   18.849    0.000
  218.750    0.369    0.479   58.907   17.509    0.000
  219.000    0.373    0.504   57.711   16.265    0.000
  219.250    0.373    0.514   57.118   16.269    0.000
  219.500    0.376    0.520   56.522   16.277    0.000
  219.750    0.386    0.511   56.546   16.902    0.000
  220.000    0.394    0.509   56.558   17.226    0.000
  220.250    0.379    0.505   57.177   17.232    0.000
  220.500    0.368    0.497   57.800   18.228    0.000
  220.750    0.357    0.502   59.643   15.429    0.000
  221.000    0.349    0.517   61.477   10.259    0.000
  221.250    0.341    0.544   66.961    8.684    0.000
  221.500    0.315    0.521   73.048    8.529    0.000
  221.750    0.255    0.479   68.816    8.691    0.000
  222.000    0.224    0.458   63.973   10.089    0.000
  222.250    0.213    0.478   62.770   10.671    0.000
  222.500    0.284    0.462   67.648    9.912    0.000
  222.750    0.302    0.469   73.128    9.206    0.000
  223.000    0.301    0.503   78.610    9.041    0.000
  223.250    0.319    0.521   81.662    8.717    0.000
  223.500    0.338    0.501   78.034    9.051    0.000
  223.750    0.349    0.493   74.408    9.223    0.000
  224.000    0.353    0.514   70.779    9.228    0.000
  224.250    0.342    0.521   73.224    8.259    0.000
  224.500    0.320    0.511   81.742    7.255    0.000
  224.750    0.300    0.505   95.123    6.257    0.000
  225.000    0.280    0.510   98.782    5.704    0.000
  225.250    0.265    0.508  101.230    5.397    0.000
  225.500    0.257    0.500  103.064    5.107    0.000
  225.750    0.252    0.504  106.118    4.487    0.000
  226.000    0.242    0.515  109.777    4.245    0.000
  226.250    0.253    0.509  110.400    4.017    0.000
  226.500    0.267    0.510  105.560    3.801    0.000
  226.750    0.266    0.540  101.329    3.665    0.000
  227.000    0.269    0.549  100.128    3.598    0.000
  227.250    0.281    0.572  100.747    3.469    0.000
  227.500    0.279    0.593  105.014    3.536    0.000
  227.750    0.249    0.585  105.038    3.603    0.000
  228.000    0.241    0.555  104.439    3.812    0.000
  228.250    0.236    0.535  103.851    3.885    0.000
  228.500    0.238    0.530  102.047    3.746    0.000
  228.750    0.249    0.551  106.315    3.677    0.000
  229.000    0.261    0.569  105.113    3.545    0.000
  229.250    0.276    0.577  100.876    3.547    0.000
  229.500    0.284    0.586   99.679    3.823    0.000
  229.750    0.290    0.572  105.160    3.968    0.000
  230.000    0.292    0.546  105.788    4.198    0.000
  230.250    0.284    0.519   99.727    4.199    0.000
  230.500    0.281    0.518   95.491    4.202    0.000
  230.750    0.280    0.543   99.153    4.126    0.000
  231.000    0.274    0.532   99.777    4.052    0.000
  231.250    0.269    0.554   99.791    3.906    0.000
  231.500    0.263    0.554  101.632    3.628    0.000
  231.750    0.256    0.544  102.859    3.433    0.000
  232.000    0.264    0.554  101.665    3.434    0.000
  232.250    0.285    0.572   99.859    3.500    0.000
  232.500    0.269    0.576   98.665    3.502    0.000
  232.750    0.276    0.575   98.066    3.504    0.000
  233.000    0.288    0.565   98.083    3.639    0.000
  233.250    0.294    0.573   97.490    3.639    0.000
  233.500    0.294    0.573   95.686    3.922    0.000
  233.750    0.300    0.550   93.273    4.226    0.000
  234.000    0.307    0.533   87.827    4.906    0.000
  234.250    0.291    0.515   82.984    5.694    0.000
